~Version ---------------------------------------------------
VERS.      2.0 : CWLS log ASCII Standard -VERSION 2.0
WRAP.       NO : One line per depth step
CREA. 01/28/16 : LAS Creation Date
~Well ------------------------------------------------------
STRT.FT                          1500.0 : START DEPTH
STOP.FT                         13000.0 : STOP DEPTH
STEP.FT                        50.00000 : STEP LENGTH
NULL.                           -999.25 : NULL VALUE
COMP.  AMOCO CANADA PETROLEUM CO., LTD. : COMPANY
WELL. AMOCO ET AL BERLAND D-1 6-7-60-22 : WELL
FLD .                                   : FIELD
LOC .                                   : LOCATION
CTRY.                            CANADA : COUNTRY
SRVC.                      Schlumberger : SERVICE COMPANY
DATE.                       10-Dec-1976 : LOGDATE
PROV.                           Alberta : PROVINCE
UWI .                  100060706022W500 : UNIQUE WELL ID
SLAT.WGS84                     54.17117 : SURFACE LATITUDE
SLON.WGS84                    -117.2921 : SURFACE LONGITUDE
~Curve Information -----------------------------------------
DEPT   .FT    : Depth Curve
CALD   .IN    : CALIPER FROM DENSITY LOG
CALS   .IN    : CALIPER FROM SONIC LOG
DCOR   .G/C3  : DENSITY CORRECTION FROM DENSITY LOG
DPHI_LS.DEC   : DENSITY POROSITY LIMESTONE
DPHI_SS.DEC   : DENSITY POROSITY SANDSTONE
DT     .US/F  : DELTA TIME FROM SONIC LOG
GRD    .GAPI  : GAMMA RAY FROM DENSITY LOG
GRS    .GAPI  : GAMMA RAY FROM SONIC LOG
ILD    .OHMM  : INDUCTION LOG DEEP RESISTIVITY
ILM    .OHMM  : INDUCTION LOG MEDIUM RESISTIVITY
LL8    .OHMM  : LATEROLOG-8 RESISTIVITY
NPHI_LS.DEC   : NEUTRON POROSITY LIMESTONE FROM DENSITY LOG
NPHI_SS.DEC   : NEUTRON POROSITY SANDSTONE FROM DENSITY LOG
RHOB   .G/C3  : BULK DENSITY FROM DENSITY LOG
SPR    .MV    : SPONTANEOUS POTENTIAL FROM DIL LOG
~Params ----------------------------------------------------
PD  .                     GL : PERMANENT DATUM
EPD .M                  3639 : ELEVATION PERMANENT DATUM
LMF .                     KB : LOG MEASURED FROM
DAPD.M                    16 : FEET ABOVE PERMANENT DATUM
EKB .M                  3655 : KELLY BUSHING
EGL .M                  3639 : GROUND LEVEL
DATE.             12/10/1976 : RUN DATE
RUN .                      2 : RUN NUMBER
DD  .M                 12990 : DEPTH DRILLER
DL  .M                 13000 : DEPTH LOGGER
BLI .M                 12994 : BOTTOM LOG INTERVAL
TLI .M                  7504 : TOP LOG INTERVAL
CBD .M                  7499 : CASING BOTTOM DRILLER
CBL .M                  7504 : CASING BOTTOM LOGGER
BS  .MM                  8.5 : BIT SIZE
BSD .M                 13000 : BIT SIZE AT DEPTH
DFT .             GEL BARITE : DRILLING FLUID TYPE
DFD .                    9.1 : DRILLING FLUID DENSITY
DFV .                     73 : DRILLING FLUID VISCOSITY
DFPH.                    9.5 : DRILLING FLUID PH
DFL .                    8.9 : DRILLING FLUID LOSS
MSS .               FLOWLINE : MUD SAMPLE SOURCE
RMS .OHMM               1.44 : RESISTIVITY MUD SAMPLE
MST .DEGC                 60 : MUD SAMPLE TEMPERATURE
RMF .OHMM               1.12 : RESISTIVITY MUD FILTRATE SAMPLE
MFST.DEGC                 55 : MUD FILTRATE SAMPLE TEMPERATURE
RMB .OHMM               0.26 : RESISTIVITY MUD AT BHT
TCS .HRS                 6.5 : TIME CIRCULATED STOPPED
LUN .                   7635 : LOGGING UNIT NUMBER
LUL .                    EDM : LOGGING UNIT LOCATION
ENGI.                 MACKAY : RECORDING ENGINEER
WITN.                SHIRLEY : WITNESSED BY
CLNT.                A2DTECH : CLIENT CODE
ORIG.            2" 5" PRINT : ORIGIN OF DATA
UWI .       100060706022W500 : UNIQUE WELL ID
DICO. A2D Technologies, Inc. : DIGITIZING COMPANY
~Other -----------------------------------------------------
~ASCII -----------------------------------------------------
 1500.00000    -999.25    -999.25    -999.25    -999.25    -999.25    -999.25    -999.25   36.00930    -999.25    -999.25    -999.25    -999.25    -999.25    -999.25    -999.25
 1550.00000   13.16610    -999.25    0.16070    -999.25    0.15860   94.58140   57.15790   53.48880   15.66680   13.58090   11.90810    -999.25    0.35610    2.42660  -81.76460
 1600.00000   14.24380    -999.25    0.04550    -999.25    0.14300   82.60860   83.86500   77.42760   13.73800   12.73130   15.14430    -999.25    0.33660    2.33960  -72.47160
 1650.00000    -999.25    -999.25    0.07740    -999.25    0.08170   79.65380   82.96860   69.21050   40.91810   30.95910   24.70710    -999.25    0.21390    2.54200  -67.89020
 1700.00000    -999.25    -999.25    0.08550    -999.25    0.34780  116.10160   95.76360   82.73380   13.27450   11.54410   22.23700    -999.25    0.56360    2.04180  -66.24360
 1750.00000    -999.25    -999.25    0.04220    -999.25    0.51560  123.91870   65.55150   59.59740   13.05470    8.19010   15.34130    -999.25    0.57340    1.81700  -62.73780
 1800.00000    -999.25    -999.25    0.10380    -999.25    0.18750  141.25900   86.23200   71.41280    6.43450    6.99890   10.63540    -999.25    0.41030    2.24670  -58.59430
 1850.00000    -999.25    -999.25    0.13280    -999.25    0.40340  126.72390   74.12770   58.93450    7.16130    6.59510    7.20050    -999.25    0.46950    1.78930  -57.06030
 1900.00000    -999.25    -999.25    0.10240    -999.25    0.37920   99.04470   92.10140   77.63610    3.80820    3.60150    4.16140    -999.25    0.44510    2.14400  -53.97950
 1950.00000    -999.25    -999.25    0.22600    -999.25    0.34930   99.15170   85.98970   84.43550    6.33910    5.70360    6.09250    -999.25    0.40470    2.08080  -54.49110
 2000.00000    -999.25    -999.25    0.08740    -999.25    0.59210  115.89710  105.64490   99.44400    2.72150    2.92550    3.46410    -999.25    0.57560    1.57440  -56.90570
 2050.00000    -999.25    -999.25    0.23640    -999.25    0.41970   93.45550   83.71530   76.41900    3.74470    3.53870    4.44720    -999.25    0.37470    2.03570  -59.18960
 2100.00000    -999.25    -999.25    0.15120    -999.25    0.28380  100.01040   88.74510   73.98430    4.62000    4.07010    4.53440    -999.25    0.39890    2.12100  -58.78310
 2150.00000    -999.25    -999.25    0.18860    -999.25    0.13340   87.26510   77.64900   69.83200    5.84580    5.33060    6.11440    -999.25    0.33080    2.44970  -81.47800
 2200.00000    -999.25    -999.25    0.11560    -999.25    0.20330   89.74310   61.63400   48.25490   15.61520   15.27650   13.78840    -999.25    0.32190    2.33680  -87.70850
 2250.00000    -999.25    -999.25    0.18350    -999.25    0.29250   97.23760   90.71960   84.81230    6.65520    6.09890   10.11950    -999.25    0.41220    2.07310  -71.98830
 2300.00000    -999.25    -999.25    0.21470    -999.25    0.14710   82.57530   86.69560   76.02810   10.30700    8.58800    7.90280    -999.25    0.23590    2.41250  -67.31190
 2350.00000    -999.25    -999.25    0.15040    -999.25    0.12060   74.71740   59.26260   54.76790   12.78130   11.44910    9.66750    -999.25    0.26530    2.48230  -63.22730
 2400.00000   13.81180    -999.25    0.08400    -999.25    0.14360   82.36850   57.66180   53.22350   20.83750   17.51280   16.51430    -999.25    0.30830    2.40180  -62.47800
 2450.00000   13.63480    -999.25    0.16560    -999.25    0.13350   82.07680   67.85520   55.74500   11.98750   10.97660    9.78710    -999.25    0.31550    2.44470  -55.10910
 2500.00000    -999.25    -999.25    0.20970    -999.25    0.45140   89.18710  100.05030   87.56350    6.14510    5.91930    5.57200    -999.25    0.40610    2.02030  -50.34310
 2550.00000   13.63300    -999.25    0.04810    -999.25    0.13260   82.85970   74.40340   68.68760   11.53520   10.27070    9.27530    -999.25    0.30490    2.41400  -47.06690
 2600.00000   12.63960    -999.25    0.04400    -999.25    0.18810   86.72710   72.03730   61.48890   19.00210   17.02560   15.62480    -999.25    0.32370    2.26140  -57.80070
 2650.00000    -999.25    -999.25    0.22920    -999.25    0.43650   98.80550   94.26820   92.05550    3.39540    3.46300    4.17800    -999.25    0.43630    1.98050  -38.39750
 2700.00000   15.01200    -999.25    0.15900    -999.25    0.43320  109.98050   88.15130   73.46370    6.59380    6.21330    6.32280    -999.25    0.45720    1.83680  -37.16180
 2750.00000    -999.25    -999.25    0.21340    -999.25    0.47430   94.34170   75.12660   68.01610    5.57440    5.24170    5.80040    -999.25    0.39160    1.82240  -33.39360
 2800.00000    -999.25    -999.25    0.07710    -999.25    0.60030   96.48880   78.87230   71.89250    3.90020    3.41740    4.59700    -999.25    0.53400    1.53460  -31.02020
 2850.00000   13.12310    -999.25    0.02790    -999.25    0.11390   84.86000   83.88280   73.83770   11.22490    9.31310    8.54600    -999.25    0.28000    2.44350  -27.49660
 2900.00000   12.75850    -999.25    0.04980    -999.25    0.09780   81.69900   94.56110   83.35900    8.20810    7.37690    7.16010    -999.25    0.31710    2.47890  -27.45060
 2950.00000   12.60180    -999.25    0.04850    -999.25    0.08520   77.70300   66.73800   52.65820   16.77140   16.35050   17.73160    -999.25    0.23850    2.48580  -26.28970
 3000.00000   12.95310    -999.25    0.02870    -999.25    0.13070   87.83370   85.04530   80.42870    6.22390    5.70310    6.01090    -999.25    0.39860    2.45310  -26.66930
 3050.00000    -999.25    -999.25    0.12430    -999.25    0.59620   99.86060   78.46070   69.46080    4.98620    4.72790    4.51320    -999.25    0.51450    1.63080  -21.06300
 3100.00000    -999.25    -999.25    0.18900    -999.25    0.59830   98.21450   83.85140   70.98840    4.77850    4.04680    4.46620    -999.25    0.48880    1.73190  -27.51920
 3150.00000   13.49690    -999.25    0.03880    -999.25    0.33620   99.25760   87.18180   81.13590    4.71790    4.38310    5.11480    -999.25    0.39980    2.01040  -31.88450
 3200.00000    -999.25    -999.25    0.21080    -999.25    0.45420   93.91790   87.15240   81.61360    4.92810    4.60470    5.08590    -999.25    0.40340    1.86730  -35.41860
 3250.00000   14.67220    -999.25    0.19060    -999.25    0.29400   81.14000   79.04460   64.35710   10.70860   10.28240   12.83940    -999.25    0.37210    2.35380  -38.07560
 3300.00000    -999.25    -999.25    0.20660    -999.25    0.58720   81.31980   87.76520   82.21860    9.84140    8.93520   10.29150    -999.25    0.52060    2.04450  -37.75430
 3350.00000   14.47830    -999.25    0.15440    -999.25    0.37890   90.19820   92.42890   84.99830    4.30750    4.17330    4.69300    -999.25    0.36650    2.03070  -64.15690
 3400.00000    -999.25    -999.25    0.15200    -999.25    0.55850  113.73800   92.46940   85.10490    3.12360    2.84790    3.21440    -999.25    0.50810    1.66120  -60.79950
 3450.00000   13.49390    -999.25    0.10870    -999.25    0.27110  127.38210  100.19710   95.28440    3.47400    3.20440    3.85620    -999.25    0.52630    2.05330  -59.06960
 3500.00000   13.06080    -999.25    0.04950    -999.25    0.13220   72.49830   62.78180   57.15010   30.62380   26.78050   21.65710    -999.25    0.25280    2.46790  -61.99970
 3550.00000   13.36430    -999.25    0.10420    -999.25    0.13060   96.03120   92.51090   85.17990    5.47990    5.20860    5.65960    -999.25    0.35920    2.42310  -60.50760
 3600.00000   14.33610    -999.25    0.19990    -999.25    0.21230  104.31700  100.43300   88.76080    3.82750    3.59600    4.00960    -999.25    0.48580    2.30420  -63.15730
 3650.00000   13.35660    -999.25    0.07290    -999.25    0.15480   92.12010  115.42740  100.57840    4.43100    4.13380    4.65690    -999.25    0.38620    2.43110  -58.39560
 3700.00000   13.25060    -999.25    0.14130    -999.25    0.11450   88.34780   95.76190   83.48350   11.19050   11.41190    9.43990    -999.25    0.34490    2.49570  -47.03990
 3750.00000    -999.25    -999.25    0.16380    -999.25    0.44630   91.76640   86.79580   78.73610    5.47590    5.12260    5.53030    -999.25    0.40800    1.87760  -33.18750
