~Version ---------------------------------------------------
VERS.      2.0 : CWLS log ASCII Standard -VERSION 2.0
WRAP.       NO : One line per depth step
CREA. 12/15/17 : LAS Creation Date
~Well ------------------------------------------------------
STRT.FT                  1000.0 : START DEPTH
STOP.FT                  9550.0 : STOP DEPTH
STEP.FT                50.00000 : STEP LENGTH
NULL.                   -999.25 : NULL VALUE
COMP.      THE PURE OIL COMPANY : COMPANY
WELL. PURE SAKWATAMAU 7-7-63-14 : WELL
FLD .                           : FIELD
LOC .                           : LOCATION
CTRY.                    CANADA : COUNTRY
SRVC.              Schlumberger : SERVICE COMPANY
DATE.               26-Dec-1963 : LOGDATE
PROV.                   Alberta : PROVINCE
UWI .          100070706314W500 : UNIQUE WELL ID
SLAT.WGS84              54.4354 : SURFACE LATITUDE
SLON.WGS84            -116.1027 : SURFACE LONGITUDE
~Curve Information -----------------------------------------
DEPT  .FT    : Depth Curve
CALDED.IN    : CALIPER FROM DENSITY LOG
CALWS .IN    : CALIPER [MCALED]
CILDED.MMHO  : CONDUCTIVITY FROM RESISTIVITY LOG
CONDWS.MMHO  : CONDUCTIVITY [1000/DRESWS]
DENED .SCPS  : BULK DENSITY FROM DENSITY LOG
DRESWS.OHMM  : DEEP RESISTIVITY [1000/CILDED IF ILDED<2, ILDED]
DT1ED .US/F  : DELTA TIME [BOTTOM SECTION] SPAN 1 FT [ADJ. TO DTED]
DTED  .US/F  : DELTA TIME 3 FT SPACING 3 FT PICKUP SPAN FROM SONIC LOG
DTWS  .US/F  : COMPRESSIONAL SONIC [DTED]
GRSED .GAPI  : GAMMA RAY FROM SONIC LOG
GRWS  .GAPI  : GAMMA RAY [GRSED]
ILDED .OHMM  : DEEP INDUCTION FROM RESISTIVITY LOG
MCALED.IN    : CALIPER FROM MICROLOG [ADJ. TO RESISTIVITY LOG]
SNED  .OHMM  : 16 INCH SHORT NORMAL RESISTIVITY FROM RESISTIVITY LOG
SPRED .MV    : SPONTANEOUS POTENTIAL FROM RESISTIVITY LOG
SPWS  .MV    : SPONTANEOUS POTENTIAL [BASELINE 0 MV, SPRED]
SRESWS.OHMM  : SHALLOW RESISTIVITY [SNED]
~Params ----------------------------------------------------
PD  .                     GL : PERMANENT DATUM
EPD .FT                  329 : ELEVATION PERMANENT DATUM
LMF .                     KB : LOG MEASURED FROM
DAPD.FT                   15 : FEET ABOVE PERMANENT DATUM
EKB .FT                 3044 : KELLY BUSHING
EGL .FT                 3029 : GROUND LEVEL
DATE.               12/26/63 : RUN DATE
RUN .                      1 : RUN NUMBER
DD  .FT                 9580 : DEPTH DRILLER
DL  .FT                 9563 : DEPTH LOGGER
BLI .FT                 9562 : BOTTOM LOG INTERVAL
TLI .FT                  994 : TOP LOG INTERVAL
CBD .FT                  994 : CASING BOTTOM DRILLER
CBL .FT                  994 : CASING BOTTOM LOGGER
BS  .IN                    9 : BIT SIZE
BSD .FT                 9580 : BIT SIZE AT DEPTH
DFT .               GEL CHEM : DRILLING FLUID TYPE
DFD .                    9.8 : DRILLING FLUID DENSITY
DFV .                    205 : DRILLING FLUID VISCOSITY
DFPH.                    9.5 : DRILLING FLUID PH
DFL .                    3.8 : DRILLING FLUID LOSS
RMS .OHMM               1.37 : RESISTIVITY MUD SAMPLE
MST .DEGF                 79 : MUD SAMPLE TEMPERATURE
RMF .OHMM               0.95 : RESISTIVITY MUD FILTRATE SAMPLE
MFST.DEGF                 73 : MUD FILTRATE SAMPLE TEMPERATURE
RMC .OHMM               1.63 : RESISTIVITY MUD CAKE
MCST.DEGF                 77 : MUD CAKE SAMPLE TEMPERATURE
RMB .OHMM               0.67 : RESISTIVITY MUD AT BHT
TCS .HRS                 2.5 : TIME CIRCULATED STOPPED
LUN .                   3704 : LOGGING UNIT NUMBER
LUL .                     VV : LOGGING UNIT LOCATION
ENGI.                  MILLS : RECORDING ENGINEER
WITN.                  SMITH : WITNESSED BY
CLNT.                A2DTECH : CLIENT CODE
ORIG.            2" 5" PRINT : ORIGIN OF DATA
UWI .       100070706314W500 : UNIQUE WELL ID
DICO. A2D Technologies, Inc. : DIGITIZING COMPANY
~Other -----------------------------------------------------
~ASCII -----------------------------------------------------
 1000.00000    -999.25   12.40600  250.79950  261.28080    -999.25    3.82730    -999.25  131.63780  131.63780   62.36220   62.36220    3.82730   12.40600    3.60310  -38.55890   -0.32030    3.60310
 1050.00000    -999.25   11.72890  252.75250  240.19190    -999.25    4.16580    -999.25  124.47320  124.47320   70.16980   70.16980    4.16580   11.72890    5.26280  -45.07880   -6.84020    5.26280
 1100.00000    -999.25   14.03530  312.24750  312.29510    -999.25    3.20210    -999.25  141.12990  141.12990   65.91100   65.91100    3.20210   14.03530    3.81540  -48.38240  -10.14380    3.81540
 1150.00000    -999.25   10.93820  402.06280  402.12320    -999.25    2.48680    -999.25  148.34560  148.34560   72.24550   72.24550    2.48680   10.93820    2.87220  -46.07650   -7.83790    2.87220
 1200.00000    -999.25   10.92520  287.95920  287.72010    -999.25    3.47560    -999.25  150.89750  150.89750   74.96130   74.96130    3.47560   10.92520    3.76110  -42.95260   -4.71400    3.76110
 1250.00000    -999.25   10.92510  356.91570  360.08790    -999.25    2.77710    -999.25  118.97780  118.97780   67.32650   67.32650    2.77710   10.92510    3.27030  -39.23530   -0.99670    3.27030
 1300.00000    -999.25   12.39940  411.16050  476.12060    -999.25    2.10030    -999.25  119.89950  119.89950   66.63030   66.63030    2.10030   12.39940    2.80270  -40.48570   -2.24710    2.80270
 1350.00000    -999.25   11.47960  313.16810  313.07720    -999.25    3.19410    -999.25  125.14270  125.14270   74.12400   74.12400    3.19410   11.47960    3.17080  -41.95280   -3.71420    3.17080
 1400.00000    -999.25    9.07820  140.52550  140.24070    -999.25    7.13060    -999.25  125.19310  125.19310   86.72580   86.72580    7.13060    9.07820    4.84940  -42.06620   -3.82760    4.84940
 1450.00000    -999.25   13.64370  270.80540  270.82660    -999.25    3.69240    -999.25  121.01040  121.01040   78.00440   78.00440    3.69240   13.64370    4.08190  -40.38520   -2.14660    4.08190
 1500.00000    -999.25   10.61390  308.75170  319.13200    -999.25    3.13350    -999.25  124.81300  124.81300   67.85560   67.85560    3.13350   10.61390    3.42930  -41.18210   -2.94350    3.42930
 1550.00000    -999.25   11.83270  251.12830  230.58190    -999.25    4.34050    -999.25  115.15050  115.15050   81.57320   81.57320    4.34050   11.83270    3.20720  -40.48300   -2.24440    3.20720
 1600.00000    -999.25   12.52380  169.39560  164.52510    -999.25    6.07810    -999.25  108.68910  108.68910   78.55650   78.55650    6.07810   12.52380    4.86500  -41.92830   -3.68970    4.86500
 1650.00000    -999.25   13.65780  130.74930  133.29780    -999.25    7.50200    -999.25  111.06580  111.06580   78.68010   78.68010    7.50200   13.65780    6.03410  -40.74390   -2.50530    6.03410
 1700.00000    -999.25   12.98940  276.92580  244.35540    -999.25    4.09240    -999.25  113.57020  113.57020   73.69660   73.69660    4.09240   12.98940    3.17340  -43.06200   -4.82340    3.17340
 1750.00000    -999.25   12.90930  156.38060  156.99820    -999.25    6.36950    -999.25  100.55260  100.55260   58.04940   58.04940    6.36950   12.90930    4.95680  -42.34550   -4.10690    4.95680
 1800.00000    -999.25   12.33030  160.11770  152.80050    -999.25    6.54490    -999.25  119.39480  119.39480   80.69830   80.69830    6.54490   12.33030    5.88650  -41.53240   -3.29380    5.88650
 1850.00000    -999.25   13.09430  298.86980  273.25390    -999.25    3.65960    -999.25  129.61110  129.61110   76.80190   76.80190    3.65960   13.09430    2.82630  -41.51070   -3.27210    2.82630
 1900.00000    -999.25   11.01400  203.28870  201.17080    -999.25    4.97090    -999.25  107.74540  107.74540   60.32150   60.32150    4.97090   11.01400    4.51430  -45.48160   -7.24300    4.51430
 1950.00000    -999.25    8.87990  109.25030  109.23950    -999.25    9.15420    -999.25   96.63520   96.63520   58.54480   58.54480    9.15420    8.87990    6.59770  -46.87080   -8.63220    6.59770
 2000.00000    -999.25   10.29350  141.60560  137.02380    -999.25    7.29800    -999.25  102.45470  102.45470   66.40580   66.40580    7.29800   10.29350    6.37050  -43.75610   -5.51750    6.37050
 2050.00000    -999.25   10.46240  247.35840  246.60200    -999.25    4.05970    -999.25  114.79810  114.79810   68.57600   68.57600    4.05970   10.46240    4.56420  -40.84800   -2.60940    4.56420
 2100.00000    -999.25   11.76170  234.48460  204.74600    -999.25    4.88410    -999.25  103.96000  103.96000   69.90780   69.90780    4.88410   11.76170    4.07870  -43.00820   -4.76960    4.07870
 2150.00000    -999.25   10.83980   33.90500   34.28410    -999.25   29.16800    -999.25   82.54350   82.54350   37.96740   37.96740   29.16800   10.83980   20.08420  -48.55190  -10.31330   20.08420
 2200.00000    -999.25   11.98950  258.77770  258.80590    -999.25    3.86390    -999.25  101.86730  101.86730   52.69590   52.69590    3.86390   11.98950    4.59760  -42.05940   -3.82080    4.59760
 2250.00000    -999.25    9.64210   77.07150   70.98390    -999.25   14.08770    -999.25  102.77970  102.77970   46.27530   46.27530   14.08770    9.64210   13.11430  -55.10140  -16.86280   13.11430
 2300.00000    -999.25   11.38720   75.11730   71.24040    -999.25   14.06290    -999.25   84.33700   84.33700   44.34430   44.34430   14.06290   11.38720   12.61810  -45.82990   -7.59130   12.61810
 2350.00000    -999.25   14.09010  185.98420  168.45510    -999.25    5.93630    -999.25  108.39280  108.39280   67.22780   67.22780    5.93630   14.09010    4.90080  -43.38120   -5.14260    4.90080
 2400.00000    -999.25    9.90790  188.77040  190.61050    -999.25    5.24630    -999.25  105.26630  105.26630   47.34980   47.34980    5.24630    9.90790    5.88850  -46.20590   -7.96730    5.88850
 2450.00000    -999.25   11.50430  247.32760  247.33500    -999.25    4.04310    -999.25   90.09200   90.09200   53.17400   53.17400    4.04310   11.50430    4.52450  -41.76440   -3.52580    4.52450
 2500.00000    -999.25   13.15080  280.96280  273.80760    -999.25    3.65220    -999.25  112.45890  112.45890   56.83240   56.83240    3.65220   13.15080    4.26440  -40.52240   -2.28380    4.26440
 2550.00000    -999.25   10.16730   85.13600   81.08970    -999.25   12.33880    -999.25  103.26190  103.26190   49.70000   49.70000   12.33880   10.16730   11.15570  -53.72020  -15.48160   11.15570
 2600.00000    -999.25   13.52530  285.52280  295.31630    -999.25    3.38620    -999.25  102.42930  102.42930   60.08780   60.08780    3.38620   13.52530    3.83510  -40.01430   -1.77570    3.83510
 2650.00000    -999.25   12.92850  363.50900  363.45130    -999.25    2.75140    -999.25  117.29600  117.29600   65.81130   65.81130    2.75140   12.92850    3.40140  -40.12650   -1.88790    3.40140
 2700.00000    -999.25   11.41840  184.57390  184.58360    -999.25    5.41760    -999.25   92.86140   92.86140   57.56550   57.56550    5.41760   11.41840    5.68610  -40.33370   -2.09510    5.68610
 2750.00000    -999.25   12.07530  203.19540  203.18600    -999.25    4.92160    -999.25   91.77860   91.77860   58.02950   58.02950    4.92160   12.07530    5.61400  -39.27550   -1.03690    5.61400
 2800.00000    -999.25   10.31620  149.08060  137.73370    -999.25    7.27960    -999.25   93.60190   93.60190   55.79190   55.79190    7.27960   10.31620    6.74500  -39.52060   -1.28200    6.74500
 2850.00000    -999.25    9.58570  101.23830  101.13580    -999.25    9.88770    -999.25   94.80930   94.80930   49.82670   49.82670    9.88770    9.58570   12.77640  -57.32500  -19.08640   12.77640
 2900.00000    -999.25   10.27900  201.68740  201.60480    -999.25    4.96020    -999.25   93.60360   93.60360   67.69740   67.69740    4.96020   10.27900    5.52250  -41.34060   -3.10200    5.52250
 2950.00000    -999.25   11.08690  289.88810  289.33510    -999.25    3.45620    -999.25  104.63330  104.63330   68.68720   68.68720    3.45620   11.08690    4.31840  -39.10980   -0.87120    4.31840
 3000.00000    -999.25   12.10680  235.93130  235.96590    -999.25    4.23790    -999.25  108.20490  108.20490   57.97090   57.97090    4.23790   12.10680    5.38010  -39.12210   -0.88350    5.38010
