~Version ---------------------------------------------------
VERS.      2.0 : CWLS log ASCII Standard -VERSION 2.0
WRAP.       NO : One line per depth step
CREA. 11/10/17 : LAS Creation Date
~Well ------------------------------------------------------
STRT.FT                         1200.0 : START DEPTH
STOP.FT                        11200.0 : STOP DEPTH
STEP.FT                       50.00000 : STEP LENGTH
NULL.                          -999.25 : NULL VALUE
COMP. AMOCO CANADA PETROLEUM CO., LTD. : COMPANY
WELL.    AMOCO A-1 NW ANTE 10-29-66-25 : WELL
FLD .                                  : FIELD
LOC .                                  : LOCATION
CTRY.                           CANADA : COUNTRY
SRVC.           Schlumberger of Canada : SERVICE COMPANY
DATE.                      20-Oct-1973 : LOGDATE
PROV.                          Alberta : PROVINCE
UWI .                 100102906625W500 : UNIQUE WELL ID
SLAT.WGS84                    54.74394 : SURFACE LATITUDE
SLON.WGS84                   -117.7384 : SURFACE LONGITUDE
~Curve Information -----------------------------------------
DEPT    .FT    : Depth Curve
CALDED  .IN    : CALIPER FROM DENSITY LOG
CALNED  .IN    : CALIPER FROM NEUTRON LOG
CALSED  .IN    : CALIPER FROM SONIC LOG
CALWS   .IN    : CALIPER [CALSED]
CONDWS  .MMHO  : CONDUCTIVITY [1000/DRESWS]
DCORWS  .G/C3  : DENSITY CORRECTION [DRHOED]
DENWS   .G/C3  : FORMATION BULK DENSITY [RHOBED]
DPHILSED.V/V   : DENSITY POROSITY LIME [M=2.71, F=1.00] FROM DENSITY LOG
DPOLSWS .V/V   : DENSITY POROSITY LIME [M=2.71, F=1.00] [CALCULATED FROM DENWS]
DRESWS  .OHMM  : DEEP RESISTIVITY [ILDED]
DRHOED  .G/C3  : BULK DENSITY CORRECTION FROM DENSITY LOG
DTED    .US/F  : DELTA-T (INTERVAL TRANSIT TIME) FROM SONIC LOG
DTWS    .US/F  : COMPRESSIONAL SONIC [DTED]
GRDED   .GAPI  : GAMMA RAY FROM DENSITY LOG
GRNED   .GAPI  : GAMMA RAY FROM NEUTRON LOG
GRSED   .GAPI  : GAMMA RAY FROM SONIC LOG
GRWS    .GAPI  : GAMMA RAY [GRSED]
ILDED   .OHMM  : DEEP INDUCTION FROM RESISTIVITY LOG
ILMED   .OHMM  : MEDIUM INDUCTION FROM RESISTIVITY LOG
LL8ED   .OHMM  : LATEROLOG8 FROM RESISTIVITY LOG
MRESWS  .OHMM  : MEDIUM RESISTIVITY [ILMED]
NPOLSWS .V/V   : NEUTRON POROSITY LIME [SNPLSED]
RHOBED  .G/C3  : BULK DENSITY FROM DENSITY LOG
SNPLSED .V/V   : SIDEWALL NEUTRON POROSITY LIME FROM NEUTRON LOG
SPRED   .MV    : SPONTANEOUS POTENTIAL FROM RESISTIVITY LOG
SPWS    .MV    : SPONTANEOUS POTENTIAL [BASE LINE 0 MV, SPRED]
SRESWS  .OHMM  : SHALLOW RESISTIVITY [LL8ED]
~Params ----------------------------------------------------
PD  .                     GL : PERMANENT DATUM
EPD .FT               2302.4 : ELEVATION PERMANENT DATUM
LMF .                     KB : LOG MEASURED FROM
DAPD.FT                 17.6 : FEET ABOVE PERMANENT DATUM
EKB .FT               2320.0 : KELLY BUSHING
EGL .FT               2302.4 : GROUND LEVEL
DATE.               10/20/73 : RUN DATE
RUN .                      1 : RUN NUMBER
DD  .FT                11236 : DEPTH DRILLER
DL  .FT                11235 : DEPTH LOGGER
BLI .FT                11234 : BOTTOM LOG INTERVAL
TLI .FT                 6400 : TOP LOG INTERVAL
CS  .IN                9.625 : CASING SIZE
CBD .FT                 1247 : CASING BOTTOM DRILLER
CBL .FT                 1247 : CASING BOTTOM LOGGER
BS  .IN                 8.75 : BIT SIZE
BSD .FT                11236 : BIT SIZE AT DEPTH
DFT .               GEL CHEM : DRILLING FLUID TYPE
DFD .                    9.2 : DRILLING FLUID DENSITY
DFV .                     62 : DRILLING FLUID VISCOSITY
DFPH.                    9.0 : DRILLING FLUID PH
DFL .                   10.2 : DRILLING FLUID LOSS
RMF .OHMM               1.15 : RESISTIVITY MUD FILTRATE SAMPLE
MFST.DEGF                 70 : MUD FILTRATE SAMPLE TEMPERATURE
RMB .OHMM                0.4 : RESISTIVITY MUD AT BHT
TCS .HRS                 4.5 : TIME CIRCULATED STOPPED
LUN .                   7667 : LOGGING UNIT NUMBER
LUL .                    EDM : LOGGING UNIT LOCATION
ENGI.               BENOWSKI : RECORDING ENGINEER
WITN.       SNYDMELLER FRAME : WITNESSED BY
CLNT.                A2DTECH : CLIENT CODE
ORIG.            2" 5" PRINT : ORIGIN OF DATA
UWI .       100102906625W500 : UNIQUE WELL ID
DICO. A2D Technologies, Inc. : DIGITIZING COMPANY
~Other -----------------------------------------------------
~ASCII -----------------------------------------------------
# ...
 6400.00000    9.81530    9.99630    9.30830    9.30830   49.46040    -999.25    -999.25    -999.25    -999.25   20.21820    -999.25   86.68680   86.68680    -999.25    -999.25  302.39660  302.39660   20.21820  260.55020  490.60960  260.55020    -999.25    -999.25    -999.25 -107.11020  -59.07670  490.60960
 6450.00000   11.12570   11.64550    9.94300    9.94300   98.46310    0.05500    2.55410    0.08870    0.09120   10.15730    0.05500   66.97430   66.97430   85.00760   85.30520   87.96170   87.96170   10.15730    9.24010   18.75840    9.24010    0.11120    2.55410    0.11120 -116.91730  -67.08230   18.75840
 6500.00000   10.40420   10.88280    9.92650    9.92650   43.11260    0.03200    2.59220    0.06570    0.06890   23.19510    0.03200   65.64610   65.64610   85.87470   87.75250   91.62420   91.62420   23.19510   20.34600   29.57110   20.34600    0.09650    2.59220    0.09650  -55.60670   -3.94250   29.57110
 6550.00000   10.12370   10.55920    9.55440    9.55440   37.06630    0.04150    2.63430    0.03900    0.04430   26.97870    0.04150   63.45160   63.45160  102.18360   95.40400   96.72140   96.72140   26.97870   21.09600   30.53150   21.09600    0.08110    2.63430    0.08110  -76.57180  -18.54060   30.53150
 6600.00000   10.30490   10.80760    9.59690    9.59690  113.52410    0.04700    2.62500    0.04500    0.04970    8.80870    0.04700   64.72340   64.72340   83.56990   85.85270   87.05930   87.05930    8.80870    8.63100   18.35230    8.63100    0.08940    2.62500    0.08940 -132.40810  -68.00990   18.35230
 6650.00000   10.49270   11.01210    9.88730    9.88730   84.16370    0.08050    2.66390    0.02360    0.02700   11.88160    0.08050   63.13500   63.13500   92.18860   95.44870   92.33700   92.33700   11.88160   10.14530   14.31250   10.14530    0.07240    2.66390    0.07240 -129.41980  -58.65470   14.31250
 6700.00000   10.49650   10.98560    9.76190    9.76190   45.69500    0.02510    2.67060    0.01670    0.02310   21.91170    0.02510   55.43060   55.43060   63.81840   62.80760   60.09720   60.09720   21.91170   21.35600   29.46050   21.35600    0.04140    2.67060    0.04140  -90.47400  -13.31010   29.46050
 6750.00000   10.02960   10.65750    9.44020    9.44020   27.78680    0.06700    2.70780   -0.00540    0.00130   35.98830    0.06700   59.09970   59.09970   79.89030   76.55620   77.63500   77.63500   35.98830   32.19220   47.19380   32.19220    0.03820    2.70780    0.03820 -112.08010  -33.68150   47.19380
 6800.00000   10.11450   10.74100    9.72490    9.72490   31.02860    0.04900    2.62700    0.04450    0.04850   32.22830    0.04900   62.56930   62.56930   80.84850   79.75270   85.60960   85.60960   32.22830   28.72180   39.82000   28.72180    0.08860    2.62700    0.08860 -198.45880 -129.80420   39.82000
 6850.00000   10.30740   10.82190    9.91940    9.91940   35.66940    0.08920    2.68090    0.00890    0.01700   28.03520    0.08920   40.09320   40.09320  105.26690  102.22460  100.98460  100.98460   28.03520   24.96930   32.59440   24.96930    0.11990    2.68090    0.11990 -259.97860 -201.06810   32.59440
 6900.00000   10.59790   11.07360   10.20380   10.20380   36.11520    0.07110    2.66080    0.02440    0.02880   27.68920    0.07110   63.63540   63.63540  103.27960   95.57600  101.75990  101.75990   27.68920   25.54160   35.61320   25.54160    0.09840    2.66080    0.09840 -245.14150 -195.97510   35.61320
 6950.00000    9.28600    9.65670    8.73090    8.73090  290.96070    0.10350    2.41940    0.17220    0.17000    3.44040    0.10350   74.83630   74.83630   19.40600   18.77520   18.24920   18.24920    3.44040    2.16750    5.84430    2.16750    0.20440    2.41940    0.20440 -345.18020 -305.80670    5.84430
 7000.00000    8.88950    9.25400    8.60640    8.60640  112.47200    0.16290    2.47540    0.14460    0.13720    8.89110    0.16290   66.83780   66.83780   47.22200   49.86300   40.98660   40.98660    8.89110    6.13740   27.62490    6.13740    0.21690    2.47540    0.21690 -297.14080 -267.46260   27.62490
 7050.00000   10.29710   10.40490    9.50600    9.50600   24.11480    0.04560    2.68300    0.00970    0.01580   41.46830    0.04560   54.91810   54.91810   64.63550   52.42630   61.97190   61.97190   41.46830   40.04740   64.90020   40.04740    0.07260    2.68300    0.07260 -230.23120 -210.29710   64.90020
 7100.00000    9.41900    9.92310    8.97810    8.97810    1.46980    0.09140    2.81440   -0.07150   -0.06110  680.34820    0.09140   49.69890   49.69890   36.90890   32.31670   36.72800   36.72800  680.34820  182.21820 1015.19590  182.21820    0.02950    2.81440    0.02950 -193.15830 -182.96820 1015.19590
 7150.00000    9.39030    9.84580    8.87480    8.87480    4.50910    0.07470    2.78230   -0.05150   -0.04230  221.77400    0.07470   49.07750   49.07750   31.17810   29.99110   37.79310   37.79310  221.77400  453.42560 1004.35570  453.42560    0.02940    2.78230    0.02940 -172.62000 -172.17400 1004.35570
 7200.00000    9.53290    9.83740    8.88670    8.88670   54.43600    0.06090    2.84060   -0.08780   -0.07630   18.98470    0.06090   47.38950   47.38950   24.27250   28.51470   25.81740   25.81740   18.98470   33.83270  137.25430   33.83270    0.03530    2.84060    0.03530 -194.79790 -204.14480  137.25430
 7250.00000    9.80630   10.04740    9.08300    9.08300  289.90550    0.22030    2.59660    0.06460    0.06630    3.44940    0.22030   56.39000   56.39000   31.28710   26.88590   27.42690   27.42690    3.44940    2.04280   12.62700    2.04280    0.22470    2.59660    0.22470 -249.73400 -268.77620   12.62700
 7300.00000   11.18760   11.52130   10.20020   10.20020   25.82490    0.24670    2.40340    0.18690    0.17930   38.72230    0.24670   54.45430   54.45430   41.39170   36.83540   44.60590   44.60590   38.72230   25.32380  205.85790   25.32380    0.18630    2.40340    0.18630 -231.60020 -260.38650  205.85790
 7350.00000   10.28200   10.56670    9.38010    9.38010   50.94170    0.06330    2.69360    0.00390    0.00960   19.63030    0.06330   50.44730   50.44730   21.21480   22.57750   23.21970   23.21970   19.63030   10.72590   62.96890   10.72590    0.05930    2.69360    0.05930 -230.95990 -269.49030   62.96890
 7400.00000   10.78740   11.42140    9.46530    9.46530   27.21470    0.09020    2.59350    0.06640    0.06810   36.74480    0.09020   55.41190   55.41190   46.32320   43.04590   43.53010   43.53010   36.74480   38.13920  176.38360   38.13920    0.14510    2.59350    0.14510 -108.07800 -156.35240  176.38360
 7450.00000   10.29760   10.65850    9.09240    9.09240  100.84520    0.09610    2.57510    0.07800    0.07890    9.93980    0.09610   55.27900   55.27900   30.81080   32.55420   32.02470   32.02470    9.93980    5.74750   41.72790    5.74750    0.18370    2.57510    0.18370 -213.76790 -271.83520   41.72790
 7500.00000   10.56110   10.89670    9.28370    9.28370  167.96000    0.15130    2.54720    0.08800    0.09520    5.95380    0.15130   54.00500   54.00500   22.70910   19.89140   25.23460   25.23460    5.95380    5.27660   13.58830    5.27660    0.16270    2.54720    0.16270 -143.85460 -211.61720   13.58830
 7550.00000   11.95240   12.40960    9.90600    9.90600    5.08640    0.12920    2.55920    0.08230    0.08820  196.60340    0.12920   49.64040   49.64040   17.28930   19.18800   19.29640   19.29640  196.60340  112.14380  311.70990  112.14380    0.04330    2.55920    0.04330 -195.53530 -273.04200  311.70990
 7600.00000   11.73970   12.17570    9.67430    9.67430   10.21690    0.18510    2.60200    0.06120    0.06320   97.87680    0.18510   52.62260   52.62260   40.41490   41.28970   42.96940   42.96940   97.87680  132.78330 1137.87400  132.78330    0.06420    2.60200    0.06420 -167.85240 -255.10320 1137.87400
 7650.00000   10.79140   11.02070    9.52660    9.52660   36.23410    0.10970    2.69790    0.00130    0.00710   27.59830    0.10970   54.35690   54.35690   37.19820   37.80430   41.84230   41.84230   27.59830   23.44050   31.91830   23.44050    0.09480    2.69790    0.09480 -133.40880 -230.40360   31.91830
