~Version ---------------------------------------------------
VERS.      2.0 : CWLS log ASCII Standard -VERSION 2.0
WRAP.       NO : One line per depth step
CREA. 11/08/17 : LAS Creation Date
~Well ------------------------------------------------------
STRT.FT                            600.0 : START DEPTH
STOP.FT                           5750.0 : STOP DEPTH
STEP.FT                         50.00000 : STEP LENGTH
NULL.                            -999.25 : NULL VALUE
COMP. CANADIAN NATURAL RESOURCES LIMITED : COMPANY
WELL.       SHELL ET AL NIPISI 4-14-78-8 : WELL
FLD .                                    : FIELD
LOC .                                    : LOCATION
CTRY.                             CANADA : COUNTRY
SRVC.                       Schlumberger : SERVICE COMPANY
DATE.                        09-Sep-1967 : LOGDATE
PROV.                            Alberta : PROVINCE
UWI .                   100041407808W500 : UNIQUE WELL ID
SLAT.WGS84                  55.754074781 : SURFACE LATITUDE
SLON.WGS84               -115.1363126814 : SURFACE LONGITUDE
~Curve Information -----------------------------------------
DEPT  .FT    : Depth Curve
CALSED.IN    : CALIPER FROM SONIC LOG [DEPTH SHIFTED TO RES.]
CALWS .IN    : CALIPER [CALSED]
CILDED.MMHO  : CONDUCTIVITY FROM IEL LOG
CONDWS.MMHO  : CONDUCTIVITY [CILDED]
DRESWS.OHMM  : DEEP RESISTIVITY [ILDED]
DTED  .US/F  : DELTA TIME FROM SONIC LOG [DEPTH SHIFTED TO RES.]
DTWS  .US/F  : DELTA TIME [DTED]
GRED  .GAPI  : GAMMA RAY
GRSED .GAPI  : GAMMA RAY FROM SONIC LOG  [DEPTH SHIFTED TO RES.]
GRWS  .GAPI  : GAMMA RAY [SPLICE 585' GRSED 5738' GRED]
ILDED .OHMM  : INDUCTION LOG DEEP RESISTIVITY
SNED  .OHMM  : 16 INCH SHORT NORMAL RESISTIVITY FROM IEL LOG
SPRED .MV    : SPONTANEOUS POTENTIAL FROM IEL LOG
SPWS  .MV    : SPONTANEOUS POTENTIAL [BASELINE 0 MV] [SPRED]
SRESWS.OHMM  : SHALLOW RESISTIVITY [SNED]
~Params ----------------------------------------------------
PD  .                     GL : PERMANENT DATUM
EPD .FT                 2183 : ELEVATION PERMANENT DATUM
LMF .                     KB : LOG MEASURED FROM
EKB .FT                 2195 : KELLY BUSHING
EGL .FT                 2183 : GROUND LEVEL
DATE.               09/09/67 : RUN DATE
RUN .                      1 : RUN NUMBER
DD  .FT                 5775 : DEPTH DRILLER
DL  .FT                 5774 : DEPTH LOGGER
BLI .FT                 5773 : BOTTOM LOG INTERVAL
TLI .FT                  607 : TOP LOG INTERVAL
CBD .FT                  607 : CASING BOTTOM DRILLER
CBL .FT                  607 : CASING BOTTOM LOGGER
BS  .IN                7.875 : BIT SIZE
BSD .FT                 5775 : BIT SIZE AT DEPTH
DFT .                    GEL : DRILLING FLUID TYPE
DFD .                    9.7 : DRILLING FLUID DENSITY
DFV .                     90 : DRILLING FLUID VISCOSITY
DFPH.                    9.5 : DRILLING FLUID PH
DFL .                      7 : DRILLING FLUID LOSS
RMS .OHMM               1.69 : RESISTIVITY MUD SAMPLE
MST .DEGF                 59 : MUD SAMPLE TEMPERATURE
RMF .OHMM               1.24 : RESISTIVITY MUD FILTRATE SAMPLE
MFST.DEGF                 62 : MUD FILTRATE SAMPLE TEMPERATURE
RMC .OHMM               1.94 : RESISTIVITY MUD CAKE
MCST.DEGF                 62 : MUD CAKE SAMPLE TEMPERATURE
TCS .HRS                   3 : TIME CIRCULATED STOPPED
LUN .                   7501 : LOGGING UNIT NUMBER
LUL .                     SL : LOGGING UNIT LOCATION
ENGI.                  MOORE : RECORDING ENGINEER
WITN.                  MOORE : WITNESSED BY
CLNT.                A2DTECH : CLIENT CODE
ORIG.            2" 5" PRINT : ORIGIN OF DATA
UWI .       100041407808W500 : UNIQUE WELL ID
DICO. A2D Technologies, Inc. : DIGITIZING COMPANY
~Other -----------------------------------------------------
SPWS APPEARS TO REVERSE BELOW THE HIGHER RES. ZONE NEAR MIDWELL, PROBABLY DUE TO FACIES CHANGE. NO SAMPLE OR MUD LOG TO CONFIRM.
~ASCII -----------------------------------------------------
# ...
 2900.00000    8.92400    8.92400   47.17360   47.17360   21.23330   56.89660   56.89660    -999.25   13.93410   13.93410   21.23330   64.94540 -146.29010  -76.91070   64.94540
 2950.00000    9.00020    9.00020   31.43870   31.43870   31.64180   56.42320   56.42320    -999.25   15.34470   15.34470   31.64180   86.15540 -146.51220  -76.64240   86.15540
 3000.00000    8.83050    8.83050   31.77060   31.77060   31.05690   54.03340   54.03340    -999.25   17.18030   17.18030   31.05690   61.05170 -132.48120  -62.12360   61.05170
 3050.00000    8.93740    8.93740   42.38850   42.38850   23.99890   61.26540   61.26540    -999.25   13.52220   13.52220   23.99890  112.20390 -174.35350 -103.51040  112.20390
 3100.00000    8.99430    8.99430   52.48200   52.48200   19.61540   60.85180   60.85180    -999.25   16.36500   16.36500   19.61540  111.27010 -173.87880 -102.54550  111.27010
 3150.00000    8.44670    8.44670   20.98010   20.98010   54.49290   51.71020   51.71020    -999.25   18.68160   18.68160   54.49290   76.61000 -120.18370  -48.36490   76.61000
 3200.00000    8.97300    8.97300   93.04510   93.04510   10.88980   61.32830   61.32830    -999.25   11.96250   11.96250   10.88980   65.31270 -170.28710  -97.97800   65.31270
 3250.00000    8.97590    8.97590   33.29560   33.29560   29.52240   53.91900   53.91900    -999.25   12.77570   12.77570   29.52240   86.95770 -162.74060  -89.94360   86.95770
 3300.00000    8.82100    8.82100   27.50770   27.50770   35.11860   52.97370   52.97370    -999.25   10.51150   10.51150   35.11860   86.90020 -152.87770  -79.59520   86.90020
 3350.00000    8.68700    8.68700   15.85890   15.85890   69.22430   51.28430   51.28430    -999.25   10.28410   10.28410   69.22430   82.74430 -131.10090  -57.32800   82.74430
 3400.00000    9.19360    9.19360   26.94980   26.94980   36.17570   56.00790   56.00790    -999.25   11.08610   11.08610   36.17570   85.38680 -150.14210  -75.88390   85.38680
 3450.00000    8.65410    8.65410   20.57980   20.57980   46.81930   57.08530   57.08530    -999.25   12.56270   12.56270   46.81930  105.90340 -152.50050  -77.75200  105.90340
 3500.00000    8.42290    8.42290   13.24220   13.24220   81.50620   51.00610   51.00610    -999.25    9.57210    9.57210   81.50620  132.18920 -151.95360  -76.71720  132.18920
 3550.00000    8.52790    8.52790   17.44720   17.44720   58.50210   49.43180   49.43180    -999.25   12.29370   12.29370   58.50210  113.43490 -152.52690  -76.80500  113.43490
 3600.00000    8.16690    8.16690   67.95740   67.95740   13.98430   55.17350   55.17350    -999.25   12.84630   12.84630   13.98430   61.16520 -176.62770 -100.41550   61.16520
 3650.00000   12.10330   12.10330  353.25760  353.25760    3.29370   84.74700   84.74700    -999.25   70.71110   70.71110    3.29370    3.78840  -99.87850  -23.18080    3.78840
 3700.00000    8.25980    8.25980   47.07580   47.07580   22.09910   51.58930   51.58930    -999.25   18.03460   18.03460   22.09910   64.57580 -142.93200  -65.74400   64.57580
 3750.00000    8.37970    8.37970   11.45420   11.45420   85.77400   47.95990   47.95990    -999.25   20.43980   20.43980   85.77400  137.45630 -130.79060  -53.11470  137.45630
 3800.00000    8.77770    8.77770   44.79070   44.79070   22.90900   53.17520   53.17520    -999.25   27.10710   27.10710   22.90900   45.33590 -114.32410  -36.16280   45.33590
 3850.00000    8.73830    8.73830   86.10720   86.10720   12.68360   57.71840   57.71840    -999.25   31.61400   31.61400   12.68360   21.14930 -122.60120  -43.94960   21.14930
 3900.00000    8.61060    8.61060   28.83090   28.83090   33.15250   56.10640   56.10640    -999.25   30.33420   30.33420   33.15250   38.91250 -108.26340  -29.12630   38.91250
 3950.00000    9.22360    9.22360   21.15480   21.15480   46.19280   54.70830   54.70830    -999.25   22.12660   22.12660   46.19280   50.48880 -108.47690  -28.84940   50.48880
 4000.00000    9.06840    9.06840   55.56550   55.56550   18.64240   56.99240   56.99240    -999.25   17.51120   17.51120   18.64240   29.72960 -120.88670  -40.77150   29.72960
 4050.00000    8.72000    8.72000   47.70450   47.70450   21.47200   61.85490   61.85490    -999.25   35.08740   35.08740   21.47200   27.18930  -85.04610   -4.44540   27.18930
 4100.00000   13.24000   13.24000  383.64030  383.64030    2.93140  103.76640  103.76640    -999.25   60.09120   60.09120    2.93140    3.35840  -97.31310   -0.64080    3.35840
 4150.00000   11.35510   11.35510  252.60730  252.60730    4.27270   88.39690   88.39690    -999.25   57.22390   57.22390    4.27270    4.67040 -103.17610    1.43420    4.67040
 4200.00000   11.37350   11.37350  305.12960  305.12960    3.66440   93.14420   93.14420    -999.25   64.95650   64.95650    3.66440    3.96610  -99.85500    5.48370    3.96610
 4250.00000   13.37500   13.37500  367.93260  367.93260    2.94640  100.57680  100.57680    -999.25   57.71080   57.71080    2.94640    3.24840  -97.58480    8.27870    3.24840
 4300.00000   12.49720   12.49720  319.81360  319.81360    3.47430   96.43910   96.43910    -999.25   59.56090   59.56090    3.47430    3.77540 -105.72450    0.56940    3.77540
 4350.00000   13.34720   13.34720  419.54860  419.54860    2.64850  101.43910  101.43910    -999.25   57.46680   57.46680    2.64850    2.95080  -94.82450   10.15160    2.95080
 4400.00000    8.53970    8.53970  217.15760  217.15760    4.81760   82.58070   82.58070    -999.25   61.79720   61.79720    4.81760    6.34630  -81.19760   22.47400    6.34630
 4450.00000   13.44470   13.44470  402.68700  402.68700    2.74690  105.76190  105.76190    -999.25   50.25160   50.25160    2.74690    3.04810  -98.53410   -8.06630    3.04810
 4500.00000    8.30720    8.30720   57.40340   57.40340   17.49620   64.44060   64.44060    -999.25   26.99680   26.99680   17.49620   23.85770  -83.52130   -0.27930   23.85770
 4550.00000    8.85760    8.85760  156.96660  156.96660    6.90670   77.91030   77.91030    -999.25   39.01720   39.01720    6.90670   10.07970  -91.18800   -9.82070   10.07970
 4600.00000    8.53610    8.53610   41.64400   41.64400   23.45460   57.10670   57.10670    -999.25   23.32140   23.32140   23.45460   29.99090  -85.51410   -5.95800   29.99090
 4650.00000    8.80540    8.80540   57.96200   57.96200   20.18970   59.78950   59.78950    -999.25   31.13890   31.13890   20.18970   23.14400  -83.24170   -5.39410   23.14400
 4700.00000    8.52140    8.52140   39.32080   39.32080   24.69370   57.58710   57.58710    -999.25   16.98410   16.98410   24.69370   29.78050  -97.50560  -21.35240   29.78050
 4750.00000   11.05430   11.05430  135.65920  135.65920    7.77990   72.23740   72.23740    -999.25   47.30410   47.30410    7.77990    9.28040  -81.22160   -6.75440    9.28040
 4800.00000    8.71510    8.71510   74.81020   74.81020   13.01830   64.03310   64.03310    -999.25   31.72190   31.72190   13.01830   17.85070  -76.35980   -2.20560   17.85070
 4850.00000    8.39820    8.39820  105.05900  105.05900    9.67960   69.75590   69.75590    -999.25   51.35260   51.35260    9.67960   13.07300  -77.01390   -1.50670   13.07300
 4900.00000    8.08430    8.08430   80.48050   80.48050   12.03600   63.62150   63.62150    -999.25   35.11280   35.11280   12.03600   17.87600  -84.68310   -6.37540   17.87600
 4950.00000   11.44330   11.44330  288.82550  288.82550    3.92300   91.69480   91.69480    -999.25   67.88640   67.88640    3.92300    4.59140  -99.45070  -17.59840    4.59140
 5000.00000   13.36490   13.36490  372.45590  372.45590    3.15570  104.13990  104.13990    -999.25   68.09250   68.09250    3.15570    3.93660  -94.67860   -9.29940    3.93660
 5050.00000   11.09110   11.09110  272.27410  272.27410    4.37670   89.53690   89.53690    -999.25   66.29730   66.29730    4.37670    4.97230 -104.74570  -18.23190    4.97230
 5100.00000   10.46940   10.46940  260.37620  260.37620    4.54950   85.58000   85.58000    -999.25   72.98300   72.98300    4.54950    5.24870 -110.38250  -22.97600    5.24870
 5150.00000   11.06020   11.06020  171.50010  171.50010    6.17370   86.97240   86.97240    -999.25   49.35830   49.35830    6.17370    7.19220 -113.88160  -25.73980    7.19220
