~Version ---------------------------------------------------
VERS.      2.0 : CWLS log ASCII Standard -VERSION 2.0
WRAP.       NO : One line per depth step
CREA. 12/07/17 : LAS Creation Date
~Well ------------------------------------------------------
STRT.FT                                  300.0 : START DEPTH
STOP.FT                                 6600.0 : STOP DEPTH
STEP.FT                               50.00000 : STEP LENGTH
NULL.                                  -999.25 : NULL VALUE
COMP. THE BRITISH AMERICAN OIL COMPANY LIMITED : COMPANY
WELL.             B.A. RED WILLOW 6-10-41-19W4 : WELL
FLD .                                          : FIELD
LOC .                                          : LOCATION
CTRY.                                   CANADA : COUNTRY
SRVC.                             Schlumberger : SERVICE COMPANY
DATE.                              22-Jan-1959 : LOGDATE
PROV.                                  Alberta : PROVINCE
UWI .                         100061004119W400 : UNIQUE WELL ID
SLAT.WGS84                            52.51217 : SURFACE LATITUDE
SLON.WGS84                           -112.6579 : SURFACE LONGITUDE
~Curve Information -----------------------------------------
DEPT   .FT         : Depth Curve
AMLLED .OHMM       : AMPLIFIED MICRO-LATEROLOG RESISTIVITY
CALWS  .IN         : CALIPER [MCALED]
CILDED .MMHO       : CONDUCTIVITY FROM RESISTIVITY LOG
CONDWS .MMHO       : CONDUCTIVITY [1000/DRESWS]
DRESWS .OHMM       : DEEP RESISTIVITY [ILDED] IF ILDED<1;1000/CILDED;ELSE ILDED
GRNED  .UgRa-Eq/T  : GAMMA RAY FROM GRN LOG
GRWS   .GAPI       : GAMMA RAY [GRNED] (CONVERTED SCALE *16.5API)
ILDED  .OHMM       : INDUCTION LOG DEEP RESISTIVITY
MCALED .IN         : MICROCALIPER FROM MLL LOG
NEUT1ED.CU         : NEUTRON FROM NEUTRON LOG
NEUT2ED.CU         : NEUTRON FROM NEUTRON LOG
NEUTED .CPS        : NEUTRON FROM GRN LOG [DEPTH ADJ TO ILD]
NEUTWS .CU         : NEUTRON [NEUTED]
SNED   .OHMM       : 16 INCH SHORT NORMAL RESISTIVITY FROM IEL
SPRED  .MV         : SPONTANEOUS POTENTIAL FROM RESISTIVITY LOG
SPWS   .MV         : SPONTANEOUS POTENTIAL [BASELINE 0 MV] [SPRED]
SRESWS .OHMM       : SHALLOW RESISTIVITY [SNED]
~Params ----------------------------------------------------
LMF .                     KB : LOG MEASURED FROM
DMF .                     KB : DRILLING MEASURED FROM
EKB .FT                 2582 : KELLY BUSHING
DATE.               01/22/59 : RUN DATE
RUN .                      2 : RUN NUMBER
DD  .FT                 6600 : DEPTH DRILLER
DL  .FT                 6601 : DEPTH LOGGER
BLI .FT                 6596 : BOTTOM LOG INTERVAL
TLI .FT                 4382 : TOP LOG INTERVAL
CBD .FT                  625 : CASING BOTTOM DRILLER
CBL .FT                  624 : CASING BOTTOM LOGGER
BS  .IN                7.875 : BIT SIZE
BSD .FT                 6600 : BIT SIZE AT DEPTH
DFT .               GYP BASE : DRILLING FLUID TYPE
DFD .                   10.2 : DRILLING FLUID DENSITY
DFV .                     65 : DRILLING FLUID VISCOSITY
DFPH.                      7 : DRILLING FLUID PH
DFL .                    8.8 : DRILLING FLUID LOSS
MSS .             CURCULATED : MUD SAMPLE SOURCE
RMS .OHMM                0.7 : RESISTIVITY MUD SAMPLE
MST .DEGF                 55 : MUD SAMPLE TEMPERATURE
RMF .OHMM                0.4 : RESISTIVITY MUD FILTRATE SAMPLE
MFST.DEGF                 72 : MUD FILTRATE SAMPLE TEMPERATURE
RMC .OHMM                  1 : RESISTIVITY MUD CAKE
MCST.DEGF                 72 : MUD CAKE SAMPLE TEMPERATURE
RMB .OHMM               0.28 : RESISTIVITY MUD AT BHT
TCS .HRS                   2 : TIME CIRCULATED STOPPED
LUN .                  2753C : LOGGING UNIT NUMBER
LUL .                     RD : LOGGING UNIT LOCATION
ENGI.                FORSTER : RECORDING ENGINEER
WITN.                CARLSEN : WITNESSED BY
CLNT.                A2DTECH : CLIENT CODE
ORIG.            2" 5" PRINT : ORIGIN OF DATA
UWI .       100061004119W400 : UNIQUE WELL ID
DICO. A2D Technologies, Inc. : DIGITIZING COMPANY
~Other -----------------------------------------------------
IEL/MICROLOG/GRN LOG RUN
~ASCII -----------------------------------------------------
# ...
 2350.00000    -999.25   11.66660  135.79260  141.15320    7.08450    7.97350  131.56270    7.08450   11.66660    -999.25    -999.25  168.28180  168.28180    8.67410  -48.73930  -22.32930    8.67410
 2400.00000    -999.25   10.35670  128.40300  135.69070    7.36970    9.19360  151.69440    7.36970   10.35670    -999.25    -999.25  163.40070  163.40070    9.30130  -46.99940  -20.94440    9.30130
 2450.00000    -999.25    9.50640  118.81930  124.35950    8.04120    9.45140  155.94810    8.04120    9.50640    -999.25    -999.25  183.26030  183.26030   11.16290  -42.05680  -16.35680   11.16290
 2500.00000    -999.25    9.92220  112.15610  123.25740    8.11310    9.12710  150.59720    8.11310    9.92220    -999.25    -999.25  168.17370  168.17370   10.84990  -40.56180  -15.21680   10.84990
 2550.00000    -999.25   10.12750  137.95510  143.95530    6.94660    9.65920  159.37680    6.94660   10.12750    -999.25    -999.25  162.97010  162.97010    9.31580  -38.92110  -13.93110    9.31580
 2600.00000    -999.25    9.71030  141.19790  147.50350    6.77950    9.63160  158.92140    6.77950    9.71030    -999.25    -999.25  171.37380  171.37380    9.06360  -39.57150  -14.93650    9.06360
 2650.00000    -999.25   10.16460  158.85270  169.11600    5.91310    8.74190  144.24130    5.91310   10.16460    -999.25    -999.25  179.46770  179.46770    7.84670  -38.96790  -14.68800    7.84670
 2700.00000    -999.25    9.17750  109.21460  110.93240    9.01450   10.10890  166.79690    9.01450    9.17750    -999.25    -999.25  184.24700  184.24700   12.30810  -33.45860   -9.53370   12.30810
 2750.00000    -999.25   10.27160  117.05850  127.63400    7.83490    7.83420  129.26430    7.83490   10.27160    -999.25    -999.25  180.61300  180.61300    9.05160  -39.53110  -15.96120    9.05160
 2800.00000    -999.25   10.34540  142.71350  147.27110    6.79020    8.87780  146.48370    6.79020   10.34540    -999.25    -999.25  192.32320  192.32320    8.22960  -38.94740  -15.73250    8.22960
 2850.00000    -999.25   10.58280  160.28380  165.00830    6.06030    8.60940  142.05510    6.06030   10.58280    -999.25    -999.25  181.13320  181.13320    7.92940  -37.68630  -14.82640    7.92940
 2900.00000    -999.25    9.58460  116.44560  121.02440    8.26280    8.41470  138.84250    8.26280    9.58460    -999.25    -999.25  176.92560  176.92560    9.43870  -40.89870  -18.39390    9.43870
 2950.00000    -999.25    9.05060  132.60890  136.57470    7.32200    8.59880  141.88020    7.32200    9.05060    -999.25    -999.25  174.06460  174.06460    8.86060  -40.16920  -18.01940    8.86060
 3000.00000    -999.25   10.09820  115.65050  123.90960    8.07040    8.60000  141.90000    8.07040   10.09820    -999.25    -999.25  192.20930  192.20930    9.80370  -39.61940  -17.82460    9.80370
 3050.00000    -999.25    9.47800  155.53700  160.48270    6.23120    8.35970  137.93500    6.23120    9.47800    -999.25    -999.25  181.54060  181.54060    8.28070  -39.20540  -17.76560    8.28070
 3100.00000    -999.25    9.90930  194.56620  204.31510    4.89440    8.59450  141.80920    4.89440    9.90930    -999.25    -999.25  171.06250  171.06250    6.43360  -34.11250  -13.02770    6.43360
 3150.00000    -999.25    8.09200  112.70360  113.73330    8.79250   10.37730  171.22550    8.79250    8.09200    -999.25    -999.25  196.15090  196.15090   11.77860  -28.26350   -7.53380   11.77860
 3200.00000    -999.25    8.03860   82.16310   81.79490   12.22570    9.57480  157.98420   12.22570    8.03860    -999.25    -999.25  181.92180  181.92180   16.71690  -31.69690  -11.32220   16.71690
 3250.00000    -999.25    9.52970  160.24710  166.47240    6.00700    9.27710  153.07220    6.00700    9.52970    -999.25    -999.25  176.35610  176.35610    8.81530  -30.88510  -10.86540    8.81530
 3300.00000    -999.25    7.99430   86.96410   89.61060   11.15940   16.95920  279.82680   11.15940    7.99430    -999.25    -999.25  182.81060  182.81060   17.95690  -26.93860   -7.27390   17.95690
 3350.00000    -999.25    8.92720  212.80030  221.48880    4.51490   11.56900  190.88850    4.51490    8.92720    -999.25    -999.25  180.89210  180.89210    6.72950  -25.75870   -6.44900    6.72950
 3400.00000    -999.25    8.01770  268.15230  266.97990    3.74560   11.94640  197.11560    3.74560    8.01770    -999.25    -999.25  185.21290  185.21290    5.06030  -21.94250   -2.98780    5.06030
 3450.00000    -999.25    9.31540  290.47930  303.94210    3.29010    7.12940  117.63510    3.29010    9.31540    -999.25    -999.25  183.50530  183.50530    4.18700  -24.22370   -5.62410    4.18700
 3500.00000    -999.25   10.09010  432.27410  408.93110    2.44540    8.50590  140.34740    2.44540   10.09010  150.08840  386.96440  176.83560  176.83560    2.99370  -21.43270   -3.18810    2.99370
 3550.00000    -999.25   10.23940  341.33060  332.60160    3.00660    8.59300  141.78450    3.00660   10.23940  181.12620  388.91720  178.60930  178.60930    3.65920  -21.89350   -3.99880    3.65920
 3600.00000    -999.25    7.48530  227.90560  232.36900    4.30350    3.60440   59.47260    4.30350    7.48530  411.31500  679.85030  236.21040  236.21040   11.33030  -75.10830  -57.31520   11.33030
 3650.00000    -999.25   10.52560  309.43320  317.30920    3.15150    8.26830  136.42700    3.15150   10.52560   90.58200  395.96910  183.41040  183.41040    3.76530  -22.37610   -4.68460    3.76530
 3700.00000    -999.25   11.26680  664.70060  582.47900    1.71680    8.11200  133.84800    1.71680   11.26680  192.01510  392.12810  169.95290  169.95290    2.06770  -20.04970   -2.45980    2.06770
 3750.00000    -999.25    8.03010  123.74110  123.80990    8.07690    5.60090   92.41490    8.07690    8.03010  288.94290  521.80700  239.37420  239.37420   10.75370  -35.73610  -18.24780   10.75370
 3800.00000    -999.25    8.17890  194.05630  202.32270    4.94260    4.51820   74.55030    4.94260    8.17890  270.73900  471.92400  240.71510  240.71510    5.89380  -27.48280  -10.09610    5.89380
 3850.00000    -999.25    8.05940  150.66530  154.35430    6.47860    7.80050  128.70830    6.47860    8.05940  424.29100  579.45680  208.77380  208.77380    9.17670  -22.48120   -5.19600    9.17670
 3900.00000    -999.25    7.76690  180.22740  187.39930    5.33620    6.62200  109.26300    5.33620    7.76690  455.79080  512.16340  222.11620  222.11620   10.62550  -45.95530  -28.77170   10.62550
 3950.00000    -999.25    8.03770  168.63920  176.87530    5.65370    6.81710  112.48220    5.65370    8.03770  465.88340  502.61110  210.07610  210.07610    8.10890  -41.77890  -24.69690    8.10890
 4000.00000    -999.25    7.85540   27.42970   25.83550   38.70640    5.17300   85.35450   38.70640    7.85540  297.52130  355.70990  171.68220  171.68220   42.20710  -49.21600  -32.23560   42.20710
 4050.00000    -999.25    8.04780  168.71120  174.79770    5.72090    7.19530  118.72240    5.72090    8.04780  516.92600  535.39020  205.46420  205.46420    7.62780  -42.57620  -25.69740    7.62780
 4100.00000    -999.25    7.78980  123.00550  132.85860    7.52680    3.41240   56.30460    7.52680    7.78980  597.37290  659.59230  268.67430  268.67430   44.94130  -98.87220  -82.09500   44.94130
 4150.00000    -999.25    7.57990  358.78320  345.54250    2.89400    3.91220   64.55130    2.89400    7.57990    -999.25    -999.25  231.56690  231.56690   16.70820 -107.33480  -90.65920   16.70820
 4200.00000    -999.25    7.73020  186.34670  196.29400    5.09440    7.01280  115.71120    5.09440    7.73020    -999.25    -999.25  209.25640  209.25640   14.88680  -56.85920  -40.28520   14.88680
 4250.00000    -999.25    7.80490  117.95320  108.19120    9.24290    8.38530  138.35750    9.24290    7.80490    -999.25    -999.25  212.52760  212.52760   11.97390  -25.85860   -9.38610   11.97390
 4300.00000   12.44850    7.75090  171.56500  183.41220    5.45220    5.50930   90.90430    5.45220    7.75090    -999.25    -999.25  250.57290  250.57290   10.12150  -46.35420  -29.98330   10.12150
 4350.00000    1.24770    7.33570 1596.93790 1596.93790    0.62620    2.70690   44.66470    0.87850    7.33570    -999.25    -999.25  248.54830  248.54830    1.86840 -141.86600 -125.59670    1.86840
