~Version ---------------------------------------------------
VERS.      2.0 : CWLS log ASCII Standard -VERSION 2.0
WRAP.       NO : One line per depth step
CREA. 11/20/17 : LAS Creation Date
~Well ------------------------------------------------------
STRT.FT                            1200.0 : START DEPTH
STOP.FT                           11350.0 : STOP DEPTH
STEP.FT                          50.00000 : STEP LENGTH
NULL.                             -999.25 : NULL VALUE
COMP.       AMOCO CANADA PETROLEUM CO LTD : COMPANY
WELL. AMOCO MOBIL L-2 WAHIGAN 10-16-64-23 : WELL
FLD .                                     : FIELD
LOC .                                     : LOCATION
CTRY.                              CANADA : COUNTRY
SRVC.                             Unknown : SERVICE COMPANY
DATE.                         06-Feb-1976 : LOGDATE
PROV.                             Alberta : PROVINCE
UWI .                    100101606423W500 : UNIQUE WELL ID
SLAT.WGS84                       54.53986 : SURFACE LATITUDE
SLON.WGS84                      -117.4124 : SURFACE LONGITUDE
~Curve Information -----------------------------------------
DEPT    .FT    : Depth Curve
ACED    .US/F  : ACOUSTIC TIME FROM SONIC LOG [ADJ. TO RESISTIVITY LOG]
CALDED  .IN    : CALIPER FROM DENSITY LOG
CALSED  .IN    : CALIPER FROM SONIC LOG [ADJ. TO RESISTIVITY LOG]
CALWS   .IN    : CALIPER [CALDED]
CONDWS  .MMHO  : CONDUCTIVITY [1000/DRESWS]
CORRED  .G/C3  : DENSITY CORRECTION FROM DENSITY LOG [ADJ. TO RESISTIVITY LOG]
DCORWS  .G/C3  : DENSITY CORRECTION [CORRED]
DENWS   .G/C3  : FORMATION BULK DENSITY [RHOBED]
DPHILSED.V/V   : DENSITY POROSITY LIMESTONE [M=2.71, F=1.00] FROM DENSITY LOG [ADJ. TO RESISTIVITY LOG]
DPHISSED.V/V   : DENSITY POROSITY SANDSTONE [M=2.65, F=1.00]FROM DENSITY LOG [ADJ. TO RESISTIVITY LOG]
DPOLSWS .V/V   : DENSITY POROSITY LIMESTONE [CALC. FROM DENWS, M=2.71, F=1.00]
DRESWS  .OHMM  : DEEP RESISTIVITY [ILDED]
DTWS    .US/F  : COMPRESSIONAL SONIC [ACED]
GRDED   .GAPI  : GAMMA RAY FROM DENSITY LOG
GRSED   .GAPI  : GAMMA RAY FROM SONIC LOG [ADJ. TO RESISTIVITY LOG]
GRWS    .GAPI  : GAMMA RAY [GRSED SPL. TO GRDED @ 11348']
ILDED   .OHMM  : DEEP INDUCTION LOG RESISTIVITY FROM RESISTIVITY LOG
ILMED   .OHMM  : MEDIUM INDUCTION LOG RESISTIVITY FROM RESISTIVITY LOG
MRESWS  .OHMM  : MEDIUM RESISTIVITY [ILMED]
NPHILSED.V/V   : NEUTRON POROSITY LIMESTONE FROM DENSITY LOG [ADJ. TO RESISTIVITY LOG]
NPHISSED.V/V   : NEUTRON POROSITY SANDSTONE FROM DENSITY LOG [ADJ. TO RESISTIVITY LOG]
NPOLSWS .V/V   : NEUTRON POROSITY LIMESTONE [NPHISSED MATRIX CONVERSION FOR LIMESTONE & SPL. TO NPHILSED @ 6845']
RHOBED  .G/C3  : BULK DENSITY FROM DENSITY LOG [ADJ. TO RESISTIVITY LOG]
SFLED   .OHMM  : SPHERICALLY FOCUSED RESISTIVITY FROM RESISTIVITY LOG
SPRED   .MV    : SPONTANEOUS POTENTIAL FROM RESISTIVITY LOG
SPWS    .MV    : SPONTANEOUS POTENTIAL [BASELINE 0 MV, SPRED]
SRESWS  .OHMM  : SHALLOW RESISTIVITY [SFLED]
~Params ----------------------------------------------------
PD  .                     GL : PERMANENT DATUM
EPD .FT               2628.5 : ELEVATION PERMANENT DATUM
LMF .                     KB : LOG MEASURED FROM
DAPD.FT                 13.5 : FEET ABOVE PERMANENT DATUM
DMF .                     KB : DRILLING MEASURED FROM
EKB .FT                 2642 : KELLY BUSHING
EGL .FT               2628.5 : GROUND LEVEL
DATE.               02/06/76 : RUN DATE
RUN .                      1 : RUN NUMBER
DD  .FT                11378 : DEPTH DRILLER
DL  .FT                11410 : DEPTH LOGGER
BLI .FT                11408 : BOTTOM LOG INTERVAL
TLI .FT                 1219 : TOP LOG INTERVAL
CS  .IN                9.625 : CASING SIZE
CBD .FT                 1208 : CASING BOTTOM DRILLER
CBL .FT                 1219 : CASING BOTTOM LOGGER
BS  .IN                 8.75 : BIT SIZE
BSD .FT                11378 : BIT SIZE AT DEPTH
DFT .           MUD GEL CHEM : DRILLING FLUID TYPE
DFD .                    9.3 : DRILLING FLUID DENSITY
DFV .                    135 : DRILLING FLUID VISCOSITY
DFPH.                     10 : DRILLING FLUID PH
DFL .                    8.1 : DRILLING FLUID LOSS
MSS .                   CIRC : MUD SAMPLE SOURCE
RMS .OHMM                3.5 : RESISTIVITY MUD SAMPLE
MST .DEGF                 67 : MUD SAMPLE TEMPERATURE
RMF .OHMM                3.5 : RESISTIVITY MUD FILTRATE SAMPLE
MFST.DEGF                 62 : MUD FILTRATE SAMPLE TEMPERATURE
RMC .OHMM                2.8 : RESISTIVITY MUD CAKE
MCST.DEGF                 67 : MUD CAKE SAMPLE TEMPERATURE
MFSS.                   MEAS : MUD FILTRATE SAMPLE SOURCE
MCSS.                   MEAS : MUD CAKE SAMPLE SOURCE
RMB .OHMM               1.21 : RESISTIVITY MUD AT BHT
TCS .HRS                   7 : TIME CIRCULATED STOPPED
LUN .                   6155 : LOGGING UNIT NUMBER
LUL .                    EDM : LOGGING UNIT LOCATION
ENGI.                    GAU : RECORDING ENGINEER
WITN.                  KAREL : WITNESSED BY
CLNT.                A2DTECH : CLIENT CODE
ORIG.            2" 5" PRINT : ORIGIN OF DATA
UWI .       100101606423W500 : UNIQUE WELL ID
DICO. A2D Technologies, Inc. : DIGITIZING COMPANY
~Other -----------------------------------------------------
~ASCII -----------------------------------------------------
# ...
 3800.00000   92.16110   12.77710   10.93990   12.77710  183.31810    0.11190    0.11190    1.85560    -999.25    0.49470    0.49960    5.45500   92.16110  147.96280  105.07220  105.07220    5.45500    6.00920    6.00920    -999.25    0.41330    0.37330    1.85560    7.67550  -72.35930   -9.81870    7.67550
 3850.00000  106.43230   12.69570   11.81570   12.69570  215.84750    0.18710    0.18710    1.82800    -999.25    0.50570    0.51580    4.63290  106.43230  145.59970  101.59240  101.59240    4.63290    4.35160    4.35160    -999.25    0.44320    0.40320    1.82800    6.41840  -74.14700  -11.97590    6.41840
 3900.00000   85.77400   11.00380   10.26310   11.00380  169.61510    0.22340    0.22340    2.25870    -999.25    0.23910    0.26390    5.89570   85.77400  130.17930   98.88930   98.88930    5.89570    6.26900    6.26900    -999.25    0.39760    0.35760    2.25870    7.59900  -71.65480   -9.85080    7.59900
 3950.00000   92.47870   12.71760   10.86450   12.71760  178.66820    0.14460    0.14460    2.18540    -999.25    0.32410    0.30680    5.59700   92.47870  141.48370  120.80230  120.80230    5.59700    6.13530    6.13530    -999.25    0.37070    0.33070    2.18540    8.12580  -91.21930  -29.78470    8.12580
 4000.00000   80.83340   10.99840    9.85050   10.99840  127.49250    0.25150    0.25150    2.11440    -999.25    0.33080    0.34830    7.84360   80.83340  128.98780  101.91420  101.91420    7.84360    8.86160    8.86160    -999.25    0.32690    0.28690    2.11440   14.09750  -70.59460   -9.52710   14.09750
 4050.00000   84.41880   11.23630   10.72930   11.23630  140.84310    0.22130    0.22130    2.02570    -999.25    0.37940    0.40020    7.10010   84.41880  140.09320  102.28780  102.28780    7.10010    7.74090    7.74090    -999.25    0.36310    0.32310    2.02570   10.73620  -70.32330   -9.62290   10.73620
 4100.00000   84.86800   11.24830   10.45200   11.24830  142.78780    0.19540    0.19540    1.97070    -999.25    0.42280    0.43230    7.00340   84.86800  138.66200  100.14330  100.14330    7.00340    7.82510    7.82510    -999.25    0.34740    0.30740    1.97070   11.16670  -68.80590   -8.47500   11.16670
 4150.00000   85.39810   11.51360   10.48960   11.51360  163.91560    0.19980    0.19980    2.00650    -999.25    0.40350    0.41140    6.10070   85.39810  140.18460  104.96570  104.96570    6.10070    6.76560    6.76560    -999.25    0.42670    0.38670    2.00650    9.01920  -67.90660   -7.94280    9.01920
 4200.00000   92.73130   13.14980   11.16830   13.14980  180.64080    0.15130    0.15130    1.76940    -999.25    0.54110    0.55010    5.53580   92.73130  140.03240   97.56720   97.56720    5.53580    6.06690    6.06690    -999.25    0.48560    0.44620    1.76940    7.89100  -67.49800   -7.90370    7.89100
 4250.00000   81.01590   13.08680   11.06550   13.08680  142.85510    0.11910    0.11910    1.66050    -999.25    0.59930    0.61370    7.00010   81.01590  134.82260  107.66070  107.66070    7.00010    7.66860    7.66860    -999.25    0.41500    0.37500    1.66050    9.03510  -66.29680   -7.06950    9.03510
 4300.00000   92.89700   13.21500   11.77080   13.21500  184.45760    0.12200    0.12200    1.62480    -999.25    0.60000    0.63460    5.42130   92.89700  149.37940  108.96310  108.96310    5.42130    6.03160    6.03160    -999.25    0.51860    0.48030    1.62480    8.14530  -65.48070   -6.62050    8.14530
 4350.00000   90.39790   13.46010   10.95320   13.46010  169.84850    0.15400    0.15400    1.73310    -999.25    0.56490    0.57130    5.88760   90.39790  148.39110  118.91380  118.91380    5.88760    6.70380    6.70380    -999.25    0.48280    0.44340    1.73310    9.40520  -64.92440   -6.43370    9.40520
 4400.00000   94.64590   13.33870   11.19870   13.33870  170.31420    0.14740    0.14740    1.72610    -999.25    0.57580    0.57540    5.87150   94.64590  149.42370  109.84790  109.84790    5.87150    6.55180    6.55180    -999.25    0.43940    0.39940    1.72610    9.72170  -64.61860   -6.49500    9.72170
 4450.00000   90.34340   13.02170   10.88010   13.02170  152.06280    0.16990    0.16990    1.80230    -999.25    0.52920    0.53080    6.57730   90.34340  150.66030  114.33830  114.33830    6.57730    7.69790    7.69790    -999.25    0.47970    0.44020    1.80230   10.90610  -63.79390   -6.03980   10.90610
 4500.00000   92.73370   13.39980   11.55260   13.39980  169.99000    0.18450    0.18450    1.84730    -999.25    0.49800    0.50450    5.88270   92.73370  143.44930  103.40700  103.40700    5.88270    6.43880    6.43880    -999.25    0.48910    0.44990    1.84730   10.67340  -63.81490   -6.42790   10.67340
 4550.00000   91.98450   13.36520   11.84150   13.36520  167.20170    0.22320    0.22320    2.00160    -999.25    0.40300    0.41430    5.98080   91.98450  141.60980  103.97460  103.97460    5.98080    6.42020    6.42020    -999.25    0.50430    0.46550    2.00160    9.71650  -63.00880   -5.98890    9.71650
 4600.00000  100.04970   11.80300    9.58690   11.80300  130.28130    0.23890    0.23890    2.07950    -999.25    0.34680    0.36870    7.67570  100.04970  191.70490  139.86850  139.86850    7.67570    9.45870    9.45870    -999.25    0.50180    0.46290    2.07950   18.21360  -60.64780   -3.99730   18.21360
 4650.00000   94.59260   13.51190   11.58660   13.51190  181.81490    0.19080    0.19080    1.88060    -999.25    0.48510    0.48500    5.50010   94.59260  148.02410  104.39680  104.39680    5.50010    6.21840    6.21840    -999.25    0.51180    0.47320    1.88060   11.13530  -60.71120   -4.42780   11.13530
 4700.00000  102.08360   10.02940    9.36250   10.02940  119.28390    0.22970    0.22970    2.21760    -999.25    0.27620    0.28800    8.38340  102.08360  209.33270  156.50470  156.50470    8.38340    9.98980    9.98980    -999.25    0.45860    0.41870    2.21760   21.33040  -62.18640   -6.27250   21.33040
 4750.00000   78.41320   11.96620   10.21110   11.96620  137.06140    0.27930    0.27930    2.19570    -999.25    0.22580    0.30080    7.29600   78.41320  127.12390  104.70520  104.70520    7.29600    8.14810    8.14810    -999.25    0.35810    0.31810    2.19570   11.20640  -65.35330   -9.80650   11.20640
 4800.00000   90.36170   13.32890   11.35770   13.32890  192.71160    0.21350    0.21350    1.94980    -999.25    0.43210    0.44460    5.18910   90.36170  126.22100  103.22630  103.22630    5.18910    5.86800    5.86800    -999.25    0.50200    0.46310    1.94980    7.93250  -62.76420   -7.58450    7.93250
 4850.00000   81.91460   12.37440   10.65720   12.37440  149.13350    0.20710    0.20710    2.08150    -999.25    0.35860    0.36750    6.70540   81.91460  146.62870  113.44270  113.44270    6.70540    7.29240    7.29240    -999.25    0.43090    0.39090    2.08150    9.63230  -72.13120  -17.32100    9.63230
 4900.00000   78.51300   11.69610   10.70970   11.69610  149.12020    0.19670    0.19670    2.00980    -999.25    0.39550    0.40950    6.70600   78.51300  150.27590  117.77330  117.77330    6.70600    7.60550    7.60550    -999.25    0.34410    0.30410    2.00980   14.42930  -60.56870   -6.12550   14.42930
 4950.00000   82.67440   11.84840   11.33310   11.84840  147.95180    0.24960    0.24960    2.22110    -999.25    0.26320    0.28590    6.75920   82.67440  149.75190   99.71800   99.71800    6.75920    7.19400    7.19400    -999.25    0.40820    0.36820    2.22110    8.85440  -60.89440   -6.82070    8.85440
 5000.00000   80.67730   13.58720   11.14870   13.58720  217.86490    0.21860    0.21860    2.04180    -999.25    0.38380    0.39080    4.59000   80.67730  143.81840  110.53040  110.53040    4.59000    4.90120    4.90120    -999.25    0.45050    0.41050    2.04180    6.86180  -60.90650   -7.19990    6.86180
 5050.00000   79.24040   11.48250   10.82130   11.48250  128.80790    0.25800    0.25800    2.18710    -999.25    0.27600    0.30580    7.76350   79.24040  137.42440  102.34010  102.34010    7.76350    8.16550    8.16550    -999.25    0.33800    0.29800    2.18710    8.99060  -59.70070   -6.36120    8.99060
