~Version ---------------------------------------------------
VERS.      2.0 : CWLS log ASCII Standard -VERSION 2.0
WRAP.       NO : One line per depth step
CREA. 06/07/13 : LAS Creation Date
~Well ------------------------------------------------------
STRT.M                 350.0 : START DEPTH
STOP.M                4150.0 : STOP DEPTH
STEP.M              50.00000 : STEP LENGTH
NULL.                -999.25 : NULL VALUE
COMP.  CDC OIL & GAS LIMITED : COMPANY
WELL. CDCOG OBED 13-24-55-22 : WELL
FLD .                        : FIELD
LOC .                        : LOCATION
CTRY.                 CANADA : COUNTRY
SRVC. Schlumberger of Canada : SERVICE COMPANY
DATE.            06-Mar-1981 : LOGDATE
PROV.                Alberta : PROVINCE
UWI .       100132405522W500 : UNIQUE WELL ID
SLAT.WGS84          53.77035 : SURFACE LATITUDE
SLON.WGS84         -117.1407 : SURFACE LONGITUDE
~Curve Information -----------------------------------------
DEPT    .M      : DEPTH METER
CALDED  .MM     : CALIPER FROM DENSITY LOG [ADJ. TO RESISTIVITY LOG]
CALSED  .MM     : CALIPER FROM SONIC LOG [ADJ. TO RESISTIVITY LOG]
CALWS   .MM     : CALIPER [CALSED]
CONDWS  .MMHO   : CONDUCTIVITY [1000/DRESWS]
DCORED  .KG/M3  : DENSITY CORRECTION FROM DENSITY LOG [ADJ. TO RESISTIVITY LOG]
DCORWS  .KG/M3  : DENSITY CORRECTION [DCORED]
DENWS   .KG/M3  : FORMATION BULK DENSITY [CALC FROM DPOLSWS, M=2710, F=1000]
DPHILSED.V/V    : DENSITY POROSITY LIMESTONE [M=2710, F=1000] FROM DENSITY LOG [ADJ. TO RESISTIVITY LOG]
DPHISSED.V/V    : DENSITY POROSITY SANDSTONE [M=2650, F=1000] FROM DENSITY LOG [ADJ. TO RESISTIVITY LOG]
DPOLSWS .V/V    : DENSITY POROSITY LIMESTONE [DPHISSED CONVERTED TO LIMESTONE MATRIX, M=2.71, F=1.0, SPL.TO DPHILSED @ 2975.7M]
DRESWS  .OHMM   : DEEP RESISTIVITY [LLDED]
DTED    .US/M   : DELTA TIME FROM SONIC LOG [ADJ. TO RESISTIVITY LOG]
DTWS    .US/M   : COMPRESSIONAL SONIC [DTED]
GRDED   .GAPI   : GAMMA RAY FROM DENSITY LOG [ADJ. TO RESISTIVITY LOG]
GRRED   .GAPI   : GAMMA RAY FROM RESISTIVITY LOG
GRSED   .GAPI   : GAMMA RAY FROM SONIC LOG [ADJ. TO RESISTIVITY LOG]
GRWS    .GAPI   : GAMMA RAY [GRSED]
LLDED   .OHMM   : DEEP LATEROLOG FROM RESISTIVITY LOG
LLSED   .OHMM   : SHALLOW LATEROLOG FROM RESISTIVITY LOG
NPHILSED.V/V    : NEUTRON POROSITY LIMESTONE FROM DENSITY LOG [ADJ. TO RESISTIVITY LOG]
NPHISSED.V/V    : NEUTRON POROSITY SANDSTONE FROM DENSITY LOG [ADJ. TO RESISTIVITY LOG]
NPOLSWS .V/V    : NEUTRON POROSITY LIMESTONE [NPHISSED MATRIX SLB CNL (NPHI) CONVERSION FOR LIMESTONE, SPL.TO NPHILSED @ 2975.7M]
RHOBED  .KG/M3  : BULK DENSITY FROM DENSITY LOG [ADJ. TO RESISTIVITY LOG]
SPRED   .MV     : SPONTANEOUS POTENTIAL FROM RESISTIVITY LOG
SPWS    .MV     : SPONTANEOUS POTENTIAL [BASELINE 0 MV, SPRED]
SRESWS  .OHMM   : SHALLOW RESISTIVITY [LLSED]
~Params ----------------------------------------------------
PD  .                         GL : PERMANENT DATUM
EPD .M                   1011.77 : ELEVATION PERMANENT DATUM
LMF .                         KB : LOG MEASURED FROM
DAPD.M                       7.5 : FEET ABOVE PERMANENT DATUM
DMF .                         KB : DRILLING MEASURED FROM
EKB .M                   1019.27 : KELLY BUSHING
EGL .M                   1011.77 : GROUND LEVEL
DATE.                   03/06/81 : RUN DATE
RUN .                          2 : RUN NUMBER
DD  .M                      4183 : DEPTH DRILLER
DL  .M                    4185.5 : DEPTH LOGGER
BLI .M                    4184.6 : BOTTOM LOG INTERVAL
TLI .M                    2582.5 : TOP LOG INTERVAL
CS  .MM                      244 : CASING SIZE
CBD .M                    2582.6 : CASING BOTTOM DRILLER
CBL .M                    2582.5 : CASING BOTTOM LOGGER
BS  .MM                      216 : BIT SIZE
BSD .M                      4183 : BIT SIZE AT DEPTH
DFT .                        KCL : DRILLING FLUID TYPE
DFD .                       1060 : DRILLING FLUID DENSITY
DFV .                         64 : DRILLING FLUID VISCOSITY
DFPH.                         11 : DRILLING FLUID PH
DFL .                         12 : DRILLING FLUID LOSS
MSS .                CIRCULATION : MUD SAMPLE SOURCE
RMS .OHMM                  0.339 : RESISTIVITY MUD SAMPLE
MST .DEGC                   27.8 : MUD SAMPLE TEMPERATURE
RMF .OHMM                  0.267 : RESISTIVITY MUD FILTRATE SAMPLE
MFST.DEGC                   18.3 : MUD FILTRATE SAMPLE TEMPERATURE
MFSS.                      PRESS : MUD FILTRATE SAMPLE SOURCE
MCSS.                       MEAS : MUD CAKE SAMPLE SOURCE
RMB .OHMM                  0.118 : RESISTIVITY MUD AT BHT
TCS .HRS                     800 : TIME CIRCULATED STOPPED
TLAB.HRS                    2030 : TIME LOGGER AT BOTTOM
LUN .                       8112 : LOGGING UNIT NUMBER
LUL .                      EDSON : LOGGING UNIT LOCATION
ENGI.                    LEBLANC : RECORDING ENGINEER
WITN.                  MACDONALD : WITNESSED BY
CLNT.                    A2DTECH : CLIENT CODE
ORIG. 6.5"/100M 16.5"/100M PRINT : ORIGIN OF DATA
UWI .           100132405522W500 : UNIQUE WELL ID
DICO.     A2D Technologies, Inc. : DIGITIZING COMPANY
~Other -----------------------------------------------------
DLL-FDC-CNL-BHC LOG RUN
RHOBED, DCORED DIG IN SMALL SCALE
~ASCII -----------------------------------------------------
# ...
 1700.00000  315.99570  326.19440  326.19440   11.62200    1.14390    1.21860 2559.58000    -999.25    0.05480    0.08800   86.04360  205.71290  205.71290   38.67470   33.23920   37.59160   37.59160   86.04360   62.35340    -999.25    0.20400    0.16050 2564.12940 -109.61100    9.78140   62.35340
 1750.00000    -999.25  338.54580  338.54580   27.72590    -999.25    -999.25    -999.25    -999.25    -999.25    -999.25   36.06730  227.31010  227.31010    -999.25   73.55050   79.29650   79.29650   36.06730   31.80180    -999.25    -999.25    -999.25    -999.25 -112.63010    6.76230   31.80180
 1800.00000    -999.25  339.86500  339.86500   65.20440    -999.25    -999.25    -999.25    -999.25    -999.25    -999.25   15.33640  252.07730  252.07730    -999.25   82.42450   90.34700   90.34700   15.33640   13.54930    -999.25    -999.25    -999.25    -999.25 -111.21640   -2.66750   13.54930
 1850.00000    -999.25  338.36350  338.36350   36.38480    -999.25    -999.25    -999.25    -999.25    -999.25    -999.25   27.48400  243.37720  243.37720    -999.25   79.67710   77.21030   77.21030   27.48400   26.61550    -999.25    -999.25    -999.25    -999.25 -119.05140  -12.87020   26.61550
 1900.00000    -999.25  343.78660  343.78660   92.59000    -999.25    -999.25    -999.25    -999.25    -999.25    -999.25   10.80030  266.55230  266.55230    -999.25   83.14810   90.66940   90.66940   10.80030   10.39040    -999.25    -999.25    -999.25    -999.25 -108.75280   -5.00640   10.39040
 1950.00000    -999.25  339.20790  339.20790   84.30780    -999.25    -999.25    -999.25    -999.25    -999.25    -999.25   11.86130  254.84010  254.84010    -999.25   83.63720   89.59460   89.59460   11.86130   11.31380    -999.25    -999.25    -999.25    -999.25 -104.90130   -2.53790   11.31380
 2000.00000    -999.25  344.48860  344.48860   98.95900    -999.25    -999.25    -999.25    -999.25    -999.25    -999.25   10.10520  260.10760  260.10760    -999.25   80.59290   87.38410   87.38410   10.10520    9.58080    -999.25    -999.25    -999.25    -999.25 -107.50910    1.01840    9.58080
 2050.00000  318.42300  349.36410  349.36410   89.21400   -3.15170   -5.80660 2600.66500    -999.25    0.02990    0.06390   11.20900  260.14400  260.14400   88.91370   79.14380   88.34800   88.34800   11.20900   10.14750    -999.25    0.28240    0.23840 2600.06180 -105.10470    5.45900   10.14750
 2100.00000  309.14510  327.07810  327.07810   38.90520    1.33470    0.82330 2600.83000    -999.25    0.02980    0.06380   25.70350  226.62330  226.62330   84.60730   71.24300   78.90600   78.90600   25.70350   24.25820    -999.25    0.23000    0.18620 2597.99460 -109.00280    0.77760   24.25820
 2150.00000  318.81080  332.48340  332.48340   47.87090    2.17760    4.55720 2613.53500    -999.25    0.02210    0.05640   20.88950  228.02870  228.02870   88.39000   72.92010   82.23060   82.23060   20.88950   19.59930    -999.25    0.23950    0.19570 2608.08740 -103.43780    2.99810   19.59930
 2200.00000    -999.25  331.25000  331.25000   89.61780    -999.25    -999.25    -999.25    -999.25    -999.25    -999.25   11.15850  284.64590  284.64590    -999.25   86.25700   96.87740   96.87740   11.15850   11.55540    -999.25    -999.25    -999.25    -999.25 -101.89340    1.19800   11.55540
 2250.00000    -999.25  330.39000  330.39000   88.48700    -999.25    -999.25    -999.25    -999.25    -999.25    -999.25   11.30110  283.82340  283.82340    -999.25   82.06850   91.60360   91.60360   11.30110   11.50280    -999.25    -999.25    -999.25    -999.25 -103.26050   -3.51360   11.50280
 2300.00000    -999.25  341.29800  341.29800   79.93920    -999.25    -999.25    -999.25    -999.25    -999.25    -999.25   12.50950  296.16910  296.16910    -999.25   88.06590   92.75560   92.75560   12.50950   12.86160    -999.25    -999.25    -999.25    -999.25  -96.87990   -0.47750   12.86160
 2350.00000    -999.25  338.70680  338.70680  109.06080    -999.25    -999.25    -999.25    -999.25    -999.25    -999.25    9.16920  291.88620  291.88620    -999.25   79.53550   85.82840   85.82840    9.16920    9.41830    -999.25    -999.25    -999.25    -999.25  -97.92740    1.34040    9.41830
 2400.00000  326.36100  335.81800  335.81800  131.79050   -5.00600   -3.70160 2574.82520    -999.25    0.04560    0.07900    7.58780  264.57460  264.57460   93.47680   70.82880   73.10150   73.10150    7.58780    7.95340    -999.25    0.26990    0.22590 2574.82520  -97.76320    4.27450    7.95340
 2450.00000  325.93570  324.62010  324.62010  121.64270   -2.68760   -2.78790 2586.14500    -999.25    0.03870    0.07240    8.22080  260.83670  260.83670   98.32350   83.68020   98.50950   98.50950    8.22080    8.76610    -999.25    0.22830    0.18460 2588.58960  -99.15740    4.43870    8.76610
 2500.00000  325.63630  328.55180  328.55180  143.12910   -6.64370   -5.40280 2599.01500    -999.25    0.03090    0.06490    6.98670  279.40910  279.40910   98.18980   84.92200   90.75130   90.75130    6.98670    7.64990    -999.25    0.29050    0.24650 2598.37840  -92.56740    9.34750    7.64990
 2550.00000  344.25130  326.00480  326.00480  149.06020   35.31110   26.91880 2480.54500    -999.25    0.10270    0.13420    6.70870  270.21380  270.21380   99.64280   76.33510   79.25560   79.25560    6.70870    7.42950    -999.25    0.29290    0.24890 2486.43040  -95.59180    4.64200    7.42950
 2600.00000  335.19080  280.41680  280.41680  105.21550 -128.41240  -88.31170 2151.53500    -999.25    0.30210    0.32660    9.50430  359.74170  359.74170   75.10390   68.02480   67.36440   67.36440    9.50430    8.68780    -999.25    0.49600    0.45600 2074.59890  -96.79980    1.75290    8.68780
 2650.00000  239.54040  225.94110  225.94110   61.49120   -9.63660   -2.77730 2622.77500    -999.25    0.01650    0.05100   16.26250  218.37450  218.37450   52.37240   50.04540   46.43840   46.43840   16.26250   15.26230    -999.25    0.17090    0.12790 2621.16820  -96.80590    0.06570   15.26230
 2700.00000  265.52410  232.93340  232.93340   86.25150 -154.39470 -179.34380 2596.87000    -999.25    0.03220    0.06620   11.59400  242.66410  242.66410   79.52380   73.97580   74.40270   74.40270   11.59400    8.55310    -999.25    0.21020    0.16660 2598.67770  -90.01290    5.17760    8.55310
 2750.00000  244.74480  229.01730  229.01730   56.48150  -14.67850  -21.81230 2606.27500    -999.25    0.02650    0.06070   17.70490  218.44030  218.44030   68.48810   65.49010   56.66900   56.66900   17.70490   17.77200    -999.25    0.17550    0.13240 2603.12230  -86.11060    7.39870   17.77200
 2800.00000  233.46880  222.20530  222.20530   11.72910  -11.72560  -11.51150 2618.48500    -999.25    0.01910    0.05350   85.25770  204.80390  204.80390   60.97360   59.35290   55.08010   55.08010   85.25770   80.90730    -999.25    0.11330    0.07130 2610.98170  -94.71790   -2.88970   80.90730
 2850.00000  232.83150  220.45820  220.45820   25.26660   -2.97170  -11.34900 2613.04000    -999.25    0.02240    0.05670   39.57800  222.47230  222.47230  102.34410  101.60430   93.15900   93.15900   39.57800   37.93450    -999.25    0.19070    0.14740 2614.37330  -89.00560    1.78230   37.93450
 2900.00000  244.25130  216.40960  216.40960   28.99750 -134.77800 -197.78270 2670.13000    -999.25   -0.01220    0.02330   34.48570  207.86740  207.86740   81.78900   79.08690   77.39200   77.39200   34.48570   37.70300    -999.25    0.11270    0.07070 2699.28590  -87.56470    4.06510   37.70300
 2950.00000  330.85650  264.82380  264.82380   69.05840 -249.92340 -249.92390 2276.27500    -999.25    0.22650    0.25360   14.48050  288.78040  288.78040  108.65930  119.72080  103.08080  103.08080   14.48050   13.14900    -999.25    0.30930    0.26540 2289.24220  -68.21650   -3.40420   13.14900
 3000.00000  230.00020  206.82300  206.82300   10.86130   -9.40220   -7.43040 2553.19300    0.09170    0.05070    0.09170   92.06990  199.52570  199.52570   54.84890   50.34740   47.39810   47.39810   92.06990   68.32410    0.02260    0.05840    0.02260 2575.04250  -83.64500   -8.07860   68.32410
