~Version ---------------------------------------------------
VERS.      2.0 : CWLS log ASCII Standard -VERSION 2.0
WRAP.       NO : One line per depth step
CREA. 01/05/18 : LAS Creation Date
~Well ------------------------------------------------------
STRT.FT                            650.0 : START DEPTH
STOP.FT                           9200.0 : STOP DEPTH
STEP.FT                         50.00000 : STEP LENGTH
NULL.                            -999.25 : NULL VALUE
COMP.                 DENISON MINES LTD. : COMPANY
WELL. DENISON ET AL VIRG HILLS 4-7-65-12 : WELL
FLD .                                    : FIELD
LOC .                                    : LOCATION
CTRY.                             CANADA : COUNTRY
SRVC.                       Schlumberger : SERVICE COMPANY
DATE.                        14-Sep-1974 : LOGDATE
PROV.                            Alberta : PROVINCE
UWI .                   100040706512W500 : UNIQUE WELL ID
SLAT.WGS84                      54.60475 : SURFACE LATITUDE
SLON.WGS84                     -115.8121 : SURFACE LONGITUDE
~Curve Information -----------------------------------------
DEPT  .FT    : Depth Curve
CALSED.IN    : CALIPER FROM SONIC LOG [ADJ TO SPRED]
CALWS .IN    : CALIPER [CALSED]
CILDED.MMHO  : CONDUCTIVITY FROM RESISTIVITY LOG
CONDWS.MMHO  : CONDUCTIVITY [1000/DRESWS]
DRESWS.OHMM  : DEEP RESISTIVITY [ILDED]
DTED  .US/F  : DELTA TIME FROM SONIC LOG [ADJ TO SPRED]
DTWS  .US/F  : DELTA TIME [DTED]
GRSED .GAPI  : GAMMA RAY FROM SONIC LOG [ADJ TO SPRED]
GRWS  .GAPI  : GAMMA RAY [GRSED]
ILDED .OHMM  : INDUCTION LOG DEEP RESISTIVITY
ILMED .OHMM  : INDUCTION LOG MEDIUM RESISTIVITY
LL8ED .OHMM  : 8 INCH LATEROLOG RESISTIVITY
MRESWS.OHMM  : MEDIUM RESISTIVITY [ILMED]
SPRED .MV    : SPONTANEOUS POTENTIAL FROM RESISTIVITY LOG
SPWS  .MV    : SPONTANEOUS POTENTIAL [BASELINE 0 MV] [SPRED]
SRESWS.OHMM  : SHALLOW RESISTIVITY [LL8ED]
~Params ----------------------------------------------------
PD  .                     GL : PERMANENT DATUM
EPD .FT                 3432 : ELEVATION PERMANENT DATUM
LMF .                     KB : LOG MEASURED FROM
DAPD.FT                   14 : FEET ABOVE PERMANENT DATUM
EKB .FT                 3446 : KELLY BUSHING
EGL .FT                 3432 : GROUND LEVEL
DATE.               09/14/74 : RUN DATE
RUN .                      1 : RUN NUMBER
DD  .FT                 9235 : DEPTH DRILLER
DL  .FT                 9236 : DEPTH LOGGER
BLI .FT                 9230 : BOTTOM LOG INTERVAL
TLI .FT                  657 : TOP LOG INTERVAL
CBD .FT                  657 : CASING BOTTOM DRILLER
CBL .FT                  657 : CASING BOTTOM LOGGER
BS  .IN                7.875 : BIT SIZE
BSD .FT                 9235 : BIT SIZE AT DEPTH
DFT .               GEL CHEM : DRILLING FLUID TYPE
DFD .                    9.5 : DRILLING FLUID DENSITY
DFV .                     85 : DRILLING FLUID VISCOSITY
DFPH.                   10.4 : DRILLING FLUID PH
DFL .                    7.8 : DRILLING FLUID LOSS
MSS .               FLOWLINE : MUD SAMPLE SOURCE
RMS .OHMM                3.1 : RESISTIVITY MUD SAMPLE
MST .DEGF                 61 : MUD SAMPLE TEMPERATURE
RMF .OHMM               1.95 : RESISTIVITY MUD FILTRATE SAMPLE
MFST.DEGF                 69 : MUD FILTRATE SAMPLE TEMPERATURE
RMB .OHMM               0.75 : RESISTIVITY MUD AT BHT
TCS .HRS                 2.5 : TIME CIRCULATED STOPPED
LUN .                   7690 : LOGGING UNIT NUMBER
LUL .                    EDM : LOGGING UNIT LOCATION
ENGI.                SIMPSON : RECORDING ENGINEER
WITN.                BISSETT : WITNESSED BY
CLNT.                A2DTECH : CLIENT CODE
ORIG.            2" 5" PRINT : ORIGIN OF DATA
UWI .       100040706512W500 : UNIQUE WELL ID
DICO. A2D Technologies, Inc. : DIGITIZING COMPANY
~Other -----------------------------------------------------
IE-SONIC LOGS RUN
IE LOG DATA ALL CURVES TOP-8480' FROM 2" SCALE
SONIC LOG DATA ALL CURVES TOP-8490 FROM 2" SCALE
~ASCII -----------------------------------------------------
# ...
 4950.00000   10.02910   10.02910  247.37660  247.69640    4.03720   71.94770   71.94770   81.33230   81.33230    4.03720    -999.25    3.79810    -999.25  -82.17000   -9.13530    3.79810
 5000.00000   10.17090   10.17090  154.01710  149.10910    6.70650  108.92560  108.92560   77.41320   77.41320    6.70650    -999.25    7.80760    -999.25  -90.13230  -17.46560    7.80760
 5050.00000    9.32690    9.32690  156.66100  160.11530    6.24930   84.03110   84.03110   60.21810   60.21810    6.24930    -999.25   15.31160    -999.25 -134.23720  -61.93670   15.31160
 5100.00000    9.88250    9.88250  160.36760  158.10780    6.32480   69.77420   69.77420   54.24580   54.24580    6.32480    -999.25    7.41850    -999.25  -90.32200  -18.39130    7.41850
 5150.00000   10.28580   10.28580  115.35070  119.13490    8.39550  118.27010  118.27010   67.99220   67.99220    8.39550    -999.25   11.54690    -999.25  -80.30180   -8.73720   11.54690
 5200.00000    9.57350    9.57350  205.05000  211.91830    4.71880   78.46210   78.46210   77.60870   77.60870    4.71880    -999.25    5.75520    -999.25  -81.54940  -10.35470    5.75520
 5250.00000    9.57980    9.57980  148.48990  150.22010    6.65690   75.08840   75.08840   89.85680   89.85680    6.65690    -999.25    7.26720    -999.25  -81.83050  -11.00380    7.26720
 5300.00000    9.72560    9.72560  198.56390  190.21270    5.26500   82.48230   82.48230   77.77220   77.77220    5.26500    -999.25    5.75220    -999.25  -76.65840   -6.19790    5.75220
 5350.00000    8.16610    8.16610   83.34930   75.56980   13.23280   78.57950   78.57950   56.39070   56.39070   13.23280    -999.25   22.30390    -999.25 -135.72840  -65.63770   22.30390
 5400.00000    8.57360    8.57360   53.02000   47.96300   20.93150   62.29870   62.29870   34.02860   34.02860   20.93150    -999.25   37.37530    -999.25  -89.85390  -19.77390   37.37530
 5450.00000    9.48470    9.48470  111.72750  114.31840    8.74750   79.49020   79.49020   97.82050   97.82050    8.74750    -999.25   11.31700    -999.25  -85.06080  -14.94240   11.31700
 5500.00000    8.73990    8.73990  124.62390  131.26120    7.61840   76.36300   76.36300   62.16150   62.16150    7.61840    -999.25   17.03280    -999.25 -319.52650 -249.36990   17.03280
 5550.00000    9.14640    9.14640  133.14310  136.07880    7.34870   74.42470   74.42470  107.25210  107.25210    7.34870    -999.25    8.30240    -999.25 -118.42210  -48.22750    8.30240
 5600.00000    9.56440    9.56440  421.86630  432.24550    2.31350   72.67370   72.67370   35.80230   35.80230    2.31350    -999.25    5.48390    -999.25 -184.33930 -114.10620    5.48390
 5650.00000    9.09270    9.09270  116.42990  119.58300    8.36600   57.44610   57.44610   37.95780   37.95780    8.36600    -999.25   13.78970    -999.25 -164.74340  -94.47230   13.78970
 5700.00000    8.70710    8.70710   12.27190   10.39910   96.16180   48.37860   48.37860   18.95170   18.95170   96.16180    -999.25   70.99970    -999.25 -133.84650  -63.53690   70.99970
 5750.00000    8.36080    8.36080    7.92690    3.21550  310.99570   48.79660   48.79660   19.34670   19.34670  310.99570    -999.25  599.64810    -999.25 -188.48360 -118.13580  599.64810
 5800.00000    9.00850    9.00850    8.04400    4.81540  207.70020   50.72270   50.72270   15.62570   15.62570  207.70020    -999.25    -999.25    -999.25 -266.71450 -196.32860    -999.25
 5850.00000    9.29560    9.29560    3.61260    5.98020  167.21830   49.79660   49.79660   20.38350   20.38350  167.21830    -999.25  261.52770    -999.25 -183.16360 -112.73930  261.52770
 5900.00000    9.69250    9.69250  253.37270  252.66630    3.96270   65.76890   65.76890   64.16180   64.16180    3.96270    -999.25    7.29020    -999.25 -139.33200  -68.86970    7.29020
 5950.00000   10.11720   10.11720  673.56480  673.56480    1.48460   70.45560   70.45560   50.88730   50.88730    1.65790    -999.25    5.22920    -999.25 -190.24530 -119.74450    5.22920
 6000.00000    9.14690    9.14690   18.73240   14.29990   69.93060   52.34370   52.34370   11.16070   11.16070   69.93060    -999.25  119.82440    -999.25 -173.82660 -103.28760  119.82440
 6050.00000    8.64380    8.64380   21.14090    5.68280  178.73650   52.24770   52.24770   21.64070   21.64070  178.73650    -999.25  107.54930    -999.25 -123.79980  -53.22270  107.54930
 6100.00000    8.84880    8.84880   12.82260   14.64940   68.26210   50.87260   50.87260   22.12750   22.12750   68.26210    -999.25  117.76030    -999.25 -130.47300  -59.85750  117.76030
 6150.00000    8.48940    8.48940   39.54010   37.31250   26.80140   56.47690   56.47690   24.33990   24.33990   26.80140    -999.25   38.05250    -999.25 -124.95870  -54.30510   38.05250
 6200.00000    8.23530    8.23530   33.39350   32.49220   30.77660   57.28340   57.28340   33.86050   33.86050   30.77660    -999.25   36.52690    -999.25 -115.55940  -44.86750   36.52690
 6250.00000    8.26010    8.26010   40.91890   39.29270   25.45000   56.76870   56.76870   27.97760   27.97760   25.45000    -999.25   28.62450    -999.25 -124.24410  -53.51390   28.62450
 6300.00000    8.38620    8.38620   43.68670   40.68860   24.59430   58.72970   58.72970   41.71690   41.71690   24.59430    -999.25   28.56260    -999.25 -114.75120  -43.98300   28.56260
 6350.00000    9.44840    9.44840  133.97890  135.75700    7.36610   69.81760   69.81760   94.13470   94.13470    7.36610    -999.25    8.15860    -999.25 -108.30140  -37.49470    8.15860
 6400.00000   12.00580   12.00580  229.12090  231.25370    4.32460   82.43630   82.43630  114.22150  114.22150    4.32460    -999.25    5.26560    -999.25 -111.91320  -41.06850    5.26560
 6450.00000    9.31110    9.31110  111.04590  108.82340    9.18920   62.05990   62.05990   75.17910   75.17910    9.18920    -999.25   10.24210    -999.25 -118.60180  -47.71870   10.24210
 6500.00000    8.89560    8.89560    8.72070    7.94570  125.85410   52.14130   52.14130   27.99160   27.99160  125.85410    -999.25  111.28310    -999.25 -117.16020  -46.23880  111.28310
 6550.00000    8.97500    8.97500    2.40630    1.84650  542.09900   50.05940   50.05940   16.45790   16.45790  542.09900    -999.25  421.63100    -999.25 -167.50030  -96.54090  421.63100
 6600.00000    8.61180    8.61180    0.83600    -999.25    -999.25   49.42510   49.42510   15.74820   15.74820    -999.25    -999.25  446.66700    -999.25 -142.51780  -71.52000  446.66700
 6650.00000    8.73770    8.73770    0.86260    -999.25    -999.25   49.30220   49.30220   20.05270   20.05270    -999.25    -999.25    -999.25    -999.25 -165.43930  -94.40340    -999.25
 6700.00000    8.66910    8.66910   26.42640   22.37120   44.70030   50.22140   50.22140   14.56960   14.56960   44.70030    -999.25  107.01980    -999.25 -179.85210 -108.77780  107.01980
 6750.00000    9.06470    9.06470   14.26010   12.42470   80.48470   50.66380   50.66380   18.43440   18.43440   80.48470    -999.25  179.21740    -999.25 -196.98020 -125.86770  179.21740
 6800.00000    8.35630    8.35630   62.65540   63.35350   15.79420   52.31320   52.31320   12.31650   12.31650   15.79420    -999.25  189.59260    -999.25 -241.31830 -170.16770  189.59260
 6850.00000    9.01940    9.01940   24.93010   25.90440   38.60350   50.05880   50.05880   12.87370   12.87370   38.60350    -999.25  262.12680    -999.25 -228.54930 -157.36030  262.12680
 6900.00000    8.59550    8.59550   39.83170   37.92630   26.36710   52.97170   52.97170   12.69380   12.69380   26.36710    -999.25  316.31080    -999.25 -241.36940 -170.14230  316.31080
 6950.00000    8.94530    8.94530   16.86490   17.39480   57.48830   48.74710   48.74710   15.67750   15.67750   57.48830    -999.25  268.34300    -999.25 -211.11820 -139.85270  268.34300
 7000.00000    8.90990    8.90990    6.30840    6.52470  153.26280   48.97440   48.97440   16.15780   16.15780  153.26280    -999.25  289.98730    -999.25 -183.98320 -112.67950  289.98730
 7050.00000    8.89780    8.89780    6.95940    4.82360  207.64720   48.95010   48.95010   16.23420   16.23420  207.64720    -999.25  414.40900    -999.25 -183.72510 -112.38330  414.40900
