~Version ---------------------------------------------------
VERS.      2.0 : CWLS log ASCII Standard -VERSION 2.0
WRAP.       NO : One line per depth step
CREA. 08/14/13 : LAS Creation Date
~Well ------------------------------------------------------
STRT.M                        300.0 : START DEPTH
STOP.M                       2500.0 : STOP DEPTH
STEP.M                     50.00000 : STEP LENGTH
NULL.                       -999.25 : NULL VALUE
COMP.            TETHYS ENERGY INC. : COMPANY
WELL. TETHYS GIROUXVILLE 5-21-77-23 : WELL
FLD .                               : FIELD
LOC .                               : LOCATION
CTRY.                        CANADA : COUNTRY
SRVC.                       Unknown : SERVICE COMPANY
DATE.                   06-Jun-2000 : LOGDATE
PROV.                       Alberta : PROVINCE
UWI .              100052107723W500 : UNIQUE WELL ID
SLAT.WGS84                 55.68364 : SURFACE LATITUDE
SLON.WGS84                -117.5147 : SURFACE LONGITUDE
~Curve Information -----------------------------------------
DEPT    .M      : Depth Curve
AHT10ED .OHMM   : 10 INCH RESISTIVITY TWO FOOT RESOLUTION FROM AIT LOG
AHT20ED .OHMM   : 20 INCH RESISTIVITY TWO FOOT RESOLUTION FROM AIT LOG
AHT30ED .OHMM   : 30 INCH RESISTIVITY TWO FOOT RESOLUTION FROM AIT LOG
AHT60ED .OHMM   : 60 INCH RESISTIVITY TWO FOOT RESOLUTION FROM AIT LOG
AHT90ED .OHMM   : 90 INCH RESISTIVITY TWO FOOT RESOLUTION FROM AIT LOG
CALWS   .MM     : CALIPER [HCALDED]
CONDWS  .MMHO   : CONDUCTIVITY [1000/DRESWS]
DCORWS  .KG/M3  : DENSITY CORRECTION [HDRAED]
DENWS   .KG/M3  : BULK DENSITY [M=2650 F=1000] [CALCULATED FROM DPOLSWS]
DPHZLSED.V/V    : DENSITY POROSITY [M=2710 F=1000] FROM DENSITY LOG
DPHZSSED.V/V    : DENSITY POROSITY [M=2650 F=1000] FROM DENSITY LOG
DPOLSWS .V/V    : DENSITY POROSITY [M=2710 F=1000] [MERGED DPHZSSED CONVERTED TO LS/DPHZLSED at 1071.6 M]
DRESWS  .OHMM   : DEEP RESISTIVITY [AHT90ED]
DTED    .US/M   : DELTA TIME FROM SONIC LOG
DTWS    .US/M   : DELTA TIME [DTED]
GRDED   .GAPI   : GAMMA RAY FROM DENSITY LOG
GRED    .GAPI   : GAMMA RAY FROM CBL [DEPTH ADJ. TO GRDED]
GRWS    .GAPI   : GAMMA RAY [MERGED GRED + 50 API/GRDED at 312.6 M]
HCALDED .MM     : HILT CALIPER FROM DENSITY LOG
HDDED   .MM     : HOLE DIAMETER FROM DENSITY LOG
HDRAED  .KG/M3  : DENSITY CORRECTION FROM DENSITY LOG
MRESWS  .OHMM   : MEDIUM RESISTIVITY [AHT30ED]
NPOLSWS .V/V    : NEUTRON POROSITY LIMESTONE [[MERGED NPHZSSED CONVERTED TO LS/NPHZLSED at 1071.6 M]]
NPORLSED.V/V    : NEUTRON POROSITY LIMESTONE FROM DENSITY LOG
NPORSSED.V/V    : NEUTRON POROSITY SANDSTONE FROM DENSITY LOG
PEFWS   .B/E    : PHOTOELECTRIC FACTOR [PEFZED]
PEFZED  .B/E    : PHOTOELECTRIC FACTOR STANDARD RESOLUTION FROM DENSITY LOG
RHOZED  .KG/M3  : HRDD STANDARD RESOLUTION FORMATION DENSITY FROM DENSITY LOG
RXOZED  .OHMM   : STANDARD RESOLUTION INVADED ZONE RESISTIVITY
SPRED   .MV     : SPONTANEOUS POTENTIAL FROM RESISTIVITY LOG
SPWS    .MV     : SPONTANEOUS POTENTIAL [BASELINE 0 MV] [SPRED]
SRESWS  .OHMM   : SHALLOW RESISTIVITY [AHT10ED]
TENDED  .N      : TENSION FROM FROM DENSITY LOG
~Params ----------------------------------------------------
PD  .                         GL : PERMANENT DATUM
EPD .M                     554.4 : ELEVATION PERMANENT DATUM
LMF .                         KB : LOG MEASURED FROM
DAPD.M                         4 : FEET ABOVE PERMANENT DATUM
DMF .                         KB : DRILLING MEASURED FROM
EKB .M                     558.4 : KELLY BUSHING
EDF .M                     558.1 : DRILLING FLOOR
EGL .M                     554.4 : GROUND LEVEL
DATE.                   06/06/00 : RUN DATE
RUN .                          1 : RUN NUMBER
DD  .M                      2515 : DEPTH DRILLER
DL  .M                    2515.5 : DEPTH LOGGER
BLI .M                      2513 : BOTTOM LOG INTERVAL
TLI .M                     337.5 : TOP LOG INTERVAL
CS  .MM                    219.1 : CASING SIZE
CBD .M                       338 : CASING BOTTOM DRILLER
CBL .M                     337.5 : CASING BOTTOM LOGGER
BS  .MM                      200 : BIT SIZE
BSD .M                      2515 : BIT SIZE AT DEPTH
DFT .                   GEL CHEM : DRILLING FLUID TYPE
DFD .                       1120 : DRILLING FLUID DENSITY
DFV .                         80 : DRILLING FLUID VISCOSITY
DFPH.                        9.8 : DRILLING FLUID PH
DFL .                        9.5 : DRILLING FLUID LOSS
MSS .                   FLOWLINE : MUD SAMPLE SOURCE
RMS .OHMM                   1.45 : RESISTIVITY MUD SAMPLE
MST .DEGC                     18 : MUD SAMPLE TEMPERATURE
RMF .OHMM                   1.13 : RESISTIVITY MUD FILTRATE SAMPLE
MFST.DEGC                     17 : MUD FILTRATE SAMPLE TEMPERATURE
RMC .OHMM                    1.5 : RESISTIVITY MUD CAKE
MCST.DEGC                     16 : MUD CAKE SAMPLE TEMPERATURE
MFSS.                   MEASURED : MUD FILTRATE SAMPLE SOURCE
MCSS.                   MEASURED : MUD CAKE SAMPLE SOURCE
RMB .OHMM                  0.674 : RESISTIVITY MUD AT BHT
TCS .HRS                    2300 : TIME CIRCULATED STOPPED
TLAB.HRS                     900 : TIME LOGGER AT BOTTOM
LUN .                       2016 : LOGGING UNIT NUMBER
LUL .              GRANDE PRARIE : LOGGING UNIT LOCATION
ENGI.                    PEACHEY : RECORDING ENGINEER
WITN.                      GAWNE : WITNESSED BY
CLNT.                    A2DTECH : CLIENT CODE
ORIG. 6.5"/100M 16.5"/100M PRINT : ORIGIN OF DATA
UWI .           100052107723W500 : UNIQUE WELL ID
DICO.     A2D Technologies, Inc. : DIGITIZING COMPANY
~Other -----------------------------------------------------
~ASCII -----------------------------------------------------
  300.00000    -999.25    -999.25    -999.25    -999.25    -999.25    -999.25    -999.25    -999.25    -999.25    -999.25    -999.25    -999.25    -999.25    -999.25    -999.25    -999.25   35.13090   85.13090    -999.25    -999.25    -999.25    -999.25    -999.25    -999.25    -999.25    -999.25    -999.25    -999.25    -999.25    -999.25    -999.25    -999.25    -999.25
  350.00000    2.62120    3.46480    3.90980    4.74340    4.96920  328.18520  201.23960  150.34480 2162.42500    -999.25    0.29550    0.32020    4.96920  389.44530  389.44530   82.63980   36.73150   82.63980  328.18520  362.45530  150.34480    3.90980    0.55660    -999.25    0.58200    2.64280    2.64280 2168.25710    2.78770    9.02300  -21.89870    2.62120 78287.81380
  400.00000    1.54080    1.91610    2.24850    2.72400    2.93690  382.52850  340.49510  118.09720 1849.91500    -999.25    0.48490    0.50300    2.93690  438.14300  438.14300   80.30040    -999.25   80.30040  382.52850    -999.25  118.09720    2.24850    0.72160    -999.25    0.73340    2.29120    2.29120 1839.98020    1.61790   13.56560  -17.35610    1.54080 75647.42030
  450.00000    2.51960    3.62320    4.30730    5.06020    5.22570  262.17530  191.36190  183.47590 2097.58000    -999.25    0.33480    0.35810    5.22570  321.74580  321.74580   85.54680    -999.25   85.54680  262.17530  336.63840  183.47590    4.30730    0.45800    -999.25    0.49290    2.49230    2.49230 2091.88870    2.22320   20.21210  -10.70960    2.51960 83485.04610
  500.00000    5.21780    6.03850    5.46410    4.88110    3.85280  235.32700  259.55150   14.24490 2142.62500    -999.25    0.30750    0.33180    3.85280  303.51220  303.51220   36.66210    -999.25   36.66210  235.32700  226.85710   14.24490    5.46410    0.29750    -999.25    0.34660    1.56570    1.56570 2150.59840    6.53900  -16.83230  -47.75400    5.21780 78979.72300
  550.00000    6.08040    6.02740    5.84580    5.34990    4.74060  217.73180  210.94380    1.83390 2331.22000    -999.25    0.19320    0.22150    4.74060  320.63430  320.63430   59.76690    -999.25   59.76690  217.73180  246.19010    1.83390    5.84580    0.31340    -999.25    0.36150    3.36620    3.36620 2330.08130    7.79390   13.21670  -18.46620    6.08040 87692.02240
  600.00000    5.67050    5.82420    5.39830    4.82300    4.37460  224.52570  228.59230    5.00610 2142.79000    -999.25    0.30740    0.33170    4.37460  358.31480  358.31480   64.21510    -999.25   64.21510  224.52570  244.68490    5.00610    5.39830    0.39400    -999.25    0.43550    2.90900    2.90900 2131.87060    6.93420    8.17210  -24.28120    5.67050 89293.46500
  650.00000    4.35820    4.27560    4.19560    4.04730    4.11070  239.90120  243.26760    4.51510 2233.21000    -999.25    0.25260    0.27880    4.11070  335.45580  335.45580   77.34060    -999.25   77.34060  239.90120  275.02890    4.51510    4.19560    0.36870    -999.25    0.41260    2.97420    2.97420 2223.84330    6.58590   21.33220  -11.89150    4.35820 89932.27610
  700.00000    4.67100    4.58710    4.36950    3.83730    3.63750  252.25340  274.91410   27.76690 2261.26000    -999.25    0.23560    0.26240    3.63750  339.28880  339.28880   72.86540    -999.25   72.86540  252.25340  287.42850   27.76690    4.36950    0.39750    -999.25    0.43870    3.13380    3.13380 2263.51640    6.33780   11.13700  -22.85710    4.67100 96320.29360
  750.00000    5.54640    5.89740    6.03260    6.60710    6.68330  263.54150  149.62670   -9.65070 2375.11000    -999.25    0.16660    0.19580    6.68330  306.36390  306.36390   93.18890    -999.25   93.18890  263.54150  272.24730   -9.65070    6.03260    0.33190    -999.25    0.37870    2.95780    2.95780 2375.13400    7.44820   27.66290   -7.10170    5.54640 93113.03070
  800.00000    3.90850    4.10360    4.45870    4.82560    5.04400  267.63270  198.25540   49.92110 2260.43500    -999.25    0.23610    0.26290    5.04400  341.84820  341.84820   98.85150    -999.25   98.85150  267.63270  276.88460   49.92110    4.45870    0.39800    -999.25    0.43910    3.14120    3.14120 2162.20390    4.24600   27.79990   -7.76840    3.90850 96562.78850
  850.00000    5.45520    5.68720    6.00100    6.18170    6.27350  243.74880  159.40070   -3.20740 2517.67000    -999.25    0.08020    0.11250    6.27350  315.08760  315.08760  107.18910    -999.25  107.18910  243.74880  292.25890   -3.20740    6.00100    0.35250    -999.25    0.39770    3.23240    3.23240 2514.59080    8.16690   27.72400  -10.99770    5.45520 100832.47350
  900.00000   11.57890   14.02700   15.93580   14.45560   15.44730  242.52170   64.73620   47.97270 2205.65500    -999.25    0.26930    0.29490   15.44730  301.77580  301.77580   48.29880    -999.25   48.29880  242.52170  271.82830   47.97270   15.93580    0.35060    -999.25    0.39600    2.50860    2.50860 2219.41060    7.98380    6.48760  -35.38740   11.57890 100148.20070
  950.00000    7.54870    9.98000   12.31060   10.72640   11.30120  225.01950   88.48620    5.71160 2135.36500    -999.25    0.31190    0.33600   11.30120  325.10450  325.10450   29.69990    -999.25   29.69990  225.01950  261.88970    5.71160   12.31060    0.33390    -999.25    0.38060    1.52000    1.52000 2135.65970   17.53360   12.34990  -32.67850    7.54870 107446.71370
 1000.00000    3.27620    3.18110    3.12790    3.08840    2.99570  258.26220  333.81180    1.22230 2440.78000    -999.25    0.12680    0.15740    2.99570  223.63040  223.63040   57.78110   16.96860   57.78110  258.26220  254.28300    1.22230    3.12790    0.22700    -999.25    0.27920    2.71750    2.71750 2438.71530   15.49290    6.40640  -37.64060    3.27620 110002.92690
 1050.00000    5.53220    5.71170    5.04210    3.11980    2.66060  263.97610  375.85510   45.57010 2383.69000    -999.25    0.16140    0.19080    2.66060  278.01630  278.01630   72.14580   13.88450   72.14580  263.97610  289.44550   45.57010    5.04210    0.31260    -999.25    0.36070    2.57300    2.57300 2377.99290    7.91670  -15.48710  -57.02330    5.53220 107373.50900
 1100.00000   21.14980   32.37920   23.82470   15.27140   11.75550  234.15550   85.06660   42.16630 2599.70500    0.06450    -999.25    0.06450   11.75550  183.35830  183.35830   44.45790   18.69890   44.45790  234.15550  235.32960   42.16630   23.82470    0.17150    0.17150    -999.25    3.32070    3.32070 2596.08180  112.29910  -29.14730  -68.17280   21.14980 107958.74730
 1150.00000    6.39750    8.81660    7.05200   11.24460   15.43510  236.37420   64.78740   44.35520 2530.62100    0.10490    -999.25    0.10490   15.43510  210.72920  210.72920   66.62130   19.00930   66.62130  236.37420  237.81500   44.35520    7.05200    0.21800    0.21800    -999.25    3.45210    3.45210 2442.20920    5.74320   34.92810   -5.91650    6.39750 110297.07830
 1200.00000    1.66350    1.60230    1.53660    1.50340    1.44510  279.32310  691.99360   -1.53400 2492.14600    0.12740    -999.25    0.12740    1.44510  249.02970  249.02970   66.05030    -999.25   66.05030  279.32310  275.21190   -1.53400    1.53660    0.28960    0.28960    -999.25    3.28000    3.28000 2490.35720    6.39630    5.18930  -41.43930    1.66350 116833.72730
 1250.00000    2.25590    2.15860    2.04430    1.99770    1.96650  277.15900  508.51770   -2.91710 2537.29000    0.10100    -999.25    0.10100    1.96650  210.33200  210.33200   28.65620    -999.25   28.65620  277.15900  295.87260   -2.91710    2.04430    0.31610    0.31610    -999.25    3.40760    3.40760 2533.77690    5.84430    5.86710  -46.54550    2.25590 116771.38260
 1300.00000   11.86470   11.33630   11.27010    9.04260    8.70930  253.05820  114.81980   -1.95330 2570.29300    0.08170    -999.25    0.08170    8.70930  199.07610  199.07610   47.71320    -999.25   47.71320  253.05820  263.96440   -1.95330   11.27010    0.10250    0.10250    -999.25    4.27990    4.27990 2580.97020   35.12480   54.67840   -3.51810   11.86470 118882.33060
 1350.00000   22.26590   32.35790   29.20290   42.36270   48.62220  239.71310   20.56670   -3.88570 2549.08900    0.09410    -999.25    0.09410   48.62220  189.76530  189.76530   19.67260   10.27460   19.67260  239.71310  245.34170   -3.88570   29.20290    0.12740    0.12740    -999.25    4.97020    4.97020 2550.42800   57.95870  -83.53020 -147.51070   22.26590 119628.79520
