~Version ---------------------------------------------------
VERS.      2.0 : CWLS log ASCII Standard -VERSION 2.0
WRAP.       NO : One line per depth step
CREA. 08/30/13 : LAS Creation Date
~Well ------------------------------------------------------
STRT.M                             300.0 : START DEPTH
STOP.M                            3350.0 : STOP DEPTH
STEP.M                          50.00000 : STEP LENGTH
NULL.                            -999.25 : NULL VALUE
COMP.        BP RESOURCES CANADA LIMITED : COMPANY
WELL. BP ET AL WILLESDEN GREEN 6-10-38-5 : WELL
FLD .                                    : FIELD
LOC .                                    : LOCATION
CTRY.                             CANADA : COUNTRY
SRVC.                       Schlumberger : SERVICE COMPANY
DATE.                        26-Apr-1989 : LOGDATE
PROV.                            Alberta : PROVINCE
UWI .                   102061003805W500 : UNIQUE WELL ID
SLAT.WGS84                      52.25281 : SURFACE LATITUDE
SLON.WGS84                     -114.6323 : SURFACE LONGITUDE
~Curve Information -----------------------------------------
DEPT    .M      : Depth Curve
C1ED    .MM     : CALIPER FROM DENSITY LOG [ADJ. TO RESISTIVITY LOG]
C2ED    .MM     : CALIPER FROM DENSITY LOG [ADJ. TO RESISTIVITY LOG]
CALWS   .MM     : CALIPER [C1ED]
CONDWS  .MMHO   : CONDUCTIVITY [1000/DRESWS]
DCORWS  .KG/M3  : DENSITY CORRECTION [DRHOED]
DENWS   .KG/M3  : FORMATION BULK DENSITY [RHOBED]
DPHILSED.V/V    : DENSITY POROSITY LIMESTONE [M=2710,F=1000] FROM DENSITY LOG [ADJ. TO RESISTIVITY LOG]
DPHISSED.V/V    : DENSITY POROSITY SANDSTONE [M=2650,F=1000] FROM DENSITY LOG [ADJ. TO RESISTIVITY LOG]
DPOLSWS .V/V    : DENSITY POROSITY LIMESTONE [CALC FROM DENWS,M=2710,F=1000]
DRESWS  .OHMM   : DEEP RESISTIVITY [IDPHED]
DRHOED  .KG/M3  : DENSITY CORRECTION FROM DENSITY LOG [ADJ. TO RESISTIVITY LOG]
DTED    .US/M   : SONIC INTERVAL FROM SONIC LOG
DTWS    .US/M   : COMPRESSIONAL SONIC [DTED]
GRED    .GAPI   : GAMMA RAY (CASING & COLLARS) FROM CBL LOG [ADJ. TO RESISTIVITY LOG]
GRSED   .GAPI   : GAMMA RAY FROM SONIC LOG
GRWS    .GAPI   : GAMMA RAY [GRED SPL. GRSED @ 375.3M]
HDED    .MM     : CALIPER FROM SONIC LOG
IDPHED  .OHMM   : DEEP PHASOR INDUCTION FROM RESISTIVITY LOG
IMPHED  .OHMM   : MEDIUM PHASOR INDUCTION FROM RESISTIVITY LOG
MRESWS  .OHMM   : MEDIUM RESISTIVITY [IMPHED]
NPHILSED.V/V    : NEUTRON POROSITY LIMESTONE FROM DENSITY LOG [ADJ. TO RESISTIVITY LOG]
NPHISSED.V/V    : NEUTRON POROSITY SANDSTONE FROM DENSITY LOG [ADJ. TO RESISTIVITY LOG]
NPOLSWS .V/V    : NEUTRON POROSITY LIMESTONE [NPHISSED MATRIX CONVERSION FOR LIMESTONE, SPL.TO NPHILSED @ 2429.1M]
RHOBED  .KG/M3  : BULK DENSITY FROM DENSITY LOG [ADJ. TO RESISTIVITY LOG]
SFLUED  .OHMM   : SPHERICALLY FOCUSED  FROM RESISTIVITY LOG
SGRDDED .GAPI   : GAMMA RAY FROM DENSITY LOG [ADJ. TO RESISTIVITY LOG]
SPRED   .MV     : SPONTANEOUS POTENTIAL FROM RESISTIVITY LOG
SPWS    .MV     : SPONTANEOUS POTENTIAL [BASELINE 0 MV, SPRED]
SRESWS  .OHMM   : SHALLOW RESISTIVITY [SFLUED]
TENRED  .N      : TENSION FROM RESISTIVITY LOG
TENSED  .N      : TENSION FROM SONIC LOG
~Params ----------------------------------------------------
PD  .                         GL : PERMANENT DATUM
EPD .M                     993.2 : ELEVATION PERMANENT DATUM
LMF .                         KB : LOG MEASURED FROM
DAPD.M                       7.3 : FEET ABOVE PERMANENT DATUM
DMF .                         KB : DRILLING MEASURED FROM
EKB .M                    1000.6 : KELLY BUSHING
EDF .M                    1000.3 : DRILLING FLOOR
EGL .M                     993.2 : GROUND LEVEL
DATE.                   04/26/89 : RUN DATE
RUN .                          1 : RUN NUMBER
DD  .M                      3358 : DEPTH DRILLER
DL  .M                    3356.2 : DEPTH LOGGER
BLI .M                      3353 : BOTTOM LOG INTERVAL
TLI .M                       454 : TOP LOG INTERVAL
CS  .MM                      273 : CASING SIZE
CBD .M                       454 : CASING BOTTOM DRILLER
CBL .M                       454 : CASING BOTTOM LOGGER
BS  .MM                      222 : BIT SIZE
BSD .M                      3358 : BIT SIZE AT DEPTH
DFT .                     GYP ND : DRILLING FLUID TYPE
DFD .                       1115 : DRILLING FLUID DENSITY
DFV .                         74 : DRILLING FLUID VISCOSITY
DFL .                        8.7 : DRILLING FLUID LOSS
MSS .                   FLOWLINE : MUD SAMPLE SOURCE
RMS .OHMM                   1.49 : RESISTIVITY MUD SAMPLE
MST .DEGC                      5 : MUD SAMPLE TEMPERATURE
RMF .OHMM                    1.0 : RESISTIVITY MUD FILTRATE SAMPLE
MFST.DEGC                     10 : MUD FILTRATE SAMPLE TEMPERATURE
RMC .OHMM                    1.9 : RESISTIVITY MUD CAKE
MCST.DEGC                      5 : MUD CAKE SAMPLE TEMPERATURE
MFSS.                      PRESS : MUD FILTRATE SAMPLE SOURCE
MCSS.                      PRESS : MUD CAKE SAMPLE SOURCE
RMB .OHMM                   0.09 : RESISTIVITY MUD AT BHT
TCS .HRS                    2200 : TIME CIRCULATED STOPPED
TLAB.HRS                     118 : TIME LOGGER AT BOTTOM
LUN .                       8063 : LOGGING UNIT NUMBER
LUL .                       DEER : LOGGING UNIT LOCATION
ENGI.                      DUMBA : RECORDING ENGINEER
WITN.                     GOHMAN : WITNESSED BY
CLNT.                    A2DTECH : CLIENT CODE
ORIG. 6.5"/100M 16.5"/100M PRINT : ORIGIN OF DATA
UWI .           102061003805W500 : UNIQUE WELL ID
DICO.     A2D Technologies, Inc. : DIGITIZING COMPANY
~Other -----------------------------------------------------
PISFL-CND - CBL - BHC LOG RUN
SP PROBLEMATIC BELOW 2500M
BARITE ADDED TO MUD AT LEAST 200 SACS
5% OIL IN MUD
40 KHZ PHASOR EXPERIMENTAL REPEAT PERFORMED
NO CASING CHECK DUE TO CEMENT BONDING
CYCLE SKIPS IN SHALES NOT REPEATED
~ASCII -----------------------------------------------------
# ...
 2600.00000  223.76640  264.93520  223.76640    5.61620    6.76870 2710.42380    0.00090    -999.25    0.00090  178.05510    6.76870  175.88260  175.88260    -999.25   59.22300   59.22300  236.63390  178.05510  137.59660  137.59660    0.04410    -999.25    0.04410 2710.42380  156.85030   63.52890  -95.46640 -117.03390  156.85030 14537.23570 14597.37350
 2650.00000  223.76690  269.11410  223.76690    0.50440   11.05480 2696.19560    0.01190    -999.25    0.01190 1982.49620   11.05480  167.11960  167.11960    -999.25   18.34940   18.34940  238.19840 1982.49620  524.11420  524.11420    0.01510    -999.25    0.01510 2696.19560 1981.51150   21.98850 -190.98630 -211.89190 1981.51150 14783.42120 14739.61780
 2700.00000  224.14070  245.04550  224.14070    0.50840    1.92230 2722.37820   -0.00550    -999.25   -0.00550 1967.10390    1.92230  166.03700  166.03700    -999.25   23.15490   23.15490  229.27030 1967.10390 2012.68820 2012.68820    0.01690    -999.25    0.01690 2722.37820 1603.52060   25.56590 -159.11350 -179.35720 1603.52060 14889.77780 14835.81730
 2750.00000  221.89520  233.08190  221.89520    0.50250   69.39250 2576.81910    0.07950    -999.25    0.07950 1990.22990   69.39250  220.95320  220.95320    -999.25  150.95290  150.95290  229.29030 1990.22990 2004.58010 2004.58010    0.13080    -999.25    0.13080 2576.81910 2083.97140  155.10480 -124.19710 -167.30540 2083.97140 15312.10480 15162.27940
 2800.00000  226.95640  260.90460  226.95640    0.69690    7.76270 2874.20480   -0.09570    -999.25   -0.09570 1434.99010    7.76270  157.95130  157.95130    -999.25   18.59910   18.59910  242.09040 1434.99010  597.42910  597.42910    0.01840    -999.25    0.01840 2874.20480 2020.74040   20.99890   39.62210  -94.01250 2020.74040 15222.50740 15277.89850
 2850.00000  224.06790  272.43200  224.06790    0.51150   22.38280 2863.08520   -0.08930    -999.25   -0.08930 1955.03320   22.38280  159.21030  159.21030    -999.25   15.28770   15.28770  235.57330 1955.03320 1986.14660 1986.14660    0.02760    -999.25    0.02760 2863.08520 1467.34680   15.63810 -230.24010 -377.78860 1467.34680 16029.83250 15917.11720
 2900.00000  224.13660  331.64450  224.13660    3.00380   10.49510 2842.01320   -0.07570    -999.25   -0.07570  332.91480   10.49510  159.63980  159.63980    -999.25   21.49200   21.49200  232.04030  332.91480  220.62430  220.62430    0.06560    -999.25    0.06560 2842.01320  359.81290   21.64050  -73.89950 -225.94920  359.81290 15814.39130 15799.03210
 2950.00000  238.52910  246.17200  238.52910    0.51210    4.88020 2941.70020   -0.13500    -999.25   -0.13500 1952.71420    4.88020  164.82140  164.82140    -999.25    8.31670    8.31670  240.43640 1952.71420 2018.40320 2018.40320    0.00820    -999.25    0.00820 2941.70020 1191.19620   11.88070  308.12070 -136.71200 1191.19620 15916.62220 15905.93490
 3000.00000  227.75370  257.56470  227.75370    6.17780    4.63050 2849.58890   -0.08200    -999.25   -0.08200  161.86920    4.63050  155.95950  155.95950    -999.25   18.67850   18.67850  235.16310  161.86920  100.97990  100.97990    0.02350    -999.25    0.02220 2849.58890  187.41470   18.38000  -44.00960 -1190.49350  187.41470 16436.09300 16463.40160
 3050.00000  228.13800  248.80990  228.13800    0.95870   10.83880 2828.54100   -0.06720    -999.25   -0.06720 1043.12660   10.83880  153.52120  153.52120    -999.25   19.31070   19.31070  239.48970 1043.12660  981.03970  981.03970    0.04120    -999.25    0.04120 2828.54100  700.81630   20.63570  438.01500 -1362.52460  700.81630 16746.38590 16666.11590
 3100.00000  233.83990  231.50180  233.83990   19.00670    5.74790 2744.43990   -0.01900    -999.25   -0.01900   52.61290    5.74790  186.79780  186.79780    -999.25   68.26210   68.26210  234.38160   52.61290   57.35730   57.35730    0.10270    -999.25    0.10270 2744.43990   63.37930   73.26650   19.13910 -1421.30270   63.37930 17430.47390 17344.93900
 3150.00000  231.30900  241.32820  231.30900   42.43910    3.81390 2737.56400   -0.01460    -999.25   -0.01460   23.56320    3.81390  208.83500  208.83500    -999.25   96.77840   96.77840  233.87870   23.56320   26.71730   26.71730    0.15390    -999.25    0.15680 2737.56400   31.96900  100.84370  501.37940 -710.84380   31.96900 17325.88060 17279.77830
 3200.00000  227.08660  224.31150  227.08660   44.73130   16.77660 2733.71190   -0.01410    -999.25   -0.01410   22.35570   16.77660  211.03490  211.03490    -999.25   91.45050   91.45050  226.77030   22.35570   23.84770   23.84770    0.17640    -999.25    0.17740 2733.71190   29.26220   94.72140  312.98740 -948.17570   29.26220 17485.21940 17558.05820
 3250.00000  222.79570  282.62900  222.79570    0.50360   10.88770 2720.52170   -0.00410    -999.25   -0.00410 1985.64290   10.88770  163.20480  163.20480    -999.25   15.64670   15.64670  234.36520 1985.64290 1897.10950 1897.10950    0.00880    -999.25    0.00860 2720.52170 2010.09330   17.41860   42.81270 -333.72780 2010.09330 17966.21860 17806.54520
 3300.00000  221.26110  245.06300  221.26110    0.49690    7.42310 2693.69240    0.01230    -999.25    0.01230 2012.59880    7.42310  172.18290  172.18290    -999.25   24.72300   24.72300  227.86450 2012.59880  633.02750  633.02750    0.03040    -999.25    0.02890 2693.69240 2006.11470   26.10780 -212.65030 -572.16970 2006.11470 18120.66170 18106.74680
 3350.00000  221.64860    -999.25  221.64860    0.53580   11.76260 2767.01710   -0.03350    -999.25   -0.03350 1866.32190   11.76260    -999.25    -999.25    -999.25    -999.25    -999.25    -999.25 1866.32190 1309.84940 1309.84940    -999.25    -999.25    -999.25 2767.01710  446.83650    -999.25    -999.25    -999.25  446.83650 18266.01180 18304.48400
