~Version ---------------------------------------------------
VERS.      2.0 : CWLS log ASCII Standard -VERSION 2.0
WRAP.       NO : One line per depth step
CREA. 11/07/17 : LAS Creation Date
~Well ------------------------------------------------------
STRT.FT                               650.0 : START DEPTH
STOP.FT                              5650.0 : STOP DEPTH
STEP.FT                            50.00000 : STEP LENGTH
NULL.                               -999.25 : NULL VALUE
COMP. CONOCOPHILLIPS CANADA RESOURCES CORP. : COMPANY
WELL.       CO-ENERCO ARCO NIPISI 3-30-80-9 : WELL
FLD .                                NIPISI : FIELD
LOC .                                       : LOCATION
CTRY.                                CANADA : COUNTRY
SRVC.                Schlumberger of Canada : SERVICE COMPANY
DATE.                           22-Jul-1970 : LOGDATE
PROV.                               Alberta : PROVINCE
UWI .                      100033008009W500 : UNIQUE WELL ID
SLAT.WGS84                    55.9583505448 : SURFACE LATITUDE
SLON.WGS84                  -115.4010684886 : SURFACE LONGITUDE
~Curve Information -----------------------------------------
DEPT  .FT    : Depth Curve
CALSED.IN    : CALIPER FROM SONIC LOG
CALWS .IN    : CALIPER [CALSED]
CILDED.MMHO  : CONDUCTIVITY FROM IEL LOG
CONDWS.MMHO  : CONDUCTIVITY [1000/DRESWS]
DRESWS.OHMM  : DEEP RESISTIVITY [ILDED] IF ILDED<2;1000/CILDED;ELSE ILDED
DTED  .US/F  : DELTA TIME FROM SONIC LOG
DTWS  .US/F  : DELTA TIME [DTED]
GRSED .GAPI  : GAMMA RAY FROM SONIC LOG
GRWS  .GAPI  : GAMMA RAY [GRSED]
ILDED .OHMM  : INDUCTION LOG DEEP RESISTIVITY
SNED  .OHMM  : 16 INCH SHORT NORMAL RESISTIVITY FROM IEL LOG
SPRED .MV    : SPONTANEOUS POTENTIAL FROM IEL LOG
SPWS  .MV    : SPONTANEOUS POTENTIAL [BASELINE 0 MV] [SPRED]
SRESWS.OHMM  : SHALLOW RESISTIVITY [SNED]
~Params ----------------------------------------------------
PD  .                     GL : PERMANENT DATUM
EPD .FT                 2138 : ELEVATION PERMANENT DATUM
LMF .                     KB : LOG MEASURED FROM
DAPD.FT                   14 : FEET ABOVE PERMANENT DATUM
EKB .FT                 2152 : KELLY BUSHING
EGL .FT                 2138 : GROUND LEVEL
DATE.               07/22/70 : RUN DATE
RUN .                      1 : RUN NUMBER
DD  .FT                 5700 : DEPTH DRILLER
DL  .FT                 5701 : DEPTH LOGGER
BLI .FT                 5700 : BOTTOM LOG INTERVAL
TLI .FT                  623 : TOP LOG INTERVAL
CBD .FT                  624 : CASING BOTTOM DRILLER
CBL .FT                  623 : CASING BOTTOM LOGGER
BS  .IN                7.875 : BIT SIZE
BSD .FT                 5700 : BIT SIZE AT DEPTH
DFT .                    GEL : DRILLING FLUID TYPE
DFD .                    9.6 : DRILLING FLUID DENSITY
DFV .                    167 : DRILLING FLUID VISCOSITY
DFPH.                   10.5 : DRILLING FLUID PH
DFL .                    6.6 : DRILLING FLUID LOSS
RMS .OHMM               1.23 : RESISTIVITY MUD SAMPLE
MST .DEGF                 60 : MUD SAMPLE TEMPERATURE
RMF .OHMM               0.76 : RESISTIVITY MUD FILTRATE SAMPLE
MFST.DEGF                 60 : MUD FILTRATE SAMPLE TEMPERATURE
RMC .OHMM               1.62 : RESISTIVITY MUD CAKE
MCST.DEGF                 62 : MUD CAKE SAMPLE TEMPERATURE
RMB .OHMM              0.435 : RESISTIVITY MUD AT BHT
TCS .HRS                1515 : TIME CIRCULATED STOPPED
TLAB.HRS                2200 : TIME LOGGER AT BOTTOM
LUN .                   7501 : LOGGING UNIT NUMBER
LUL .                    EDM : LOGGING UNIT LOCATION
ENGI.                 HADDOW : RECORDING ENGINEER
WITN.                 SUMNER : WITNESSED BY
CLNT.                A2DTECH : CLIENT CODE
ORIG.            2" 5" PRINT : ORIGIN OF DATA
UWI .       100033008009W500 : UNIQUE WELL ID
DICO. A2D Technologies, Inc. : DIGITIZING COMPANY
~Other -----------------------------------------------------
~ASCII -----------------------------------------------------
  650.00000   11.04970   11.04970  203.45770  208.88600    4.78730  168.18040  168.18040   81.50190   81.50190    4.78730    5.08800  -54.47870   -2.13920    5.08800
  700.00000    9.11660    9.11660  155.98080  160.25500    6.24150    -999.25    -999.25   69.08830   69.08830    6.24150    5.25690  -56.21890   -2.68340    5.25690
  750.00000   13.12130   13.12130  190.00140  195.67940    5.11040  167.62480  167.62480   70.45200   70.45200    5.11040    4.99280  -58.42510   -3.52080    4.99280
  800.00000   14.96490   14.96490  253.61660  226.54160    4.41420  144.19710  144.19710   53.56020   53.56020    4.41420    4.22780  -62.06020   -4.29820    4.22780
  850.00000   14.74640   14.74640  327.46010  325.39370    3.07370  152.02400  152.02400  100.09450  100.09450    3.07370    3.31810  -71.05040  -10.41640    3.31810
  900.00000   13.83720   13.83720  333.17330  361.20640    2.76850  181.17860  181.17860   72.64410   72.64410    2.76850    2.99420  -71.05970   -7.58230    2.99420
  950.00000   11.16220   11.16220  259.77960  274.87010    3.63850  139.05330  139.05330   88.40980   88.40980    3.63850    4.02100  -73.30080   -6.95150    4.02100
 1000.00000   10.73770   10.73770  267.39800  272.01260    3.67630  144.30540  144.30540   74.85010   74.85010    3.67630    3.52220  -77.45270   -8.25990    3.52220
 1050.00000    8.82120    8.82120  137.73570  135.84930    7.36110  117.01240  117.01240   49.39780   49.39780    7.36110    7.71420  -96.07690  -25.64540    7.71420
 1100.00000    7.55890    7.55890  199.69380  207.51390    4.82010  128.51280  128.51280   49.37460   49.37460    4.82010    6.62200 -104.24130  -35.00560    6.62200
 1150.00000    8.04260    8.04260  163.80620  173.93420    5.74930  127.81880  127.81880   43.69160   43.69160    5.74930   18.01220 -114.96620  -46.91430   18.01220
 1200.00000    8.31460    8.31460  216.74800  229.15860    4.36390  125.59870  125.59870   61.93290   61.93290    4.36390    6.30360  -94.90270  -28.04660    6.30360
 1250.00000    7.32220    7.32220  176.34550  185.35680    5.39500  129.82030  129.82030   73.71910   73.71910    5.39500    5.80010  -84.84510  -19.56060    5.80010
 1300.00000    8.64350    8.64350  152.15100  161.31110    6.19920  130.85290  130.85290   49.66110   49.66110    6.19920    6.14230  -83.20750  -20.72860    6.14230
 1350.00000    8.86760    8.86760  188.31430  202.53700    4.93740  117.64510  117.64510   71.55490   71.55490    4.93740    6.24890  -73.09600  -13.43680    6.24890
 1400.00000    9.09760    9.09760  204.95390  207.69730    4.81470  122.66600  122.66600   66.45530   66.45530    4.81470    5.48120  -75.88700  -19.01930    5.48120
 1450.00000    8.53920    8.53920  192.67760  193.43800    5.17010  119.64720  119.64720   74.73970   74.73970    5.17010    5.96370  -64.85480  -10.80670    5.96370
 1500.00000    8.90880    8.90880  215.53560  224.03940    4.46350  117.03820  117.03820   74.39130   74.39130    4.46350    5.31930  -62.90730  -11.65090    5.31930
 1550.00000    8.95780    8.95780  205.56310  206.81240    4.83530  116.26710  116.26710   78.24340   78.24340    4.83530    5.62430  -56.84150   -8.39070    5.62430
 1600.00000    8.89130    8.89130  161.49910  164.23910    6.09190  112.91780  112.91780   62.55540   62.55540    6.09190    8.06630  -65.66960  -19.18360    8.06630
 1650.00000    9.39800    9.39800  168.39000  166.24830    6.01510  117.05910  117.05910   68.58320   68.58320    6.01510    6.32290  -50.38270   -4.88000    6.32290
 1700.00000    9.47030    9.47030  105.87390  109.30430    9.14880  103.60290  103.60290   86.85580   86.85580    9.14880    9.96360  -60.70130  -16.12820    9.96360
 1750.00000    9.29770    9.29770  141.95200  141.65510    7.05940  108.28810  108.28810   66.62080   66.62080    7.05940    7.99990  -52.79060   -9.13790    7.99990
 1800.00000    9.99440    9.99440  374.70600  355.26500    2.81480  113.20990  113.20990   76.27570   76.27570    2.81480    4.06830  -51.16430   -8.43660    4.06830
 1850.00000    8.84940    8.84940   76.11330   81.22380   12.31620   85.38550   85.38550   28.27070   28.27070   12.31620   14.02300  -51.79700   -9.89500   14.02300
 1900.00000   14.64860   14.64860  154.08110  128.08850    7.80710  159.95140  159.95140   34.84020   34.84020    7.80710    5.89740  -45.71230   -4.43920    5.89740
 1950.00000    8.38450    8.38450   31.05760   26.49720   37.82100   73.40970   73.40970   17.69940   17.69940   37.82100   47.10100  -64.46020  -23.82230   47.10100
 2000.00000    8.37140    8.37140   31.72410   31.75130   31.49480   50.09030   50.09030   42.21160   42.21160   31.49480   71.55990  -47.06690   -7.05800   71.55990
 2050.00000    9.69040    9.69040  192.43420  206.83810    4.83470   95.30530   95.30530   54.01430   54.01430    4.83470    5.79670  -50.44480  -11.89950    5.79670
 2100.00000   10.89280   10.89280  327.40370  321.40750    3.11330  137.02670  137.02670   50.92090   50.92090    3.11330    3.29900  -46.85460   -9.90510    3.29900
 2150.00000    9.97610    9.97610  111.82110  121.19010    8.25150   97.64020   97.64020   53.08170   53.08170    8.25150   17.65890  -55.29660  -19.92690   17.65890
 2200.00000    9.12830    9.12830   71.75220   79.48770   12.63910   59.57430   59.57430   18.40990   18.40990   12.63910   26.31580  -65.80990  -32.03590   26.31580
 2250.00000    9.31150    9.31150  132.68100  136.24910    7.33950   76.57720   76.57720   31.96560   31.96560    7.33950    8.56530  -34.65990   -2.46580    8.56530
 2300.00000    8.74670    8.74670   82.98870   85.91360   11.63960   63.18010   63.18010   27.22650   27.22650   11.63960   17.43170  -60.78260  -32.74200   17.43170
 2350.00000    9.61140    9.61140   47.87460   46.72610   21.42450   58.15390   58.15390   17.93180   17.93180   21.42450   27.81860  -47.51330  -24.33240   27.81860
 2400.00000    8.73640    8.73640   82.94120   88.61560   11.28470   66.14800   66.14800   29.74960   29.74960   11.28470   13.41960  -33.18440  -13.68920   13.41960
 2450.00000    8.53280    8.53280   34.76350   31.13020   32.12910   58.88470   58.88470   20.61820   20.61820   32.12910   34.08510  -39.63400  -20.47300   34.08510
 2500.00000    9.57680    9.57680  188.98630  192.97940    5.18190   86.37610   86.37610   34.00840   34.00840    5.18190    6.10950  -27.10150   -8.27150    6.10950
 2550.00000    8.71280    8.71280   58.10090   61.49080   16.26260   63.80260   63.80260   30.97210   30.97210   16.26260   18.65790  -25.12050   -6.62310   18.65790
 2600.00000    8.54310    8.54310   58.52940   58.39960   17.12570   62.03420   62.03420   22.45220   22.45220   17.12570   19.20750  -30.90760  -12.74440   19.20750
 2650.00000    9.97940    9.97940  264.50540  272.58350    3.66860  100.80110  100.80110   37.04130   37.04130    3.66860    4.39860  -22.24390   -4.41170    4.39860
 2700.00000    8.73560    8.73560   63.45250   66.44760   15.05360   65.96700   65.96700   30.59890   30.59890   15.05360   17.12420  -24.95380   -7.45580   17.12420
 2750.00000    8.49260    8.49260   70.28920   71.25860   14.03340   67.25520   67.25520   26.46390   26.46390   14.03340   18.77680  -26.59870   -9.43160   18.77680
 2800.00000    9.55800    9.55800  196.82150  199.35810    5.01610   85.47670   85.47670   49.91500   49.91500    5.01610    6.44150  -24.64100   -7.80650    6.44150
 2850.00000    8.86390    8.86390  108.61220  112.87030    8.86120   78.99180   78.99180   35.21100   35.21100    8.86120   12.09310  -17.61780   -1.11760   12.09310
 2900.00000   12.25490   12.25490  377.14110  374.93910    2.66710  122.13020  122.13020  146.71910  146.71910    2.66710    3.18570   -7.46920   -8.78530    3.18570
 2950.00000    8.97080    8.97080   35.63020   33.15490   30.18880   56.20560   56.20560   18.18990   18.18990   30.18880   39.52990  -11.69610  -22.58050   39.52990
 3000.00000    8.72330    8.72330   27.80610   23.78310   42.04670   54.77010   54.77010   13.83150   13.83150   42.04670   52.85690  -37.07300  -48.07320   52.85690
 3050.00000    8.83510    8.83510   17.25960   13.75030   72.72580   53.97430   53.97430   17.63610   17.63610   72.72580   62.84530  -21.61510  -32.73170   62.84530
