~Version ---------------------------------------------------
VERS.      2.0 : CWLS log ASCII Standard -VERSION 2.0
WRAP.       NO : One line per depth step
CREA. 11/10/17 : LAS Creation Date
~Well ------------------------------------------------------
STRT.FT                         1200.0 : START DEPTH
STOP.FT                        11200.0 : STOP DEPTH
STEP.FT                       50.00000 : STEP LENGTH
NULL.                          -999.25 : NULL VALUE
COMP. AMOCO CANADA PETROLEUM CO., LTD. : COMPANY
WELL.    AMOCO A-1 NW ANTE 10-29-66-25 : WELL
FLD .                                  : FIELD
LOC .                                  : LOCATION
CTRY.                           CANADA : COUNTRY
SRVC.           Schlumberger of Canada : SERVICE COMPANY
DATE.                      20-Oct-1973 : LOGDATE
PROV.                          Alberta : PROVINCE
UWI .                 100102906625W500 : UNIQUE WELL ID
SLAT.WGS84                    54.74394 : SURFACE LATITUDE
SLON.WGS84                   -117.7384 : SURFACE LONGITUDE
~Curve Information -----------------------------------------
DEPT    .FT    : Depth Curve
CALDED  .IN    : CALIPER FROM DENSITY LOG
CALNED  .IN    : CALIPER FROM NEUTRON LOG
CALSED  .IN    : CALIPER FROM SONIC LOG
CALWS   .IN    : CALIPER [CALSED]
CONDWS  .MMHO  : CONDUCTIVITY [1000/DRESWS]
DCORWS  .G/C3  : DENSITY CORRECTION [DRHOED]
DENWS   .G/C3  : FORMATION BULK DENSITY [RHOBED]
DPHILSED.V/V   : DENSITY POROSITY LIME [M=2.71, F=1.00] FROM DENSITY LOG
DPOLSWS .V/V   : DENSITY POROSITY LIME [M=2.71, F=1.00] [CALCULATED FROM DENWS]
DRESWS  .OHMM  : DEEP RESISTIVITY [ILDED]
DRHOED  .G/C3  : BULK DENSITY CORRECTION FROM DENSITY LOG
DTED    .US/F  : DELTA-T (INTERVAL TRANSIT TIME) FROM SONIC LOG
DTWS    .US/F  : COMPRESSIONAL SONIC [DTED]
GRDED   .GAPI  : GAMMA RAY FROM DENSITY LOG
GRNED   .GAPI  : GAMMA RAY FROM NEUTRON LOG
GRSED   .GAPI  : GAMMA RAY FROM SONIC LOG
GRWS    .GAPI  : GAMMA RAY [GRSED]
ILDED   .OHMM  : DEEP INDUCTION FROM RESISTIVITY LOG
ILMED   .OHMM  : MEDIUM INDUCTION FROM RESISTIVITY LOG
LL8ED   .OHMM  : LATEROLOG8 FROM RESISTIVITY LOG
MRESWS  .OHMM  : MEDIUM RESISTIVITY [ILMED]
NPOLSWS .V/V   : NEUTRON POROSITY LIME [SNPLSED]
RHOBED  .G/C3  : BULK DENSITY FROM DENSITY LOG
SNPLSED .V/V   : SIDEWALL NEUTRON POROSITY LIME FROM NEUTRON LOG
SPRED   .MV    : SPONTANEOUS POTENTIAL FROM RESISTIVITY LOG
SPWS    .MV    : SPONTANEOUS POTENTIAL [BASE LINE 0 MV, SPRED]
SRESWS  .OHMM  : SHALLOW RESISTIVITY [LL8ED]
~Params ----------------------------------------------------
PD  .                     GL : PERMANENT DATUM
EPD .FT               2302.4 : ELEVATION PERMANENT DATUM
LMF .                     KB : LOG MEASURED FROM
DAPD.FT                 17.6 : FEET ABOVE PERMANENT DATUM
EKB .FT               2320.0 : KELLY BUSHING
EGL .FT               2302.4 : GROUND LEVEL
DATE.               10/20/73 : RUN DATE
RUN .                      1 : RUN NUMBER
DD  .FT                11236 : DEPTH DRILLER
DL  .FT                11235 : DEPTH LOGGER
BLI .FT                11234 : BOTTOM LOG INTERVAL
TLI .FT                 6400 : TOP LOG INTERVAL
CS  .IN                9.625 : CASING SIZE
CBD .FT                 1247 : CASING BOTTOM DRILLER
CBL .FT                 1247 : CASING BOTTOM LOGGER
BS  .IN                 8.75 : BIT SIZE
BSD .FT                11236 : BIT SIZE AT DEPTH
DFT .               GEL CHEM : DRILLING FLUID TYPE
DFD .                    9.2 : DRILLING FLUID DENSITY
DFV .                     62 : DRILLING FLUID VISCOSITY
DFPH.                    9.0 : DRILLING FLUID PH
DFL .                   10.2 : DRILLING FLUID LOSS
RMF .OHMM               1.15 : RESISTIVITY MUD FILTRATE SAMPLE
MFST.DEGF                 70 : MUD FILTRATE SAMPLE TEMPERATURE
RMB .OHMM                0.4 : RESISTIVITY MUD AT BHT
TCS .HRS                 4.5 : TIME CIRCULATED STOPPED
LUN .                   7667 : LOGGING UNIT NUMBER
LUL .                    EDM : LOGGING UNIT LOCATION
ENGI.               BENOWSKI : RECORDING ENGINEER
WITN.       SNYDMELLER FRAME : WITNESSED BY
CLNT.                A2DTECH : CLIENT CODE
ORIG.            2" 5" PRINT : ORIGIN OF DATA
UWI .       100102906625W500 : UNIQUE WELL ID
DICO. A2D Technologies, Inc. : DIGITIZING COMPANY
~Other -----------------------------------------------------
~ASCII -----------------------------------------------------
# ...
 10300.00000   14.52000   14.94930   11.25460   11.25460  270.19720    0.17030    2.26580    0.26360    0.25980    3.70100    0.17030   72.59760   72.59760   85.68700   82.90650   84.46300   84.46300    3.70100    3.26760    4.74880    3.26760    0.30570    2.26580    0.30570 -733.16310 -846.45230    4.74880
 10350.00000   11.35860   12.20740   10.04070   10.04070  118.69150    0.24890    2.62580    0.04640    0.04920    8.42520    0.24890   65.52120   65.52120   70.44850   63.32830   68.04190   68.04190    8.42520    7.88070   11.80150    7.88070    0.17360    2.62580    0.17360 -497.26110 -609.59260   11.80150
 10400.00000   10.22930   10.73910    9.52380    9.52380   79.26690    0.17650    2.65350    0.02580    0.03300   12.61560    0.17650   65.76990   65.76990   63.98510   69.60930   69.91320   69.91320   12.61560   10.63070   19.54880   10.63070    0.17680    2.65350    0.17680 -265.86600 -377.23980   19.54880
 10450.00000   10.93300   11.63170    9.93420    9.93420  150.42960    0.15480    2.65910    0.02560    0.02980    6.64770    0.15480   67.40440   67.40440   87.32970   83.44840   76.07970   76.07970    6.64770    5.73660    8.77640    5.73660    0.20350    2.65910    0.20350 -135.96990 -246.38120    8.77640
 10500.00000   11.12930   11.84380    9.86950    9.86950  160.60640    0.25010    2.56140    0.08660    0.08690    6.22640    0.25010   71.48540   71.48540   88.76430   86.63860   91.45050   91.45050    6.22640    5.68240    8.80470    5.68240    0.27260    2.56140    0.27260 -153.24630 -262.70470    8.80470
 10550.00000   10.79330   10.98050    9.87520    9.87520  160.12040    0.17220    2.59720    0.06430    0.06600    6.24530    0.17220   70.56350   70.56350   85.49050   78.83540   85.73770   85.73770    6.24530    5.46830    8.70240    5.46830    0.23750    2.59720    0.23750   63.00140  -45.49930    8.70240
 10600.00000   10.18980   10.44190    9.74550    9.74550  131.26460    0.03980    2.59730    0.06420    0.06590    7.61820    0.03980   67.72460   67.72460   75.93890   75.06590   81.12870   81.12870    7.61820    6.96370   10.36780    6.96370    0.17910    2.59730    0.17910  104.15890   -3.38410   10.36780
 10650.00000   11.64010   12.10980    9.86340    9.86340  149.06020    0.19620    2.38450    0.19710    0.19040    6.70870    0.19620   65.68590   65.68590   83.35120   70.03900   72.37770   72.37770    6.70870    5.85780    8.83770    5.85780    0.21350    2.38450    0.21350   40.18680  -66.68050    8.83770
 10700.00000   10.88250   11.38920    9.73900    9.73900  244.55120    0.12570    2.58660    0.06690    0.07220    4.09200    0.12570   77.78500   77.78500  112.22800  105.76040  111.87300  111.87300    4.09200    3.82160    5.96230    3.82160    0.22740    2.58660    0.22740  -50.98140 -157.84870    5.96230
 10750.00000    9.24000    9.94910    8.88380    8.88380    2.20780    0.04350    2.53580    0.09860    0.10190  452.93700    0.04350   66.60930   66.60930  145.68650  116.20580  128.76340  128.76340  452.93700  229.06950 1286.68860  229.06950    0.10710    2.53580    0.10710 -293.80950 -400.67680 1286.68860
 10800.00000   10.66220   11.30480    9.93520    9.93520   83.11240    0.07040    2.55130    0.08960    0.09280   12.03190    0.07040   87.53040   87.53040  117.58070  131.56140  123.22590  123.22590   12.03190   11.49750   19.36140   11.49750    0.21630    2.55130    0.21630 -363.95720 -470.82450   19.36140
 10850.00000    9.60430   10.16490    9.16170    9.16170   74.98500    0.03520    2.72390   -0.01460   -0.00810   13.33600    0.03520   58.28850   58.28850   55.30300   50.67850   47.91410   47.91410   13.33600   14.77370   19.08970   14.77370    0.08060    2.72390    0.08060 -345.56380 -452.43110   19.08970
 10900.00000    9.56130   10.23550    9.16300    9.16300   76.40180    0.10030    2.64490    0.03400    0.03810   13.08870    0.10030   55.08460   55.08460   40.09000   39.77580   37.11940   37.11940   13.08870   14.46800   16.50020   14.46800    0.04000    2.64490    0.04000 -300.97640 -407.84370   16.50020
 10950.00000    9.48370   10.21170    9.11690    9.11690   20.10650    0.03110    2.66980    0.01910    0.02350   49.73550    0.03110   52.90080   52.90080   28.60950   29.37470   32.47270   32.47270   49.73550   69.33450   78.19310   69.33450    0.02330    2.66980    0.02330 -314.14000 -421.00730   78.19310
 11000.00000    9.63260   10.10540    9.04310    9.04310   53.84740    0.00040    2.67450    0.01250    0.02080   18.57100    0.00040   58.63980   58.63980   46.74390   41.77530   47.91340   47.91340   18.57100   21.19630   29.64470   21.19630    0.05830    2.67450    0.05830    -999.25    -999.25   29.64470
 11050.00000    9.48650   10.16770    8.93450    8.93450   10.74340    0.04730    2.73930   -0.02460   -0.01710   93.08010    0.04730   54.94820   54.94820   38.08130   40.82120   41.56770   41.56770   93.08010  108.29760  182.15620  108.29760    0.03540    2.73930    0.03540 -327.84500 -434.71230  182.15620
 11100.00000   12.72060   13.26410    9.24080    9.24080    0.59770    0.24800    2.55280    0.09200    0.09190 1673.12590    0.24800   49.28460   49.28460   19.01660   17.60340   18.46140   18.46140 1673.12590 1910.03940 1787.29240 1910.03940    0.07310    2.55280    0.07310 -529.04910 -635.91640 1787.29240
 11150.00000    8.95830    9.55320    8.46780    8.46780   58.84980    0.09670    2.56060    0.08730    0.08740   16.99240    0.09670   64.77200   64.77200   62.37190   61.20850   57.05960   57.05960   16.99240   25.63940   88.16200   25.63940    0.08380    2.56060    0.08380    -999.25    -999.25   88.16200
 11200.00000    8.56160    9.16320    8.40840    8.40840  274.35660    0.16780    2.61820    0.05100    0.05370    3.65050    0.16780   53.40000   53.40000   14.40300   16.26130   17.78030   17.78030    3.65050    4.26290   12.68160    4.26290    0.21470    2.61820    0.21470 -642.06490 -748.93230   12.68160
