~Version ---------------------------------------------------
VERS.      2.0 : CWLS log ASCII Standard -VERSION 2.0
WRAP.       NO : One line per depth step
CREA. 10/25/17 : LAS Creation Date
~Well ------------------------------------------------------
STRT.FT                         1100.0 : START DEPTH
STOP.FT                        10800.0 : STOP DEPTH
STEP.FT                       50.00000 : STEP LENGTH
NULL.                          -999.25 : NULL VALUE
COMP. AMOCO CANADA PETROLEUM CO., LTD. : COMPANY
WELL.       AMOCO N-2 ANTE 11-25-65-23 : WELL
FLD .                                  : FIELD
LOC .                                  : LOCATION
CTRY.                           CANADA : COUNTRY
SRVC.           Schlumberger of Canada : SERVICE COMPANY
DATE.                      30-Oct-1976 : LOGDATE
PROV.                          Alberta : PROVINCE
UWI .                 100112506523W500 : UNIQUE WELL ID
SLAT.WGS84                    54.65705 : SURFACE LATITUDE
SLON.WGS84                   -117.3447 : SURFACE LONGITUDE
~Curve Information -----------------------------------------
DEPT    .FT    : Depth Curve
CALDED  .IN    : CALIPER FROM DENSITY LOG [DEP. ADJ. TO RESIST. LOG]
CALSED  .IN    : CALIPER FROM SONIC LOG [DEP. ADJ. TO RESIST. LOG]
CALWS   .IN    : CALIPER [1152' CALDED 10764' CALSED]
CONDWS  .MMHO  : CONDUCTIVITY [1000/DRESWS]
DCORWS  .G/C3  : DENSITY CORRECTION [DRHOED]
DENWS   .G/C3  : BULK DENSITY [M=2.71, F=1.00] [RHOBED]
DPHILSED.V/V   : DENSITY POROSITY [M=2.71, F=1.00] FROM DENSITY LOG [DEP. ADJ. TO RESIST. LOG]
DPHISSED.V/V   : DENSITY POROSITY [M=2.65, F=1.00] FROM DENSITY LOG [DEP. ADJ. TO RESIST. LOG]
DPOLSWS .V/V   : DENSITY POROSITY [M=2.71, F=1.00] [CAL. FROM DENWS]
DRESWS  .OHMM  : DEEP RESISTIVITY [ILDED]
DRHOED  .G/C3  : DENSITY CORRECTION FROM DENSITY LOG [DEP. ADJ. TO RESIST. LOG]
DTED    .US/F  : DELTA TIME FROM SONIC LOG [DEP. ADJ. TO RESIST. LOG]
DTWS    .US/F  : DELTA TIME [DTED]
GRDED   .GAPI  : GAMMA RAY FROM DENSITY LOG [DEP. ADJ. TO RESIST. LOG]
GRSED   .GAPI  : GAMMA RAY FROM SONIC LOG [DEP. ADJ. TO RESIST. LOG]
GRWS    .GAPI  : GAMMA RAY [1096' GRSED 1142' GRDED]
ILDED   .OHMM  : INDUCTION LOG DEEP RESISTIVITY
ILMED   .OHMM  : INDUCTION LOG MEDIUM RESISTIVITY
LL8ED   .OHMM  : 8 INCH LATEROLOG RESISTIVITY
MRESWS  .OHMM  : MEDIUM RESISTIVITY [ILMED]
NPHILSED.V/V   : NEUTRON POROSITY LIMESTONE FROM DENSITY LOG [DEP. ADJ. TO RESIST. LOG]
NPHISSED.V/V   : NEUTRON POROSITY SANDSTONE FROM DENSITY LOG [DEP. ADJ. TO RESIST. LOG]
NPOLSWS .V/V   : NEUTRON POROSITY LIMESTONE [NPHISSED CONVERTED FOR LIMESTONE, SPL. TO NPHILSED @ 6253']
RHOBED  .G/C3  : BULK DENSITY FROM DENSITY LOG [DEP. ADJ. TO RESIST. LOG]
SPRED   .MV    : SPONTANEOUS POTENTIAL FROM RESISTIVITY LOG
SPWS    .MV    : SPONTANEOUS POTENTIAL [BASELINE 0 MV] [SPRED]
SRESWS  .OHMM  : SHALLOW RESISTIVITY [LL8ED]
~Params ----------------------------------------------------
PD  .                     GL : PERMANENT DATUM
EPD .FT                 2441 : ELEVATION PERMANENT DATUM
LMF .                     KB : LOG MEASURED FROM
DAPD.FT                 13.6 : FEET ABOVE PERMANENT DATUM
EKB .FT               2454.6 : KELLY BUSHING
EGL .FT                 2441 : GROUND LEVEL
DATE.               10/30/76 : RUN DATE
RUN .                      1 : RUN NUMBER
DD  .FT                10805 : DEPTH DRILLER
DL  .FT                10818 : DEPTH LOGGER
BLI .FT                10812 : BOTTOM LOG INTERVAL
TLI .FT                 1155 : TOP LOG INTERVAL
CBD .FT                 1153 : CASING BOTTOM DRILLER
CBL .FT                 1155 : CASING BOTTOM LOGGER
BS  .IN                 8.75 : BIT SIZE
BSD .FT                10805 : BIT SIZE AT DEPTH
DFT .                    GEL : DRILLING FLUID TYPE
DFD .                      9 : DRILLING FLUID DENSITY
DFV .                    115 : DRILLING FLUID VISCOSITY
DFPH.                    9.5 : DRILLING FLUID PH
DFL .                    8.6 : DRILLING FLUID LOSS
MSS .             CIRCULATED : MUD SAMPLE SOURCE
RMS .OHMM               3.02 : RESISTIVITY MUD SAMPLE
MST .DEGF                 62 : MUD SAMPLE TEMPERATURE
RMF .OHMM               2.62 : RESISTIVITY MUD FILTRATE SAMPLE
MFST.DEGF                 52 : MUD FILTRATE SAMPLE TEMPERATURE
MFSS.             CALCULATED : MUD FILTRATE SAMPLE SOURCE
MCSS.             CALCULATED : MUD CAKE SAMPLE SOURCE
TCS .HRS                   3 : TIME CIRCULATED STOPPED
LUN .                   7809 : LOGGING UNIT NUMBER
LUL .                    EDM : LOGGING UNIT LOCATION
ENGI.               SEDGWICK : RECORDING ENGINEER
WITN.              SCHWIEDER : WITNESSED BY
CLNT.                A2DTECH : CLIENT CODE
ORIG.            2" 5" PRINT : ORIGIN OF DATA
UWI .       100112506523W500 : UNIQUE WELL ID
DICO. A2D Technologies, Inc. : DIGITIZING COMPANY
~Other -----------------------------------------------------
~ASCII -----------------------------------------------------
# ...
 5000.00000    9.25660    9.39900    9.25660   58.37510    0.12070    2.52650    -999.25    0.07830    0.10730   17.13060    0.12070   76.01980   76.01980   69.88500   69.69860   69.88500   17.13060   18.18710   19.76170   18.18710    -999.25    0.30090    0.25690    2.52650 -108.18060  -31.97090   19.76170
 5050.00000   10.06860    9.79900   10.06860   94.49030    0.04490    2.59010    -999.25    0.04440    0.07010   10.58310    0.04490   78.98720   78.98720   91.50000   99.23760   91.50000   10.58310   10.93960   11.75210   10.93960    -999.25    0.32510    0.28120    2.59010  -80.90510   -5.65950   11.75210
 5100.00000   10.24800   10.22450   10.24800   49.06350    0.04010    1.99400    -999.25    0.37360    0.41870   20.39230    0.04010  112.70460  112.70460   63.28500   62.85160   63.28500   20.39230   22.77200   49.17710   22.77200    -999.25    0.53350    0.49550    1.99400  -79.36850   -5.57220   49.17710
 5150.00000   10.42730   10.19900   10.42730   77.59100    0.14220    2.48030    -999.25    0.15580    0.13430   12.88810    0.14220   75.07990   75.07990   81.28500   84.15360   81.28500   12.88810   14.02410   15.80520   14.02410    -999.25    0.30240    0.25840    2.48030  -88.61000  -16.25360   15.80520
 5200.00000    8.39780    8.62400    8.39780  108.78290    0.11770    2.37780    -999.25    0.17140    0.19430    9.19270    0.11770   82.17400   82.17400   31.08750   27.92550   31.08750    9.19270   12.73640   18.69740   12.73640    -999.25    0.26110    0.21720    2.37780 -133.96600  -63.05890   18.69740
 5250.00000    9.56630    9.09900    9.56630   70.38640    0.04280    2.50440    -999.25    0.10370    0.12030   14.20730    0.04280   80.10070   80.10070   76.09500   84.86890   76.09500   14.20730   17.57170   22.20050   17.57170    -999.25    0.29790    0.25400    2.50440  -97.65410  -28.18680   22.20050
 5300.00000    9.64690    9.50000    9.64690   80.67770    0.02890    2.55100    -999.25    0.06270    0.09300   12.39500    0.02890   77.49150   77.49150   95.29500   98.65280   95.29500   12.39500   13.62460   18.16250   13.62460    -999.25    0.31900    0.27510    2.55100  -72.59770   -4.57030   18.16250
 5350.00000   11.12750   10.04900   11.12750  137.93970    0.24970    2.13260    -999.25    0.30430    0.33770    7.24960    0.24970   84.21720   84.21720   91.54120   99.80340   91.54120    7.24960    7.76890    8.37950    7.76890    -999.25    0.40500    0.36220    2.13260  -71.89470   -5.21130    8.37950
 5400.00000   11.17030   10.32450   11.17030  121.68110    0.15570    2.45090    -999.25    0.11220    0.15150    8.21820    0.15570   80.01050   80.01050   80.89500   87.10530   80.89500    8.21820    8.92350   10.81100    8.92350    -999.25    0.32930    0.28550    2.45090  -72.05840   -4.52770   10.81100
 5450.00000   10.43730   10.04900   10.43730   98.48500    0.04150    2.52540    -999.25    0.07960    0.10800   10.15380    0.04150   75.61730   75.61730   79.34250   75.97220   79.34250   10.15380   10.98050   11.71720   10.98050    -999.25    0.27350    0.22950    2.52540  -84.49330  -16.10980   11.71720
 5500.00000   10.46800   10.69900   10.46800   97.03650    0.01980    2.49300    -999.25    0.09750    0.12690   10.30540    0.01980   72.59600   72.59600   72.74250   73.11890   72.74250   10.30540   10.77910   11.35190   10.77910    -999.25    0.26890    0.22490    2.49300  -83.18970  -13.95890   11.35190
 5550.00000   10.16020    9.69900   10.16020  119.07460    0.03060    2.56580    -999.25    0.06050    0.08430    8.39810    0.03060   76.21260   76.21260   76.29000   79.48090   76.29000    8.39810    9.05570    9.73290    9.05570    -999.25    0.29690    0.25290    2.56580  -79.89730   -9.81930    9.73290
 5600.00000    9.72810   10.00000    9.72810  105.67360    0.01330    2.57150    -999.25    0.05440    0.08100    9.46320    0.01330   75.16860   75.16860   83.43750   89.21140   83.43750    9.46320   10.24170   11.21210   10.24170    -999.25    0.30550    0.26150    2.57150  -77.09240   -6.16150   11.21210
 5650.00000    9.72400    9.64900    9.72400   83.77380    0.03530    2.62640    -999.25    0.02070    0.04890   11.93690    0.03530   73.53380   73.53380   80.38500   81.52360   80.38500   11.93690   13.60730   14.26760   13.60730    -999.25    0.27230    0.22830    2.62640  -75.83960   -4.06150   14.26760
 5700.00000    9.84360   10.04900    9.84360  108.17260    0.06390    2.61280    -999.25    0.03510    0.05680    9.24600    0.06390   75.96630   75.96630   82.49250   91.46430   82.49250    9.24600   10.34240   10.63130   10.34240    -999.25    0.30090    0.25690    2.61280  -77.05930   -4.72990   10.63130
 5750.00000    9.87050    9.75000    9.87050   54.14680    0.02780    2.56480    -999.25    0.06250    0.08490   18.46830    0.02780   69.68620   69.68620   66.39000   71.30400   66.39000   18.46830   22.58350   20.96510   22.58350    -999.25    0.21610    0.17250    2.56480  -79.36250   -9.46040   20.96510
 5800.00000   10.18810   10.00000   10.18810   56.51280    0.21570    2.43000    -999.25    0.16600    0.16370   17.69510    0.21570   74.29020   74.29020   81.09000   76.53210   81.09000   17.69510   22.88710   42.51580   22.88710    -999.25    0.30570    0.26180    2.43000  -80.53920  -13.06440   42.51580
 5850.00000    9.97140   10.14900    9.97140   73.34790    0.02760    2.66090    -999.25    0.00070    0.02870   13.63390    0.02760   69.92710   69.92710   96.54000  109.09090   96.54000   13.63390   14.65730   15.69360   14.65730    -999.25    0.22300    0.17930    2.66090  -67.05900   -0.57100   15.69360
 5900.00000    9.65750    9.64900    9.65750   41.75630    0.22650    2.63790    -999.25   -0.00170    0.04220   23.94850    0.22650   65.71100   65.71100   70.89000   76.08160   70.89000   23.94850   29.31880   32.04020   29.31880    -999.25    0.21340    0.16980    2.63790  -71.12360   -4.87110   32.04020
 5950.00000    9.80610    9.97450    9.80610   33.69260    0.02570    2.60270    -999.25    0.02560    0.06270   29.69570    0.02570   65.26110   65.26110   72.58500   75.55100   72.58500   29.69570   34.00140   33.78740   34.00140    -999.25    0.22220    0.17850    2.60270  -74.98920   -8.97360   33.78740
 6000.00000   10.31180   10.09900   10.31180   89.03930    0.12610    2.42300    -999.25    0.16440    0.16780   11.23100    0.12610   77.89560   77.89560  100.89000  110.25500  100.89000   11.23100   12.87240   14.39700   12.87240    -999.25    0.35830    0.31480    2.42300  -74.77110   -8.99090   14.39700
 6050.00000    9.22020    8.64900    9.22020   50.44980    0.05110    2.54110    -999.25    0.06600    0.09880   19.82170    0.05110   69.73390   69.73390   48.39000   54.19380   48.39000   19.82170   23.07250   29.07900   23.07250    -999.25    0.22090    0.17720    2.54110  -94.99670  -29.45190   29.07900
 6100.00000    8.75260    7.44900    8.75260   92.25950    0.09530    2.49160    -999.25    0.10330    0.12770   10.84330    0.09530   74.09360   74.09360   61.09500   59.63700   61.09500   10.84330   17.20040   25.02470   17.20040    -999.25    0.24270    0.19880    2.49160 -120.64530  -59.58650   25.02470
 6150.00000    8.74190    8.19900    8.74190  186.61940    0.11090    2.40470    -999.25    0.15450    0.17850    5.35850    0.11090   79.03430   79.03430   41.79000   38.25790   41.79000    5.35850    8.53840   17.65950    8.53840    -999.25    0.27860    0.23460    2.40470 -153.12320  -98.75840   17.65950
 6200.00000    9.12440    9.00000    9.12440   20.59820    0.02010    2.42350    -999.25    0.14090    0.16750   48.56280    0.02010   83.60160   83.60160  154.24500  155.20450  154.24500   48.56280   75.30470  156.05700   75.30470    -999.25    0.35980    0.31630    2.42350  -84.88250  -37.25570  156.05700
 6250.00000    9.31860    9.04900    9.31860   15.30170    0.02490    2.34260    -999.25    0.20050    0.21490   65.35210    0.02490   80.39720   80.39720  293.02680  300.25370  293.02680   65.35210   82.84930  164.91360   82.84930    -999.25    0.37460    0.33130    2.34260  -82.01150  -26.32150  164.91360
