~Version ---------------------------------------------------
VERS.      2.0 : CWLS log ASCII Standard -VERSION 2.0
WRAP.       NO : One line per depth step
CREA. 11/15/17 : LAS Creation Date
~Well ------------------------------------------------------
STRT.FT                        950.0 : START DEPTH
STOP.FT                       9400.0 : STOP DEPTH
STEP.FT                     50.00000 : STEP LENGTH
NULL.                        -999.25 : NULL VALUE
COMP. CANADIAN PACIFIC OIL & GAS LTD : COMPANY
WELL.       CPOG OBERLIN 10-15-38-21 : WELL
FLD .                                : FIELD
LOC .                                : LOCATION
CTRY.                         CANADA : COUNTRY
SRVC.                        Unknown : SERVICE COMPANY
DATE.                    13-Apr-1967 : LOGDATE
PROV.                        Alberta : PROVINCE
UWI .               100101503821W400 : UNIQUE WELL ID
SLAT.WGS84                  52.26833 : SURFACE LATITUDE
SLON.WGS84                 -112.9183 : SURFACE LONGITUDE
~Curve Information -----------------------------------------
DEPT   .FT    : Depth Curve
CALDED .IN    : CALIPER FROM DENSITY LOG
CALED  .IN    : CALIPER FROM CALIPER LOG
CALWS  .IN    : CALIPER [CALED SPL. TO CALED @ 4501']
CONDWS .MMHO  : CONDUCTIVITY [1000/DRESWS]
DCORED .G/C3  : DENSITY CORRECTION [DRHOED]
DCORWS .G/C3  : DENSITY CORRECTION [DCORED]
DENWS  .G/C3  : FORMATION BULK DENSITY [RHOBED]
DPOLSWS.V/V   : DENSITY POROSITY LIMESTONE [CALC ROM DENWS, M=2.71, F=1.00]
DRESWS .OHMM  : DEEP RESISTIVITY [ILDED]
DRHOED .G/C3  : DENSITY CORRECTION FROM DENSITY LOG
DTED   .US/F  : DELTA TIME FROM SONIC LOG [ADJ. TO RESISTIVITY LOG]
DTWS   .US/F  : COMPRESSIONAL SONIC [DTED]
GRNED  .GAPI  : GAMMA RAY FROM NEUTRON GAMMA RAY LOG [ADJ. TO RESISTIVITY LOG]
GRSED  .GAPI  : GAMMA RAY FROM SONIC LOG [ADJ. TO RESISTIVITY LOG]
GRWS   .GAPI  : GAMMA RAY [GRSED]
ILDED  .OHMM  : DEEP INDUCTION FROM RESISTIVITY LOG
ILMED  .OHMM  : INDUCTION MEDIUM FROM RESISTIVITY LOG
LL8ED  .OHMM  : LATEROLOG-8 FROM RESISTIVITY LOG
MRESWS .OHMM  : MEDIUM RESISTIVITY [ILMED]
NEUTED .NAPI  : NEUTRON FROM NEUTRON GAMMA RAY LOG [ADJ. TO RESISTIVITY LOG]
NEUTWS .NAPI  : NEUTRON [NEUTED]
RHOBED .G/C3  : BULK DENSITY FROM DENSITY LOG
SPRED  .MV    : SPONTANEOUS POTENTIAL FROM RESISTIVITY
SPWS   .MV    : SPONTANEOUS POTENTIAL [SPRED]
SRESWS .OHMM  : SHALLOW RESISTIVITY [LL8ED]
~Params ----------------------------------------------------
PD  .                     GL : PERMANENT DATUM
EPD .FT               2675.8 : ELEVATION PERMANENT DATUM
LMF .                     KB : LOG MEASURED FROM
DAPD.FT                   13 : FEET ABOVE PERMANENT DATUM
DMF .                     KB : DRILLING MEASURED FROM
EKB .FT               2688.8 : KELLY BUSHING
EGL .FT               2675.8 : GROUND LEVEL
DATE.               04/13/67 : RUN DATE
RUN .                      1 : RUN NUMBER
DD  .FT                 9418 : DEPTH DRILLER
DL  .FT                 9417 : DEPTH LOGGER
BLI .FT                 9413 : BOTTOM LOG INTERVAL
TLI .FT                  920 : TOP LOG INTERVAL
CBD .FT                  920 : CASING BOTTOM DRILLER
CBL .FT                  918 : CASING BOTTOM LOGGER
BS  .IN                 8.75 : BIT SIZE
BSD .FT                 9417 : BIT SIZE AT DEPTH
DFT .            CAUSTIC GEL : DRILLING FLUID TYPE
DFD .                   10.4 : DRILLING FLUID DENSITY
DFV .                     68 : DRILLING FLUID VISCOSITY
DFPH.                   10.5 : DRILLING FLUID PH
DFL .                    9.6 : DRILLING FLUID LOSS
MSS .               FLOWLINE : MUD SAMPLE SOURCE
RMS .OHMM              0.397 : RESISTIVITY MUD SAMPLE
MST .DEGF                 62 : MUD SAMPLE TEMPERATURE
RMF .OHMM              0.211 : RESISTIVITY MUD FILTRATE SAMPLE
MFST.DEGF                 76 : MUD FILTRATE SAMPLE TEMPERATURE
RMB .OHMM              0.094 : RESISTIVITY MUD AT BHT
TCS .HRS                   3 : TIME CIRCULATED STOPPED
LUN .                   7014 : LOGGING UNIT NUMBER
LUL .                  STETT : LOGGING UNIT LOCATION
ENGI.                  YOUNG : RECORDING ENGINEER
WITN.                KOZBIAL : WITNESSED BY
CLNT.                A2DTECH : CLIENT CODE
ORIG.            2" 5" PRINT : ORIGIN OF DATA
UWI .       100101503821W400 : UNIQUE WELL ID
DICO. A2D Technologies, Inc. : DIGITIZING COMPANY
~Other -----------------------------------------------------
~ASCII -----------------------------------------------------
  950.00000    -999.25    -999.25    -999.25  146.14970    -999.25    -999.25    -999.25    -999.25    6.84230    -999.25   97.55100   97.55100    -999.25   63.46070   63.46070    6.84230    5.14600    6.41220    5.14600    -999.25    -999.25    -999.25 -115.14330   -7.57190    6.41220
 1000.00000    -999.25    -999.25    -999.25  288.17610    -999.25    -999.25    -999.25    -999.25    3.47010    -999.25  107.98730  107.98730    -999.25   58.75170   58.75170    3.47010    2.70960    2.84880    2.70960    -999.25    -999.25    -999.25 -115.70410   -6.88220    2.84880
 1050.00000    -999.25    -999.25    -999.25  263.20410    -999.25    -999.25    -999.25    -999.25    3.79940    -999.25  111.58100  111.58100    -999.25   75.96800   75.96800    3.79940    3.50760    4.79340    3.50760    -999.25    -999.25    -999.25 -114.54830   -7.38680    4.79340
 1100.00000    -999.25    -999.25    -999.25  260.12540    -999.25    -999.25    -999.25    -999.25    3.84430    -999.25   98.44430   98.44430    -999.25   62.75500   62.75500    3.84430    3.44910    4.99900    3.44910    -999.25    -999.25    -999.25 -110.68070   -5.19050    4.99900
 1150.00000    -999.25    -999.25    -999.25  369.82330    -999.25    -999.25    -999.25    -999.25    2.70400    -999.25  120.81460  120.81460    -999.25   74.20120   74.20120    2.70400    2.51840    3.31100    2.51840    -999.25    -999.25    -999.25 -111.63320   -7.07260    3.31100
 1200.00000    -999.25    -999.25    -999.25  185.36020    -999.25    -999.25    -999.25    -999.25    5.39490    -999.25  104.42820  104.42820    -999.25   63.51470   63.51470    5.39490    3.70630    4.38920    3.70630    -999.25    -999.25    -999.25 -110.20920   -5.84880    4.38920
 1250.00000    -999.25    -999.25    -999.25  325.49960    -999.25    -999.25    -999.25    -999.25    3.07220    -999.25  101.86670  101.86670    -999.25   76.30290   76.30290    3.07220    3.37340    4.50970    3.37340    -999.25    -999.25    -999.25 -109.24780   -5.08630    4.50970
 1300.00000    -999.25    -999.25    -999.25  217.54260    -999.25    -999.25    -999.25    -999.25    4.60980    -999.25  101.23390  101.23390    -999.25   69.14500   69.14500    4.60980    4.14230    4.11920    4.14230    -999.25    -999.25    -999.25 -109.76200   -5.79940    4.11920
 1350.00000    -999.25    -999.25    -999.25  306.08180    -999.25    -999.25    -999.25    -999.25    3.26710    -999.25  111.24260  111.24260    -999.25   54.57720   54.57720    3.26710    2.94830    3.82490    2.94830    -999.25    -999.25    -999.25 -109.12130   -5.35890    3.82490
 1400.00000    -999.25    -999.25    -999.25  290.85560    -999.25    -999.25    -999.25    -999.25    3.43820    -999.25   97.27290   97.27290    -999.25   61.67560   61.67560    3.43820    3.22080    4.34380    3.22080    -999.25    -999.25    -999.25 -109.34470   -5.78120    4.34380
 1450.00000    -999.25    -999.25    -999.25  247.23710    -999.25    -999.25    -999.25    -999.25    4.04470    -999.25   86.16160   86.16160    -999.25   67.06010   67.06010    4.04470    3.80280    5.86680    3.80280    -999.25    -999.25    -999.25 -108.44110   -5.07780    5.86680
 1500.00000    -999.25    -999.25    -999.25  193.57340    -999.25    -999.25    -999.25    -999.25    5.16600    -999.25   99.70110   99.70110    -999.25   57.96110   57.96110    5.16600    4.49860    4.70840    4.49860    -999.25    -999.25    -999.25 -109.37440   -6.20990    4.70840
 1550.00000    -999.25    -999.25    -999.25  194.77940    -999.25    -999.25    -999.25    -999.25    5.14830    -999.25   93.91340   93.91340    -999.25   74.03540   74.03540    5.14830    4.19280    4.61810    4.19280    -999.25    -999.25    -999.25 -104.00510   -5.20800    4.61810
 1600.00000    -999.25    -999.25    -999.25  274.18290    -999.25    -999.25    -999.25    -999.25    3.64720    -999.25  107.63470  107.63470    -999.25   66.14900   66.14900    3.64720    3.03400    3.39320    3.03400    -999.25    -999.25    -999.25 -111.01620   -6.22080    3.39320
 1650.00000    -999.25    -999.25    -999.25  154.72460    -999.25    -999.25    -999.25    -999.25    6.47280    -999.25   89.74000   89.74000    -999.25   52.85530   52.85530    6.47280    5.71590    7.15620    5.71590    -999.25    -999.25    -999.25 -110.54750   -5.29480    7.15620
 1700.00000    -999.25    -999.25    -999.25  228.50350    -999.25    -999.25    -999.25    -999.25    4.37630    -999.25  103.69480  103.69480    -999.25  107.11340  107.11340    4.37630    3.98100    4.72990    3.98100    -999.25    -999.25    -999.25 -110.56600   -4.85300    4.72990
 1750.00000    -999.25    -999.25    -999.25  299.07880    -999.25    -999.25    -999.25    -999.25    3.34360    -999.25  116.00730  116.00730    -999.25   47.34930   47.34930    3.34360    2.59950    3.06150    2.59950    -999.25    -999.25    -999.25 -109.55360   -3.38330    3.06150
 1800.00000    -999.25    -999.25    -999.25  227.94020    -999.25    -999.25    -999.25    -999.25    4.38710    -999.25  110.04410  110.04410    -999.25   56.64020   56.64020    4.38710    4.04500    3.66350    4.04500    -999.25    -999.25    -999.25 -110.29750   -4.06220    3.66350
 1850.00000    -999.25    -999.25    -999.25  183.89450    -999.25    -999.25    -999.25    -999.25    5.43790    -999.25  102.16390  102.16390    -999.25   53.53690   53.53690    5.43790    4.00010    5.08510    4.00010    -999.25    -999.25    -999.25 -108.93960   -2.77510    5.08510
 1900.00000    -999.25    -999.25    -999.25  355.27470    -999.25    -999.25    -999.25    -999.25    2.81900    -999.25  121.60250  121.60250    -999.25   52.44760   52.44760    2.81900    2.75730    3.27410    2.75730    -999.25    -999.25    -999.25 -110.20570   -4.11150    3.27410
 1950.00000    -999.25    -999.25    -999.25  290.45280    -999.25    -999.25    -999.25    -999.25    3.44290    -999.25  114.66360  114.66360    -999.25   56.49370   56.49370    3.44290    2.99620    3.72750    2.99620    -999.25    -999.25    -999.25 -109.21410   -3.19070    3.72750
 2000.00000    -999.25    -999.25    -999.25  276.61750    -999.25    -999.25    -999.25    -999.25    3.61510    -999.25   97.24590   97.24590    -999.25   58.90880   58.90880    3.61510    3.37930    4.10490    3.37930    -999.25    -999.25    -999.25 -110.13020   -4.17720    4.10490
 2050.00000    -999.25    -999.25    -999.25  270.86930    -999.25    -999.25    -999.25    -999.25    3.69310    -999.25  109.81530  109.81530    -999.25   64.74310   64.74310    3.69310    3.35780    4.28050    3.35780    -999.25    -999.25    -999.25 -108.08000   -2.19730    4.28050
 2100.00000    -999.25    -999.25    -999.25  288.65860    -999.25    -999.25    -999.25    -999.25    3.46430    -999.25   89.11290   89.11290    -999.25   55.31220   55.31220    3.46430    4.06040    8.10960    4.06040    -999.25    -999.25    -999.25 -109.28050   -3.46860    8.10960
 2150.00000    -999.25    -999.25    -999.25  206.41250    -999.25    -999.25    -999.25    -999.25    4.84470    -999.25   97.80840   97.80840    -999.25   43.99440   43.99440    4.84470    4.45590    6.64710    4.45590    -999.25    -999.25    -999.25 -109.54610   -3.80460    6.64710
 2200.00000    -999.25    -999.25    -999.25  182.56840    -999.25    -999.25    -999.25    -999.25    5.47740    -999.25  105.13830  105.13830    -999.25   51.38300   51.38300    5.47740    4.69060    5.60630    4.69060    -999.25    -999.25    -999.25 -109.35870   -3.68800    5.60630
 2250.00000    -999.25    -999.25    -999.25  280.91470    -999.25    -999.25    -999.25    -999.25    3.55980    -999.25  102.98820  102.98820    -999.25   60.65290   60.65290    3.55980    3.21990    4.42510    3.21990    -999.25    -999.25    -999.25 -109.24790   -3.64750    4.42510
 2300.00000    -999.25    -999.25    -999.25  348.27190    -999.25    -999.25    -999.25    -999.25    2.87140    -999.25  105.68780  105.68780    -999.25   68.27690   68.27690    2.87140    2.68220    3.56060    2.68220    -999.25    -999.25    -999.25 -109.26550   -3.73550    3.56060
