~Version ---------------------------------------------------
VERS.      2.0 : CWLS log ASCII Standard -VERSION 2.0
WRAP.       NO : One line per depth step
CREA. 12/18/17 : LAS Creation Date
~Well ------------------------------------------------------
STRT.FT                           850.0 : START DEPTH
STOP.FT                          9400.0 : STOP DEPTH
STEP.FT                        50.00000 : STEP LENGTH
NULL.                           -999.25 : NULL VALUE
COMP.  THE BRITISH-AMERICAN OIL PROD CO : COMPANY
WELL. B.A. SWEATHOUSE CREEK 14-16-68-18 : WELL
FLD .                                   : FIELD
LOC .                                   : LOCATION
CTRY.                            CANADA : COUNTRY
SRVC.                      Schlumberger : SERVICE COMPANY
DATE.                       21-Mar-1962 : LOGDATE
PROV.                           Alberta : PROVINCE
UWI .                  100141606818W500 : UNIQUE WELL ID
SLAT.WGS84                     54.89228 : SURFACE LATITUDE
SLON.WGS84                    -116.6852 : SURFACE LONGITUDE
~Curve Information -----------------------------------------
DEPT  .FT      : Depth Curve
CILDED.MMHO    : DEEP INDUCTION CONDUCTIVITY FROM RESISTIVITY LOG
CONDWS.MMHO    : CONDUCTIVITY [1000/DRESWS]
DRESWS.OHMM    : DEEP RESISTIVITY [1000/CILDED,IF ILDED<5,ILDED]
DTED  .US/F    : DELTA-T FROM SONIC LOG
DTWS  .US/F    : COMPRESSIONAL SONIC [DTED]
GRNED .MG/TON  : GAMMA RAY FROM GRN LOG [ADJ. TO RESISTIVITY LOG]
GRSED .GAPI    : GAMMA RAY FROM SONIC LOG
GRWS  .GAPI    : GAMMA RAY [GRSED SPL. TO GRNED*16.5 (GAPI) @ 9414']
ILDED .OHMM    : DEEP INDUCTION RESISTIVITY FROM RESISTIVITY LOG
NEUTED.CPS     : NEUTRON FROM GRN LOG [ADJ. TO RESISTIVITY LOG]
NEUTWS.CPS     : NEUTRON [NEUTED]
SNED  .OHMM    : 16 INCH  SHORT NORMAL FROM RESISTIVITY LOG
SPRED .MV      : SPONTANEOUS POTENTIAL FROM RESISTIVITY LOG
SPWS  .MV      : SPONTANEOUS POTENTIAL [BASELINE 0 MV,SPRED]
SRESWS.OHMM    : SHALLOW RESISTIVITY [SNED]
~Params ----------------------------------------------------
PD  .                     GL : PERMANENT DATUM
EPD .FT               2692.3 : ELEVATION PERMANENT DATUM
LMF .                     KB : LOG MEASURED FROM
DAPD.FT                 14.7 : FEET ABOVE PERMANENT DATUM
DMF .                     KB : DRILLING MEASURED FROM
EKB .FT                 2707 : KELLY BUSHING
EGL .FT               2692.3 : GROUND LEVEL
DATE.             03/21/1962 : RUN DATE
RUN .                      1 : RUN NUMBER
DD  .FT                 9428 : DEPTH DRILLER
DL  .FT                 9434 : DEPTH LOGGER
BLI .FT                 9430 : BOTTOM LOG INTERVAL
TLI .FT                  944 : TOP LOG INTERVAL
CBD .FT                  944 : CASING BOTTOM DRILLER
CBL .FT                  944 : CASING BOTTOM LOGGER
BS  .IN                 6.25 : BIT SIZE
BSD .FT                 9428 : BIT SIZE AT DEPTH
DFT .                    GEL : DRILLING FLUID TYPE
DFD .                    9.7 : DRILLING FLUID DENSITY
DFV .                     92 : DRILLING FLUID VISCOSITY
DFPH.                    9.5 : DRILLING FLUID PH
DFL .                    6.7 : DRILLING FLUID LOSS
MSS .                    2.3 : MUD SAMPLE SOURCE
RMS .OHMM                 70 : RESISTIVITY MUD SAMPLE
MST .DEGF                1.8 : MUD SAMPLE TEMPERATURE
RMF .OHMM                 70 : RESISTIVITY MUD FILTRATE SAMPLE
MFST.DEGF                2.5 : MUD FILTRATE SAMPLE TEMPERATURE
RMC .OHMM                 68 : RESISTIVITY MUD CAKE
RMB .OHMM                0.7 : RESISTIVITY MUD AT BHT
TCS .HRS                   9 : TIME CIRCULATED STOPPED
LUN .                   1574 : LOGGING UNIT NUMBER
LUL .                    EDM : LOGGING UNIT LOCATION
ENGI.                 BENNER : RECORDING ENGINEER
WITN.           DAAE TKACHUK : WITNESSED BY
CLNT.                A2DTECH : CLIENT CODE
ORIG.            2" 5" PRINT : ORIGIN OF DATA
UWI .       100141606818W500 : UNIQUE WELL ID
DICO. A2D Technologies, Inc. : DIGITIZING COMPANY
~Other -----------------------------------------------------
IEL-BCS-GRN LOG RUN
~ASCII -----------------------------------------------------
  850.00000    -999.25    -999.25    -999.25    -999.25    -999.25    -999.25   40.90350   40.90350    -999.25    -999.25    -999.25    -999.25    -999.25    -999.25    -999.25
  900.00000    -999.25    -999.25    -999.25    -999.25    -999.25    -999.25   46.05840   46.05840    -999.25    -999.25    -999.25    -999.25    -999.25    -999.25    -999.25
  950.00000  317.12630  317.12630    3.15330  140.20150  140.20150    -999.25   47.66920   47.66920    4.97000    -999.25    -999.25    4.23700 -134.73220   -5.48480    4.23700
 1000.00000  373.13540  373.13540    2.68000  151.69730  151.69730    -999.25   51.59920   51.59920    3.43610    -999.25    -999.25    3.21760 -132.84780   -4.27090    3.21760
 1050.00000  247.99850  247.99850    4.03230  135.98080  135.98080    -999.25   63.80290   63.80290    4.47990    -999.25    -999.25    4.75950 -132.75930   -3.89760    4.75950
 1100.00000  295.20950  295.20950    3.38740  157.73320  157.73320    -999.25   48.17640   48.17640    4.11320    -999.25    -999.25    3.88060 -134.49320   -4.48890    3.88060
 1150.00000  123.66110  128.76810    7.76590  114.16830  114.16830    -999.25   55.84880   55.84880    7.76590    -999.25    -999.25    6.68930 -146.16390  -15.00830    6.68930
 1200.00000  234.47280  234.47280    4.26490  146.98140  146.98140    -999.25   48.72460   48.72460    4.82250    -999.25    -999.25    4.34240 -134.84640   -2.53950    4.34240
 1250.00000  250.97460  250.97460    3.98450  161.27910  161.27910    -999.25   48.18860   48.18860    4.48570    -999.25    -999.25    4.28390 -137.63360   -4.92860    4.28390
 1300.00000  317.04650  317.04650    3.15410  135.54260  135.54260    -999.25   44.72620   44.72620    3.93740    -999.25    -999.25    4.73660 -140.18690   -7.42930    4.73660
 1350.00000  381.16180  381.16180    2.62360  174.76490  174.76490    -999.25   45.25340   45.25340    3.51780    -999.25    -999.25    3.98980 -133.86870   -1.86440    3.98980
 1400.00000  251.42000  251.42000    3.97740  145.59400  145.59400    -999.25   42.93910   42.93910    4.43750    -999.25    -999.25    4.13880 -139.47750   -8.22640    4.13880
 1450.00000  216.68390  216.68390    4.61500  193.71130  193.71130    -999.25   51.25550   51.25550    4.84090    -999.25    -999.25    4.74240 -136.21560   -5.71780    4.74240
 1500.00000  255.16440  255.16440    3.91900  158.56020  158.56020    -999.25   49.46760   49.46760    4.38070    -999.25    -999.25    4.25210 -136.87980   -7.01290    4.25210
 1550.00000   65.71880   75.08300   13.31860  119.98150  119.98150    -999.25   53.53190   53.53190   13.31860    -999.25    -999.25   10.96930 -149.06240  -19.98160   10.96930
 1600.00000  252.56240  252.56240    3.95940  134.78220  134.78220    -999.25   46.35080   46.35080    4.53820    -999.25    -999.25    4.37780 -134.76890   -7.06530    4.37780
 1650.00000  137.64780  138.69820    7.20990  114.07390  114.07390    -999.25   44.21020   44.21020    7.20990    -999.25    -999.25    7.02200 -140.24540  -13.91910    7.02200
 1700.00000  327.56670  327.56670    3.05280  174.17280  174.17280    -999.25   40.18330   40.18330    3.76830    -999.25    -999.25    3.51850 -129.06040   -4.11140    3.51850
 1750.00000  304.80290  304.80290    3.28080  161.22460  161.22460    -999.25   47.77060   47.77060    3.96520    -999.25    -999.25    3.97450 -127.46150   -3.60980    3.97450
 1800.00000  250.10280  250.10280    3.99840  130.86960  130.86960    -999.25   47.16480   47.16480    4.26030    -999.25    -999.25    4.50910 -128.86040   -5.21920    4.50910
 1850.00000  237.18170  237.18170    4.21620  152.33070  152.33070    -999.25   47.01850   47.01850    4.33120    -999.25    -999.25    4.70690 -127.62500   -3.91450    4.70690
 1900.00000   82.85440   96.63890   10.34780  120.14930  120.14930    -999.25   38.82430   38.82430   10.34780    -999.25    -999.25   10.50050 -149.36720  -25.13340   10.50050
 1950.00000  183.39050  189.32580    5.28190  123.86720  123.86720    -999.25   43.41870   43.41870    5.28190    -999.25    -999.25    6.33350 -145.25410  -20.40810    6.33350
 2000.00000  109.51920  101.77910    9.82520   70.32390   70.32390    -999.25   46.48130   46.48130    9.82520    -999.25    -999.25    8.47190 -128.86020   -3.79810    8.47190
 2050.00000  245.83620  245.83620    4.06770  130.33190  130.33190    -999.25   53.13140   53.13140    4.56700    -999.25    -999.25    4.31330 -128.18220   -3.19070    4.31330
 2100.00000  291.99190  245.63990    4.07100  137.17310  137.17310    -999.25   56.54550   56.54550    4.07100    -999.25    -999.25    4.36730 -128.55810   -3.56660    4.36730
 2150.00000  192.23930  186.95080    5.34900  113.30740  113.30740    -999.25   56.12160   56.12160    5.34900    -999.25    -999.25    5.80090 -128.52210   -3.17360    5.80090
 2200.00000  149.57500  152.36700    6.56310  130.65050  130.65050    -999.25   76.08710   76.08710    6.56310    -999.25    -999.25    5.89740 -133.49600   -6.39500    5.89740
 2250.00000  193.90900  191.50120    5.22190  130.48070  130.48070    -999.25   72.23870   72.23870    5.22190    -999.25    -999.25    5.54030 -132.72550   -5.20810    5.54030
 2300.00000  176.33950  175.74690    5.69000  127.47160  127.47160    -999.25   91.56590   91.56590    5.69000    -999.25    -999.25    6.07180 -130.20310   -3.23680    6.07180
 2350.00000  158.24660  158.34060    6.31550  115.43250  115.43250    -999.25  107.07470  107.07470    6.31550    -999.25    -999.25    7.22130 -129.78150   -3.36640    7.22130
 2400.00000  204.52270  191.43890    5.22360  115.79670  115.79670    -999.25   88.35310   88.35310    5.22360    -999.25    -999.25    5.67440 -131.53020   -4.85620    5.67440
 2450.00000  175.31260  172.22380    5.80640  108.49380  108.49380    -999.25   72.75270   72.75270    5.80640    -999.25    -999.25    5.62740 -135.34270   -6.33550    5.62740
 2500.00000  183.26410  179.82380    5.56100  118.52880  118.52880    -999.25   70.93130   70.93130    5.56100    -999.25    -999.25    5.33130 -136.58570   -5.02400    5.33130
 2550.00000  126.41650  137.50810    7.27230  131.72770  131.72770    -999.25   73.99550   73.99550    7.27230    -999.25    -999.25    7.04520 -134.42150   -3.36010    7.04520
 2600.00000  143.53630  148.85600    6.71790  114.60820  114.60820    -999.25   55.19380   55.19380    6.71790    -999.25    -999.25    5.86190 -135.86670   -4.39860    5.86190
 2650.00000  143.18580  147.88740    6.76190  135.86030  135.86030    -999.25   67.08350   67.08350    6.76190    -999.25    -999.25    5.99000 -135.75210   -4.51310    5.99000
 2700.00000  167.48720  169.33370    5.90550  138.17670  138.17670    -999.25   71.72270   71.72270    5.90550    -999.25    -999.25    5.58780 -133.55230   -3.44670    5.58780
 2750.00000  108.74060  115.34690    8.66950  135.83630  135.83630    -999.25   51.86460   51.86460    8.66950    -999.25    -999.25    6.70170 -135.24640   -6.03260    6.70170
 2800.00000  163.15370  169.45990    5.90110  165.24940  165.24940    -999.25   45.46100   45.46100    5.90110    -999.25    -999.25    5.83440 -134.92550   -6.60350    5.83440
 2850.00000  157.46590  162.46950    6.15500  137.62760  137.62760    -999.25   63.76810   63.76810    6.15500    -999.25    -999.25    5.98690 -133.01130   -5.66110    5.98690
 2900.00000  134.73380  143.66580    6.96060  109.15600  109.15600    -999.25   67.43350   67.43350    6.96060    -999.25    -999.25    6.64500 -131.82580   -5.73080    6.64500
 2950.00000  161.67590  161.34500    6.19790  127.10840  127.10840    -999.25   75.11550   75.11550    6.19790    -999.25    -999.25    6.00120 -129.49920   -4.65950    6.00120
 3000.00000  177.35310  170.97820    5.84870  114.96450  114.96450    -999.25   77.42950   77.42950    5.84870    -999.25    -999.25    6.20220 -127.02840   -3.44390    6.20220
 3050.00000  165.83460  166.89480    5.99180  122.30890  122.30890    -999.25   89.08430   89.08430    5.99180    -999.25    -999.25    6.80600 -125.94730   -3.61800    6.80600
 3100.00000  154.90960  157.84070    6.33550  114.50840  114.50840    -999.25   92.36040   92.36040    6.33550    -999.25    -999.25    7.24990 -124.08360   -2.80100    7.24990
