~Version ---------------------------------------------------
VERS.      2.0 : CWLS log ASCII Standard -VERSION 2.0
WRAP.       NO : One line per depth step
CREA. 09/08/14 : LAS Creation Date
~Well ------------------------------------------------------
STRT.FT                                        700.0 : START DEPTH
STOP.FT                                       7150.0 : STOP DEPTH
STEP.FT                                     50.00000 : STEP LENGTH
NULL.                                        -999.25 : NULL VALUE
COMP. GREAT PLAINS DEVELOPMENT COMPANY OF CANADA LTD : COMPANY
WELL.            GRT PLNS B.A. THUNDER LK 12-18-60-5 : WELL
FLD .                                                : FIELD
LOC .                                                : LOCATION
CTRY.                                         CANADA : COUNTRY
SRVC.                                   Schlumberger : SERVICE COMPANY
DATE.                                    30-Mar-1962 : LOGDATE
PROV.                                        Alberta : PROVINCE
UWI .                               100121806005W500 : UNIQUE WELL ID
SLAT.WGS84                                  54.19013 : SURFACE LATITUDE
SLON.WGS84                                 -114.7475 : SURFACE LONGITUDE
~Curve Information -----------------------------------------
DEPT.FT    : DEPTH FEET
CALS.IN    : CALIPER FROM SONIC LOG
CILD.MMHO  : CONDUCTIVITY FROM IEL
DT  .US/F  : DELTA TIME SPACING 3' PICKUP SPAN 3' FROM SONIC LOG
DT_1.US/F  : DELTA TIME SPACING 3' PICKUP SPAN 1' FROM SONIC LOG
GRS .GAPI  : GAMMA RAY FROM SONIC LOG
ILD .OHMM  : INDUCTION LOG DEEP RESISTIVITY FROM IEL
SN  .OHMM  : 16 INCH SHORT NORMAL RESISTIVITY FROM IEL
SPR .MV    : SPONTANEOUS POTENTIAL FROM IEL
~Params ----------------------------------------------------
PD  .                     GL : PERMANENT DATUM
EPD .FT                 2230 : ELEVATION PERMANENT DATUM
LMF .                     KB : LOG MEASURED FROM
DAPD.FT                   12 : FEET ABOVE PERMANENT DATUM
EKB .FT                 2242 : KELLY BUSHING
EGL .FT                 2230 : GROUND LEVEL
DATE.               03/30/62 : RUN DATE
RUN .                      2 : RUN NUMBER
DD  .FT                 7155 : DEPTH DRILLER
DL  .FT                 7158 : DEPTH LOGGER
BLI .FT                 7157 : BOTTOM LOG INTERVAL
TLI .FT                 3200 : TOP LOG INTERVAL
CBD .FT                  735 : CASING BOTTOM DRILLER
BS  .IN                 8.75 : BIT SIZE
BSD .FT                 7155 : BIT SIZE AT DEPTH
DFT .                    GYP : DRILLING FLUID TYPE
DFD .                   10.5 : DRILLING FLUID DENSITY
DFV .                     90 : DRILLING FLUID VISCOSITY
DFPH.                      7 : DRILLING FLUID PH
DFL .                    6.8 : DRILLING FLUID LOSS
RMS .OHMM                1.8 : RESISTIVITY MUD SAMPLE
MST .DEGF                 60 : MUD SAMPLE TEMPERATURE
RMF .OHMM                1.2 : RESISTIVITY MUD FILTRATE SAMPLE
MFST.DEGF                 70 : MUD FILTRATE SAMPLE TEMPERATURE
RMC .OHMM                2.0 : RESISTIVITY MUD CAKE
MCST.DEGF                 70 : MUD CAKE SAMPLE TEMPERATURE
RMB .OHMM                1.8 : RESISTIVITY MUD AT BHT
TCS .HRS                 2.5 : TIME CIRCULATED STOPPED
LUN .                   1534 : LOGGING UNIT NUMBER
LUL .                    EDM : LOGGING UNIT LOCATION
ENGI.                SKILTON : RECORDING ENGINEER
WITN.                BUCKLEY : WITNESSED BY
CLNT.                A2DTECH : CLIENT CODE
ORIG.            2" 5" PRINT : ORIGIN OF DATA
UWI .       100121806005W500 : UNIQUE WELL ID
DICO. A2D Technologies, Inc. : DIGITIZING COMPANY
~Other -----------------------------------------------------
~ASCII -----------------------------------------------------
  700.00000    9.77830    -999.25  237.65200    -999.25   33.28360    -999.25    -999.25    -999.25
  750.00000    9.33240  216.16160  134.60980    -999.25   48.69390    4.12910    5.36480  -81.84580
  800.00000    9.42200  198.03590  116.84070    -999.25   48.30900    4.96840    5.37530  -84.78770
  850.00000    9.56780  129.34540  128.44630    -999.25  122.26600    8.66630    8.46050  -81.59420
  900.00000   10.39880   69.86070  140.84200    -999.25   49.17800   13.19740   13.53020  -93.26950
  950.00000   11.64250  229.66030  134.86500    -999.25   47.29070    3.92270    4.40070  -79.18850
 1000.00000    8.85690  164.97940  121.54150    -999.25   43.26430    5.26890    5.74060  -81.96230
 1050.00000    8.65020  197.74450  116.45650    -999.25   42.08240    4.91200    5.27650  -80.36150
 1100.00000    9.09350  150.73270  113.03010    -999.25   44.49260    7.13550    7.05910  -83.65470
 1150.00000    9.73650  267.60420  104.37110    -999.25   48.09950    3.39360    4.34300  -79.99280
 1200.00000    9.88050  179.75690  146.70800    -999.25   37.60040    5.28720    5.66400  -79.03110
 1250.00000   12.31570  164.66010  113.07200    -999.25   38.66970    6.13580    6.44820  -83.74600
 1300.00000   11.22270  190.35050  108.74700    -999.25   44.91190    5.00440    5.68710  -79.03730
 1350.00000   11.00890  185.33910  111.71960    -999.25   44.86860    5.13800    6.08240  -78.37990
 1400.00000   10.53610  163.90810  111.15460    -999.25   45.94400    6.04240    6.46580  -79.11220
 1450.00000    9.37540  147.28170  120.31950    -999.25   37.50040    6.84240    6.98480  -81.10880
 1500.00000    8.94760  310.70180   99.57590    -999.25   48.76570    2.86410    4.30090  -78.42310
 1550.00000   10.94750  218.25700  116.63490    -999.25   41.56570    4.07720    5.05570  -78.05050
 1600.00000   10.96420  160.11020  108.10530    -999.25   47.15170    6.35760    6.15190  -78.52230
 1650.00000   12.62510  217.26850  111.63720    -999.25   44.02240    4.11140    5.29170  -80.18760
 1700.00000   12.11090  188.86920  108.96250    -999.25   49.80150    4.91780    5.55040  -79.12920
 1750.00000   12.19580  162.65790  107.61670    -999.25   57.32030    6.25440    7.06790  -80.92380
 1800.00000   11.77100  136.74160  109.50640    -999.25   61.12880    7.59500    7.83380  -85.57250
 1850.00000   12.05190  169.17050  106.06800    -999.25   62.27300    5.68740    6.76400  -85.94220
 1900.00000   11.21010  126.96310   98.46150    -999.25   62.36000    8.67090    9.05080  -88.86990
 1950.00000   12.32080  143.96170  107.08880    -999.25   60.20270    7.33600    8.14860  -86.92260
 2000.00000   10.08450  164.65280   95.38400    -999.25   70.46140    6.21740    8.08770  -81.75120
 2050.00000   11.18350  139.97150  104.06070    -999.25   66.14070    7.53860    9.21220  -81.98200
 2100.00000   12.03040  134.48590  106.51720    -999.25   67.28680    7.89410    8.90920  -84.34190
 2150.00000    9.13030  170.66170  107.99810    -999.25   75.63990    5.81200    6.85070  -85.52010
 2200.00000   12.91240  107.22580  108.44070    -999.25   63.84410    9.57290   10.42390  -84.61310
 2250.00000   12.88780  123.59970  106.64740    -999.25   62.46450    8.61380    9.29110  -87.51130
 2300.00000   14.62720  128.12060   98.54400    -999.25   63.31070    8.27130    8.70840  -87.11980
 2350.00000   13.68530  123.83980   95.17680    -999.25   64.75890    8.45640    9.20980  -87.48420
 2400.00000   13.64370  138.07790   90.63520    -999.25   67.85640    7.62550    8.05490  -87.19590
 2450.00000   12.24840  116.98730   91.14760    -999.25   57.99560    8.90240    9.24640  -86.89310
 2500.00000   14.12760  136.02960   99.63520    -999.25   64.21110    7.67020    8.29360  -85.89670
 2550.00000   13.63210  144.44600  102.17860    -999.25   67.59360    7.14310    8.00960  -84.28020
 2600.00000    9.95920  144.62190  103.39760    -999.25   76.46780    7.17610    8.49550  -79.89770
 2650.00000    9.45770  130.60280  104.15230    -999.25   78.53250    8.05300    9.79730  -78.13910
 2700.00000    9.74790  138.67100  109.40980    -999.25   75.70990    7.45430    9.07080  -77.84690
 2750.00000   10.53120  135.53960  114.70650    -999.25   78.22410    7.61160   10.14700  -75.97000
 2800.00000    9.86560  117.15710   86.03220    -999.25   62.46770    9.06020   11.47090  -80.35600
 2850.00000   10.44910  184.20820  105.21280    -999.25   69.03560    5.20190    6.70900  -77.57930
 2900.00000   10.09440  166.52070   92.41170    -999.25   75.70840    6.11560    7.42590  -75.80210
 2950.00000   12.87010  186.93610  100.21830    -999.25   71.85810    4.95930    6.60850  -75.01300
 3000.00000    9.25250  174.38800   99.53290    -999.25  103.03880    5.70560    7.69580  -72.03710
 3050.00000   12.01010  369.79730  111.36280    -999.25   59.65800    2.50220    3.03660  -71.05680
 3100.00000   13.33550  352.25720  114.10730    -999.25   62.94750    2.55290    3.42870  -70.74730
 3150.00000   13.99460  328.48390  104.12090    -999.25   66.15770    2.66530    3.72750  -72.05150
 3200.00000   13.04130  301.13480  109.81140    -999.25   61.72750    2.80750    3.82680  -72.65790
 3250.00000   10.01930  115.00640   94.03970    -999.25   68.31990    8.94240    9.63810  -74.38190
 3300.00000    8.46260  112.63890   82.16030    -999.25   51.36840    9.17810   11.59780  -87.19780
 3350.00000    8.52450  135.19210   80.91610    -999.25   54.51510    7.73210    9.08210  -72.51040
 3400.00000    8.45980  137.57100   78.55980    -999.25   45.00810    7.57160   13.81980 -109.59720
 3450.00000    8.66740  164.98810   82.62890    -999.25   74.75200    5.85480    7.01470  -70.13130
 3500.00000    8.83430   14.43280  122.32650    -999.25   14.47330  106.65540   87.43590 -128.22430
 3550.00000    8.54430  109.87660   83.16740    -999.25   69.99170    9.15140   13.44920  -90.26500
 3600.00000    8.70110  133.18480   87.33740    -999.25   63.71240    7.67950    9.29790  -75.09860
 3650.00000    8.77480   77.52260   84.20520    -999.25   50.31630   11.99500   17.54740  -87.14750
 3700.00000    8.64090  136.40990   96.43570    -999.25   51.47100    7.55550    9.05810  -84.64480
 3750.00000    8.61060  129.25490   84.96440    -999.25   65.00690    7.74220   10.04030  -85.07320
 3800.00000    9.42310  165.03040   84.78030    -999.25   66.15840    5.66860    7.42930  -70.33800
 3850.00000    8.36040  151.77720   75.69550    -999.25   76.35430    6.62130    8.42010  -67.64640
 3900.00000    8.48030  113.76480   94.77560    -999.25   82.66860    8.63450   11.93630  -68.61430
 3950.00000    8.40330  105.86270   89.10830    -999.25   51.48380    9.46130   28.41130 -118.39160
 4000.00000    8.53320   59.86660   69.03270    -999.25   43.03120   16.39570   19.92860  -79.12110
 4050.00000   10.43750  176.88580   91.81760    -999.25   74.32860    5.20310    7.11630  -68.28660
 4100.00000    8.72050  107.35670   66.41510    -999.25   76.22960    9.72020   12.76550  -75.85810
 4150.00000    8.75110  232.10640   74.59680    -999.25   19.02680    3.41400   26.00780 -233.55000
 4200.00000    8.55500   71.40740   62.71310   63.26340   31.28900   13.88230   19.10050 -106.06550
 4250.00000    8.36610   32.49480   60.34510   60.06080   25.00400   30.94190   41.07550  -91.64290
 4300.00000    8.47470   16.94450   59.92220   61.41210   28.77990   84.25440   76.49030  -72.33430
 4350.00000    8.49610   16.37000   68.54830   70.15450   67.71690   84.24750   79.43490  -54.40950
 4400.00000    8.50370    6.33990   55.81000   55.95980   29.02320  319.58430  133.70860  -98.38490
 4450.00000    8.20420   16.68480   52.48440   54.97380   20.90060   74.50010   79.74170 -132.57940
 4500.00000    8.12650  470.27690   58.85260   55.81520   17.17470    2.35720   10.81570 -202.82250
 4550.00000    8.40520   90.93420   54.88040   56.20940   14.33210   10.95630   66.30350 -226.12740
 4600.00000    8.42180   12.06970   51.18170   52.83900   12.18010   95.30100   77.23950 -158.22360
 4650.00000    8.16610    0.32140   50.07180   51.98580   24.63710  303.02750   88.37660 -115.99340
