~Version ---------------------------------------------------
VERS.      2.0 : CWLS log ASCII Standard -VERSION 2.0
WRAP.       NO : One line per depth step
CREA. 12/18/17 : LAS Creation Date
~Well ------------------------------------------------------
STRT.FT                             1350.0 : START DEPTH
STOP.FT                            11950.0 : STOP DEPTH
STEP.FT                           50.00000 : STEP LENGTH
NULL.                              -999.25 : NULL VALUE
COMP.                 CHEVRON STANDARD LTD : COMPANY
WELL. CHEVRON AMOCO WASKAHIGAN 10-17-64-24 : WELL
FLD .                                      : FIELD
LOC .                                      : LOCATION
CTRY.                               CANADA : COUNTRY
SRVC.                         Schlumberger : SERVICE COMPANY
DATE.                          17-Sep-1977 : LOGDATE
PROV.                              Alberta : PROVINCE
UWI .                     100101706424W500 : UNIQUE WELL ID
SLAT.WGS84                        54.54045 : SURFACE LATITUDE
SLON.WGS84                       -117.5875 : SURFACE LONGITUDE
~Curve Information -----------------------------------------
DEPT    .FT    : Depth Curve
CALDED  .IN    : CALIPER FROM DENSITY LOG [ADJ. TO RESISTIVITY LOG]
CALSED  .IN    : CALIPER FROM SONIC LOG  [ADJ. TO RESISTIVITY LOG]
CALWS   .IN    : CALIPER [CALSED]
CONDWS  .MMHO  : CONDUCTIVITY [1000/DRESWS]
DCORWS  .G/C3  : DENSITY CORRECTION [DRHOED]
DENWS   .G/C3  : FORMATION BULK DENSITY [RHOBED SPL. TO CALC, FROM DPHILSED M=2.71, F=1.00 FROM 11478'-11488']
DPHILSED.V/V   : DENSITY POROSITY LIMESTONE [M=2.71, F=1.00] FROM DENSITY LOG  [ADJ. TO RESISTIVITY LOG]
DPHISSED.V/V   : DENSITY POROSITY SANDSTONE [M=2.65, F=1.00] FROM DENSITY LOG  [ADJ. TO RESISTIVITY LOG]
DPOLSWS .V/V   : DENSITY POROSITY SANDSTONE [CALC. FROM DENWS  [M=2.71, F=1.00]
DRESWS  .OHMM  : DEEP RESISTIVITY [ILDED]
DRHOED  .G/C3  : DENSITY CORRECTION FROM DENSITY LOG [ [ADJ. TO RESISTIVITY / DPHISSED & DPHILSED]
DTED    .US/F  : DELTA TIME FROM SONIC LOG  [ADJ. TO RESISTIVITY LOG]
DTWS    .US/F  : COMPRSSIONAL SONIC[ DTED]
GRDED   .GAPI  : GAMMA RAY FROM DENSITY LOG  [ADJ. TO RESISTIVITY LOG]
GRSED   .GAPI  : GAMMA RAY FROM SONIC LOG  [ADJ. TO RESISTIVITY LOG]
GRWS    .GAPI  : GAMMA RAY [GRSED SPL. TO GRDED @ 11900']
ILDED   .OHMM  : DEEP INDUCTION LOG RESISTIVITY FROM RESISTIVITY LOG
ILMED   .OHMM  : MEDIUM INDUCTION LOG RESISTIVITY FROM RESISTIVITY LOG
LL8ED   .OHMM  : LATEROLOG FROM RESISTIVITY LOG
MRESWS  .OHMM  : MEDIUM RESISTIVITY [ILMED]
NPHILSED.V/V   : NEUTRON POROSITY LIMESTONE FROM DENSITY LOG  [ADJ. TO RESISTIVITY LOG]
NPHISSED.V/V   : NEUTRON POROSITY SANDSTONE FROM DENSITY LOG  [ADJ. TO RESISTIVITY LOG]
NPOLSWS .V/V   : NEUTRON POROSITY LIMESTONE[NPHISSED MATRIX CONVERSION FOR LIMESTONE SPL. TO NPHILSED @ 9050'
RHOBED  .G/C3  : BULK DENSITY FROM DENSITY LOG [ [ADJ. TO RESISTIVITY/ DPHISSED & DPHILSED]
SPRED   .MV    : SPONTANEOUS POTENTIAL FROM RESISTIVITY LOG
SPWS    .MV    : SPONTANEOUS POTENTIAL [BASELINE 0 MV,SPRED]
SRESWS  .OHMM  : SHALLOW RESISTIVITY [LL8ED]
TENDED  .LBF   : TENSION FROM DENSITY LOG  [ADJ. TO RESISTIVITY LOG]
TENSED  .LBF   : TENSION FROM SONIC LOG  [ADJ. TO RESISTIVITY LOG]
~Params ----------------------------------------------------
PD  .                     GL : PERMANENT DATUM
EPD .FT               2874.1 : ELEVATION PERMANENT DATUM
LMF .                     KB : LOG MEASURED FROM
DAPD.FT                 18.5 : FEET ABOVE PERMANENT DATUM
EKB .FT               2892.6 : KELLY BUSHING
EGL .FT               2874.1 : GROUND LEVEL
DATE.               09/17/77 : RUN DATE
RUN .                      1 : RUN NUMBER
DD  .FT                11989 : DEPTH DRILLER
DL  .FT                11985 : DEPTH LOGGER
BLI .FT                11979 : BOTTOM LOG INTERVAL
TLI .FT                 1516 : TOP LOG INTERVAL
CBD .FT              1516.87 : CASING BOTTOM DRILLER
CBL .FT                 1516 : CASING BOTTOM LOGGER
BS  .IN                 8.75 : BIT SIZE
BSD .FT                11989 : BIT SIZE AT DEPTH
DFT .                    GEL : DRILLING FLUID TYPE
DFD .                      9 : DRILLING FLUID DENSITY
DFV .                     90 : DRILLING FLUID VISCOSITY
DFPH.                    9.5 : DRILLING FLUID PH
DFL .                    8.4 : DRILLING FLUID LOSS
MSS .               FLOWLINE : MUD SAMPLE SOURCE
RMS .OHMM               1.53 : RESISTIVITY MUD SAMPLE
MST .DEGF                 68 : MUD SAMPLE TEMPERATURE
RMF .OHMM               1.36 : RESISTIVITY MUD FILTRATE SAMPLE
MFST.DEGF                 62 : MUD FILTRATE SAMPLE TEMPERATURE
RMC .OHMM               1.37 : RESISTIVITY MUD CAKE
MCST.DEGF                 62 : MUD CAKE SAMPLE TEMPERATURE
TCS .HRS                   5 : TIME CIRCULATED STOPPED
LUN .                   7772 : LOGGING UNIT NUMBER
LUL .                    EDM : LOGGING UNIT LOCATION
ENGI.         BERNISKY TRACY : RECORDING ENGINEER
WITN.             RICHARDSON : WITNESSED BY
CLNT.                A2DTECH : CLIENT CODE
ORIG.            2" 5" PRINT : ORIGIN OF DATA
UWI .       100101706424W500 : UNIQUE WELL ID
DICO. A2D Technologies, Inc. : DIGITIZING COMPANY
~Other -----------------------------------------------------
DIL-CNFD-SONIC LOG RUN
SONIC 2' DEEP TO DIL. GAP IN GRDED FROM 6074'-6090'& 6110' -6132' & GAP IN NPHISSED FROM 6087'-6102' & 6124'-6138' DUE TO REMOVE INVALID VALUE
~ASCII -----------------------------------------------------
# ...
 6350.00000    -999.25    9.87230    9.87230   83.94120    -999.25    -999.25    -999.25    -999.25    -999.25   11.91310    -999.25   70.36170   70.36170    -999.25   70.00550   70.00550   11.91310   12.76710   12.67750   12.76710    -999.25    -999.25    -999.25    -999.25  -48.41770  -21.84020   12.67750    -999.25 3396.25040
 6400.00000    -999.25    9.34060    9.34060   74.97430    -999.25    -999.25    -999.25    -999.25    -999.25   13.33790    -999.25   68.91630   68.91630    -999.25   61.53540   61.53540   13.33790   13.97540   14.85280   13.97540    -999.25    -999.25    -999.25    -999.25  -53.03400  -26.84030   14.85280    -999.25 3413.60910
 6450.00000    -999.25    9.05830    9.05830   72.22300    -999.25    -999.25    -999.25    -999.25    -999.25   13.84600    -999.25   69.53300   69.53300    -999.25   72.02550   72.02550   13.84600   16.31960   19.43970   16.31960    -999.25    -999.25    -999.25    -999.25  -35.86700  -10.05720   19.43970    -999.25 3162.62310
 6500.00000    -999.25    9.74170    9.74170   74.76800    -999.25    -999.25    -999.25    -999.25    -999.25   13.37470    -999.25   83.16140   83.16140    -999.25   89.76870   89.76870   13.37470   14.81570   25.58140   14.81570    -999.25    -999.25    -999.25    -999.25  -27.89550   -2.27150   25.58140    -999.25 3250.63390
 6550.00000    -999.25    9.54200    9.54200   78.48240    -999.25    -999.25    -999.25    -999.25    -999.25   12.74360    -999.25   70.09700   70.09700    -999.25   51.46220   51.46220   12.74360   13.17820   15.95010   13.17820    -999.25    -999.25    -999.25    -999.25  -46.80420  -17.25630   15.95010    -999.25 3120.34070
 6600.00000    -999.25   10.01420   10.01420   86.32820    -999.25    -999.25    -999.25    -999.25    -999.25   11.58370    -999.25   71.00890   71.00890    -999.25   69.73630   69.73630   11.58370   11.94390   13.56640   11.94390    -999.25    -999.25    -999.25    -999.25  -40.54980   -6.80850   13.56640    -999.25 4526.76540
 6650.00000    -999.25    9.65030    9.65030   95.15200    -999.25    -999.25    -999.25    -999.25    -999.25   10.50950    -999.25   70.87900   70.87900    -999.25   66.82030   66.82030   10.50950   11.60420   13.87070   11.60420    -999.25    -999.25    -999.25    -999.25  -69.45310  -31.53930   13.87070    -999.25 4512.90010
 6700.00000   10.21060    9.59670    9.59670   55.76060    0.06970    2.65280    -999.25   -0.00010    0.03350   17.93380    0.06970   71.35770   71.35770  100.28220   90.69460   90.69460   17.93380   18.57390   16.31600   18.57390    -999.25    0.24830    0.20440    2.65280  -50.38430   -3.10800   16.31600 3945.59870 4292.77500
 6750.00000   10.12090    9.47340    9.47340   80.53990    0.04570    2.66500    -999.25   -0.00770    0.02630   12.41620    0.04570   65.71150   65.71150   75.52340   74.20760   74.20760   12.41620   15.93540   30.92510   15.93540    -999.25    0.21190    0.16830    2.66500  -65.55170   -3.72280   30.92510 3912.46190 4243.58020
 6800.00000   10.23440    9.53050    9.53050  105.37860    0.18450    2.63350    -999.25    0.01020    0.04470    9.48990    0.18450   78.54810   78.54810  111.80280  102.12670  102.12670    9.48990    9.98880   10.93150    9.98880    -999.25    0.31110    0.26710    2.63350  -78.94470   -2.63590   10.93150 3851.64180 4231.58190
 6850.00000    9.74140    9.28330    9.28330   28.59780    0.09530    2.55570    -999.25    0.06240    0.09020   34.96770    0.09530   68.86070   68.86070   40.78240   38.47780   38.47780   34.96770   39.83730   52.40720   39.83730    -999.25    0.13690    0.09450    2.55570 -107.02210  -15.83830   52.40720 3844.63330 4102.46980
 6900.00000   10.73800    9.71480    9.71480   65.31590    0.24890    2.54710    -999.25    0.04170    0.09530   15.31020    0.24890   68.38770   68.38770  115.83480  106.79640  106.79640   15.31020   16.45050   23.81710   16.45050    -999.25    0.23890    0.19510    2.54710 -111.86180  -10.56720   23.81710 3792.95460 3958.68750
 6950.00000   10.63400    9.66440    9.66440   35.79610    0.07530    2.59850    -999.25    0.02490    0.06520   27.93600    0.07530   65.19760   65.19760   95.33060   92.11280   92.11280   27.93600   31.01090   28.43920   31.01090    -999.25    0.18360    0.14040    2.59850 -113.76410  -13.74490   28.43920 3768.12890 3980.72150
 7000.00000   10.21470    9.46270    9.46270   49.44060    0.08180    2.64330    -999.25    0.00410    0.03900   20.22630    0.08180   68.53750   68.53750  105.78140  100.06070  100.06070   20.22630   20.88940   21.79920   20.88940    -999.25    0.25380    0.20990    2.64330 -116.92330  -18.17940   21.79920 3787.92430 3865.17950
 7050.00000    9.99070    9.45380    9.45380   69.09620    0.19070    2.39050    -999.25    0.15870    0.18680   14.50690    0.19070   73.29750   73.29750  101.85240   94.63820   94.63820   14.50690   17.69720   21.93240   17.69720    -999.25    0.33720    0.29340    2.39050 -113.33430  -15.85940   21.93240 3707.32950 3856.93470
 7100.00000    9.11770    8.99050    8.99050   54.83900    0.05500    2.62310    -999.25    0.01700    0.05080   18.23520    0.05500   70.07000   70.07000   88.83150   83.05310   83.05310   18.23520   19.60920   21.40850   19.60920    -999.25    0.21320    0.16960    2.62310 -110.49260  -14.29950   21.40850 3743.38420 3932.52420
 7150.00000    9.06330    8.98330    8.98330   44.85990    0.02530    2.64230    -999.25    0.00510    0.03960   22.29160    0.02530   66.99780   66.99780   81.56990   76.85710   76.85710   22.29160   25.25350   29.05790   25.25350    -999.25    0.22410    0.18040    2.64230 -107.87130  -12.95360   29.05790 3712.03220 3781.45850
 7200.00000    8.77840    9.18210    9.18210   52.84380    0.00400    2.64080    -999.25    0.01650    0.04050   18.92370    0.00400   64.84460   64.84460   72.18770   62.09840   62.09840   18.92370   20.58100   20.73990   20.58100    -999.25    0.18140    0.13820    2.64080 -105.53840  -11.88430   20.73990 3670.30950 3673.92620
 7250.00000    8.42190    8.11590    8.11590  106.43280    0.16390    2.47580    -999.25    0.10920    0.13700    9.39560    0.16390   65.79820   65.79820   29.03330   25.31680   25.31680    9.39560   15.20030   33.06160   15.20030    -999.25    0.18940    0.14610    2.47580 -164.31750  -73.54330   33.06160 3679.39880 3725.37210
 7300.00000   14.99790    8.44100    8.44100  138.06860    0.19390    1.70150    -999.25    0.46110    0.58970    7.28850    0.19390  100.98750  100.98750  119.66690  112.79880  112.79880    7.28850    7.88980    7.27180    7.88980    -999.25    0.47270    0.43170    1.70150  -92.49460   -3.33980    7.27180 3625.33000 3434.32910
 7350.00000    9.10990    8.95470    8.95470   13.43190    0.04940    2.33460    -999.25    0.19490    0.21950   74.44980    0.04940   83.27750   83.27750  220.35210  209.55930  209.55930   74.44980   99.20790  104.01710   99.20790    -999.25    0.36470    0.32120    2.33460 -104.42640  -13.77230  104.01710 3616.58150 3636.30560
 7400.00000    9.19680    8.89180    8.89180    0.70650    0.02070    2.37590    -999.25    0.16910    0.19540 1415.46970    0.02070   75.60770   75.60770  305.99760  300.00000  300.00000 1415.46970 1533.55030 1426.29900 1533.55030    -999.25    0.31040    0.26650    2.37590 -138.18330  -46.96520 1426.29900 3593.86860 3552.66110
 7450.00000    9.40180    8.92400    8.92400   42.57840    0.00600    2.56480    -999.25    0.05830    0.08490   23.48610    0.00600   65.93880   65.93880   84.08110   76.17120   76.17120   23.48610   24.39010   29.81880   24.39010    -999.25    0.17230    0.12940    2.56480 -124.92170  -33.13960   29.81880 3540.00060 3445.58320
 7500.00000    9.63000    9.22860    9.22860   62.37680    0.11780    2.68080    -999.25   -0.02260    0.01710   16.03160    0.11780   64.16000   64.16000  104.86050   99.29070   99.29070   16.03160   17.40700   25.12310   17.40700    -999.25    0.19100    0.14770    2.68080  -98.62300   -6.27700   25.12310 3486.75580 3333.11050
 7550.00000    9.43990    8.98940    8.98940   92.32330    0.02450    2.59220    -999.25    0.03170    0.06890   10.83290    0.02450   64.03570   64.03570   90.07510   84.96240   84.96240   10.83290   11.97450   14.20390   11.97450    -999.25    0.13410    0.09170    2.59220 -120.50990  -31.61800   14.20390 3487.62880 3300.52020
