~Version ---------------------------------------------------
VERS. 2.0 : CWLS log ASCII Standard -VERSION 2.0
WRAP.  NO : ONE LINE PER DEPTH STEP
~Well ------------------------------------------------------
STRT.M                          450.0 : START DEPTH
STOP.M                         3450.0 : STOP DEPTH
STEP.M                       50.00000 : STEP LENGTH
NULL.                         -999.25 : NULL VALUE
COMP.          CHEVRON CANADA LIMITED : COMPANY
WELL. CHEVRON ET AL STURLS 5-10-68-26 : WELL
FLD .                                 : FIELD
LOC .                                 : LOCATION
CTRY.                          CANADA : COUNTRY
SRVC.                    Schlumberger : SERVICE COMPANY
DATE.                     08-Mar-1981 : LOGDATE
PROV.                         Alberta : PROVINCE
UWI .                100051006826W500 : UNIQUE WELL ID
SLAT.WGS84                   54.87124 : SURFACE LATITUDE
SLON.WGS84                  -117.8893 : SURFACE LONGITUDE
~Curve Information -----------------------------------------
DEPT   .M                  : 
SPR    .MV    07 010 01 00 : SPONTANEOUS POTENTIAL FROM RESISTIVITY LOG
ILD    .OHMM  07 120 46 00 : INDUCTION DEEP RESISTIVITY
ILM    .OHMM  07 120 44 00 : INDUCTION MEDIUM RESISTIVITY
SFL    .OHMM  07 220 01 00 : SPHERICALLY FOCUSED LOG
GRS    .GAPI  60 310 01 00 : GAMMA RAY FROM SONIC LOG
DT     .US/M  60 500 00 00 : DELTA-T (INTERVAL TRANSIT TIME)
CALS   .MM    60 280 50 00 : CALIPER FROM SONIC LOG
GRD    .GAPI  45 310 01 00 : GAMMA RAY FROM DENSITY LOG
RHOB   .KG/M3 45 350 01 00 : BULK DENSITY
CALD   .MM    45 280 60 00 : CALIPER FROM DENSITY LOG
TEND   .LB    45 635 00 00 : TENSION FROM DENSITY LOG
CORR   .KG/M3 45 356 01 00 : DENSITY CORRECTION
NPHI_LS.DEC   42 890 01 00 : NEUTRON POROSITY LIMESTONE
DPHI_LS.DEC   45 890 10 00 : DENSITY POROSITY LIMESTONE
CILD   .MMHO  07 110 46 00 : INDUCTION DEEP CONDUCTIVITY
NPOR_SS.DEC                : ENCHANCED THERMAL NEUTRON POROSITY IN SELECTED LITHOLOGY SANDSTONE
DPHI_SS.DEC   45 890 12 00 : DENSITY POROSITY SANDSTONE
TENS   .LB    60 635 00 00 : TENSION FROM SONIC LOG
~Params ----------------------------------------------------
PD  .                     GL : PERMANENT DATUM
EPD .M                 679.3 : ELEVATION PERMANENT DATUM
LMF .                     KB : LOG MEASURED FROM
DAPD.M                   9.4 : FEET ABOVE PERMANENT DATUM
DMF .                     KB : DRILLING MEASURED FROM
EKB .M                 688.7 : KELLY BUSHING
EGL .M                 679.3 : GROUND LEVEL
DATE.               03/08/81 : RUN DATE
RUN .                      1 : RUN NUMBER
DD  .M                  3458 : DEPTH DRILLER
DL  .M                  3461 : DEPTH LOGGER
BLI .M                  3459 : BOTTOM LOG INTERVAL
TLI .M                   466 : TOP LOG INTERVAL
CS  .IN                226.6 : CASING SIZE
CBD .M                466.13 : CASING BOTTOM DRILLER
CBL .M                   466 : CASING BOTTOM LOGGER
BS  .IN                  222 : BIT SIZE
BSD .M                  3458 : BIT SIZE AT DEPTH
DFT .               CHEM GEL : DRILLING FLUID TYPE
DFD .                   1100 : DRILLING FLUID DENSITY
DFV .                    110 : DRILLING FLUID VISCOSITY
DFPH.                   10.5 : DRILLING FLUID PH
DFL .                    8.4 : DRILLING FLUID LOSS
MSS .               FLOWLINE : MUD SAMPLE SOURCE
RMS .OHMM               0.91 : RESISTIVITY MUD SAMPLE
RMF .OHMM               0.72 : RESISTIVITY MUD FILTRATE SAMPLE
MFST.DEGC               23.5 : MUD FILTRATE SAMPLE TEMPERATURE
RMC .OHMM                0.9 : RESISTIVITY MUD CAKE
MCST.DEGC               23.0 : MUD CAKE SAMPLE TEMPERATURE
MFSS.           FILTER PRESS : MUD FILTRATE SAMPLE SOURCE
RMB .OHMM                0.3 : RESISTIVITY MUD AT BHT
TCS .HRS                 100 : TIME CIRCULATED STOPPED
TLAB.HRS                1330 : TIME LOGGER AT BOTTOM
LUN .                   8155 : LOGGING UNIT NUMBER
LUL .                     GP : LOGGING UNIT LOCATION
ENGI.                 BRYDON : RECORDING ENGINEER
WITN.               ANDERSON : WITNESSED BY
CLNT.                A2DTECH : CLIENT CODE
ORIG.                      1 : 6" 1:240" PRINT:   ORIGIN OF DATA
UWI .       100051006826W500 : UNIQUE WELL ID
DICO. A2D Technologies, Inc. : DIGITIZING COMPANY
~Other -----------------------------------------------------
~ASCII -----------------------------------------------------
  450.00000    -999.25    -999.25    -999.25    -999.25   40.50710  207.36510    -999.25    -999.25    -999.25    -999.25    -999.25    -999.25    -999.25    -999.25    -999.25    -999.25    -999.25 1179.23670
  500.00000  -23.22390   15.05590   15.52460   14.39160   52.16350  341.70950  262.72630   53.47580 2291.67430  297.94880 1298.31650    5.93630    -999.25    -999.25   72.50640    0.34860    0.21660 1262.64700
  550.00000  -31.02120    9.46190    8.42060    8.07230   57.13520  331.37750  261.63360   59.78640 2347.75930  279.01330 1465.90880   19.53150    -999.25    -999.25  108.10530    0.35770    0.18440 1357.09300
  600.00000  -28.34670   10.55730   10.39700   13.97990   53.67840  319.88730  227.85310   50.87600 2388.62840  224.17550 1377.15600    1.90820    -999.25    -999.25   96.89800    0.39060    0.16270 1375.57250
  650.00000  -33.01620    4.67070    4.34550    4.21510   72.96670  352.11020  241.31890   74.10100 2322.18580  294.66770 1491.27280   23.90620    -999.25    -999.25  212.71560    0.44160    0.19990 1452.38530
  700.00000  -38.41320    8.77610    7.50080    8.69510  101.92240  339.03870  241.85690  109.04030 2382.70510  320.83430 1550.15880   28.44080    -999.25    -999.25  117.51420    0.37930    0.15290 1506.26270
  750.00000  -33.56940    7.62830    6.24030    7.08390  101.02320  346.69520  228.78830  100.91050 2274.43970  288.58580 1574.20560   31.46900    -999.25    -999.25  133.64180    0.45180    0.22970 1560.58240
  800.00000  -35.73340    7.74410    6.52590    7.63410  100.56950  311.95720  233.32120  102.37830 2312.39090  280.89490 1666.62120   28.53160    -999.25    -999.25  131.68680    0.41210    0.21280 1618.79330
  850.00000  -40.58030   12.63050   10.62990   10.94690   90.74550  301.15550  246.59410   97.07390 2434.73510  272.40040 1740.37100   66.08520    -999.25    -999.25   80.85960    0.32710    0.14570 1687.19470
  900.00000  -39.35060    8.39080    7.34830    7.44170  107.84390  336.10430  238.58110  110.22050 2330.45190  317.84750 1818.11490   28.25220    -999.25    -999.25  118.45600    0.38970    0.20010 1776.15530
  950.00000  -39.88050    8.12710    7.52370    8.71920  107.07370  329.67470  244.65750  113.71790 2415.04930  367.77930 1913.80870   48.10980    -999.25    -999.25  122.56180    0.38400    0.14170 1816.79300
 1000.00000  -40.12550    7.57240    7.00340    8.28940  113.97600  328.51830  244.14100  115.14020 2456.29880  310.87800 2011.94760   66.21400    -999.25    -999.25  132.21950    0.40550    0.12200 1882.65450
 1050.00000  -39.74270    7.44680    7.04360    8.20880   99.33730  328.53740  245.65680  108.36290 2437.23270  261.60370 1981.18740   44.13740    -999.25    -999.25  135.63120    0.43050    0.13080 1932.39220
 1100.00000  -38.21430    5.90040    5.32920    5.94030  106.38250  306.90280  226.06660  104.17600 2266.32540  226.50290 2012.33000  174.95210    -999.25    -999.25  175.70150    0.41140    0.24130 1970.26050
 1150.00000  -36.93560    9.44810    9.06620    9.08780   90.63180  267.09910  232.14110   96.33390 2341.54830  242.19420 2216.16700   94.52550    -999.25    -999.25  105.85220    0.30670    0.17680 2051.92550
 1200.00000  -38.10910    7.20550    7.08160    7.59060  106.51320  287.71550  235.17070  105.98060 2321.49050  274.94080 2229.24900   56.72100    -999.25    -999.25  139.12610    0.33100    0.17820 2127.10960
 1250.00000  -39.43240    3.27520    3.24020    3.85500  121.34630  337.50520  242.23320  114.67530 2448.05910  254.22280 2218.14500   55.32810    -999.25    -999.25  308.22230    0.41400    0.12390 2163.19310
 1300.00000  -40.70500    4.13670    4.03900    4.35720  101.16570  302.21400  277.76730   93.26810 2188.46070  255.27860 2312.53930   81.84310    -999.25    -999.25  244.87400    0.41220    0.28810 2212.97850
 1350.00000  -81.01580    6.35070    8.01460   10.77850   45.24400  283.18410  206.90260   50.70010 2216.45950  213.21590 2284.45090   38.06160    -999.25    -999.25  155.56010    0.28870    0.24550 2237.39890
 1400.00000  -49.01660   17.59580   18.00400   26.70860   49.37040  224.93120  227.76070   50.73780 2526.26560  229.06230 2496.31910   28.19970    -999.25    -999.25   53.84420    0.26190    0.09260 2355.51540
 1450.00000  -42.27320    3.29890    3.29700    4.15740   94.20510  330.33560  250.93010   98.15970 2307.35740  265.95610 2548.56370  101.74030    -999.25    -999.25  300.18560    0.46990    0.21230 2402.79050
 1500.00000  -48.36770    7.47040    8.78660    8.89820   82.25380  357.25990  253.67420   78.55620 2289.73970  229.18070 2484.03470   -1.72230    -999.25    -999.25  133.33520    0.54450    0.15760 2490.52710
 1550.00000  -47.21290   10.74170   10.68700   16.49430   78.58680  255.70680  233.40350   82.58670 2513.99240  223.16360 2612.36740    0.54770    -999.25    -999.25   97.96610    0.30960    0.07890 2499.94970
 1600.00000  -72.94450   12.18490   14.67150   21.06980   52.89870  213.39080  235.98220   53.45560 2507.12430  231.25120 2601.39770   20.67980    -999.25    -999.25   85.81540    0.21090    0.09660 2570.55620
 1650.00000  -43.61500   12.06720   12.20710   13.77790   90.68090  250.28270  240.09440   87.51010 2593.32620  234.14770 2739.19090   -0.62320    -999.25    -999.25   84.44140    0.28490    0.03790 2661.40600
 1700.00000  -42.26120   16.69920   17.22390   20.96820   90.56820  227.23810  240.50950   93.03210 2657.28860  236.83860 2821.11690  127.20450    -999.25    -999.25   60.28520    0.19660   -0.01130 2748.35960
 1750.00000  -44.34630   15.75460   18.44890   28.32520   83.62140  228.65820  242.18880   86.39520 2511.60300  229.07080 2831.13820  -13.18430    -999.25    -999.25   61.76310    0.23520    0.05940 2795.17550
 1800.00000 -108.66410    2.06230    2.86290    5.38090   24.09650  260.32230  205.29440   25.49440 2310.81080  208.98510 2919.62740   41.91330    0.20210    0.23370  492.53860    -999.25    -999.25 2827.89330
 1850.00000  -53.25580  471.91670  197.46850 1289.59860  241.04150  308.99190  221.80280  261.85040 2285.89600  226.90890 2938.57150   -4.86660    0.32830    0.24730    0.00040    -999.25    -999.25 2902.18460
 1900.00000  -85.60560    3.89490    5.60270   11.49820   84.43710  231.34360  219.78670   82.78190 2444.69600  224.24280 2987.35990    2.06230    0.17860    0.15810  260.20680    -999.25    -999.25 2901.97970
 1950.00000  -74.15350    8.96020   10.33820   18.84320   69.11360  214.63440  221.18770   74.08840 2555.40550  223.41150 3109.67580    3.49450    0.12520    0.09120  109.92560    -999.25    -999.25 2987.27150
 2000.00000  -39.83660   29.11600   28.95060   45.34720   82.53710  202.65810  227.55240   86.44540 2660.26000  228.96220 3172.21390    2.25450    0.07450    0.02830   34.21380    -999.25    -999.25 3072.26420
 2050.00000 -102.46450   33.95090   39.63290   66.37040   31.30220  196.63850  215.93560   23.78420 2642.59910  223.07260 3159.58540   19.36160    0.08940    0.03750   30.74370    -999.25    -999.25 3104.55740
 2100.00000  -52.24510   14.95590   10.75130   13.80730   87.16520  225.78380  230.28930   81.50080 2429.99290  237.84350 3239.59080  183.28040    0.21690    0.16550   69.06590    -999.25    -999.25 3162.37790
 2150.00000 -141.02860   48.18830   45.03290   65.25420   49.34410  179.65810  223.85410   34.40140 2742.75610  217.22020 3261.24630  -12.11300    0.09280   -0.01630   19.29000    -999.25    -999.25 3270.52780
 2200.00000 -167.95250    3.97770    4.61520   10.96140   51.05550  208.66470  216.60300   23.13810 2657.67550  223.16020 3381.35520   -0.31430    0.09880    0.03240  247.88850    -999.25    -999.25 3347.40720
 2250.00000 -187.03570   13.57630   15.41610   76.47180   17.98470  170.48100  224.64790   18.88720 2669.55590  217.28930 3444.43210    2.39150    0.05080    0.02210   57.96750    -999.25    -999.25 3409.39550
 2300.00000 -181.40910  173.80810  120.02850  188.75210   16.31120  165.78760  221.21030   15.44180 2662.27540  217.54000 3483.50610    3.12900    0.01150    0.02830    7.65140    -999.25    -999.25 3472.22560
 2350.00000 -154.86620  170.77950  146.63370  416.08440   16.85160  160.27350  226.03340   16.55800 2712.29540  218.48210 3547.95460   -4.28030    0.01140   -0.00040    8.47110    -999.25    -999.25 3543.52690
