~Version ---------------------------------------------------
VERS.      2.0 : CWLS log ASCII Standard -VERSION 2.0
WRAP.      YES : Multiple lines per depth step
CREA. 09/09/14 : LAS Creation Date
~Well ------------------------------------------------------
STRT.M                       300.0 : START DEPTH
STOP.M                      3750.0 : STOP DEPTH
STEP.M                    50.00000 : STEP LENGTH
NULL.                      -999.25 : NULL VALUE
COMP.                   SUNCOR INC : COMPANY
WELL. SUNCOR PINE CREEK 9-29-55-18 : WELL
FLD .                              : FIELD
LOC .                              : LOCATION
CTRY.                       CANADA : COUNTRY
SRVC.                 Schlumberger : SERVICE COMPANY
DATE.                  17-Dec-1995 : LOGDATE
PROV.                      Alberta : PROVINCE
UWI .             100092905518W500 : UNIQUE WELL ID
SLAT.WGS84                53.78394 : SURFACE LATITUDE
SLON.WGS84               -116.6319 : SURFACE LONGITUDE
~Curve Information -----------------------------------------
DEPT    .M      : Depth METER
AIBDED  .MM     : CALIER FROM RESISTIVITY LOG
AT10ED  .OHMM   : 10 INCH RESISTIVITY TWO FOOT RESOLUTION FROM AIT LOG
AT20ED  .OHMM   : 20 INCH RESISTIVITY TWO FOOT RESOLUTION FROM AIT LOG
AT30ED  .OHMM   : 30 INCH RESISTIVITY TWO FOOT RESOLUTION FROM AIT LOG
AT60ED  .OHMM   : 60 INCH RESISTIVITY TWO FOOT RESOLUTION FROM AIT LOG
AT90ED  .OHMM   : 90 INCH RESISTIVITY TWO FOOT RESOLUTION FROM AIT LOG
ATRTED  .OHMM   : ARRAY INDUCTION TWO FOOT RT
ATRXED  .OHMM   : ARRAY INDUCTION TWO FOOT RXO
CALDED  .MM     : CALIPER FROM FDC LOG [DEPTH ADJ. TO GRR]
CALWS   .MM     : CALIPER [AIBED]
CONDWS  .MMHO   : CONDUCTIVITY [1000/DRESWS]
DCORWS  .KG/M3  : DENSITY CORRECTION [DRHOED,SPL DRHED @2615-2636M]
DENWS   .KG/M3  : BULK DENSITY [CALCULATED FROM DPOSSWS]
DPHISSED.V/V    : DENSITY POROSITY SANDSTONE FROM FDC LOG [DEPTH ADJ. TO GRS]
DPOSSED .V/V    : LDS DENSITY POROSITY SANDSTONE
DPOSSWS .V/V    : DENSITY POROSITY M=2710 F=1000] [DPHISSED,SPL DPOED @2615-2636M]
DRESWS  .OHMM   : DEEP RESISTIVITY [AT90ED]
DRHED   .KG/M3  : DENSITY CORRECTION FROM DENSITY LOG
DRHOED  .KG/M3  : DENSITY CORRECTION FROM FDC LOG [DEPTH ADJ. TO GRR]
DTED    .US/M   : DELTA TIME FROM SONIC LOG
DTWS    .US/M   : DELTA TIME [DTED]
GRDED   .GAPI   : GAMMA RAY FROM FDC LOG [DEPTH ADJ. TO GRR]
GRED    .GAPI   : GAMMA RAY IN CASE HOLE LOG [DEPTH ADJ. TO GRR]
GRRED   .GAPI   : GAMMA RAY FROM RESISTIVITY LOG
GRSED   .GAPI   : GAMMA RAY FROM SONIC LOG [DEPTH ADJ. TO GRR]
GRWS    .GAPI   : GAMMA RAY [GRRED,SPL GRED TOP-565.2M+20]
HDED    .MM     : HOLE DIAMETER FROM SONIC LOG
LCALDED .MM     : DENSITY CALIPER/LOWER CALIPER FROM FDC
MRESWS  .OHMM   : SHALLOW LATERAL RESISTIVITY [AT60ED]
NPORSSED.V/V    : NEUTRON POROSITY SANDSTONE FROM DENSITY LOG
NPOSSWS .V/V    : NEUTRON POROSITY [NPHISSED]
PEFED   .B/E    : PHOTO ELECTROL LOG FROM FDC LOG [DEPTH ADJ. TO GRR]
PEFLED  .B/E    : HRDD STANDARD RESOLUTION FORMATION PHOTOELECTRIC FACTOR
PEFWS   .B/E    : PHOTO ELECTROL [PEFED]
RHOBED  .KG/M3  : BULK DENSITY FROM FDC LOG [DEPTH ADJ. TO GRR]
RHOMED  .KG/M3  : CORRECTED BULK DENSITY
SRESWS  .OHMM   : SHALLOW RESISTIVITY [AT10ED]
TENDED  .N      : TENSION FROM FDC LOG [DEPTH ADJ. TO GRR]
TENRED  .N      : TENSION FROM RESISTIVITY LOG
TENSED  .N      : TENSTION FROM SONIC LOG
~Params ----------------------------------------------------
PD  .                         GL : PERMANENT DATUM
EPD .M                    1050.6 : ELEVATION PERMANENT DATUM
LMF .                         KB : LOG MEASURED FROM
DAPD.M                       7.4 : FEET ABOVE PERMANENT DATUM
DMF .                         KB : DRILLING MEASURED FROM
EKB .M                      1058 : KELLY BUSHING
EDF .M                    1057.7 : DRILLING FLOOR
EGL .M                    1050.6 : GROUND LEVEL
DATE.                   12/17/96 : RUN DATE
RUN .                          1 : RUN NUMBER
DD  .M                      3785 : DEPTH DRILLER
DL  .M                      3780 : DEPTH LOGGER
BLI .M                    3774.5 : BOTTOM LOG INTERVAL
TLI .M                       606 : TOP LOG INTERVAL
CS  .MM                    244.5 : CASING SIZE
CBD .M                       606 : CASING BOTTOM DRILLER
CBL .M                       606 : CASING BOTTOM LOGGER
BS  .MM                      222 : BIT SIZE
BSD .M                      3785 : BIT SIZE AT DEPTH
DFT .                     INVERT : DRILLING FLUID TYPE
DFD .                       1050 : DRILLING FLUID DENSITY
DFV .                         48 : DRILLING FLUID VISCOSITY
TCS .HRS                     900 : TIME CIRCULATED STOPPED
TLAB.HRS                    1850 : TIME LOGGER AT BOTTOM
LUN .                       2012 : LOGGING UNIT NUMBER
LUL .                   NISKU ES : LOGGING UNIT LOCATION
ENGI.                      PISIO : RECORDING ENGINEER
WITN.                      YAGER : WITNESSED BY
CLNT.                    A2DTECH : CLIENT CODE
ORIG. 6.5"/100M 16.5"/100M PRINT : ORIGIN OF DATA
UWI .           100092905518W500 : UNIQUE WELL ID
DICO.     A2D Technologies, Inc. : DIGITIZING COMPANY
~Other -----------------------------------------------------
MUD DENSITY 1050 PPM.
~ASCII -----------------------------------------------------
# ...
 2100.00000  226.88220    8.57980    8.60580    8.74810    8.75500    8.90070    9.02780    8.43510  226.03270  226.88220  112.35070   -6.52340 2605.61500    0.02690    0.03470    0.02690    8.90070   -9.61770   -6.52340  285.38360  285.38360  116.55570   76.63370  115.74930  116.34010  115.74930  226.66360  224.02400    8.74810    0.35650    0.35650    3.59090    3.59360    3.59090 2609.94260 2593.18970    8.57980 16357.41020 14352.36820 14376.66800
 2150.00000  239.26110    6.18320    6.33790    6.43230    6.30720    6.53060    6.49210    6.19000  230.36910  239.26110  153.12530    0.76230 2628.55000    0.01300    0.00650    0.01300    6.53060   -8.86000    0.76230  265.36650  265.36650  108.83080   82.89070  106.08010  106.64130  106.08010  238.55290  229.56560    6.43230    0.29470    0.29470    3.45860    3.16090    3.45860 2625.55790 2635.17360    6.18320 16561.65820 14435.06050 14555.67870
 2200.00000  239.48870    7.44160    7.52700    7.66080    7.64780    7.75980    7.93510    7.36710  231.11740  239.48870  128.86930   -2.66790 2615.18500    0.02110    0.01970    0.02110    7.75980  -11.40810   -2.66790  259.96490  259.96490  107.99500   56.30980  112.80080  112.24190  112.80080  239.16540  232.57350    7.66080    0.28300    0.28300    3.32050    2.98130    3.32050 2613.71240 2618.02490    7.44160 16901.61130 14679.02930 14653.47270
 2250.00000  249.43420    3.76520    3.83600    3.91740    3.83770    3.98540    3.97170    3.75300  237.28160  249.43420  250.91580    1.45820 2579.38000    0.04280    0.09310    0.04280    3.98540    6.93510    1.45820  295.71360  295.71360  102.92120   65.27670  109.21130  108.59880  109.21130  248.79690  253.45480    3.91740    0.36810    0.36810    3.36990    3.46120    3.36990 2579.45260 2503.61330    3.76520 17046.62300 14715.45410 14833.22270
 2300.00000  253.05330   12.86510   13.45620   13.65030   13.37270   14.36300   14.13590   12.97770  241.63830  253.05330   69.62330   -6.70310 2638.94500    0.00670    0.00610    0.00670   14.36300  -13.91310   -6.70310  225.43260  225.43260   74.82010   47.65080   70.08420   70.11750   70.08420  252.75320  241.24170   13.65030    0.25750    0.25750    3.06970    3.49660    3.06970 2639.10740 2643.00930   12.86510 17400.63670 15113.22660 15194.32420
 2350.00000  262.03180   15.50110   17.20700   16.37320   16.70480   16.62210   17.43190   17.62220  250.36690  262.03180   60.16090   -3.93340 2678.71000   -0.01740   -0.01290   -0.01740   16.62210   -0.18500   -3.93340  224.66170  224.66170   85.34830   52.18040   82.75430   82.88880   82.75430  261.68150  256.27450   16.37320    0.26410    0.26410    3.67200    3.46460    3.67200 2674.90670 2683.37940   15.50110 17673.14650 15258.17680 15273.02440
 2400.00000  253.41620   12.40420   11.91770   11.72470   11.59980   11.42680   11.27160   12.12440  246.21470  253.41620   87.51360   -3.38430 2583.83500    0.04010    0.03310    0.04010   11.42680  -14.87630   -3.38430  253.94330  253.94330   77.70030   39.54340   90.15330   88.90330   90.15330  253.11900  249.28080   11.72470    0.26250    0.26250    2.95470    2.87610    2.95470 2583.04930 2592.62380   12.40420 18548.00000 15343.57520 15470.24900
 2450.00000  286.58300   13.71050   13.20530   12.99940   12.68020   12.69010   12.74990   13.92680  273.55330  286.58300   78.80160   -8.21910 2570.96500    0.04790    0.05130    0.04790   12.69010   -6.21130   -8.21910  219.14990  219.14990   53.06850   31.90250   52.78490   51.99760   52.78490  286.25280  267.31970   12.99940    0.19490    0.19490    2.88300    2.71050    2.88300 2570.69900 2566.77950   13.71050 17727.05470 15453.52050 15629.88380
 2500.00000  256.93120   14.56410   15.89010   15.30370   15.30920   14.85180   15.87470   16.17210  248.71100  256.93120   67.33190   -2.65400 2664.52000   -0.00880   -0.00530   -0.00880   14.85180   -5.68870   -2.65400  235.22470  235.22470   88.09170   53.47070   84.55360   84.35920   84.55360  257.12730  245.29920   15.30370    0.24380    0.24380    3.43980    3.20870    3.43980 2666.47170 2659.23220   14.56410 17975.86520 16000.66890 16048.12990
 2550.00000  246.52180   20.83100   23.03590   22.24320   23.16650   20.83550   24.32710   23.65090  238.34190  246.52180   47.99500   -9.15390 2547.04000    0.06240    0.04760    0.06240   20.83550   -8.34970   -9.15390  254.27440  254.27440  108.86740   59.82680  107.93910  107.82040  107.93910  246.02110  241.47970   22.24320    0.28030    0.28030    3.00440    2.87760    3.00440 2547.28050 2581.62650   20.83100 17972.10160 16369.65920 16407.96090
 2600.00000  264.64640    3.78190    3.94150    3.87380    3.89770    3.85900    4.03660    4.07620  263.67710  264.64640  259.13450   -4.77060 2621.12500    0.01750    0.01890    0.01750    3.85900   -5.53390   -4.77060  273.60210  273.60210  113.84480   63.70210  106.39020  105.78180  106.39020  264.47300  253.55160    3.87380    0.34590    0.34590    3.34110    3.35840    3.34110 2620.94870 2608.59640    3.78190 18396.31450 16261.95700 16329.65820
 2650.00000  228.69150 1994.26560    -999.25 2035.42130  716.85700 1201.28910 1168.36690 2025.41940  222.07090  228.69150    0.83240   -0.23270 2639.93500    0.00610    0.02160    0.00610 1201.28910  -16.39410   -0.23270  173.29200  173.29200   22.60130   16.86550   27.44040   27.33400   27.44040  228.45050  220.76900 2035.42130    0.06630    0.06630    3.50760    3.15330    3.50760 2638.32960 2617.79910 1994.26560 18327.58010 16693.07230 16713.56840
 2700.00000  234.90910   18.64640   21.64040   19.94500   20.91250   23.48240   22.81420   17.90770  222.13730  234.90910   42.58510    5.62160 2758.57000   -0.06580   -0.11740   -0.06580   23.48240  285.64740    5.62160  185.43170  185.43170   42.79930   20.76450   49.01460   47.05400   49.01460  234.47140  251.03530   19.94500    0.15760    0.15760    3.45030    3.92300    3.45030 2758.44310 2859.96580   18.64640 18582.24020 18548.60160 18594.57810
 2750.00000  245.32260   11.58800   12.47700   11.35720   10.29610    9.89790    9.86950   14.26670  228.54550  245.32260  101.03150    7.32270 2766.82000   -0.07080   -0.01930   -0.07080    9.89790  115.34010    7.32270  186.94240  186.94240   37.82510   20.63000   37.28750   38.27110   37.28750  244.06750  247.94230   11.35720    0.15000    0.15000    3.84120    4.10390    3.84120 2765.94820 2720.97460   11.58800 18809.34570 17219.32230 17208.58980
 2800.00000  250.33520 1580.90480 1444.33980  855.66250  435.29240  649.19880  701.59890 1736.55920  289.69060  250.33520    1.54040  153.56920 2510.24500    0.08470   -0.02420    0.08470  649.19880   -7.96180  153.56920  166.72410  166.72410   19.46600    -999.25   18.08090   18.39730   18.08090  251.51630  222.97480  855.66250    0.03420    0.03420    5.17190    4.41910    5.17190 2513.75780 2687.21630 1580.90480 19228.27930 17119.16600 17027.34380
 2850.00000  239.45460    6.66730    7.14350    6.92440    7.02000    6.81790    7.38760    7.33530  230.71970  239.45460  146.67270    5.97480 2733.49000   -0.05060   -0.03780   -0.05060    6.81790   -3.48890    5.97480  197.96220  197.96220   62.07910    -999.25   64.33240   63.27470   64.33240  239.14050  229.23720    6.92440    0.20430    0.20430    3.27630    3.13470    3.27630 2733.30370 2713.40310    6.66730 19421.83400 17479.97460 17493.49020
 2900.00000  233.54240   88.13680   88.86330   80.57400   72.48000   74.37050   74.70450   85.67360  224.39790  233.54240   13.44620   -4.16460 2708.24500   -0.03530   -0.02890   -0.03530   74.37050  -15.29330   -4.16460  177.47640  177.47640   35.48530    -999.25   33.14280   33.35940   33.14280  232.64100  223.57700   80.57400    0.08940    0.08940    4.16920    3.76490    4.16920 2708.11820 2696.40840   88.13680 19379.03130 17695.01370 17629.85550
 2950.00000  230.40790   46.35820   45.92740   44.22010   38.86790   40.66830   40.02520   47.22560  219.43190  230.40790   24.58920   -3.60140 2689.27000   -0.02380   -0.02950   -0.02380   40.66830   -9.46960   -3.60140  183.78240  183.78240   41.74120    -999.25   42.00820   41.63250   42.00820  230.25560  218.61360   44.22010    0.09970    0.09970    4.44300    4.30990    4.44300 2693.66600 2697.90840   46.35820 20545.35160 17831.01760 17804.32420
