~Version ---------------------------------------------------
VERS.      2.0 : CWLS log ASCII Standard -VERSION 2.0
WRAP.       NO : One line per depth step
CREA. 12/01/17 : LAS Creation Date
~Well ------------------------------------------------------
STRT.FT                           700.0 : START DEPTH
STOP.FT                          9400.0 : STOP DEPTH
STEP.FT                        50.00000 : STEP LENGTH
NULL.                           -999.25 : NULL VALUE
COMP.         ATLANTIC REFINING COMPANY : COMPANY
WELL. ATLANTIC BASELINE LAKE 6-29-59-13 : WELL
FLD .                                   : FIELD
LOC .                                   : LOCATION
CTRY.                            CANADA : COUNTRY
SRVC.            Schlumberger of Canada : SERVICE COMPANY
DATE.                       11-Jan-1962 : LOGDATE
PROV.                           Alberta : PROVINCE
UWI .                  100062905913W500 : UNIQUE WELL ID
SLAT.WGS84                     54.12799 : SURFACE LATITUDE
SLON.WGS84                    -115.9169 : SURFACE LONGITUDE
~Curve Information -----------------------------------------
DEPT  .FT         : Depth Curve
CALSED.IN         : CALIPER FROM SONIC LOG
CALWS .IN         : CALIPER [CALSED]
CILDED.MMHO       : INDUCTION DEEP CONDUCTIVITY FROM RESISTIVITY LOG
CONDWS.MMHO       : CONDUCTIVITY [1000/DRESWS]
DRESWS.OHMM       : DEEP RESISTIVITY [ CALC. FROM 1000/CILDED, IF ILDED<2, ILDED]
DT1ED .US/F       : DELTA TIME SPACING 3' PICKUP SPAN 1' FROM SONIC LOG
DTED  .US/F       : DELTA TIME SPACING 3' PICKUP SPAN 3' FROM SONIC LOG
DTWS  .US/F       : COMPRESTIONAL SONIC [DTED]
GRSED .UgRa-Eq/T  : GAMMA RAY FROM SONIC LOG
GRWS  .GAPI       : GAMMA RAY [GRSED*16.5]
ILDED .OHMM       : INDUCTION DEEP RESISTIVITY FROM RESISTIVITY LOG
SNED  .OHMM       : SHORT NORMAL RESISTIVITY FROM RESISTIVITY LOG
SPRED .MV         : SPONTANEOUS POTENTIAL FROM RESISTIVITY LOG
SPWS  .MV         : SPONTANEOUS POTENTIAL [BASELINE 0 MV, SPRED]
SRESWS.OHMM       : SHALLOW RESISTIVITY [SNED]
~Params ----------------------------------------------------
PD  .                     GL : PERMANENT DATUM
EPD .FT                 2681 : ELEVATION PERMANENT DATUM
LMF .                     KB : LOG MEASURED FROM
DAPD.FT                   13 : FEET ABOVE PERMANENT DATUM
EKB .FT                 2694 : KELLY BUSHING
EGL .FT                 2681 : GROUND LEVEL
DATE.               01/11/62 : RUN DATE
RUN .                      2 : RUN NUMBER
DD  .FT                 9422 : DEPTH DRILLER
DL  .FT                 9407 : DEPTH LOGGER
BLI .FT                 9406 : BOTTOM LOG INTERVAL
TLI .FT                 8800 : TOP LOG INTERVAL
CBD .FT                  978 : CASING BOTTOM DRILLER
BS  .IN                 8.75 : BIT SIZE
BSD .FT                 9422 : BIT SIZE AT DEPTH
DFT .           GEL OIL EMUL : DRILLING FLUID TYPE
DFD .                    9.3 : DRILLING FLUID DENSITY
DFV .                     90 : DRILLING FLUID VISCOSITY
DFPH.                    7.6 : DRILLING FLUID PH
DFL .                      7 : DRILLING FLUID LOSS
RMS .OHMM                2.5 : RESISTIVITY MUD SAMPLE
MST .DEGF                 70 : MUD SAMPLE TEMPERATURE
RMF .OHMM                1.5 : RESISTIVITY MUD FILTRATE SAMPLE
MFST.DEGF                 74 : MUD FILTRATE SAMPLE TEMPERATURE
RMC .OHMM                1.8 : RESISTIVITY MUD CAKE
MCST.DEGF                 74 : MUD CAKE SAMPLE TEMPERATURE
RMB .OHMM                1.0 : RESISTIVITY MUD AT BHT
TCS .HRS                   2 : TIME CIRCULATED STOPPED
LUN .                   1576 : LOGGING UNIT NUMBER
LUL .                     DV : LOGGING UNIT LOCATION
ENGI.                NORQUAY : RECORDING ENGINEER
WITN.                WALTERS : WITNESSED BY
CLNT.                A2DTECH : CLIENT CODE
ORIG.            2" 5" PRINT : ORIGIN OF DATA
UWI .       100062905913W500 : UNIQUE WELL ID
DICO. A2D Technologies, Inc. : DIGITIZING COMPANY
~Other -----------------------------------------------------
IEL-SONIC LOGS RUN
~ASCII -----------------------------------------------------
# ...
 7600.00000    9.08100    9.08100   28.93680   24.14540   41.41570    -999.25   53.11190   53.11190    1.70770   28.17710   41.41570   54.82930  -77.48640 -104.21760   54.82930
 7650.00000    9.17060    9.17060   25.99450   22.23090   44.98240    -999.25   51.36540   51.36540    1.76800   29.17200   44.98240   46.67420  -59.03150  -85.83980   46.67420
 7700.00000    8.93240    8.93240   26.33890   21.83640   45.80620    -999.25   55.14520   55.14520    2.43900   40.24430   45.80620   58.33140   14.50490  -12.38090   58.33140
 7750.00000    8.86110    8.86110   14.97850   10.27660   97.30830    -999.25   54.60010   54.60010    2.13330   35.19950   97.30830   91.22900   18.29410   -8.66840   91.22900
 7800.00000    9.22060    9.22060   48.52900   43.46330   23.00790    -999.25   58.55700   58.55700    2.28940   37.77510   23.00790   29.69860   24.41800   -2.70940   29.69860
 7850.00000   10.40510   10.40510  112.23490  104.60910    9.55940    -999.25   67.86320   67.86320    3.33840   55.08360    9.55940   12.48650   26.42790   -1.42790   12.48650
 7900.00000    9.66710    9.66710  187.80800  173.85860    5.75180    -999.25   74.25680   74.25680    4.51220   74.45130    5.75180    8.19470   21.44480   -8.16720    8.19470
 7950.00000    9.13020    9.13020  230.22050  211.32570    4.73320    -999.25   79.48600   79.48600    4.98150   82.19390    4.73320    6.39370   14.22620  -17.15070    6.39370
 8000.00000   15.06860   15.06860  203.51720  193.65210    5.16390    -999.25   84.79200   84.79200    5.11900   84.46350    5.16390    6.33110   -7.65520  -40.77950    6.33110
 8050.00000   15.01610   15.01610  182.89670  170.80000    5.85480    -999.25   87.40940   87.40940    5.25220   86.66130    5.85480    6.57620    0.83970  -34.04070    6.57620
 8100.00000    9.36690    9.36690   72.17430   66.78020   14.97450    -999.25   69.32490   69.32490    4.58480   75.64920   14.97450   22.26050   17.06060  -19.57600   22.26050
 8150.00000   11.15250   11.15250  193.10960  178.38350    5.60590    -999.25   87.70420   87.70420    4.96810   81.97360    5.60590    8.34420   -4.40270  -42.79540    8.34420
 8200.00000   13.06590   13.06590  193.10940  180.03900    5.55460    -999.25   87.75160   87.75160    5.28330   87.17450    5.55460    7.12120  -10.57260  -50.73030    7.12120
 8250.00000   12.94150   12.94150  137.67000  128.22160    7.79900    -999.25   66.66520   66.66520    4.07430   67.22590    7.79900    9.22280    2.72640  -39.17870    9.22280
 8300.00000    9.85160    9.85160  116.84120  107.69360    9.28560    -999.25   70.04190   70.04190    4.68520   77.30580    9.28560   13.11980   21.67900  -21.98220   13.11980
 8350.00000    9.84230    9.84230  115.52550  106.49630    9.39000    -999.25   72.53660   72.53660    5.62440   92.80260    9.39000   12.81820   31.36420  -14.05320   12.81820
 8400.00000   10.25680   10.25680  117.97600  110.55590    9.04520    -999.25   70.86390   70.86390    5.43670   89.70560    9.04520   12.78400   34.97870  -12.19480   12.78400
 8450.00000   10.14240   10.14240   93.26500   88.32110   11.32250    -999.25   67.88610   67.88610    4.22680   69.74220   11.32250   16.14580   38.29050  -10.64790   16.14580
 8500.00000   10.68510   10.68510  126.82100  116.97550    8.54880    -999.25   72.61810   72.61810    5.98680   98.78220    8.54880   12.14000   36.89250  -13.79330   12.14000
 8550.00000   10.48220   10.48220  111.45370  105.03650    9.52050    -999.25   71.57460   71.57460    6.07800  100.28700    9.52050   13.85360   42.56490   -9.87710   13.85360
 8600.00000    9.93910    9.93910  111.35780  103.06200    9.70290   70.01650   68.05470   68.05470    5.00510   82.58410    9.70290   14.18230   41.78970  -12.40840   14.18230
 8650.00000    9.61590    9.61590  157.64900  145.37210    6.87890   69.64700   73.31410   73.31410    5.85850   96.66530    6.87890   10.18120   31.97290  -23.98140   10.18120
 8700.00000    9.97690    9.97690  150.07550  138.56890    7.21660   74.82140   74.96970   74.96970    5.88410   97.08770    7.21660   10.68250   33.93110  -23.78810   10.68250
 8750.00000    9.52250    9.52250  173.53530  158.51130    6.30870   72.96390   74.89810   74.89810    6.00060   99.00990    6.30870    9.80030   40.08970  -19.37690    9.80030
 8800.00000    9.44730    9.44730  116.50460  109.55780    9.12760   67.33750   68.26570   68.26570    5.29220   87.32130    9.12760   14.63570   51.18510  -10.03760   14.63570
 8850.00000    8.90320    8.90320    8.88870    7.32170  136.57970   54.33810   53.91340   53.91340    1.27930   21.10850  136.57970  115.02110   40.96600  -22.01290  115.02110
 8900.00000    8.77040    8.77040   22.33530   20.96230   47.70480   73.56580   73.13940   73.13940    6.12080  100.99320   47.70480   63.01000   61.31140   -2.95590   63.01000
 8950.00000    8.84860    8.84860    4.73890    3.98130  251.29200   49.13730   49.17810   49.17810    0.69010   11.38660  251.29200  178.22640  -51.70430 -115.97150  178.22640
 9000.00000    8.84290    8.84290    1.05380    1.85420  539.33010   50.47520   48.99790   48.99790    1.23720   20.41380  539.33010  326.68890  -81.69590 -145.96320  326.68890
 9050.00000    8.87780    8.87780    2.46480    1.85260  539.77530   49.54120   49.26020   49.26020    1.22300   20.17950  539.77530  289.67180  -56.18410 -120.45140  289.67180
 9100.00000    8.62480    8.62480    1.39850    1.85900  537.93540   47.27320   49.53640   49.53640    1.74830   28.84700  537.93540  356.29860  -43.27100 -107.53830  356.29860
 9150.00000    8.33660    8.33660    1.94300    1.86290  536.79470   52.57350   52.07510   52.07510    0.96300   15.88950  536.79470  232.96480  -47.11710 -111.38440  232.96480
 9200.00000    8.31900    8.31900    7.34120    5.46260  183.14860   45.69350   48.41070   48.41070    0.76610   12.64070  183.14860   98.17450  -78.51350 -142.78080   98.17450
 9250.00000    8.09820    8.09820    1.39430    1.85270  539.74470   48.55840   49.81910   49.81910    0.98100   16.18650  539.74470  390.34720 -101.99500 -166.26230  390.34720
 9300.00000    8.01550    8.01550    1.46700    1.85200  539.95210   47.90950   49.90310   49.90310    0.91800   15.14700  539.95210  471.61250  -96.00950 -160.27680  471.61250
 9350.00000    8.16770    8.16770    8.00000    3.13870  318.60590   47.82940   49.81040   49.81040    1.07350   17.71280  318.60590  168.51520  -67.55340 -131.82070  168.51520
 9400.00000    -999.25    -999.25   86.06710   86.63630   11.54250    -999.25    -999.25    -999.25    -999.25    -999.25   11.54250   22.97860  -55.46250 -119.72980   22.97860
