~Version ---------------------------------------------------
VERS. 2.0 : CWLS log ASCII Standard -VERSION 2.0
WRAP.  NO : ONE LINE PER DEPTH STEP
~Well ------------------------------------------------------
STRT.F                           850.0 : START DEPTH
STOP.F                          9050.0 : STOP DEPTH
STEP.F                        50.00000 : STEP LENGTH
NULL.                          -999.25 : NULL VALUE
COMP.      BLUEMOUNT RESOURCES LIMITED : COMPANY
WELL. BLUEMOUNT WHITECOURT 10-36-59-13 : WELL
FLD .                                  : FIELD
LOC .                                  : LOCATION
CTRY.                           CANADA : COUNTRY
SRVC.                          Unknown : SERVICE COMPANY
DATE.                      30-Jan-1973 : LOGDATE
PROV.                          Alberta : PROVINCE
UWI .                 100103605913W500 : UNIQUE WELL ID
SLAT.WGS84                    54.14792 : SURFACE LATITUDE
SLON.WGS84                   -115.8081 : SURFACE LONGITUDE
~Curve Information -----------------------------------------
DEPT   .F    0   1   0  0 : 1 MEASURED DEPTH
DCOR   .G/C3 45 356 01 00 : DENSITY CORRECTION
RHOB   .G/C3 45 350 01 00 : BULK DENSITY
CALD   .IN   45 280 60 00 : CALIPER FROM DENSITY LOG
NPHI_LS.DEC  42 890 01 00 : NEUTRON POROSITY LIMESTONE
DPHI_LS.DEC  45 890 10 00 : DENSITY POROSITY LIMESTONE
GRD    .GAPI 45 310 01 00 : GAMMA RAY FROM DENSITY LOG
GRS    .GAPI 60 310 01 00 : GAMMA RAY FROM SONIC LOG
DT     .US/F 60 500 00 00 : DELTA-T (INTERVAL TRANSIT TIME)
CALS   .IN   60 280 50 00 : CALIPER FROM SONIC LOG
ILD    .OHMM 07 120 46 00 : INDUCTION DEEP RESISTIVITY
ILM    .OHMM 07 120 44 00 : INDUCTION MEDIUM RESISTIVITY
LL8    .OHMM 07 220 08 00 : LATEROLOG 8
SPR    .MV   07 010 01 00 : SPONTANEOUS POTENTIAL FROM RESISTIVITY LOG
~Params ----------------------------------------------------
PD  .                     GL : PERMANENT DATUM
EPD .FT                 2542 : ELEVATION PERMANENT DATUM
LMF .                     KB : LOG MEASURED FROM
DAPD.FT                 17.3 : FEET ABOVE PERMANENT DATUM
EKB .FT               2559.3 : KELLY BUSHING
EGL .FT                 2542 : GROUND LEVEL
DATE.               01/30/73 : RUN DATE
RUN .                      1 : RUN NUMBER
DD  .FT                 9060 : DEPTH DRILLER
DL  .FT                 9056 : DEPTH LOGGER
BLI .FT                 9053 : BOTTOM LOG INTERVAL
TLI .FT                  911 : TOP LOG INTERVAL
CBD .FT                  912 : CASING BOTTOM DRILLER
CBL .FT                  911 : CASING BOTTOM LOGGER
BS  .IN                 8.75 : BIT SIZE
BSD .FT                 9060 : BIT SIZE AT DEPTH
DFT .               GEL CHEM : DRILLING FLUID TYPE
DFD .                    9.2 : DRILLING FLUID DENSITY
DFV .                     80 : DRILLING FLUID VISCOSITY
DFPH.                   10.5 : DRILLING FLUID PH
DFL .                    8.8 : DRILLING FLUID LOSS
MSS .             CIRCULATED : MUD SAMPLE SOURCE
RMS .OHMM               1.83 : RESISTIVITY MUD SAMPLE
MST .DEGF                 76 : MUD SAMPLE TEMPERATURE
RMF .OHMM               1.59 : RESISTIVITY MUD FILTRATE SAMPLE
MFST.DEGF                 57 : MUD FILTRATE SAMPLE TEMPERATURE
RMC .OHMM                3.6 : RESISTIVITY MUD CAKE
MCST.DEGF                 76 : MUD CAKE SAMPLE TEMPERATURE
RMB .OHMM                0.9 : RESISTIVITY MUD AT BHT
TCS .HRS                   4 : TIME CIRCULATED STOPPED
LUN .                   5671 : LOGGING UNIT NUMBER
LUL .                    EDM : LOGGING UNIT LOCATION
ENGI.                 CALVIN : RECORDING ENGINEER
WITN.         SCHWAB DRYDALE : WITNESSED BY
CLNT.                A2DTECH : CLIENT CODE
ORIG.            2" 5" PRINT : ORIGIN OF DATA
UWI .       100103605913W500 : UNIQUE WELL ID
DICO. A2D Technologies, Inc. : DIGITIZING COMPANY
~Other -----------------------------------------------------
~ASCII -----------------------------------------------------
# ...
 3450.00000    0.24330    2.04350   11.86960    0.38030    0.35910   97.23500  131.08670   96.22250   10.21510    6.48040    6.79100    8.32660  -50.34680
 3500.00000    0.11460    2.37940   11.82560    0.28360    0.16230   96.85160  122.53190   87.24490   10.16280    7.05140    7.60440    8.25300  -50.76620
 3550.00000    0.14080    2.53000   11.21480    0.30540    0.11770   98.51060  128.51570   90.58540   10.44350    7.14310    7.36440    9.30820  -50.67690
 3600.00000    0.07070    2.45320   11.67660    0.29270    0.14020   95.40600  130.12710   88.47950    9.92560    6.65110    7.00840    8.39370  -50.33470
 3650.00000    0.11620    2.44990    9.02050    0.22640    0.18190   80.32140  102.00010   79.96340    9.40540    9.91160   10.35870   11.72190  -51.04140
 3700.00000    0.10730    2.44840   10.52540    0.27660    0.15140  103.75200  131.34530   86.71220   10.26100    7.00020    7.32320    8.72050  -48.90190
 3750.00000    0.08880    2.43020   10.75110    0.31020    0.17660  101.88400  135.67810   89.85030   10.44710    7.08180    7.36370    8.78010  -49.02420
 3800.00000    0.16690    2.30750   12.81440    0.31100    0.25460   99.63820  131.69230   90.15490   10.40480    6.65570    6.87770    8.41060  -48.77030
 3850.00000    0.19900    2.32150   12.92300    0.34250    0.24150  101.33830  131.77310  102.24480   10.99850    6.55050    6.78410    8.87710  -47.59610
 3900.00000    0.16580    2.26110   12.18270    0.37110    0.26000  102.33980  130.89120   96.75870   10.48020    6.21850    6.48130    8.60560  -46.80810
 3950.00000    0.16570    2.43550   11.14240    0.31230    0.14710  120.00220  155.83290   95.16710    9.71230    7.76470    8.10020   11.74510  -46.62870
 4000.00000    0.26650    2.31940   11.00700    0.35390    0.20460  117.88570  148.86880   95.25890   10.11320    7.40670    7.75100   10.95220  -46.11410
 4050.00000    0.30220    2.32680    9.44770    0.32430    0.20750  131.50950  163.40270   94.30140   10.02670    9.04330    9.42730   13.48350  -46.36340
 4100.00000    0.02940    2.54670    8.22610    0.31060    0.10470  119.71220  161.87420   88.17920    8.98260   15.28740   16.81530   27.24130  -46.67250
 4150.00000    0.08750    2.55300    8.09680    0.29420    0.09440  134.54660  178.27120   90.01870    9.16150   10.63030   11.10400   16.46710  -46.46190
 4200.00000    0.25030    2.33380   10.16660    0.28340    0.21570   87.86780  105.87760   86.61980   10.07080    7.79310    8.37790   11.07160  -48.10700
 4250.00000    0.30710    2.35790    9.35620    0.31160    0.27240   96.14980  121.63400   86.13960   10.51440    5.60100    5.83890    8.01580  -45.69910
 4300.00000    0.24920    2.22770    9.96650    0.38840    0.30130  100.15790  131.94590   91.49680   10.74840    4.71930    4.92040    6.70400  -44.83710
 4350.00000    0.28220    2.43050    9.37550    0.27450    0.15870   89.18140  112.33320   84.26780   10.29870    6.72770    7.03640    9.20770  -45.73810
 4400.00000    0.26790    2.26430   11.44270    0.36420    0.23370   95.03000  132.62020   90.67910   10.70050    4.71100    4.91030    7.00650  -43.67610
 4450.00000    0.29560    2.22660   10.80090    0.34680    0.28310  118.36420  159.69070   92.56630   10.20390    5.81090    6.05680    8.28330  -44.48160
 4500.00000    0.15510    2.28990   13.80460    0.44790    0.25620   90.38130  122.34040  114.03130   11.45640    2.67350    2.79710    4.04180  -44.02310
 4550.00000    0.16900    2.34380   12.39130    0.45130    0.22030   92.47140  136.15700  107.91020   10.88490    2.94970    3.09330    4.62200  -44.00660
 4600.00000    0.28990    2.27230   10.58440    0.33520    0.27520  103.23640  134.95970   94.92810   10.23100    4.50790    4.73790    6.45460  -44.37850
 4650.00000    0.12850    2.50010    8.41210    0.18760    0.09990   54.35780   72.11100   75.71900    9.11890   10.76820   13.33570   18.17510  -73.27480
 4700.00000    0.13020    2.52140   10.40010    0.27290    0.08960   75.50200  101.75450   87.06030   10.90360    6.02280    6.66200    6.73320  -47.62850
 4750.00000    0.11180    2.29280   10.52550    0.41490    0.27510   76.26620  115.13850  105.06250   10.96360    4.63920    5.06700    6.74140  -45.09160
 4800.00000    0.07580    2.02090    9.52900    0.47050    0.26660   80.79410  110.07240   93.20440   10.56200   15.69230   16.81210   36.95940  -45.84790
 4850.00000    0.02980    2.55500   10.31850    0.41580    0.25740   73.90180  101.75310  130.37360    9.95860    8.77740    9.58550   20.30980  -49.06940
 4900.00000    0.06450    2.54740    9.28620    0.25440    0.10300   69.86400   87.87750   76.75920   10.42770    7.33500    7.87880   12.69410  -59.39070
 4950.00000    0.03590    2.49810    9.55910    0.33540    0.08380   72.00910   84.45420   77.62930   10.91090    9.21910   10.61340   12.86090  -45.76770
 5000.00000    0.04220    2.58290    9.69480    0.24820    0.06690   85.67450  123.64100   79.77360   10.47680    9.56120    9.97570   14.19530  -43.90850
 5050.00000    0.14810    2.47400    8.95440    0.23810    0.14180   52.23710   64.64500   76.68760    9.70870    5.35610    6.81010   15.01640  -74.86480
 5100.00000    0.05740    2.52400    9.41200    0.20750    0.11970   44.20920   56.61350   74.42640    9.92780    7.60200    8.58740   17.78700  -65.43870
 5150.00000    0.01580    2.44150    9.34500    0.26210    0.09990   82.77170  104.23530   81.17830    9.94970    5.13370    5.88890   11.38570  -39.26100
 5200.00000    0.01580    2.49310    8.72560    0.25290    0.10570   58.96570   76.40810   81.78950   10.05040    7.64600    7.96940   11.77200  -51.06750
 5250.00000    0.14940    2.23680    9.19860    0.33740    0.25350   81.24930   98.75680   77.22150   10.17780    4.04790    4.87540    9.28130  -40.41130
 5300.00000    0.27730    2.36470    9.74300    0.29760    0.20940   79.94300  111.46410   79.88700    9.70570    6.40020    6.93210    9.87850  -36.35220
 5350.00000    0.04610    2.56340    8.56310    0.21800    0.06470   89.79060  100.29730   74.96170    9.36130   10.07660   11.65730   18.87920  -39.09760
 5400.00000    0.07700    2.50400    8.07800    0.08980    0.12130   28.90630   35.06230   68.65770    8.69490   16.44090   19.68610   41.27020  -88.40600
 5450.00000    0.15560    2.29300   11.60370    0.38090    0.23320  108.61570  139.64060   94.68000   10.18250    2.41930    2.58240    4.36730  -39.29020
 5500.00000    0.30280    2.39000    9.96640    0.30550    0.17530   85.10820  113.06350   86.86290   10.76200    4.27000    4.54650    8.73750  -37.22410
 5550.00000    0.10670    2.27470    7.52660    0.22430    0.23940   24.15280   31.82690  110.98700    8.57530    4.90820    7.78380   34.37750 -143.54230
 5600.00000    0.03510    2.63150    7.74530    0.07150    0.03400   31.76420   46.57960   56.75040    8.71350  564.78550  930.55360 1166.54360  -70.98060
 5650.00000    0.02270    2.63500    7.99060    0.10430    0.04060   41.39730   44.74640   59.48490    8.76430  257.10820  279.28940  330.09040  -63.51210
 5700.00000    0.00680    2.71180    8.04450    0.14420   -0.01750   52.09300   64.17010   58.43220    8.73030   11.33360   13.51340   19.50400  -72.97070
 5750.00000    0.12890    2.63040    7.50710    0.11700    0.03290   11.26490   12.50030   54.93370    8.63280    9.54000   10.50420   59.69070 -166.90070
 5800.00000    0.14990    2.60570    7.28210    0.11330    0.05450   15.55300   17.71700   50.32020    8.62790   24.83340   42.43000  280.60690 -165.80490
 5850.00000    0.01500    2.65520    8.07070    0.21170    0.02380   47.28870   63.47110   66.14730    8.81720    3.14680    3.68260    9.57690  -78.68810
 5900.00000    0.02800    2.70400    8.06250    0.10830    0.00610   66.62540   98.12390   58.09820    8.71240   14.35020   15.86120   23.43240  -51.01790
 5950.00000    0.05000    2.75710    8.15880    0.12080   -0.03520   53.43530   78.84380   61.52190    8.63450   12.14000   12.79710   18.74190  -54.99620
 6000.00000    0.13680    2.79160    8.25280    0.03360   -0.03660   22.74950   22.83260   53.40590    8.81660  112.57320  132.59160  643.12870  -70.33530
