~Version ---------------------------------------------------
VERS.      2.0 : CWLS log ASCII Standard -VERSION 2.0
WRAP.       NO : One line per depth step
CREA. 09/23/14 : LAS Creation Date
~Well ------------------------------------------------------
STRT.M                           500.0 : START DEPTH
STOP.M                          4800.0 : STOP DEPTH
STEP.M                        50.00000 : STEP LENGTH
NULL.                          -999.25 : NULL VALUE
COMP. AMOCO CANADA PETROLEUM CO., LTD. : COMPANY
WELL.      AMOCO BLACKSTONE 3-12-45-17 : WELL
FLD .                                  : FIELD
LOC .                                  : LOCATION
CTRY.                           CANADA : COUNTRY
SRVC.           Schlumberger of Canada : SERVICE COMPANY
DATE.                      19-Sep-1980 : LOGDATE
PROV.                          Alberta : PROVINCE
UWI .                 100031204517W500 : UNIQUE WELL ID
SLAT.WGS84                    52.86072 : SURFACE LATITUDE
SLON.WGS84                    -116.338 : SURFACE LONGITUDE
~Curve Information -----------------------------------------
DEPT    .M      : DEPTH METER
CALDED  .MM     : CALIPER FROM DENSITY LOG [ADJ. TO DIL LOG]
CALRED  .MM     : CALIPER FROM DLL LOG
CALSED  .MM     : CALIPER FROM SONIC LOG
CALWS   .MM     : CALIPER [CALSED SPL. TO CALRED @ 4812.5 M]
CONDWS  .MMHO   : CONDUCTIVITY [1000/DRESWS]
DCORWS  .KG/M3  : DENSITY  CORRECTION [DRHOED]
DENWS   .KG/M3  : FORMATION BULK DENSITY [CALC. FROM DPOLSWS, M=2710, F=1000]
DPHILSED.V/V    : DENSITY POROSITY LIMESTONE [M=2710, F=1000] FROM DENSITY LOG [ADJ. TO DIL LOG]
DPHISSED.V/V    : DENSITY POROSITY SANDSTONE [M=2650, F=1000] FROM DENSITY LOG [ADJ. TO DPHILSED/DIL LOG]
DPOLSWS .V/V    : DENSITY POROSITY LIMESTONE [DPHISSSED CONVERTED TO LIMESTONE MATRIX , M=2710, F=1000, SPL. TO DPHILSED @ 3731.7 M]
DRESWS  .OHMM   : DEEP RESISTIVITY [ILDED]
DRHOED  .KG/M3  : DENSITY CORRECTION FROM DENSITY LOG [ADJ. TO DPHISSED/DPHILSED/DIL LOG]
DTED    .US/M   : DELTA TIME FROM SONIC LOG
DTWS    .US/M   : COMPRESSIONAL SONIC [DTED]
GRDED   .GAPI   : GAMMA RAY FROM DENSITY LOG [ADJ. TO DIL LOG]
GRRED   .GAPI   : GAMMA RAY FROM DLL LOG
GRSED   .GAPI   : GAMMA RAY FROM SONIC LOG
GRWS    .GAPI   : GAMMA RAY [GRSED SPL. TO GRRED @ 4811.2 M]
ILDED   .OHMM   : DEEP INDUCTION LOG RESISTIVITY FROM DIL LOG
ILMED   .OHMM   : MEDIUM  INDUCTION LOG RESISTIVITY FROM DIL LOG
LLDED   .OHMM   : DEEP LATEROLOG RESISTIVITY FROM DLL LOG
LLSED   .OHMM   : SHALLOW LATEROLOG RESISTIVITY FROM DLL LOG
MRESWS  .OHMM   : MEDIUM RESISTIVITY [ILMED]
MSFLED  .OHMM   : MICROSPHERICALLY FOCUSED LOG RESISTIVITY FROM DLL LOG
NPHILSED.V/V    : NEUTRON POROSITY LIMESTONE FROM DENSITY LOG [ADJ. TO DIL LOG]
NPHISSED.V/V    : NEUTRON POROSITY SANDSTONE FROM DENSITY LOG [ADJ. TO DPHILSED/DIL LOG]
NPOLSWS .V/V    : NEUTRON POROSITY LIMESTONE [NPHISSED MATRIX CONVERSION FOR LIMESTONE, SPL. TO NPHILSED @ 3733 M]
RHOBED  .KG/M3  : BULK DENSITY FROM DENSITY LOG [ADJ. TO DPHISSED/DPHILSED/DIL LOG]
SFLED   .OHMM   : SHALLOW FOCUSED LOG RESISTIVITY FROM DIL LOG
SPRED   .MV     : SPONTANEOUS POTENTIAL FROM DIL LOG
SPWS    .MV     : SPONTANEOUS POTENTIAL [BASELINE  0 MV, SPRED]
SRESWS  .OHMM   : SHALLOW RESISTIVITY [SFLED]
~Params ----------------------------------------------------
PD  .                         GL : PERMANENT DATUM
EPD .M                    1169.9 : ELEVATION PERMANENT DATUM
LMF .                         KB : LOG MEASURED FROM
DAPD.M                       8.3 : FEET ABOVE PERMANENT DATUM
DMF .                         KB : DRILLING MEASURED FROM
EKB .M                    1178.2 : KELLY BUSHING
EGL .M                    1169.9 : GROUND LEVEL
DATE.                   09/19/80 : RUN DATE
RUN .                          2 : RUN NUMBER
DD  .M                      4833 : DEPTH DRILLER
DL  .M                      4829 : DEPTH LOGGER
BLI .M                      4828 : BOTTOM LOG INTERVAL
TLI .M                      2931 : TOP LOG INTERVAL
CS  .MM                      244 : CASING SIZE
CBD .M                      2934 : CASING BOTTOM DRILLER
CBL .M                      2931 : CASING BOTTOM LOGGER
BS  .MM                      216 : BIT SIZE
BSD .M                      4833 : BIT SIZE AT DEPTH
DFT .                   GEL CHEM : DRILLING FLUID TYPE
DFD .                       1115 : DRILLING FLUID DENSITY
DFV .                         70 : DRILLING FLUID VISCOSITY
DFPH.                       10.5 : DRILLING FLUID PH
DFL .                          6 : DRILLING FLUID LOSS
MSS .                CIRCULATION : MUD SAMPLE SOURCE
RMF .OHMM                   1.16 : RESISTIVITY MUD FILTRATE SAMPLE
MFST.DEGC                   14.4 : MUD FILTRATE SAMPLE TEMPERATURE
RMC .OHMM                   1.96 : RESISTIVITY MUD CAKE
MCST.DEGC                     10 : MUD CAKE SAMPLE TEMPERATURE
MFSS.                     FILTER : MUD FILTRATE SAMPLE SOURCE
MCSS.                      PRESS : MUD CAKE SAMPLE SOURCE
RMB .OHMM                   0.34 : RESISTIVITY MUD AT BHT
TCS .HRS                     245 : TIME CIRCULATED STOPPED
TLAB.HRS                     115 : TIME LOGGER AT BOTTOM
LUN .                       8125 : LOGGING UNIT NUMBER
LUL .                         RD : LOGGING UNIT LOCATION
ENGI.                   GONNASON : RECORDING ENGINEER
WITN.                     NEWELL : WITNESSED BY
CLNT.                    A2DTECH : CLIENT CODE
ORIG. 6.5"/100M 16.5"/100M PRINT : ORIGIN OF DATA
UWI .           100031204517W500 : UNIQUE WELL ID
DICO.     A2D Technologies, Inc. : DIGITIZING COMPANY
~Other -----------------------------------------------------
DIL-DLL-BHC RUN IN COMBO & FDC-CNL-LOG RUN
RHOB AND DRHO CURVES DATA VERIFY FROM SMALL SECTION
~ASCII -----------------------------------------------------
  500.00000  368.66470    -999.25  362.77750  362.77750    6.40820  -44.36430 1610.33500    -999.25    0.63010    0.64310  156.05040  -44.36430  405.86650  405.86650   49.61720    -999.25   45.40950   45.40950  156.05040  107.77250    -999.25    -999.25  107.77250    -999.25    -999.25    0.60650    0.57290 1585.01320  417.65680 -154.00900   -7.97450  417.65680
  550.00000  317.84730    -999.25  328.74080  328.74080   21.80240   16.31940 2446.39000    -999.25    0.12340    0.15420   45.86660   16.31940  238.41650  238.41650   44.64870    -999.25   40.79330   40.79330   45.86660   40.56870    -999.25    -999.25   40.56870    -999.25    -999.25    0.19970    0.15630 2448.63010   49.45570 -165.81110  -33.96750   49.45570
  600.00000  319.84690    -999.25  307.93860  307.93860  115.32160   34.98890 2422.30000    -999.25    0.13800    0.16820    8.67140   34.98890  285.11980  285.11980   85.26250    -999.25   77.83640   77.83640    8.67140    7.01250    -999.25    -999.25    7.01250    -999.25    -999.25    0.39490    0.35190 2421.97140    5.96270 -135.04200   -4.95830    5.96270
  650.00000  423.48870    -999.25  342.23530  342.23530  121.25470   91.41200 2245.42000    -999.25    0.24520    0.27170    8.24710   91.41200  295.63180  295.63180   61.41260    -999.25   59.90620   59.90620    8.24710    6.86040    -999.25    -999.25    6.86040    -999.25    -999.25    0.44500    0.40320 2243.09550    5.61890 -138.12890   -6.54040    5.61890
  700.00000  415.33750    -999.25  330.17690  330.17690   78.89730   39.07390 2107.15000    -999.25    0.32900    0.35250   12.67470   39.07390  392.63500  392.63500   70.95150    -999.25   69.16870   69.16870   12.67470    9.18360    -999.25    -999.25    9.18360    -999.25    -999.25    0.53280    0.49470 2094.45140    7.79560 -142.81030   -9.71700    7.79560
  750.00000  331.08540    -999.25  314.97260  314.97260   91.10790  -12.38050 2175.13000    -999.25    0.28780    0.31280   10.97600  -12.38050  408.00270  408.00270  107.22380    -999.25  101.73960  101.73960   10.97600    6.37390    -999.25    -999.25    6.37390    -999.25    -999.25    0.52710    0.48870 2170.27290    6.75140 -139.78620   -5.18810    6.75140
  800.00000  404.88380    -999.25  337.42050  337.42050  101.20230  -36.90330 1577.83000    -999.25    0.64980    0.66210    9.88120  -36.90330  426.51910  426.51910   53.57020    -999.25   55.24770   55.24770    9.88120    8.80900    -999.25    -999.25    8.80900    -999.25    -999.25    0.57570    0.54010 1539.73220   19.68600 -138.93010   -3.61590   19.68600
  850.00000  374.17880    -999.25  330.85310  330.85310  123.41870   16.10030 1915.42000    -999.25    0.44520    0.46470    8.10250   16.10030  359.49420  359.49420   73.96490    -999.25   71.06650   71.06650    8.10250    6.64160    -999.25    -999.25    6.64160    -999.25    -999.25    0.50050    0.46070 1784.05420   11.51880 -137.50770   -2.36700   11.51880
  900.00000  351.49890    -999.25  323.69120  323.69120   50.85510   31.88090 2248.06000    -999.25    0.24360    0.27010   19.66370   31.88090  349.10130  349.10130   89.71360    -999.25   92.12270   92.12270   19.66370   15.57810    -999.25    -999.25   15.57810    -999.25    -999.25    0.47710    0.43630 2163.96530   15.26130 -139.49970   -4.53240   15.26130
  950.00000  353.61330    -999.25  321.01560  321.01560   35.41790   10.59280 2463.55000    -999.25    0.11300    0.14410   28.23430   10.59280  235.78240  235.78240   60.77220    -999.25   51.36640   51.36640   28.23430   25.07080    -999.25    -999.25   25.07080    -999.25    -999.25    0.23630    0.19250 2463.37280   23.12950 -149.17260  -14.37880   23.12950
 1000.00000  339.39670    -999.25  317.09700  317.09700   77.37780   47.68450 2477.74000    -999.25    0.10440    0.13580   12.92360   47.68450  239.63530  239.63530   68.87680    -999.25   69.45760   69.45760   12.92360   11.08270    -999.25    -999.25   11.08270    -999.25    -999.25    0.30390    0.25990 2474.81960   21.10710 -136.86330   -2.19020   21.10710
 1050.00000  355.79530    -999.25  326.51120  326.51120   83.75910   17.51130 2512.88500    -999.25    0.08310    0.11530   11.93900   17.51130  249.11530  249.11530   69.43020    -999.25   62.62720   62.62720   11.93900   10.37880    -999.25    -999.25   10.37880    -999.25    -999.25    0.35830    0.31480 2513.08200    8.99260 -137.99640   -3.32330    8.99260
 1100.00000  363.71730    -999.25  325.45680  325.45680   79.04700   94.67400 2209.12000    -999.25    0.26720    0.29290   12.65070   94.67400  240.01440  240.01440   65.25090    -999.25   66.81550   66.81550   12.65070   11.81540    -999.25    -999.25   11.81540    -999.25    -999.25    0.37640    0.33310 2098.13330    9.54930 -137.91120   -3.23810    9.54930
 1150.00000  371.45940    -999.25  323.92790  323.92790  100.30900   75.98880 1927.96000    -999.25    0.43760    0.45730    9.96920   75.98880  264.25530  264.25530   82.66050    -999.25   71.98900   71.98900    9.96920    8.49760    -999.25    -999.25    8.49760    -999.25    -999.25    0.38480    0.34160 1960.03860    8.08220 -138.94440   -4.27130    8.08220
 1200.00000  395.11680    -999.25  330.42400  330.42400   98.94330  148.65290 2225.12500    -999.25    0.25750    0.28360   10.10680  148.65290  267.27310  267.27310   82.40790    -999.25   78.06940   78.06940   10.10680    8.36530    -999.25    -999.25    8.36530    -999.25    -999.25    0.37240    0.32910 2246.87650   14.57110 -139.81100   -5.13790   14.57110
 1250.00000  350.20550    -999.25  318.10360  318.10360  225.05800   76.32920 2124.31000    -999.25    0.31860    0.34250    4.44330   76.32920  332.14890  332.14890  110.63320    -999.25  126.41540  126.41540    4.44330    4.03450    -999.25    -999.25    4.03450    -999.25    -999.25    0.46730    0.42620 2112.83590    3.75980 -137.42040   -2.74730    3.75980
 1300.00000  359.33140    -999.25  323.69520  323.69520   96.13630  124.05650 2182.06000    -999.25    0.28360    0.30870   10.40190  124.05650  282.87270  282.87270   74.48540    -999.25   75.46150   75.46150   10.40190    9.44710    -999.25    -999.25    9.44710    -999.25    -999.25    0.39050    0.34740 2179.15580   10.09070 -138.47090   -3.70350   10.09070
 1350.00000  312.51980    -999.25  330.23010  330.23010   76.51520   22.81120 2501.33500    -999.25    0.09010    0.12200   13.06930   22.81120  249.64670  249.64670   81.39300    -999.25   73.58120   73.58120   13.06930   11.95630    -999.25    -999.25   11.95630    -999.25    -999.25    0.26590    0.22190 2492.63500   11.23800 -138.91320   -4.04140   11.23800
 1400.00000  329.85330    -999.25  310.01060  310.01060   56.53200  158.63070 2384.02000    -999.25    0.16120    0.19060   17.68910  158.63070  243.94190  243.94190   56.22720    -999.25   59.12840   59.12840   17.68910   16.04680    -999.25    -999.25   16.04680    -999.25    -999.25    0.26400    0.22000 2385.46850   15.35770 -142.35930   -7.38310   15.35770
 1450.00000  412.94310    -999.25  332.79720  332.79720   66.30990  169.62070 2358.28000    -999.25    0.17680    0.20570   15.08070  169.62070  267.97980  267.97980   79.93750    -999.25   80.00030   80.00030   15.08070   13.33350    -999.25    -999.25   13.33350    -999.25    -999.25    0.40510    0.36230 2359.23900   14.51580 -148.23540  -13.15490   14.51580
 1500.00000  365.96260    -999.25  327.64990  327.64990   93.61280  119.93830 1989.01000    -999.25    0.40060    0.42160   10.68230  119.93830  285.25450  285.25450   96.22230    -999.25   86.88740   86.88740   10.68230    9.39450    -999.25    -999.25    9.39450    -999.25    -999.25    0.32990    0.28610 2018.15910    9.52780 -144.17020   -8.98530    9.52780
 1550.00000  406.07680    -999.25  331.08380  331.08380   52.03050   53.96410 1960.63000    -999.25    0.41780    0.43820   19.21950   53.96410  257.75350  257.75350   87.69640    -999.25   83.80740   83.80740   19.21950   14.99520    -999.25    -999.25   14.99520    -999.25    -999.25    0.35980    0.31630 1948.93430   15.78640 -138.37560   -3.08630   15.78640
