~Version ---------------------------------------------------
VERS.      2.0 : CWLS log ASCII Standard -VERSION 2.0
WRAP.       NO : One line per depth step
CREA. 11/28/17 : LAS Creation Date
~Well ------------------------------------------------------
STRT.FT                            850.0 : START DEPTH
STOP.FT                           7900.0 : STOP DEPTH
STEP.FT                         50.00000 : STEP LENGTH
NULL.                            -999.25 : NULL VALUE
COMP.    MICHIGAN WISCONSIN PIPE LINE CO : COMPANY
WELL. MICH WIS PAN AM IOE TIMEU 7-6-65-4 : WELL
FLD .                                    : FIELD
LOC .                                    : LOCATION
CTRY.                             CANADA : COUNTRY
SRVC.                       Schlumberger : SERVICE COMPANY
DATE.                        24-Aug-1968 : LOGDATE
PROV.                            Alberta : PROVINCE
UWI .                   100070606504W500 : UNIQUE WELL ID
SLAT.WGS84                      54.59319 : SURFACE LATITUDE
SLON.WGS84                     -114.5883 : SURFACE LONGITUDE
~Curve Information -----------------------------------------
DEPT  .FT    : Depth Curve
CALSED.IN    : CALIPER FROM SONIC LOG
CALWS .IN    : CALIPER [CALSED]
CILDED.MMHO  : DEEP INDUCTION CONDUCTIVITY FROM RESISTIVITY LOG
CONDWS.MMHO  : CONDUCTIVITY [1000/DRESWS]
DRESWS.OHMM  : DEEP RESISTIVITY [1000/CILDED,IF ILDED<5,ILDED]
DTED  .US/F  : DELTA-T FROM SONIC LOG
DTWS  .US/F  : COMPRESSIONAL SONIC [DTED]
GRSED .GAPI  : GAMMA RAY FROM SONIC LOG
GRWS  .GAPI  : GAMMA RAY [GRSED]
ILDED .OHMM  : DEEP INDUCTION RESISTIVITY FROM RESISTIVITY LOG
SNED  .OHMM  : SHORT NORMAL RESISTIVITY FROM RESISTIVITY LOG
SPRED .MV    : SPONTANEOUS POTENTIAL FROM RESISTIVITY LOG
SPWS  .MV    : SPONTANEOUS POTENTIAL [BASELINE 0MV, SPRED]
SRESWS.OHMM  : SHALLOW RESISTIVITY [SNED]
~Params ----------------------------------------------------
PD  .                     GL : PERMANENT DATUM
EPD .FT                 2288 : ELEVATION PERMANENT DATUM
LMF .                     KB : LOG MEASURED FROM
DAPD.FT                   12 : FEET ABOVE PERMANENT DATUM
EKB .FT                 2300 : KELLY BUSHING
EGL .FT                 2288 : GROUND LEVEL
DATE.               08/24/68 : RUN DATE
RUN .                      1 : RUN NUMBER
DD  .FT                 7910 : DEPTH DRILLER
DL  .FT                 7911 : DEPTH LOGGER
BLI .FT                 7910 : BOTTOM LOG INTERVAL
TLI .FT                  820 : TOP LOG INTERVAL
CBD .FT                  820 : CASING BOTTOM DRILLER
CBL .FT                  820 : CASING BOTTOM LOGGER
BS  .IN                7.875 : BIT SIZE
BSD .FT                 7910 : BIT SIZE AT DEPTH
DFT .                    GEL : DRILLING FLUID TYPE
DFD .                    9.5 : DRILLING FLUID DENSITY
DFV .                     80 : DRILLING FLUID VISCOSITY
DFPH.                   10.5 : DRILLING FLUID PH
DFL .                    9.2 : DRILLING FLUID LOSS
RMS .OHMM               0.88 : RESISTIVITY MUD SAMPLE
MST .DEGF                 70 : MUD SAMPLE TEMPERATURE
RMF .OHMM                0.7 : RESISTIVITY MUD FILTRATE SAMPLE
MFST.DEGF                 70 : MUD FILTRATE SAMPLE TEMPERATURE
RMC .OHMM               1.26 : RESISTIVITY MUD CAKE
MCST.DEGF                 75 : MUD CAKE SAMPLE TEMPERATURE
RMB .OHMM               0.42 : RESISTIVITY MUD AT BHT
TCS .HRS                   3 : TIME CIRCULATED STOPPED
LUN .                   7501 : LOGGING UNIT NUMBER
LUL .                    EDM : LOGGING UNIT LOCATION
ENGI.               STUEHMER : RECORDING ENGINEER
WITN.                   PEEL : WITNESSED BY
CLNT.                A2DTECH : CLIENT CODE
ORIG.            2" 5" PRINT : ORIGIN OF DATA
UWI .       100070606504W500 : UNIQUE WELL ID
DICO. A2D Technologies, Inc. : DIGITIZING COMPANY
~Other -----------------------------------------------------
IEL-BHC LOG RUN
DATA VERIFY FROM SMALL SCALE @ TOP-2318',3912'-6362'
~ASCII -----------------------------------------------------
  850.00000    -999.25    -999.25  231.59440  231.59440    4.31870    -999.25    -999.25    -999.25    -999.25    4.33380    4.14940  -76.36370   -3.65980    4.14940
  900.00000    -999.25    -999.25  276.32670  276.32670    3.61890    -999.25    -999.25    -999.25    -999.25    3.61950    3.41380  -74.45590   -1.75200    3.41380
  950.00000    -999.25    -999.25   92.60950   93.81640   10.65930    -999.25    -999.25    -999.25    -999.25   10.65930    9.76240  -84.57880  -11.45600    9.76240
 1000.00000    -999.25    -999.25  106.84410  106.83870    9.35990    -999.25    -999.25    -999.25    -999.25    9.35990    8.15940  -84.42540  -10.65280    8.15940
 1050.00000    -999.25    -999.25  220.87630  220.87630    4.52740    -999.25    -999.25    -999.25    -999.25    4.41160    3.66320  -80.91180   -6.48950    3.66320
 1100.00000    -999.25    -999.25  211.31280  211.31280    4.73260    -999.25    -999.25    -999.25    -999.25    4.46250    3.69650  -78.93540   -3.85900    3.69650
 1150.00000    -999.25    -999.25  234.05180  234.05180    4.27260    -999.25    -999.25    -999.25    -999.25    4.27760    3.38220  -77.77070   -2.04460    3.38220
 1200.00000    -999.25    -999.25  229.58890  229.58890    4.35580    -999.25    -999.25    -999.25    -999.25    4.35480    3.65610  -77.87590   -1.68580    3.65610
 1250.00000    -999.25    -999.25  159.84760  164.22790    6.08910    -999.25    -999.25    -999.25    -999.25    6.08910    4.62770  -79.28770   -2.71790    4.62770
 1300.00000    -999.25    -999.25  231.64830  231.64830    4.31690    -999.25    -999.25    -999.25    -999.25    4.31490    3.64890  -79.18800   -2.23850    3.64890
 1350.00000    -999.25    -999.25  218.30960  218.30960    4.58070    -999.25    -999.25    -999.25    -999.25    4.57950    3.33980  -82.02590   -4.69420    3.33980
 1400.00000    -999.25    -999.25  223.94060  223.94060    4.46550    -999.25    -999.25    -999.25    -999.25    4.46150    3.57010  -84.51860   -6.80710    3.57010
 1450.00000    -999.25    -999.25  161.77950  168.18080    5.94670    -999.25    -999.25    -999.25    -999.25    5.94670    6.72310  -79.55320   -1.42450    6.72310
 1500.00000    -999.25    -999.25  179.18970  186.90190    5.35040    -999.25    -999.25    -999.25    -999.25    5.35040    5.02240  -82.33310   -3.29330    5.02240
 1550.00000    -999.25    -999.25  165.11220  173.84650    5.75220    -999.25    -999.25    -999.25    -999.25    5.75220    4.80870  -84.66960   -4.71870    4.80870
 1600.00000    -999.25    -999.25  206.73190  206.73190    4.83750    -999.25    -999.25    -999.25    -999.25    4.83660    3.48730  -84.51350   -3.64550    3.48730
 1650.00000    -999.25    -999.25  142.00910  142.01320    7.04160    -999.25    -999.25    -999.25    -999.25    7.04160    5.88460  -86.29020   -4.51110    5.88460
 1700.00000    -999.25    -999.25  153.32230  153.32160    6.52270    -999.25    -999.25    -999.25    -999.25    6.52270    4.84950  -85.59780   -2.90160    4.84950
 1750.00000    -999.25    -999.25  137.38250  138.52910    7.21870    -999.25    -999.25    -999.25    -999.25    7.21870    5.30690  -87.03830   -3.83010    5.30690
 1800.00000    -999.25    -999.25  188.57340  190.36020    5.25320    -999.25    -999.25    -999.25    -999.25    5.25320    3.93760  -84.65160   -2.62400    3.93760
 1850.00000    -999.25    -999.25  184.36870  188.71650    5.29920    -999.25    -999.25    -999.25    -999.25    5.29920    3.82720  -86.46890   -5.62960    3.82720
 1900.00000    -999.25    -999.25  144.82840  145.70250    6.86330    -999.25    -999.25    -999.25    -999.25    6.86330    5.00050  -85.44370   -5.78500    5.00050
 1950.00000    -999.25    -999.25  190.57310  190.79060    5.24130    -999.25    -999.25    -999.25    -999.25    5.24130    4.49550  -82.83270   -4.36240    4.49550
 2000.00000    -999.25    -999.25  177.76970  168.62840    5.93020    -999.25    -999.25    -999.25    -999.25    5.93020    5.41480  -81.59190   -4.30220    5.41480
 2050.00000    -999.25    -999.25  132.87130  132.85510    7.52700    -999.25    -999.25    -999.25    -999.25    7.52700    8.49300  -79.97690   -3.86780    8.49300
 2100.00000    -999.25    -999.25  152.07950  152.10140    6.57460    -999.25    -999.25    -999.25    -999.25    6.57460    8.90220  -78.77370   -2.64770    8.90220
 2150.00000    -999.25    -999.25  185.75350  183.60410    5.44650    -999.25    -999.25    -999.25    -999.25    5.44650    4.95910  -80.59180   -4.22630    4.95910
 2200.00000    -999.25    -999.25  223.80870  223.80870    4.47000    -999.25    -999.25    -999.25    -999.25    4.46510    4.22800  -81.54160   -4.93510    4.22800
 2250.00000    -999.25    -999.25  244.97690  244.97690    4.08200    -999.25    -999.25    -999.25    -999.25    4.05870    3.56610  -81.70990   -4.86390    3.56610
 2300.00000    -999.25    -999.25  210.42550  210.42550    4.75230    -999.25    -999.25    -999.25    -999.25    4.75170    4.21960  -82.57710   -6.15120    4.21960
 2350.00000    -999.25    -999.25  206.83000  206.83000    4.83520    -999.25    -999.25    -999.25    -999.25    4.41250    5.25090  -80.58740   -5.69100    5.25090
 2400.00000   11.51790   11.51790  415.19780  415.19780    2.40850    -999.25    -999.25  111.44170  111.44170    2.41200    3.15320  -76.11990   -2.46300    3.15320
 2450.00000   13.07660   13.07660  442.47570  442.47570    2.26000    -999.25    -999.25   79.04040   79.04040    2.80630    2.32150  -76.20310   -3.00470    2.32150
 2500.00000   11.85530   11.85530  317.35260  317.35260    3.15110  107.87050  107.87050   80.79780   80.79780    3.32310    2.74810  -76.56020   -3.81740    2.74810
 2550.00000   11.53030   11.53030  324.38190  324.38190    3.08280  106.85120  106.85120   81.97650   81.97650    3.13040    2.67880  -74.99770   -2.71040    2.67880
 2600.00000   11.96670   11.96670  337.95600  337.95600    2.95920  105.98120  105.98120   70.77800   70.77800    3.17220    3.24160  -75.05310   -3.22440    3.24160
 2650.00000   15.00000   15.00000  570.70160  570.70160    1.75220  163.46350  163.46350   50.25440   50.25440    2.09410    1.49120  -75.75980   -2.47130    1.49120
 2700.00000    8.97020    8.97020  216.58570  216.58570    4.61710   95.86400   95.86400   40.92050   40.92050    4.21300    9.30180 -122.37880  -46.14120    9.30180
 2750.00000    9.11370    9.11370  198.53060  198.53060    5.03700   82.97580   82.97580   45.16590   45.16590    4.72070   13.74120 -108.35540  -29.18810   13.74120
 2800.00000    9.30800    9.30800  191.23900  198.46390    5.03870   89.36250   89.36250   62.85190   62.85190    5.03870    9.40450 -108.25870  -27.15090    9.40450
 2850.00000    9.95960    9.95960  232.47860  232.47860    4.30150   90.20120   90.20120   73.66370   73.66370    3.98060    5.54750  -87.78860   -7.33540    5.54750
 2900.00000    8.84110    8.84110  203.20490  203.20490    4.92110   90.66680   90.66680   53.09900   53.09900    4.56770   11.59110 -129.27570  -49.47300   11.59110
 2950.00000   10.53190   10.53190  160.36620  161.81170    6.18130  106.36930  106.36930   69.58210   69.58210    6.18130    8.43520  -86.39560   -7.24750    8.43520
 3000.00000    9.00830    9.00830  371.53080  371.53080    2.69160   93.31040   93.31040   57.94490   57.94490    2.92720    6.24280 -121.25560  -42.75800    6.24280
 3050.00000   10.65690   10.65690  242.88730  242.88730    4.11710   84.80100   84.80100   62.07790   62.07790    4.11960    5.82910 -107.73020  -29.88300    5.82910
 3100.00000   11.53200   11.53200  199.83200  199.83200    5.00510   96.38640   96.38640   90.17850   90.17850    4.73560    5.50920  -83.20690   -6.01440    5.50920
 3150.00000   14.97810   14.97810  458.85920  458.85920    2.17930   92.20480   92.20480   61.64770   61.64770    2.18310    2.71690  -77.43490   -0.22740    2.71690
 3200.00000   12.67980   12.67980  218.52960  218.52960    4.58550   87.09390   87.09390   75.75190   75.75190    4.54170    4.90250  -79.09850   -1.58530    4.90250
 3250.00000   15.00000   15.00000  466.96050  466.96050    2.14150  136.81760  136.81760   53.25280   53.25280    2.39870    2.87540  -86.46130   -8.64440    2.87540
