~Version ---------------------------------------------------
VERS.      2.0 : CWLS log ASCII Standard -VERSION 2.0
WRAP.       NO : One line per depth step
CREA. 11/17/17 : LAS Creation Date
~Well ------------------------------------------------------
STRT.FT                            950.0 : START DEPTH
STOP.FT                           9400.0 : STOP DEPTH
STEP.FT                         50.00000 : STEP LENGTH
NULL.                            -999.25 : NULL VALUE
COMP.       CANADIAN HOMESTEAD OILS LTD. : COMPANY
WELL. HOMESTEAD ET AL SWEATH 10-34-68-19 : WELL
FLD .                                    : FIELD
LOC .                                    : LOCATION
CTRY.                             CANADA : COUNTRY
SRVC.                       Schlumberger : SERVICE COMPANY
DATE.                        03-Mar-1975 : LOGDATE
PROV.                            Alberta : PROVINCE
UWI .                   100103406819W500 : UNIQUE WELL ID
SLAT.WGS84                      54.93303 : SURFACE LATITUDE
SLON.WGS84                     -116.8066 : SURFACE LONGITUDE
~Curve Information -----------------------------------------
DEPT    .FT    : Depth Curve
CALSED  .IN    : CALIPER FROM SONIC LOG
CALWS   .IN    : CALIEPR [CALSED]
CONDWS  .MMHO  : CONDUCTIVITY [1000/DRESWS]
DRESWS  .OHMM  : DEEP RESISTIVITY [ILDED]
DTED    .US/F  : DELTA TIME FROM SONIC LOG
DTWS    .US/F  : COMPRESSIONAL SONIC [DTED]
GRSED   .GAPI  : GAMMA RAY FROM SONIC LOG
GRWS    .GAPI  : GAMMA RAY [GRSED]
ILDED   .OHMM  : DEEP INDUCTION RESISTIVITY FROM RESISTIVITY LOG
ILMED   .OHMM  : MEDIUM INDUCTION RESISTIVITY FROM RESISTIVITY LOG
LL8ED   .OHMM  : 8 INCH LATEROLOG RESISTIVITY FROM RESISTIVITY LOG
MRESWS  .OHMM  : MEDIUM RESISTIVITY [ILMED]
PORALSED.V/V   : SONIC POROSITY LIMESTONE [DTM=47.6, DTF=189] FROM SONIC LOG
SPOLSWS .V/V   : SONIC POROSITY LIMESTONE [PORALSED]
SPRED   .MV    : SPONTANEOUS POTENTIAL FROM RESISTIVITY LOG
SPWS    .MV    : SPONTANEOUS POTENTIAL [BASELINE 0 MV, SPRED]
SRESWS  .OHMM  : SHALLOW RESISTIVITY [LL8ED]
~Params ----------------------------------------------------
PD  .                     GL : PERMANENT DATUM
EPD .FT               2656.5 : ELEVATION PERMANENT DATUM
LMF .                     KB : LOG MEASURED FROM
DAPD.FT                 17.2 : FEET ABOVE PERMANENT DATUM
EKB .FT               2673.7 : KELLY BUSHING
EGL .FT               2656.5 : GROUND LEVEL
DATE.               03/03/75 : RUN DATE
RUN .                      1 : RUN NUMBER
DD  .FT                 9435 : DEPTH DRILLER
DL  .FT                 9447 : DEPTH LOGGER
BLI .FT                 9441 : BOTTOM LOG INTERVAL
TLI .FT                  970 : TOP LOG INTERVAL
CS  .IN                8.625 : CASING SIZE
CBD .FT                  970 : CASING BOTTOM DRILLER
CBL .FT                  970 : CASING BOTTOM LOGGER
BS  .IN                7.875 : BIT SIZE
BSD .FT                 9435 : BIT SIZE AT DEPTH
DFT .               GEL CHEM : DRILLING FLUID TYPE
DFD .                    9.1 : DRILLING FLUID DENSITY
DFV .                    100 : DRILLING FLUID VISCOSITY
DFPH.                    9.5 : DRILLING FLUID PH
DFL .                     12 : DRILLING FLUID LOSS
MSS .               FLOWLINE : MUD SAMPLE SOURCE
RMS .OHMM               2.56 : RESISTIVITY MUD SAMPLE
MST .DEGF                 66 : MUD SAMPLE TEMPERATURE
RMF .OHMM               2.28 : RESISTIVITY MUD FILTRATE SAMPLE
MFST.DEGF                 68 : MUD FILTRATE SAMPLE TEMPERATURE
RMC .OHMM               3.05 : RESISTIVITY MUD CAKE
MCST.DEGF                 67 : MUD CAKE SAMPLE TEMPERATURE
RMB .OHMM               0.76 : RESISTIVITY MUD AT BHT
TCS .HRS                 4.5 : TIME CIRCULATED STOPPED
LUN .                   7730 : LOGGING UNIT NUMBER
LUL .                    EDM : LOGGING UNIT LOCATION
ENGI.                 SMILEY : RECORDING ENGINEER
WITN.                 KENNEY : WITNESSED BY
CLNT.                A2DTECH : CLIENT CODE
ORIG.            2" 5" PRINT : ORIGIN OF DATA
UWI .       100103406819W500 : UNIQUE WELL ID
DICO. A2D Technologies, Inc. : DIGITIZING COMPANY
~Other -----------------------------------------------------
DIL-BCS LOG RUN.
SEVERE SP DRIFT DOWNHOLE. SEVERAL ELECTRICAL BASELINE SHIFTS.
SP BASELINE QUESTIONABLE
~ASCII -----------------------------------------------------
# ...
 3000.00000    9.16030    9.16030  163.70630    6.10850  108.65540  108.65540  141.84180  141.84180    6.10850    6.60980    8.46950    6.60980    0.43160    0.43160  120.09320    0.58020    8.46950
 3050.00000    8.75550    8.75550  151.02560    6.62140  106.15080  106.15080  159.70870  159.70870    6.62140    6.92420    9.76180    6.92420    0.41150    0.41150  120.59230    0.22220    9.76180
 3100.00000    8.64420    8.64420  146.80620    6.81170  110.03360  110.03360  161.93000  161.93000    6.81170    7.10150   10.33680    7.10150    0.44130    0.44130  120.09750   -1.14170   10.33680
 3150.00000    9.26900    9.26900  143.18290    6.98620   87.21720   87.21720   98.45090   98.45090    6.98620    7.45500    8.10640    7.45500    0.25800    0.25800  116.39120   -5.71150    8.10640
 3200.00000    9.52020    9.52020  220.92120    4.52650  100.98470  100.98470  112.88450  112.88450    4.52650    4.77980    5.58480    4.77980    0.36490    0.36490  121.35780   -1.61400    5.58480
 3250.00000    9.53810    9.53810  173.37030    5.76800   93.25010   93.25010  114.40660  114.40660    5.76800    6.07670    6.50150    6.07670    0.31030    0.31030  121.22520   -2.61010    6.50150
 3300.00000    9.62810    9.62810  206.71940    4.83780   94.15600   94.15600  117.48460  117.48460    4.83780    5.11450    5.49170    5.11450    0.31080    0.31080  124.13980   -0.55900    5.49170
 3350.00000    8.83700    8.83700  173.63820    5.75910   92.77020   92.77020  120.12020  120.12020    5.75910    6.15200    6.49360    6.15200    0.29970    0.29970  122.24360   -3.32430    6.49360
 3400.00000    9.33040    9.33040  171.97150    5.81620   97.17050   97.17050  113.25070  113.25070    5.81620    6.55630    7.24460    6.55630    0.33920    0.33920  123.65950   -2.77190    7.24460
 3450.00000    8.56020    8.56020  209.86360    4.76500   88.44440   88.44440  110.29740  110.29740    4.76500    5.02940    6.15140    5.02940    0.28400    0.28400  123.49050   -3.81000    6.15140
 3500.00000    9.26630    9.26630  207.24530    4.82520   91.39600   91.39600  108.36690  108.36690    4.82520    5.08340    6.05390    5.08340    0.29720    0.29720  124.97850   -3.18550    6.05390
 3550.00000   10.24510   10.24510  219.87700    4.54800   96.51970   96.51970  124.77810  124.77810    4.54800    4.79260    5.84320    4.79260    0.33400    0.33400  125.03470   -3.99270    5.84320
 3600.00000   10.34180   10.34180  387.64200    2.57970  111.06410  111.06410  140.46340  140.46340    2.57970    2.68840    3.77270    2.68840    0.44710    0.44710  128.38730   -1.50930    3.77270
 3650.00000   10.51150   10.51150  451.35940    2.21550  106.71580  106.71580  109.76440  109.76440    2.21550    2.33510    3.24710    2.33510    0.41810    0.41810  126.96730   -3.10630    3.24710
 3700.00000    8.91570    8.91570  429.51640    2.32820  104.70900  104.70900  119.82280  119.82280    2.32820    2.45440    3.45730    2.45440    0.40460    0.40460  127.86010   -2.24240    3.45730
 3750.00000    9.32340    9.32340  275.12590    3.63470   95.14360   95.14360  101.67440  101.67440    3.63470    3.84080    4.60460    3.84080    0.32940    0.32940  126.65880   -3.47240    4.60460
 3800.00000   10.84080   10.84080  240.72920    4.15530   90.40790   90.40790   98.66660   98.66660    4.15530    4.43290    4.87740    4.43290    0.27810    0.27810  125.08130   -5.07860    4.87740
 3850.00000    9.03740    9.03740  142.87140    6.99930   80.01250   80.01250   78.67980   78.67980    6.99930    7.66420   10.34380    7.66420    0.20910    0.20910  124.03170   -6.15700   10.34380
 3900.00000    8.73200    8.73200  260.83100    3.83420   92.58710   92.58710   73.63010   73.63010    3.83420    5.48490    9.64940    5.48490    0.30330    0.30330   86.42610  -43.92990    9.64940
 3950.00000    8.96080    8.96080  139.94230    7.14580  103.86380  103.86380   85.38790   85.38790    7.14580    9.57060   12.98400    9.57060    0.43420    0.43420  123.89730   -6.84610   12.98400
 4000.00000    7.59620    7.59620  175.79940    5.68830   86.78590   86.78590   55.09370   55.09370    5.68830    9.10040   15.48700    9.10040    0.25130    0.25130   78.97680  -52.15150   15.48700
 4050.00000    9.36410    9.36410  196.47970    5.09280   79.93120   79.93120   70.54100   70.54100    5.09280    6.05770   10.23430    6.05770    0.20800    0.20800  101.27680  -30.23640   10.23430
 4100.00000    7.67190    7.67190  157.55230    6.34710   84.42120   84.42120   47.39600   47.39600    6.34710    9.49900   25.38680    9.49900    0.24200    0.24200   69.75640  -62.14420   25.38680
 4150.00000    7.66010    7.66010  183.17600    5.45940   84.65880   84.65880   48.76600   48.76600    5.45940    9.72610   22.33190    9.72610    0.23680    0.23680   59.42560  -72.85980   22.33190
 4200.00000    9.28060    9.28060  174.78240    5.72140   85.37370   85.37370  101.69920  101.69920    5.72140    6.07810    7.40820    6.07810    0.25190    0.25190  129.91630   -2.75650    7.40820
 4250.00000    9.03060    9.03060  224.94150    4.44560   84.58080   84.58080   68.45340   68.45340    4.44560    6.55310   15.15220    6.55310    0.24230    0.24230   83.04130  -50.01640   15.15220
 4300.00000    9.13030    9.13030  172.70900    5.79020   78.32560   78.32560   67.86720   67.86720    5.79020    6.35780    8.17910    6.35780    0.18510    0.18510  117.43870  -16.00390    8.17910
 4350.00000    9.41280    9.41280  198.32610    5.04220   82.57280   82.57280   60.84200   60.84200    5.04220    6.79680   13.56480    6.79680    0.22990    0.22990   98.68940  -35.14060   13.56480
 4400.00000    7.50190    7.50190  268.12400    3.73070   88.46990   88.46990   63.92650   63.92650    3.73070    5.59930   14.59140    5.59930    0.27100    0.27100   61.47610  -72.73880   14.59140
 4450.00000    8.98750    8.98750  202.48240    4.93870   86.37830   86.37830   88.11580   88.11580    4.93870    6.04140    8.10660    6.04140    0.25330    0.25330  115.21890  -19.38340    8.10660
 4500.00000    9.67510    9.67510  252.92760    3.95370   84.37030   84.37030   72.33740   72.33740    3.95370    4.88130    9.91280    4.88130    0.23770    0.23770   97.93600  -37.05110    9.91280
 4550.00000    9.03280    9.03280  186.53660    5.36100   85.31700   85.31700   88.26780   88.26780    5.36100    5.85400    6.93040    5.85400    0.24330    0.24330  129.88540   -5.48660    6.93040
 4600.00000    7.48870    7.48870  184.56310    5.41820   78.20120   78.20120   55.22770   55.22770    5.41820    9.38780   22.83830    9.38780    0.19110    0.19110   64.46400  -71.29540   22.83830
 4650.00000    8.21320    8.21320  200.25690    4.99400   81.91820   81.91820   79.83140   79.83140    4.99400    6.63400   12.24440    6.63400    0.22230    0.22230   99.07800  -37.06630   12.24440
 4700.00000    8.76180    8.76180  194.04290    5.15350   85.11140   85.11140   96.20130   96.20130    5.15350    5.58570    7.28300    5.58570    0.24570    0.24570  131.37630   -5.15540    7.28300
 4750.00000    9.18210    9.18210  217.57100    4.59620   90.37110   90.37110   97.53170   97.53170    4.59620    5.17040    5.53260    5.17040    0.28560    0.28560  132.54290   -4.37360    5.53260
 4800.00000   10.03480   10.03480  218.59900    4.57480   88.38750   88.38750   97.71400   97.71400    4.57480    5.04220    6.18990    5.04220    0.27320    0.27320  133.33650   -3.23980    6.18990
 4850.00000    8.64890    8.64890  158.98250    6.29000   78.30960   78.30960   71.26740   71.26740    6.29000    8.22870   16.09740    8.22870    0.19530    0.19530  102.56420  -33.34290   16.09740
 4900.00000    7.83850    7.83850  131.60280    7.62670   69.47370   69.47370   43.40190   43.40190    7.62670   11.86880   44.66250   11.86880    0.14150    0.14150   98.60240  -36.63990   44.66250
 4950.00000    8.56650    8.56650  107.40680    9.31040   77.31830   77.31830  107.31470  107.31470    9.31040   10.28450   12.74940   10.28450    0.18440    0.18440  132.84460   -4.88880   12.74940
 5000.00000    8.97240    8.97240  157.32920    6.35610   78.09610   78.09610   52.38470   52.38470    6.35610    7.11950    9.49040    7.11950    0.18690    0.18690  115.95710  -27.43220    9.49040
