~Version ---------------------------------------------------
VERS.      2.0 : CWLS log ASCII Standard -VERSION 2.0
WRAP.       NO : One line per depth step
CREA. 11/17/17 : LAS Creation Date
~Well ------------------------------------------------------
STRT.FT                        950.0 : START DEPTH
STOP.FT                       9050.0 : STOP DEPTH
STEP.FT                     50.00000 : STEP LENGTH
NULL.                        -999.25 : NULL VALUE
COMP.    SAMEDAN OIL OF CANADA, INC. : COMPANY
WELL. SAMEDAN ET AL SUNSET 1-1-70-20 : WELL
FLD .                                : FIELD
LOC .                                : LOCATION
CTRY.                         CANADA : COUNTRY
SRVC.                   Schlumberger : SERVICE COMPANY
DATE.                    01-Apr-1971 : LOGDATE
PROV.                        Alberta : PROVINCE
UWI .               100010107020W500 : UNIQUE WELL ID
SLAT.WGS84                  55.02795 : SURFACE LATITUDE
SLON.WGS84                 -116.9023 : SURFACE LONGITUDE
~Curve Information -----------------------------------------
DEPT  .FT    : Depth Curve
CALSED.IN    : CALIPER FROM SONIC LOG
CALWS .IN    : CALIPER [CALSED]
CONDWS.MMHO  : CONDUCTIVITY [1000/DRESWS]
DRESWS.OHMM  : DEEP RESISTIVITY [ILDED]
DTED  .US/F  : DELTA TIME FROM SONIC LOG
DTWS  .US/F  : COMPRESSIONAL SONIC [DTED]
GRSED .GAPI  : GAMMA RAY FROM SONIC LOG
GRWS  .GAPI  : GAMMA RAY [GRSED]
ILDED .OHMM  : DEEP INDUCTION FROM RESISTIVITY LOG
ILMED .OHMM  : MEDIUM INDUCTION FROM RESISTIVITY LOG
LL8ED .OHMM  : 8 INCH LATEROLOG RESISTIVITY FROM RESISTIVITY LOG
MRESWS.OHMM  : MEDIUM RESISTIVITY [ILMED]
SPRED .MV    : SPONTANEOUS POTENTIAL FROM RESISTIVITY LOG
SPWS  .MV    : SPONTANEOUS POTENTIAL [BASELINE 0 MV, SPRED]
SRESWS.OHMM  : SHALLOW RESISTIVITY [LL8ED]
~Params ----------------------------------------------------
PD  .                     GL : PERMANENT DATUM
EPD .FT               2286.6 : ELEVATION PERMANENT DATUM
LMF .                     KB : LOG MEASURED FROM
DAPD.FT                 13.5 : FEET ABOVE PERMANENT DATUM
EKB .FT               2300.1 : KELLY BUSHING
EGL .FT               2286.6 : GROUND LEVEL
DATE.               04/01/71 : RUN DATE
RUN .                      1 : RUN NUMBER
DD  .FT                 9080 : DEPTH DRILLER
DL  .FT                 9075 : DEPTH LOGGER
BLI .FT                 9069 : BOTTOM LOG INTERVAL
TLI .FT                  902 : TOP LOG INTERVAL
CBD .FT                  902 : CASING BOTTOM DRILLER
CBL .FT                  902 : CASING BOTTOM LOGGER
BS  .IN                7.875 : BIT SIZE
BSD .FT                 9080 : BIT SIZE AT DEPTH
DFT .               GEL CHEM : DRILLING FLUID TYPE
DFD .                    9.4 : DRILLING FLUID DENSITY
DFV .                     93 : DRILLING FLUID VISCOSITY
DFPH.                      9 : DRILLING FLUID PH
DFL .                    8.6 : DRILLING FLUID LOSS
RMS .OHMM               2.92 : RESISTIVITY MUD SAMPLE
MST .DEGF                 61 : MUD SAMPLE TEMPERATURE
RMF .OHMM               2.52 : RESISTIVITY MUD FILTRATE SAMPLE
MFST.DEGF                 60 : MUD FILTRATE SAMPLE TEMPERATURE
RMC .OHMM               2.91 : RESISTIVITY MUD CAKE
MCST.DEGF                 60 : MUD CAKE SAMPLE TEMPERATURE
RMB .OHMM                1.0 : RESISTIVITY MUD AT BHT
TCS .HRS                   3 : TIME CIRCULATED STOPPED
LUN .                   7004 : LOGGING UNIT NUMBER
LUL .                    EDM : LOGGING UNIT LOCATION
ENGI.                 BUFTON : RECORDING ENGINEER
WITN.             MASON GOSS : WITNESSED BY
CLNT.                A2DTECH : CLIENT CODE
ORIG.            2" 5" PRINT : ORIGIN OF DATA
UWI .       100010107020W500 : UNIQUE WELL ID
DICO. A2D Technologies, Inc. : DIGITIZING COMPANY
~Other -----------------------------------------------------
DIL-BCS LOG RUN
ALL CURVES HAVE BEEN VERIFIED FROM 2" SECTION @TOP-2990'
~ASCII -----------------------------------------------------
# ...
 5550.00000    9.90700    9.90700  157.25990    6.35890   74.48820   74.48820   72.41610   72.41610    6.35890    7.36330    8.65940    7.36330  -65.19520  -22.56720    8.65940
 5600.00000    8.40750    8.40750  217.92190    4.58880   59.50270   59.50270   17.37600   17.37600    4.58880    7.34990   63.25360    7.34990 -175.72460 -133.57530   63.25360
 5650.00000    8.98230    8.98230  103.11830    9.69760   54.32460   54.32460   15.98000   15.98000    9.69760   14.72940   70.98370   14.72940 -152.91960 -111.24910   70.98370
 5700.00000    8.62260    8.62260   63.11510   15.86990   54.45970   54.45970   13.33370   13.33370   15.86990   21.86800   92.10910   21.86800 -162.68270 -121.49330   92.10910
 5750.00000    8.69350    8.69350   62.34450   16.03990   56.62730   56.62730   12.40950   12.40950   16.03990   16.04470   62.84790   16.04470 -135.19620  -94.48310   62.84790
 5800.00000    9.24120    9.24120  267.81650    3.73390   65.07070   65.07070   55.67120   55.67120    3.73390    4.17940    7.41850    4.17940  -96.21910  -55.98470    7.41850
 5850.00000    8.88230    8.88230  197.40220    5.06580   60.78940   60.78940   66.67430   66.67430    5.06580    6.64420   19.16600    6.64420  -72.85090  -33.09520   19.16600
 5900.00000    8.18490    8.18490  107.07670    9.33910   63.52590   63.52590   46.68720   46.68720    9.33910   10.01140   15.61230   10.01140  -61.08650  -21.80960   15.61230
 5950.00000    7.72650    7.72650   26.33220   37.98080   57.69130   57.69130   36.43730   36.43730   37.98080   45.32180   46.19500   45.32180  -51.99240  -13.19650   46.19500
 6000.00000    7.80840    7.80840   11.74660   85.13080   53.57720   53.57720   22.28170   22.28170   85.13080  101.88440  192.08010  101.88440  -52.41920  -14.09970  192.08010
 6050.00000    8.02630    8.02630   47.59800   21.00930   58.72760   58.72760   33.64760   33.64760   21.00930   24.22050   34.73740   24.22050  -68.86510  -31.02430   34.73740
 6100.00000    7.86980    7.86980   36.37250   27.49330   51.47860   51.47860   38.94140   38.94140   27.49330   28.89350   34.24730   28.89350  -56.03170  -18.66970   34.24730
 6150.00000    7.87210    7.87210   22.50160   44.44130   55.91950   55.91950   26.50140   26.50140   44.44130   46.79480   56.33360   46.79480  -65.54950  -28.66620   56.33360
 6200.00000    7.67120    7.67120   15.01940   66.58120   56.27480   56.27480   27.02930   27.02930   66.58120   69.82610   75.62880   69.82610  -63.89050  -27.48820   75.62880
 6250.00000    7.88600    7.88600   21.11800   47.35300   56.99090   56.99090   36.59010   36.59010   47.35300   55.81480   71.35110   55.81480  -47.59350  -11.66760   71.35110
 6300.00000    7.71810    7.71810   14.91880   67.02940   56.01640   56.01640   30.84230   30.84230   67.02940   81.72860   95.06490   81.72860  -47.73670  -12.28950   95.06490
 6350.00000    8.09180    8.09180   49.89850   20.04070   62.29600   62.29600   56.68250   56.68250   20.04070   21.91990   25.33350   21.91990  -38.76300   -3.79460   25.33350
 6400.00000    8.23690    8.23690   43.69410   22.88640   64.45740   64.45740   59.27140   59.27140   22.88640   25.49950   31.06270   25.49950  -38.39870   -3.90900   31.06270
 6450.00000    8.99270    8.99270  107.50710    9.30250   66.90410   66.90410   89.01480   89.01480    9.30250   10.03050   10.39280   10.03050  -51.66880  -16.39730   10.39280
 6500.00000    8.24850    8.24850    5.82550  171.65770   50.82920   50.82920   18.46810   18.46810  171.65770  184.87950  238.90060  184.87950  -72.83890  -36.52050  238.90060
 6550.00000    8.11450    8.11450    4.61670  216.60530   51.35700   51.35700   15.24990   15.24990  216.60530  270.72730  166.32710  270.72730 -119.80900  -82.43850  166.32710
 6600.00000    8.28090    8.28090    0.64130 1559.31480   50.72620   50.72620   16.50070   16.50070 1559.31480 1655.19870 1249.41330 1655.19870  -96.45400  -58.03130 1249.41330
 6650.00000    8.18840    8.18840    0.63560 1573.31950   49.98790   49.98790   14.47820   14.47820 1573.31950 1659.57340 1546.07460 1659.57340 -128.08470  -88.60990 1546.07460
 6700.00000    8.19710    8.19710    3.29100  304.09980   50.25410   50.25410   13.62790   13.62790  304.09980  434.16110  289.62470  434.16110 -103.42160  -62.88940  289.62470
 6750.00000    8.34400    8.34400   13.59070   73.57990   52.45180   52.45180   13.63550   13.63550   73.57990   96.68220  140.69910   96.68220 -146.64690 -105.06790  140.69910
 6800.00000    8.21100    8.21100    4.75880  210.13620   49.45310   49.45310   11.19940   11.19940  210.13620 1263.99570  829.85240 1263.99570 -138.59810  -95.96690  829.85240
 6850.00000    8.27390    8.27390   33.83640   29.55400   55.13720   55.13720   12.20090   12.20090   29.55400   30.59040  120.01300   30.59040 -146.32180 -102.63850  120.01300
 6900.00000    8.12120    8.12120    0.61580 1623.80850   49.37840   49.37840   10.61820   10.61820 1623.80850 1696.64090 1387.38840 1696.64090 -125.84170  -81.10630 1387.38840
 6950.00000    7.92080    7.92080   14.85970   67.33070   51.65410   51.65410   14.63830   14.63830   67.33070   71.47120   78.59780   71.47120 -136.79570  -91.00290   78.59780
 7000.00000    7.86390    7.86390    0.63400 1577.36170   49.47850   49.47850   15.98460   15.98460 1577.36170 1716.42320 1382.96730 1716.42320 -116.28690  -69.44720 1382.96730
 7050.00000    8.22600    8.22600    1.56450  639.18510   49.80800   49.80800   10.17600   10.17600  639.18510 1634.63790  499.94300 1634.63790 -126.98180  -79.09000  499.94300
 7100.00000    8.22530    8.22530    0.61260 1632.43370   49.86140   49.86140    9.85930    9.85930 1632.43370 1712.84250  525.02420 1712.84250 -133.89400  -84.95010  525.02420
 7150.00000    8.16460    8.16460    9.66460  103.46990   49.96740   49.96740   16.90410   16.90410  103.46990  169.84320  345.41770  169.84320 -154.12130 -104.12530  345.41770
 7200.00000    8.12340    8.12340   11.75750   85.64100   49.45780   49.45780   16.51920   16.51920   85.64100  139.02090  707.55870  139.02090 -169.17600 -118.12250  707.55870
 7250.00000    7.72240    7.72240   16.96960   58.92900   49.35390   49.35390   20.45270   20.45270   58.92900   87.24200  105.29090   87.24200 -117.54200  -65.44170  105.29090
 7300.00000    7.57610    7.57610   29.28890   34.14260   49.51270   49.51270   20.33690   20.33690   34.14260   47.35250  204.47630   47.35250 -149.71870  -96.56630  204.47630
 7350.00000    7.74250    7.74250   15.52410   64.41590   50.69470   50.69470   16.18320   16.18320   64.41590   75.19870  181.51740   75.19870 -157.06460 -102.86000  181.51740
 7400.00000    7.63170    7.63170   21.89490   45.67270   50.04120   50.04120   20.11870   20.11870   45.67270   64.73660   73.72000   64.73660 -120.16200  -64.90530   73.72000
 7450.00000    7.65920    7.65920   13.24510   75.69940   52.03270   52.03270   26.69470   26.69470   75.69940   87.43630  163.42780   87.43630  -74.08610  -17.77200  163.42780
 7500.00000    7.68700    7.68700   88.51360   11.29770   61.69990   61.69990   59.55360   59.55360   11.29770   13.08690   19.55610   13.08690  -59.71320   -2.35230   19.55610
 7550.00000    7.18890    7.18890   10.38660   96.27790   52.42470   52.42470   20.62330   20.62330   96.27790  115.47740  156.93700  115.47740  -80.94590  -24.88980  156.93700
 7600.00000    7.27880    7.27880   40.16050   24.90010   55.25010   55.25010   35.58090   35.58090   24.90010   30.27360   47.60920   30.27360  -60.83140   -6.20420   47.60920
 7650.00000    7.96090    7.96090  176.68470    5.65980   71.72690   71.72690   77.55400   77.55400    5.65980    6.48320    8.38670    6.48320  -79.27640  -26.07810    8.38670
 7700.00000    8.12070    8.12070  168.82410    5.92740   72.48730   72.48730   79.25440   79.25440    5.92740    6.25510    7.54430    6.25510  -78.69710  -26.93490    7.54430
 7750.00000    8.12060    8.12060  213.88090    4.67550   79.30870   79.30870   96.62130   96.62130    4.67550    4.97400    5.64580    4.97400  -92.77250  -42.43200    5.64580
 7800.00000    7.72820    7.72820  214.26580    4.66710   79.35870   79.35870   82.48340   82.48340    4.66710    4.92540    5.77810    4.92540  -72.48490  -23.57330    5.77810
