~Version ---------------------------------------------------
VERS.      2.0 : CWLS log ASCII Standard -VERSION 2.0
WRAP.       NO : One line per depth step
CREA. 01/03/18 : LAS Creation Date
~Well ------------------------------------------------------
STRT.FT                          300.0 : START DEPTH
STOP.FT                         7500.0 : STOP DEPTH
STEP.FT                       50.00000 : STEP LENGTH
NULL.                          -999.25 : NULL VALUE
COMP.             IMPERIAL OIL LIMITED : COMPANY
WELL.  IMP-BAYSEL RIVERDALE 1-27-60-26 : WELL
FLD .                                  : FIELD
LOC .                                  : LOCATION
CTRY.                           CANADA : COUNTRY
SRVC. Schlumberger Well Surveying Corp : SERVICE COMPANY
DATE.                      11-Feb-1956 : LOGDATE
PROV.                          Alberta : PROVINCE
UWI .                 100012706026W400 : UNIQUE WELL ID
SLAT.WGS84                    54.21217 : SURFACE LATITUDE
SLON.WGS84                   -113.8027 : SURFACE LONGITUDE
~Curve Information -----------------------------------------
DEPT  .FT     : Depth Curve
CALWS .IN     : CALIPER [MCALED]
CONDWS.MMHO   : CONDUCTIVITY [1000/DRESWS]
DRESWS.OHMM   : DEEP RESISTIVITY [MERGED LNED/LL7ED AT 5848']
GRNED .MR/HR  : GAMMA RAY FROM GRN LOG
GRWS  .GAPI   : GAMMA RAY [GRNED] CONVERTED SCALE *10.4API
LL7ED .OHMM   : LATEROLOG 7
LNED  .OHMM   : 64 INCH LONG NORMAL RESISTIVITY FROM IEL
LT18ED.OHMM   : 18 FOOT 8 INCH LATERAL RESISTIVITY FROM EL LOG
MCALED.IN     : MICROCALIPER
NEUTED.CU     : NEUTRON FROM NEUTRON LOG [DEPTH ADJ TO RESISTIVITY]
NEUTWS.CU     : NEUTRON [NEUTED]
SNED  .OHMM   : 16 INCH SHORT NORMAL RESISTIVITY FROM IEL
SPRED .MV     : SPONTANEOUS POTENTIAL FROM RESISTIVITY LOG
SPWS  .MV     : SPONTANEOUS POTENTIAL [BASELINE 0 MV] [SPRED]
SRESWS.OHMM   : SHALLOW RESISTIVITY [SNED]
~Params ----------------------------------------------------
LMF .                     KB : LOG MEASURED FROM
DMF .                     KB : DRILLING MEASURED FROM
EKB .FT               2132.6 : KELLY BUSHING
EGL .FT               2118.5 : GROUND LEVEL
DATE.               02/11/56 : RUN DATE
RUN .                      1 : RUN NUMBER
DD  .FT                 7518 : DEPTH DRILLER
DL  .FT                 7519 : DEPTH LOGGER
BLI .FT                 7516 : BOTTOM LOG INTERVAL
TLI .FT                 5700 : TOP LOG INTERVAL
CBD .FT                  616 : CASING BOTTOM DRILLER
CBL .FT                  614 : CASING BOTTOM LOGGER
BS  .IN                    9 : BIT SIZE
BSD .FT                 7518 : BIT SIZE AT DEPTH
DFT .               GYP BASE : DRILLING FLUID TYPE
DFD .                   10.2 : DRILLING FLUID DENSITY
DFV .                    108 : DRILLING FLUID VISCOSITY
DFL .                    4.2 : DRILLING FLUID LOSS
MSS .               FLOWLINE : MUD SAMPLE SOURCE
RMS .OHMM               0.14 : RESISTIVITY MUD SAMPLE
MST .DEGF                 51 : MUD SAMPLE TEMPERATURE
RMB .OHMM                0.5 : RESISTIVITY MUD AT BHT
TCS .HRS                  12 : TIME CIRCULATED STOPPED
LUN .                   2794 : LOGGING UNIT NUMBER
LUL .                    EDM : LOGGING UNIT LOCATION
ENGI.                  JAMES : RECORDING ENGINEER
WITN.                  BLAND : WITNESSED BY
CLNT.                A2DTECH : CLIENT CODE
ORIG.            2" 5" PRINT : ORIGIN OF DATA
UWI .       100012706026W400 : UNIQUE WELL ID
DICO. A2D Technologies, Inc. : DIGITIZING COMPANY
~Other -----------------------------------------------------
~ASCII -----------------------------------------------------
  300.00000    -999.25    -999.25    -999.25    4.52200   47.02880    -999.25    -999.25    -999.25    -999.25   70.50920   70.50920    -999.25    -999.25    -999.25    -999.25
  350.00000    -999.25    -999.25    -999.25    4.18470   43.52090    -999.25    -999.25    -999.25    -999.25  142.50750  142.50750    -999.25    -999.25    -999.25    -999.25
  400.00000    -999.25    -999.25    -999.25    3.78190   39.33180    -999.25    -999.25    -999.25    -999.25  207.89720  207.89720    -999.25    -999.25    -999.25    -999.25
  450.00000    -999.25    -999.25    -999.25    3.83450   39.87880    -999.25    -999.25    -999.25    -999.25  122.93790  122.93790    -999.25    -999.25    -999.25    -999.25
  500.00000    -999.25    -999.25    -999.25    4.07770   42.40810    -999.25    -999.25    -999.25    -999.25  126.38810  126.38810    -999.25    -999.25    -999.25    -999.25
  550.00000    -999.25    -999.25    -999.25    3.36950   35.04280    -999.25    -999.25    -999.25    -999.25  130.04560  130.04560    -999.25    -999.25    -999.25    -999.25
  600.00000    -999.25    -999.25    -999.25    4.16510   43.31700    -999.25    -999.25    -999.25    -999.25  172.45700  172.45700    -999.25    -999.25    -999.25    -999.25
  650.00000    -999.25  147.64940    6.77280    7.02910   73.10260    -999.25    6.77280    8.25210    -999.25  366.04400  366.04400    6.16380  -49.27330  -15.40570    6.16380
  700.00000    -999.25  156.55950    6.38750    6.83910   71.12660    -999.25    6.38750    7.49440    -999.25  311.53110  311.53110    4.89860  -42.90740   -9.03980    4.89860
  750.00000    -999.25  128.97400    7.75350    6.61740   68.82100    -999.25    7.75350   13.29170    -999.25  277.13860  277.13860    5.90140  -38.42350   -4.55590    5.90140
  800.00000    -999.25  149.01800    6.71060    7.56870   78.71450    -999.25    6.71060    6.76680    -999.25  255.57640  255.57640    4.60850  -36.04820   -2.18060    4.60850
  850.00000    -999.25  153.59100    6.51080    7.47170   77.70570    -999.25    6.51080   12.89120    -999.25  274.40320  274.40320    5.67250  -36.39160   -2.39650    5.67250
  900.00000    -999.25  184.93520    5.40730    7.78530   80.96710    -999.25    5.40730    6.37020    -999.25  200.42910  200.42910    4.59800  -35.24330   -1.09270    4.59800
  950.00000    -999.25  193.95630    5.15580    7.45610   77.54340    -999.25    5.15580    6.15270    -999.25  250.57510  250.57510    4.35890  -35.68140   -1.37450    4.35890
 1000.00000    -999.25  160.78980    6.21930    7.25680   75.47070    -999.25    6.21930    7.58310    -999.25  179.77500  179.77500    4.88960  -36.07240   -1.61080    4.88960
 1050.00000    -999.25  187.87460    5.32270    7.21240   75.00900    -999.25    5.32270    4.55480    -999.25  267.86100  267.86100    4.52870  -35.67990   -1.06270    4.52870
 1100.00000    -999.25  120.11150    8.32560    8.40020   87.36210    -999.25    8.32560    9.02690    -999.25  215.86490  215.86490    6.97890  -38.68840   -3.91570    6.97890
 1150.00000    -999.25  112.59230    8.88160   10.18330  105.90630    -999.25    8.88160    9.71650    -999.25  203.18350  203.18350    6.87570  -41.84460   -6.91640    6.87570
 1200.00000    -999.25  164.26470    6.08770    8.67930   90.26470    -999.25    6.08770    7.03050    -999.25  181.05950  181.05950    4.83190  -38.99180   -3.90730    4.83190
 1250.00000    -999.25  144.52120    6.91940    9.72960  101.18780    -999.25    6.91940    6.48100    -999.25  163.37860  163.37860    5.17880  -40.45710   -5.21790    5.17880
 1300.00000    -999.25  140.16990    7.13420   11.09100  115.34640    -999.25    7.13420    7.45950    -999.25   88.34660   88.34660    5.38020  -46.90460  -11.50990    5.38020
 1350.00000    -999.25  141.76960    7.05370   11.11260  115.57100    -999.25    7.05370    6.88530    -999.25   92.82680   92.82680    5.85770  -47.93960  -12.38940    5.85770
 1400.00000    -999.25  115.74610    8.63960   12.28740  127.78900    -999.25    8.63960    8.83930    -999.25  123.43680  123.43680    8.16100  -41.59690   -5.89120    8.16100
 1450.00000    -999.25  127.13010    7.86610   11.52750  119.88650    -999.25    7.86610    7.86870    -999.25   79.08930   79.08930    6.12230  -47.42360  -11.56150    6.12230
 1500.00000    -999.25  148.00780    6.75640   10.76700  111.97680    -999.25    6.75640    7.58020    -999.25  174.99980  174.99980    5.91040  -47.59720  -11.58050    5.91040
 1550.00000    -999.25  110.63780    9.03850   11.24620  116.96050    -999.25    9.03850   11.38250    -999.25  237.87720  237.87720    7.22960  -47.36080  -11.18850    7.22960
 1600.00000    -999.25  112.68880    8.87400    9.94950  103.47480    -999.25    8.87400    9.87440    -999.25  205.15260  205.15260    7.49710  -46.46070  -10.13290    7.49710
 1650.00000    -999.25  105.57320    9.47210    9.93620  103.33650    -999.25    9.47210    8.37840    -999.25  294.78270  294.78270    8.41810  -44.29260   -7.80930    8.41810
 1700.00000    -999.25  128.67600    7.77150   10.72930  111.58470    -999.25    7.77150    7.94660    -999.25  193.27220  193.27220    6.55580  -50.32040  -13.68080    6.55580
 1750.00000    -999.25  112.19940    8.91270   10.38350  107.98840    -999.25    8.91270    9.30230    -999.25  309.68800  309.68800    7.48830  -48.80550  -12.01120    7.48830
 1800.00000    -999.25  148.98690    6.71200   11.86560  123.40220    -999.25    6.71200    9.42350    -999.25  260.50780  260.50780    5.90780  -51.21310  -14.26330    5.90780
 1850.00000    -999.25  150.38050    6.64980   11.12080  115.65630    -999.25    6.64980    6.25210    -999.25  227.78630  227.78630    5.27630  -46.86270   -9.75740    5.27630
 1900.00000    -999.25  136.40890    7.33090   10.82680  112.59870    -999.25    7.33090    7.15510    -999.25  270.02160  270.02160    6.49180  -44.47100   -7.21020    6.49180
 1950.00000    -999.25  108.73580    9.19660   12.96970  134.88490    -999.25    9.19660    9.22500    -999.25  235.83040  235.83040    8.84980  -43.59030   -6.17320    8.84980
 2000.00000    -999.25  117.69830    8.49630   11.86650  123.41160    -999.25    8.49630    3.17940    -999.25  205.56240  205.56240    7.48100  -44.79820   -7.22640    7.48100
 2050.00000    -999.25  114.21650    8.75530   12.68210  131.89380    -999.25    8.75530   10.42560    -999.25  167.30580  167.30580    7.46840  -49.05910  -11.33180    7.46840
 2100.00000    -999.25  137.01820    7.29830   11.42960  118.86780    -999.25    7.29830    7.16980    -999.25  178.74690  178.74690    6.52130  -41.78200   -3.89910    6.52130
 2150.00000    -999.25  139.04720    7.19180   13.36010  138.94500    -999.25    7.19180    6.18370    -999.25  171.05550  171.05550    5.93510  -43.39830   -5.35990    5.93510
 2200.00000    -999.25  169.66500    5.89410   14.08180  146.45020    -999.25    5.89410    7.06530    -999.25  136.54550  136.54550    5.27060  -44.45430   -6.25970    5.27060
 2250.00000    -999.25  237.59740    4.20880   10.03410  104.35460    -999.25    4.20880    3.71420    -999.25  206.27470  206.27470    3.42700  -41.76350   -3.41410    3.42700
 2300.00000    -999.25  348.89400    2.86620    9.97530  103.74310    -999.25    2.86620    3.51880    -999.25  267.03350  267.03350    3.38590  -40.93040   -2.42550    3.38590
 2350.00000   13.42380  269.36030    3.71250    9.87290  102.67820    -999.25    3.71250    4.85200   13.42380  218.09710  218.09710    4.18070  -41.44750   -2.78710    4.18070
 2400.00000    9.86200  154.23770    6.48350   11.44070  118.98330    -999.25    6.48350    4.97820    9.86200  324.58240  324.58240    7.38150  -50.97890  -12.16300    7.38150
 2450.00000   11.03630  184.10920    5.43160    8.83830   91.91830    -999.25    5.43160    3.10900   11.03630  283.99280  283.99280    4.93760  -41.25870   -2.28640    4.93760
 2500.00000    -999.25  239.40050    4.17710   10.01040  104.10820    -999.25    4.17710    3.61820    -999.25  286.15730  286.15730    3.72880  -44.44600   -5.31910    3.72880
 2550.00000    -999.25  176.67220    5.66020    8.62890   89.74060    -999.25    5.66020    3.55030    -999.25  415.81550  415.81550    4.25390  -45.47940   -6.41890    4.25390
