~Version ---------------------------------------------------
VERS.      2.0 : CWLS log ASCII Standard -VERSION 2.0
WRAP.       NO : One line per depth step
CREA. 11/17/17 : LAS Creation Date
~Well ------------------------------------------------------
STRT.FT                       300.0 : START DEPTH
STOP.FT                      9300.0 : STOP DEPTH
STEP.FT                    50.00000 : STEP LENGTH
NULL.                       -999.25 : NULL VALUE
COMP. CANADIAN EXPORT OIL & GAS LTD : COMPANY
WELL. CEGO ET AL SUNSET 10-23-69-19 : WELL
FLD .                               : FIELD
LOC .                               : LOCATION
CTRY.                        CANADA : COUNTRY
SRVC.                       Unknown : SERVICE COMPANY
DATE.                   18-Jan-1973 : LOGDATE
PROV.                       Alberta : PROVINCE
UWI .              100102306919W500 : UNIQUE WELL ID
SLAT.WGS84                   54.992 : SURFACE LATITUDE
SLON.WGS84                -116.7783 : SURFACE LONGITUDE
~Curve Information -----------------------------------------
DEPT   .FT    : Depth Curve
ASFLED .OHMM  : AMPLIFIED SHALLOW FOCUSED RESISTIVITY FROM SFIL LOG
ASNED  .OHMM  : AMPLIFIED SHORT NORMAL RESISTIVITY 16" FROM IEL LOG
CALSED .IN    : CALIPER FROM SONIC LOG
CALWS  .IN    : CALIPER [CALSED]
CILD1ED.MMHO  : CONDUCTIVITY FROM IEL LOG
CILDED .MMHO  : CONDUCTIVITY FROM SFIL LOG
CONDWS .MMHO  : CONDUCTIVITY [1000/DRESWS]
DRESWS .OHMM  : DEEP RESISTIVITY [1000/CILDED, IF ILDED<5, ILDED SPL. TO 1000/CILD1ED, IF ILD1ED<5, ILD1ED @ 8996']
DTED   .US/F  : DELTA TIME FROM SONIC LOG
DTWS   .US/F  : COMPRESSIONAL SONIC [DTED]
GRED   .GAPI  : CASED HOLE GAMMA RAY FROM CBL LOG [ADJ. TO ISF LOG/GRSED]
GRSED  .GAPI  : GAMMA RAY FROM SONIC LOG
GRWS   .GAPI  : GAMMA RAY [GRED SPL. TO GRSED @ 922'-4973', 4978'-6674' AND 6682']
ILD1ED .OHMM  : DEEP INDUCTION LOG RESISTIVITY FROM IEL LOG
ILDED  .OHMM  : DEEP INDUCTION LOG RESISTIVITY FROM SFIL LOG
SPR1ED .MV    : SPONTANEOUS POTENTIAL FROM IEL LOG
SPRED  .MV    : SPONTANEOUS POTENTIAL FROM SFIL LOG
SPWS   .MV    : SPONTANEOUS POTENTIAL [BASELINE 0 MV(SPRED SPL. TO SPR1ED @ 8996')*-1}]
SRESWS .OHMM  : SHALLOW RESISTIVITY [ASFLED SPL. TO ASNED @ 8996']
~Params ----------------------------------------------------
PD  .                     GL : PERMANENT DATUM
EPD .FT                 2660 : ELEVATION PERMANENT DATUM
LMF .                     KB : LOG MEASURED FROM
DAPD.FT                 14.7 : FEET ABOVE PERMANENT DATUM
EKB .FT               2674.7 : KELLY BUSHING
EGL .FT                 2660 : GROUND LEVEL
DATE.               01/18/73 : RUN DATE
RUN .                      2 : RUN NUMBER
DD  .FT                 9336 : DEPTH DRILLER
DL  .FT                 9336 : DEPTH LOGGER
BLI .FT                 9325 : BOTTOM LOG INTERVAL
TLI .FT                 8800 : TOP LOG INTERVAL
CBD .FT                  944 : CASING BOTTOM DRILLER
CBL .FT                  941 : CASING BOTTOM LOGGER
BS  .IN                7.875 : BIT SIZE
BSD .FT                 9336 : BIT SIZE AT DEPTH
DFT .                    KCL : DRILLING FLUID TYPE
DFD .                    9.1 : DRILLING FLUID DENSITY
DFV .                     60 : DRILLING FLUID VISCOSITY
DFPH.                    9.0 : DRILLING FLUID PH
DFL .                    8.2 : DRILLING FLUID LOSS
RMS .OHMM               0.44 : RESISTIVITY MUD SAMPLE
MST .DEGF                 55 : MUD SAMPLE TEMPERATURE
RMF .OHMM                0.6 : RESISTIVITY MUD FILTRATE SAMPLE
MFST.DEGF                 60 : MUD FILTRATE SAMPLE TEMPERATURE
RMB .OHMM               0.14 : RESISTIVITY MUD AT BHT
TCS .HRS                   2 : TIME CIRCULATED STOPPED
LUN .                   7635 : LOGGING UNIT NUMBER
LUL .                    D C : LOGGING UNIT LOCATION
ENGI.                   HALL : RECORDING ENGINEER
WITN.         WIGGINS WILMER : WITNESSED BY
CLNT.                A2DTECH : CLIENT CODE
ORIG.            2" 5" PRINT : ORIGIN OF DATA
UWI .       100102306919W500 : UNIQUE WELL ID
DICO. A2D Technologies, Inc. : DIGITIZING COMPANY
~Other -----------------------------------------------------
SFIL-IEL-BCS-GR TOOL RUN
GAP IN GR AND SPR AS PER IMAGE
SPR INOPERATIVE SALT MUD
SFIL-SONIC LOG (TOP TO 960.1M) FROM SMALL SCALE LOG
~ASCII -----------------------------------------------------
# ...
 2150.00000    2.66200    -999.25   10.59620   10.59620    -999.25  194.74090  194.74090    5.13500  126.92420  126.92420  127.46890  110.35270  110.35270    -999.25    6.20540    -999.25  -80.77640   -7.64110    2.66200
 2200.00000    2.15200    -999.25   10.27880   10.27880    -999.25  182.41710  182.41710    5.48200  116.43320  116.43320  106.86430   94.30080   94.30080    -999.25    6.52380    -999.25  -73.52750  -14.92400    2.15200
 2250.00000    1.74050    -999.25    9.51250    9.51250    -999.25  180.38250  180.38250    5.54380  118.69440  118.69440  104.91850   82.44850   82.44850    -999.25    6.66120    -999.25  -74.31530  -14.16990    1.74050
 2300.00000    1.83120    -999.25    8.39580    8.39580    -999.25  173.96700  173.96700    5.74820  119.49550  119.49550  107.42650   88.07300   88.07300    -999.25    6.76640    -999.25  -76.94620  -11.57270    1.83120
 2350.00000    1.76390    -999.25    8.13490    8.13490    -999.25  167.90060  167.90060    5.95590  114.69150  114.69150  124.74360  101.93560  101.93560    -999.25    7.06170    -999.25  -73.33000  -15.22280    1.76390
 2400.00000    1.99660    -999.25    9.00200    9.00200    -999.25  153.35460  153.35460    6.52080  130.08210  130.08210  108.78140   89.23630   89.23630    -999.25    7.79880    -999.25  -73.85760  -14.72890    1.99660
 2450.00000    1.98660    -999.25   11.82230   11.82230    -999.25  192.46190  192.46190    5.19590  128.75130  128.75130  125.75210   94.16430   94.16430    -999.25    6.26200    -999.25  -72.72020  -15.90020    1.98660
 2500.00000    2.59100    -999.25   10.23730   10.23730    -999.25  120.94930  120.94930    8.26790  116.08950  116.08950  119.07350   86.34840   86.34840    -999.25    9.73140    -999.25  -75.55570  -13.09840    2.59100
 2550.00000    2.62430    -999.25   10.35320   10.35320    -999.25  163.05120  163.05120    6.13300  144.05130  144.05130  121.30100   89.06440   89.06440    -999.25    7.28430    -999.25  -75.20790  -13.47990    2.62430
 2600.00000    2.71420    -999.25   10.11140   10.11140    -999.25  146.38230  146.38230    6.83170  122.09990  122.09990  115.53320   86.70700   86.70700    -999.25    8.24040    -999.25  -75.12900  -13.59270    2.71420
 2650.00000    1.97690    -999.25   10.72740   10.72740    -999.25  199.96720  199.96720    5.00080  124.62920  124.62920  126.99950   96.60830   96.60830    -999.25    5.97480    -999.25  -76.46560  -12.28990    1.97690
 2700.00000    1.97150    -999.25   13.32810   13.32810    -999.25  202.01120  202.01120    4.95060  117.29570  117.29570  115.86650   89.94730   89.94730    -999.25    5.96490    -999.25  -80.05390   -8.73550    1.97150
 2750.00000    3.14630    -999.25   11.99930   11.99930    -999.25  188.97610  188.97610    5.29170  123.56250  123.56250  125.83960   94.96860   94.96860    -999.25    6.26890    -999.25  -83.89140   -4.93170    3.14630
 2800.00000    4.85920    -999.25   10.97360   10.97360    -999.25  168.28140  168.28140    5.94240  116.18220  116.18220  112.81390  106.95700  106.95700    -999.25    7.11560    -999.25  -84.30070   -4.55610    4.85920
 2850.00000    8.95620    -999.25    8.69270    8.69270    -999.25  135.91530  135.91530    7.35760  113.30840  113.30840  142.82880  117.63680  117.63680    -999.25    8.71390    -999.25  -86.92560   -1.96510    8.95620
 2900.00000    8.23050    -999.25    8.58860    8.58860    -999.25  140.49970  140.49970    7.11750  115.10350  115.10350  157.94850  125.01900  125.01900    -999.25    7.90740    -999.25  -87.33130   -1.59310    8.23050
 2950.00000    3.85070    -999.25    9.98770    9.98770    -999.25  160.67240  160.67240    6.22410  106.75980  106.75980   91.81060   81.64640   81.64640    -999.25    7.34840    -999.25  -77.72020  -11.23810    3.85070
 3000.00000   17.17170    -999.25    8.36960    8.36960    -999.25   66.77560   66.77560   14.97550   73.28560   73.28560   45.70000   53.43830   53.43830    -999.25   17.74530    -999.25  -81.96250   -7.02950   17.17170
 3050.00000    3.98730    -999.25   11.15070   11.15070    -999.25  195.09110  195.09110    5.12580  106.38960  106.38960  105.74710   91.83050   91.83050    -999.25    6.13320    -999.25  -84.01840   -5.08800    3.98730
 3100.00000    4.48160    -999.25   10.82580   10.82580    -999.25  197.06530  197.06530    5.07450  101.32160  101.32160  103.70560   86.53740   86.53740    -999.25    6.14170    -999.25  -84.47210   -4.83050    4.48160
 3150.00000    4.06220    -999.25    9.67810    9.67810    -999.25  208.64990  208.64990    4.79270  101.84050  101.84050  100.77930   92.02040   92.02040    -999.25    5.92990    -999.25  -82.40260   -7.09490    4.06220
 3200.00000    2.85330    -999.25    9.04450    9.04450    -999.25  280.57880  280.57880    3.56430  111.51110  111.51110   91.88160   91.00990   91.00990    -999.25    4.71910    -999.25  -82.95960   -6.73410    2.85330
 3250.00000    5.04160    -999.25    8.50980    8.50980    -999.25  180.37130  180.37130    5.54410   93.98530   93.98530   84.02850   84.33440   84.33440    -999.25    6.94490    -999.25  -82.73230   -7.15640    5.04160
 3300.00000    3.36960    -999.25    8.96330    8.96330    -999.25  220.57070  220.57070    4.53370  101.36670  101.36670   89.97170   93.04950   93.04950    -999.25    5.86790    -999.25  -81.23880   -8.84480    3.36960
 3350.00000    3.22830    -999.25   10.06630   10.06630    -999.25  234.66010  234.66010    4.26160  113.94050  113.94050   94.14920  103.75620  103.75620    -999.25    5.54300    -999.25  -80.17110  -10.10870    3.22830
 3400.00000    1.77370    -999.25   10.73350   10.73350    -999.25  380.61020  380.61020    2.62740  149.40150  149.40150   98.31630   99.66960   99.66960    -999.25    3.57970    -999.25  -78.63440  -11.84030    1.77370
 3450.00000    1.56480    -999.25    9.67650    9.67650    -999.25  460.36620  460.36620    2.17240  131.38100  131.38100  108.72550   95.07970   95.07970    -999.25    3.36490    -999.25  -76.31530  -14.35560    1.56480
 3500.00000    2.06520    -999.25    8.52120    8.52120    -999.25  352.61210  352.61210    2.83600  100.82010  100.82010   96.68740   85.23410   85.23410    -999.25    4.04340    -999.25  -78.70480  -12.16110    2.06520
 3550.00000    2.14660    -999.25    9.55310    9.55310    -999.25  331.28800  331.28800    3.01850  105.35360  105.35360   96.80070   91.37130   91.37130    -999.25    4.15830    -999.25  -79.44810  -11.61270    2.14660
 3600.00000    2.21160    -999.25    9.81280    9.81280    -999.25  377.57320  377.57320    2.64850  115.00830  115.00830  108.00780  106.41270  106.41270    -999.25    3.79140    -999.25  -75.96030  -15.29670    2.21160
 3650.00000    6.67390    -999.25    8.58230    8.58230    -999.25  181.12080  181.12080    5.52120   87.44470   87.44470   64.68280   54.19760   54.19760    -999.25    6.96810    -999.25  -82.75860   -8.69340    6.67390
 3700.00000    4.52890    -999.25    8.97390    8.97390    -999.25  246.61960  246.61960    4.05480   91.35090   91.35090   71.64030   64.15430   64.15430    -999.25    5.24760    -999.25  -80.81320  -10.83500    4.52890
 3750.00000    1.72970    -999.25    7.02280    7.02280    -999.25  340.77320  340.77320    2.93450  111.82860  111.82860   95.98140   91.77310   91.77310    -999.25    4.00330    -999.25  -74.06800  -17.77510    1.72970
 3800.00000    5.38090    -999.25    8.34490    8.34490    -999.25  192.76620  192.76620    5.18760   84.59320   84.59320   56.43330   63.70410   63.70410    -999.25    6.66670    -999.25  -78.00650  -14.03150    5.38090
 3850.00000    4.87720    -999.25    8.60890    8.60890    -999.25  231.72390  231.72390    4.31560   95.56560   95.56560  111.31220   83.91050   83.91050    -999.25    5.39600    -999.25  -78.56290  -13.67140    4.87720
 3900.00000    3.87850    -999.25    9.17100    9.17100    -999.25  256.64660  256.64660    3.89640  110.38710  110.38710   81.76080   77.05940   77.05940    -999.25    5.08500    -999.25  -76.51250  -15.91670    3.87850
 3950.00000    6.05670    -999.25    8.58910    8.58910    -999.25  233.61680  233.61680    4.28060   91.21310   91.21310   62.33600   59.32390   59.32390    -999.25    5.59030    -999.25  -86.76380   -5.86160    6.05670
