~Version ---------------------------------------------------
VERS. 2.0 : CWLS log ASCII Standard -VERSION 2.0
WRAP.  NO : ONE LINE PER DEPTH STEP
~Well ------------------------------------------------------
STRT.M                          300.0 : START DEPTH
STOP.M                         1750.0 : STOP DEPTH
STEP.M                       50.00000 : STEP LENGTH
NULL.                         -999.25 : NULL VALUE
COMP.   AMOCO CANADA PETROLEUM CO LTD : COMPANY
WELL. AMOCO UNIT 214 NIPISI 2-34-78-8 : WELL
FLD .                                 : FIELD
LOC .                                 : LOCATION
CTRY.                          CANADA : COUNTRY
SRVC.                   Dresser Atlas : SERVICE COMPANY
DATE.                     06-Jun-1980 : LOGDATE
PROV.                         Alberta : PROVINCE
UWI .                100023407808W500 : UNIQUE WELL ID
SLAT.WGS84                   55.79837 : SURFACE LATITUDE
SLON.WGS84                  -115.1479 : SURFACE LONGITUDE
~Curve Information -----------------------------------------
DEPT    .M      : DEPTH METERS
ACED    .US/M   : DELTA TIME (ACOUSTIC) FROM SONIC LOG [DEPTH ADJ. TO RES.]
CALDED  .MM     : CALIPER FROM DENSITY LOG [DEPTH ADJ. TO RES.]
CALSED  .MM     : CALIPER FROM SONIC LOG [DEPTH ADJ. TO RES.]
CALWS   .MM     : CALIPER [CALSED]
CONDWS  .MMHO   : CONDUCTIVITY [1000/DRESWS]
CORRED  .KG/M3  : DENSITY CORRECTION FROM DENSITY LOG [DEPTH ADJ. TO RES.]
DCORWS  .KG/M3  : DENSITY CORRECTION [CORRED]
DENWS   .KG/M3  : BULK DENSITY [M=2710 F=1000] [CALCULATED FROM DPOLSWS]
DPHILSED.V/V    : DENSITY POROSITY [M=2710 F=1000] [DEPTH ADJ. TO RES.]
DPOLSWS .V/V    : DENSITY POROSITY [M=2710 F=1000] [DPHILSED]
DRESWS  .OHMM   : DEEP RESISTIVITY [ILDED]
DTWS    .US/M   : DELTA TIME [ACED]
GRSED   .GAPI   : GAMMA RAY FROM SONIC LOG [DEPTH ADJ. TO RES.]
GRWS    .GAPI   : GAMMA RAY [GRSED] CSG @230M
ILDED   .OHMM   : INDUCTION LOG DEEP RESISTIVITY
ILMED   .OHMM   : INDUCTION LOG MEDIUM RESISTIVITY
MRESWS  .OHMM   : MEDIUM RESISTIVITY [ILMED]
NPHILSED.V/V    : NEUTRON POROSITY LIMESTONE [DEPTH ADJ. TO RES.]
NPOLSWS .V/V    : NEUTRON POROSITY LIMESTONE [NPHILSED] CSG @230M
RHOBED  .KG/M3  : BULK DENSITY FROM DENSITY LOG [DEPTH ADJ. TO RES.]
SFLED   .OHMM   : SPHERICALLY FOCUSED LOG RESISTIVITY
SPRED   .MV     : SPONTANEOUS POTENTIAL FROM RESISTIVITY LOG
SPWS    .MV     : SPONTANEOUS POTENTIAL [BASELINE 0 MV] [SPRED]
SRESWS  .OHMM   : SHALLOW RESISTIVITY [SFLED]
~Params ----------------------------------------------------
PD  .                         GL : PERMANENT DATUM
EPD .M                    651.32 : ELEVATION PERMANENT DATUM
LMF .                         KB : LOG MEASURED FROM
DAPD.M                         5 : FEET ABOVE PERMANENT DATUM
DMF .                         KB : DRILLING MEASURED FROM
EKB .M                    656.32 : KELLY BUSHING
EGL .M                    651.32 : GROUND LEVEL
DATE.                     6/6/80 : RUN DATE
RUN .                          1 : RUN NUMBER
DD  .M                      1753 : DEPTH DRILLER
DL  .M                    1753.2 : DEPTH LOGGER
BLI .M                    1752.6 : BOTTOM LOG INTERVAL
TLI .M                       230 : TOP LOG INTERVAL
CS  .MM                      219 : CASING SIZE
CBD .M                       230 : CASING BOTTOM DRILLER
CBL .M                       230 : CASING BOTTOM LOGGER
BS  .MM                      200 : BIT SIZE
BSD .M                      1753 : BIT SIZE AT DEPTH
DFT .                   GEL CHEM : DRILLING FLUID TYPE
DFD .                       1130 : DRILLING FLUID DENSITY
DFV .                         54 : DRILLING FLUID VISCOSITY
DFPH.                        9.5 : DRILLING FLUID PH
DFL .                         12 : DRILLING FLUID LOSS
MSS .                   FLOWLINE : MUD SAMPLE SOURCE
RMS .OHMM                    1.3 : RESISTIVITY MUD SAMPLE
MST .DEGC                     54 : MUD SAMPLE TEMPERATURE
MFSS.                       MEAS : MUD FILTRATE SAMPLE SOURCE
MCSS.                       MEAS : MUD CAKE SAMPLE SOURCE
RMB .OHMM                   1.15 : RESISTIVITY MUD AT BHT
TCS .HRS                       4 : TIME CIRCULATED STOPPED
LUN .                    HL-6076 : LOGGING UNIT NUMBER
LUL .                        EDM : LOGGING UNIT LOCATION
ENGI.                     GRIEVE : RECORDING ENGINEER
WITN.                       WARK : WITNESSED BY
CLNT.                    A2DTECH : CLIENT CODE
ORIG. 6.5"/100M 16.5"/100M PRINT : ORIGIN OF DATA
UWI .           100023407808W500 : UNIQUE WELL ID
DICO.     A2D Technologies, Inc. : DIGITIZING COMPANY
~Other -----------------------------------------------------
~ASCII -----------------------------------------------------
  300.00000  668.08420  362.68040  408.77750  408.77750  475.14970   57.47780   57.47780 1931.09500    0.45550    0.45550    2.10460  668.08420   81.73540   81.73540    2.10460    2.40170    2.40170    0.55420    0.55420 1952.55000    3.74980  -17.11710   -4.18550    3.74980
  350.00000  678.90610  387.81050  448.14110  448.14110  335.61550  -59.28680  -59.28680 1495.21610    0.60010    0.71040    2.97960  678.90610   60.82000   60.82000    2.97960    3.25570    3.25570    0.52730    0.52730 1495.13420    4.03530  -19.20270   -7.28820    4.03530
  400.00000  403.00530  245.77600  264.96470  264.96470  243.63500   44.06650   44.06650 2135.95290    0.33570    0.33570    4.10450  403.00530   78.17720   78.17720    4.10450    4.70220    4.70220    0.38780    0.38780 2153.62520    6.08700  -33.58630  -12.01030    6.08700
  450.00000  375.16620  272.56290  314.85130  314.85130  179.77530   47.81550   47.81550 2112.35500    0.34950    0.34950    5.56250  375.16620   62.09030   62.09030    5.56250    7.48180    7.48180    0.39230    0.39230 2115.13480    9.80400  -39.74370  -20.26660    9.80400
  500.00000  387.51270  346.14240  402.68810  402.68810  300.57110   66.60960   66.60960 2094.22900    0.36010    0.36010    3.32700  387.51270   57.14770   57.14770    3.32700    4.90060    4.90060    0.42310    0.42310 2104.14580    7.30870  -37.41600  -20.03770    7.30870
  550.00000  370.19130  339.30660  361.49420  361.49420  299.88600   43.27260   43.27260 2268.13600    0.25840    0.25840    3.33460  370.19130   64.73490   64.73490    3.33460    4.37390    4.37390    0.44000    0.44000 2055.22580    5.65920  -21.73590   -6.45640    5.65920
  600.00000  277.01100  325.76040  353.69920  353.69920  200.63800    1.52400    1.52400 2357.39790    0.20620    0.20620    4.98410  277.01100   45.80930   45.80930    4.98410    6.26150    6.26150    0.37110    0.37110 2366.66920    9.22870  -26.86450  -13.23030    9.22870
  650.00000  186.48980  322.16220  331.27180  331.27180   22.79340   -0.66760   -0.66760 2611.50390    0.05760    0.05760   43.87240  186.48980   16.81460   16.81460   43.87240   42.74390   42.74390    0.14110    0.14110 2614.64210   72.27420  -35.45530  -22.64580   72.27420
  700.00000  178.38000  300.84040  339.33340  339.33340   50.01000   40.22730   40.22730 2577.98800    0.07720    0.07720   19.99600  178.38000   13.29160   13.29160   19.99600   28.39990   28.39990    0.16610    0.16610 2566.55030   44.87930  -70.60810  -58.62340   44.87930
  750.00000  233.50070  268.34790  279.12010  279.12010  130.66600  -16.87750  -16.87750 2585.51200    0.07280    0.07280    7.65310  233.50070   32.63890   32.63890    7.65310   12.06400   12.06400    0.10650    0.10650 2596.32100   33.39440  -26.76440  -15.60440   33.39440
  800.00000  232.51490  260.63730  275.31630  275.31630  112.00340  -17.51990  -17.51990 2541.90700    0.09830    0.09830    8.92830  232.51490   35.82180   35.82180    8.92830   11.71880   11.71880    0.11770    0.11770 2528.73730   19.96310  -23.34590   -8.57510   19.96310
  850.00000  179.54710  260.07060  268.89750  268.89750   23.83100  -25.92050  -25.92050 2586.19600    0.07240    0.07240   41.96220  179.54710   12.34250   12.34250   41.96220   36.00900   36.00900    0.04890    0.04890 2572.95920   49.84010  -69.33080  -50.79680   49.84010
  900.00000  198.57130  259.21010  273.26570  273.26570   68.28180   21.50360   21.50360 2506.68090    0.11890    0.11890   14.64520  198.57130   18.70200   18.70200   14.64520   25.57610   25.57610    0.11980    0.11980 2496.27120   65.08040 -101.44070  -79.80670   65.08040
  950.00000  199.95240  256.52660  289.10800  289.10800   55.80580   95.16450   95.16450 2365.77710    0.20130    0.20130   17.91930  199.95240   10.16010   10.16010   17.91930   36.54690   36.54690    0.17160    0.17160 2367.04300   87.64030  -98.05100  -73.31690   87.64030
 1000.00000  173.48730  247.00680  252.01030  252.01030   12.47020   -8.38990   -8.38990 2607.22900    0.06010    0.06010   80.19120  173.48730   13.13480   13.13480   80.19120   57.39360   57.39360    0.07570    0.07570 2597.48220   95.58260  -70.91850  -43.08440   95.58260
 1050.00000  169.76880  233.01720  238.60150  238.60150    4.37380   -2.96510   -2.96510 2599.98510    0.07000    0.06430  228.63190  169.76880   10.68240   10.68240  228.63190   99.53710   99.53710    0.05410    0.05410 2599.98510  212.27080  -73.49110  -42.55700  212.27080
 1100.00000  259.35280  301.08040  315.34380  315.34380  304.94310   48.15530   48.15530 2488.72610    0.12940    0.12940    3.27930  259.35280   86.78810   86.78810    3.27930    4.79250    4.79250    0.32700    0.32700 2536.27080    6.16720  -40.92560   -7.16960    6.16720
 1150.00000  175.28000    -999.25  236.31810  236.31810   35.12220   37.08350   37.08350 2605.51900    0.06110    0.06110   28.47200  175.28000   29.10780   29.10780   28.47200   38.25470   38.25470    0.15210    0.15210 2597.48460  107.35950  -63.22110  -32.15900  107.35950
 1200.00000  196.89940    -999.25  239.81080  239.81080  152.02650   15.18020   15.18020 2577.81690    0.07730    0.07730    6.57780  196.89940   25.33310   25.33310    6.57780    9.43900    9.43900    0.17110    0.17110 2570.46750   27.38860  -87.42740  -59.05920   27.38860
 1250.00000  335.97630  341.94780  343.17030  343.17030  453.92650   82.37810   82.37810 1966.32100    0.43490    0.43490    2.20300  335.97630   87.61910   87.61910    2.20300    2.88010    2.88010    0.46080    0.46080 2001.97950    4.09500  -45.27180  -18.18050    4.09500
 1300.00000  336.65640  284.96270  282.13930  282.13930  447.52740  102.97210  102.97210 2224.87300    0.28370    0.28370    2.23450  336.65640   54.58810   54.58810    2.23450    3.02870    3.02870    0.37450    0.37450 2223.36820    4.45730  -49.26470  -22.17340    4.45730
 1350.00000  361.97130  353.00670  350.39030  350.39030  568.24640   42.17340   42.17340 1875.86190    0.48780    0.48780    1.75980  361.97130   90.00350   90.00350    1.75980    2.29730    2.29730    0.46980    0.46980 1905.80910    3.35240  -48.44030  -21.76420    3.35240
 1400.00000  256.02660  249.12770  264.76840  264.76840  171.18890  -13.19770  -13.19770 2584.48610    0.07340    0.07340    5.84150  256.02660   68.50400   68.50400    5.84150    6.85400    6.85400    0.22300    0.22300 2579.44530    9.00510  -33.22670   -6.26760    9.00510
 1450.00000  233.95600  244.28870  253.40730  253.40730  116.45650   -0.85490   -0.85490 2620.05400    0.05260    0.05260    8.58690  233.95600   64.70060   64.70060    8.58690    9.76580    9.76580    0.15820    0.15820 2613.79760   13.28470  -35.89100   -4.71370   13.28470
 1500.00000  344.67040  355.88250  354.39970  354.39970  400.57680  150.07190  150.07190 2245.05100    0.27190    0.27190    2.49640  344.67040   98.28420   98.28420    2.49640    3.27790    3.27790    0.42540    0.42540 2247.09060    4.26520  -50.71610    7.58390    4.26520
 1550.00000  257.43800  244.61880  248.68220  248.68220  114.45580   26.97810   26.97810 2478.12400    0.13560    0.13560    8.73700  257.43800   75.27190   75.27190    8.73700    8.42730    8.42730    0.25260    0.25260 2457.88180   15.04840  -40.54570   15.06890   15.04840
 1600.00000  222.77620  248.24200  262.07110  262.07110  105.18450   25.86320   25.86320 2660.75200    0.02880    0.02880    9.50710  222.77620   49.85880   49.85880    9.50710   10.01960   10.01960    0.13000    0.13000 2644.73880   16.15310  -37.03860   12.01760   16.15310
 1650.00000  239.40780  240.09930  248.18810  248.18810  118.20050  -17.90760  -17.90760 2591.49710    0.06930    0.06930    8.46020  239.40780   65.13330   65.13330    8.46020    9.55200    9.55200    0.16880    0.16880 2585.41580   14.02780  -25.88160   -2.95130   14.02780
 1700.00000  186.16540  224.30850  222.11030  222.11030   11.98560  -18.17050  -18.17050 2636.81200    0.04280    0.04280   83.43350  186.16540   26.60500   26.60500   83.43350   62.49910   62.49910    0.05790    0.05790 2623.11250   73.11700  -36.11300  -21.06000   73.11700
