~Version ---------------------------------------------------
VERS. 2.0 : CWLS log ASCII Standard -VERSION 2.0
WRAP.  NO : ONE LINE PER DEPTH STEP
~Well ------------------------------------------------------
STRT.M                             300.0 : START DEPTH
STOP.M                            3600.0 : STOP DEPTH
STEP.M                          50.00000 : STEP LENGTH
NULL.                            -999.25 : NULL VALUE
COMP.             EXXONMOBIL CANADA LTD. : COMPANY
WELL. MOBIL ET AL PEMBINA 11-27-49-8 #11 : WELL
FLD .                                    : FIELD
LOC .                                    : LOCATION
CTRY.                             CANADA : COUNTRY
SRVC.                      Dresser Atlas : SERVICE COMPANY
DATE.                        27-May-1980 : LOGDATE
PROV.                            Alberta : PROVINCE
UWI .                   100112704908W500 : UNIQUE WELL ID
SLAT.WGS84                      53.26067 : SURFACE LATITUDE
SLON.WGS84                     -115.0887 : SURFACE LONGITUDE
~Curve Information -----------------------------------------
DEPT    .M      : DEPTH METERS
ACED    .US/M   : DELTA TIME (ACOUSTIC) FROM SONIC LOG [DEP ADJ TO ILDED]
BITED   .MM     : BIT SIZE FROM LOG HEADER
CALDED  .MM     : CALIPER FROM DENSITY LOG [DEP ADJ TO GRSED]
CALSED  .MM     : CALIPER FROM SONIC LOG [DEP ADJ TO ILDED]
CALWS   .MM     : CALIPER [0 CALSED 781.2 CALDED 1001.4 CALSED 1144 CALDED 1320.9 CALSED 1900.1 CALDED 1977.1 CALSED 2023.6 CALDED 2082.1 CALSED 3535.3 CALDED]
CONDWS  .MMHO   : CONDUCTIVITY [1000/DRESWS]
CORRED  .KG/M3  : DENSITY CORRECTION FROM DENSITY LOG [DEP ADJ TO GRSED]
DCORWS  .KG/M3  : DENSITY CORRECTION [CORRED]
DENWS   .KG/M3  : BULK DENSITY [M=2710 F=1000 ASSUMED] [RHOBED]
DPHILSED.V/V    : DENSITY POROSITY [M=2710 F=1000 ASSUMED] FROM DENSITY LOG [DEP ADJ TO GRSED]
DPHISSED.V/V    : DENSITY POROSITY [M=2650 F=1000 ASSUMED] FROM DENSITY LOG [DEP ADJ TO GRSED]
DPOLSWS .V/V    : DENSITY POROSITY [M=2710 F=1000 ASSUMED] [CAL. FROM DENWS]
DRESWS  .OHMM   : DEEP RESISTIVITY [ILDED]
DTWS    .US/M   : DELTA TIME [ACED]
GRDED   .GAPI   : GAMMA RAY FROM DENSITY LOG [DEP ADJ TO GRSED]
GRSED   .GAPI   : GAMMA RAY FROM SONIC LOG [DEP ADJ TO ILDED]
GRWS    .GAPI   : GAMMA RAY [0 GRDED 1693.6 GRSED 1751.1 GRDED 1986.7 GRSED 1993.7 GRDED]
ILDED   .OHMM   : INDUCTION LOG DEEP RESISTIVITY
ILMED   .OHMM   : INDUCTION LOG MEDIUM RESISTIVITY
MRESWS  .OHMM   : MEDIUM RESISTIVITY [ILMED]
NPHILSED.V/V    : NEUTRON POROSITY LIMESTONE FROM DENSITY LOG [DEP ADJ TO GRSED]
NPHISSED.V/V    : NEUTRON POROSITY SANDSTONE FROM DENSITY LOG [DEP ADJ TO GRSED]
NPOLSWS .V/V    : NEUTRON POROSITY LIMESTONE [0 NPOLSCAL 2001.2 NPHILSED] [NPOLSCAL IS COMPUTED FROM NPHISSED USING POWERLOG MODULE]
RHOBED  .KG/M3  : BULK DENSITY FROM DENSITY LOG [DEP ADJ TO GRSED]
SFLED   .OHMM   : SPHERICALLY FOCUSED LOG RESISTIVITY
SPRED   .MV     : SPONTANEOUS POTENTIAL FROM RESISTIVITY LOG [SHIFTS ARE REMOVED]
SPWS    .MV     : SPONTANEOUS POTENTIAL [BASELINE 0 MV] [SPRED]
SRESWS  .OHMM   : SHALLOW RESISTIVITY [SFLED]
TENDED  .N      : TENSION FROM DENSITY LOG [DEP ADJ TO GRSED]
TENSED  .N      : TENSION FROM SONIC LOG [DEP ADJ TO ILDED]
~Params ----------------------------------------------------
PD  .                         GL : PERMANENT DATUM
EPD .FT                    869.6 : ELEVATION PERMANENT DATUM
LMF .                         KB : LOG MEASURED FROM
DAPD.FT                     5.15 : FEET ABOVE PERMANENT DATUM
DMF .                         KB : DRILLING MEASURED FROM
EKB .FT                   874.75 : KELLY BUSHING
EGL .FT                    869.6 : GROUND LEVEL
DATE.                   05/27/80 : RUN DATE
RUN .                          1 : RUN NUMBER
DD  .FT                     3590 : DEPTH DRILLER
DL  .FT                   3590.6 : DEPTH LOGGER
BLI .FT                     3590 : BOTTOM LOG INTERVAL
TLI .FT                      510 : TOP LOG INTERVAL
CS  .IN                      245 : CASING SIZE
CBD .FT                   511.82 : CASING BOTTOM DRILLER
CBL .FT                      510 : CASING BOTTOM LOGGER
BS  .IN                      222 : BIT SIZE
BSD .FT                     3590 : BIT SIZE AT DEPTH
DFT .                  GEL BENEX : DRILLING FLUID TYPE
DFD .                       1200 : DRILLING FLUID DENSITY
DFV .                         82 : DRILLING FLUID VISCOSITY
DFPH.                       10.5 : DRILLING FLUID PH
DFL .                          8 : DRILLING FLUID LOSS
MSS .                       CIRC : MUD SAMPLE SOURCE
RMS .OHMM                    1.5 : RESISTIVITY MUD SAMPLE
MST .DEGF                     26 : MUD SAMPLE TEMPERATURE
RMF .OHMM                    1.3 : RESISTIVITY MUD FILTRATE SAMPLE
MFST.DEGF                     21 : MUD FILTRATE SAMPLE TEMPERATURE
RMC .OHMM                    1.9 : RESISTIVITY MUD CAKE
MCST.DEGF                     21 : MUD CAKE SAMPLE TEMPERATURE
MFSS.                       MEAS : MUD FILTRATE SAMPLE SOURCE
MCSS.                       MEAS : MUD CAKE SAMPLE SOURCE
RMB .OHMM                   0.73 : RESISTIVITY MUD AT BHT
TCS .HRS                      11 : TIME CIRCULATED STOPPED
LUN .                    HL 6214 : LOGGING UNIT NUMBER
LUL .                        EDM : LOGGING UNIT LOCATION
ENGI.                     BRODDY : RECORDING ENGINEER
WITN.              DICKIE LEPAGE : WITNESSED BY
CLNT.                    A2DTECH : CLIENT CODE
ORIG. 6.5"/100M 16.5"/100M PRINT : ORIGIN OF DATA
UWI .           100112704908W500 : UNIQUE WELL ID
DICO.     A2D Technologies, Inc. : DIGITIZING COMPANY
~Other -----------------------------------------------------
~ASCII -----------------------------------------------------
# ...
 1500.00000  255.08220  222.00000  395.72770  351.13450  351.13450   77.00780   34.10600   34.10600 2013.62080    -999.25    0.38920    0.40720   12.98570  255.08220   95.89090   98.50820   95.89090   12.98570    9.40280    9.40280    -999.25    0.38960    0.35040 2013.62080   10.18130 -115.49420   -7.61060   10.18130  884.27050  933.87110
 1550.00000  307.28950  222.00000  386.69250  398.21730  398.21730   82.37640   -7.06190   -7.06190 1961.06960    -999.25    0.40750    0.43800   12.13940  307.28950  107.84030  102.76330  107.84030   12.13940    8.32310    8.32310    -999.25    0.42270    0.38350 1961.06960   10.57960 -111.20960   -5.59140   10.57960 1264.44630  989.64840
 1600.00000  279.42870  222.00000  357.63600  288.60240  288.60240   72.47850   50.64990   50.64990 2098.06150    -999.25    0.33070    0.35790   13.79720  279.42870  123.86030  123.28590  123.86030   13.79720   12.52560   12.52560    -999.25    0.42770    0.38850 2098.06150   14.57820 -108.20410   -4.85130   14.57820 1015.82130 1055.29200
 1650.00000  255.11690  222.00000  317.96520  271.69310  271.69310   54.23200   36.36540   36.36540 2226.88090    -999.25    0.27050    0.28250   18.43930  255.11690  160.17140  155.61800  160.17140   18.43930   15.08610   15.08610    -999.25    0.36290    0.32370 2226.88090   18.84730 -104.92030   -3.65730   18.84730 1000.82520 1022.08790
 1700.00000  305.10170  222.00000  397.54250  381.15520  381.15520   92.97910   55.17920   55.17920 2356.27370    -999.25    0.17290    0.20690   10.75510  305.10170  147.07030  121.09500  121.09500   10.75510    9.24750    9.24750    -999.25    0.38220    0.34300 2356.27370   12.11430 -104.30620   -4.75300   12.11430 1097.95700  978.29000
 1750.00000  349.50210  222.00000  397.80270  402.36300  402.36300  160.99690 -154.16160 -154.16160 1660.04860    -999.25    0.62600    0.61400    6.21130  349.50210   77.89600   74.39820   74.39820    6.21130    4.72320    4.72320    -999.25    0.46950    0.43020 1660.04860    6.69770 -100.98200   -3.34470    6.69770  906.80660  992.54490
 1800.00000  206.39860  222.00000  278.02180  267.60150  267.60150   53.21130   12.42830   12.42830 2367.60640    -999.25    0.18850    0.20020   18.79300  206.39860   67.32380   65.39230   67.32380   18.79300   40.60060   40.60060    -999.25    0.28320    0.24400 2367.60640   16.73790  -98.05890   -2.41850   16.73790 1187.04300  985.95900
 1850.00000  227.77130  222.00000  266.09580  218.82890  218.82890   66.62800   32.82560   32.82560 2417.77250    -999.25    0.12980    0.17090   15.00870  227.77130   69.75020   81.26260   69.75020   15.00870   16.43520   16.43520    -999.25    0.26940    0.23020 2417.77250   18.87160 -133.25400  -36.75720   18.87160 1076.47270 1393.89940
 1900.00000  225.39510  222.00000  289.78380  287.19240  287.19240   31.47410  -18.26810  -18.26810 2401.38110    -999.25    0.16360    0.18050   31.77220  225.39510   92.52230  105.91530   92.52230   31.77220   22.71890   22.71890    -999.25    0.32770    0.28850 2401.38110   25.52850 -111.96470  -10.18590   25.52850 1061.17680 1146.61720
 1950.00000  225.99970  222.00000  267.50660  266.01950  267.50660   38.22340   27.08490   27.08490 2476.22340    -999.25    0.09850    0.13670   26.16200  225.99970   87.96570   82.69170   87.96570   26.16200   24.12810   24.12810    -999.25    0.26060    0.22140 2476.22340   23.84650 -113.63770   -7.24930   23.84650 1102.25000 1284.58890
 2000.00000  175.70980  222.00000  223.73290  237.40210  237.40210    0.55040   12.81600   12.81600 2525.04740    -999.25    0.06760    0.10820 1816.76420  175.70980   37.10460   33.55070   37.10460 1816.76420  631.42850  631.42850    -999.25    0.12570    0.08660 2525.04740 1879.27530 -159.56460  -53.69060 1879.27530 1471.57230 1046.62790
 2050.00000  164.03060  222.00000  258.72060  229.80690  258.72060   11.28880   14.73640   14.73640 2464.52560    0.13430    -999.25    0.14360   88.58330  164.03060   23.36830   28.48560   23.36830   88.58330   56.63930   56.63930    0.07780    -999.25    0.07780 2464.52560  106.95230 -154.96230  -49.60280  106.95230 1221.61160 1082.85180
 2100.00000  174.40900  222.00000  243.42030  241.36190  241.36190   13.68720   12.22840   12.22840 2590.19070    0.06320    -999.25    0.07010   73.06090  174.40900   30.01840   30.88720   30.01840   73.06090   62.83700   62.83700    0.08820    -999.25    0.08820 2590.19070   77.19060 -125.66260  -20.81750   77.19060 1099.95310 1097.30180
 2150.00000  172.30590  222.00000  243.06490  233.15910  233.15910    6.21770   31.80550   31.80550 2610.19560    0.05250    -999.25    0.05840  160.83000  172.30590   35.43010   37.51000   35.43010  160.83000  134.82760  134.82760    0.08190    -999.25    0.08190 2610.19560  171.83910 -117.15380  -12.82310  171.83910 1028.01170 1077.76660
 2200.00000  219.90860  222.00000  244.79010  240.23930  240.23930    1.62200   23.56010   23.56010 2497.67750    0.11900    -999.25    0.12420  616.50960  219.90860  143.04020   64.60740  143.04020  616.50960  492.01140  492.01140    0.17640    -999.25    0.17640 2497.67750  925.98710 -120.14780  -11.34280  925.98710  981.95610 1579.92870
 2250.00000  165.47090  222.00000  255.86560  241.75550  241.75550    9.72530   31.50620   31.50620 2727.35230   -0.01960    -999.25   -0.01010  102.82480  165.47090   23.24190   26.62350   23.24190  102.82480   93.91160   93.91160    0.06500    -999.25    0.06500 2727.35230  118.65600 -133.49020  -12.72320  118.65600 1331.72460 1041.80660
 2300.00000  152.66050  222.00000  249.09040  228.15990  228.15990   30.64500   57.36610   57.36610 2194.36720    0.30430    -999.25    0.30150   32.63180  152.66050   17.90410   24.47220   17.90410   32.63180   57.50960   57.50960    0.15370    -999.25    0.15370 2194.36720  367.73850 -234.60820 -119.94800  367.73850 1070.02540  990.82710
 2350.00000  166.84150  222.00000  226.05840  223.23400  223.23400   53.01020   43.32250   43.32250 2594.30250    0.05930    -999.25    0.06770   18.86430  166.84150   14.65630   26.87160   14.65630   18.86430   29.35160   29.35160    0.12790    -999.25    0.12790 2594.30250   51.55370 -226.67680 -118.12340   51.55370 1076.83590 1132.35550
 2400.00000  161.07350  222.00000  231.02020  234.36430  234.36430   10.53630   38.22590   38.22590 2735.02760   -0.02380    -999.25   -0.01460   94.90970  161.07350    9.86570   18.13680    9.86570   94.90970  150.13630  150.13630    0.11960    -999.25    0.11960 2735.02760  144.56120 -161.03220  -58.58570  144.56120 1044.94630 1071.66990
 2450.00000  159.74110  222.00000  271.58700  247.32400  247.32400    7.16740  117.85100  117.85100 2539.00390    0.10100    -999.25    0.10000  139.52100  159.74110   18.27750   28.33770   18.27750  139.52100  150.22200  150.22200    0.16730    -999.25    0.16730 2539.00390  234.00330 -157.46240  -61.12270  234.00330  998.25490 1054.95140
 2500.00000  176.17000  222.00000  232.73490  234.89590  234.89590    6.70210    9.71020    9.71020 2622.34860    0.04340    -999.25    0.05130  149.20660  176.17000   58.28740   67.14430   58.28740  149.20660  327.81090  327.81090    0.10490    -999.25    0.10490 2622.34860  452.39400 -109.68340  -22.94600  452.39400 1160.93750 1091.28120
 2550.00000  217.95860  222.00000  251.22810  259.99810  259.99810   85.87670   36.30670   36.30670 2584.74490    0.06250    -999.25    0.07320   11.64460  217.95860   76.83370   84.47080   76.83370   11.64460   11.11650   11.11650    0.22830    -999.25    0.22830 2584.74490   19.04690  -72.03410   -3.53610   19.04690 1025.79690 1064.12430
 2600.00000  205.71370  222.00000  251.71070  274.10040  274.10040   92.04290   65.01450   65.01450 2256.26540    0.23070    -999.25    0.26530   10.86450  205.71370   57.01550   83.16340   57.01550   10.86450   10.08210   10.08210    0.26030    -999.25    0.26030 2256.26540   11.91520 -107.31000  -35.30920   11.91520  987.36130 1091.32320
 2650.00000  252.65600  222.00000  337.69140  334.50170  334.50170  165.61780   75.89920   75.89920 2341.73540    0.21200    -999.25    0.21540    6.03800  252.65600   82.67360   97.26770   82.67360    6.03800    5.59480    5.59480    0.34910    -999.25    0.34910 2341.73540    7.40540 -121.87980  -46.37610    7.40540 1045.44150 1092.46970
