~Version ---------------------------------------------------
VERS.      2.0 : CWLS log ASCII Standard -VERSION 2.0
WRAP.       NO : One line per depth step
CREA. 11/10/17 : LAS Creation Date
~Well ------------------------------------------------------
STRT.FT                            300.0 : START DEPTH
STOP.FT                          12850.0 : STOP DEPTH
STEP.FT                         50.00000 : STEP LENGTH
NULL.                            -999.25 : NULL VALUE
COMP.            TRIAD OIL COMPANY, LTD. : COMPANY
WELL. TRIAD H.B. MOOSE CREEK 10-27-51-17 : WELL
FLD .                                    : FIELD
LOC .                                    : LOCATION
CTRY.                             CANADA : COUNTRY
SRVC.                       Schlumberger : SERVICE COMPANY
DATE.                        21-May-1958 : LOGDATE
PROV.                            Alberta : PROVINCE
UWI .                   100102705117W500 : UNIQUE WELL ID
SLAT.WGS84                      53.43327 : SURFACE LATITUDE
SLON.WGS84                     -116.4188 : SURFACE LONGITUDE
~Curve Information -----------------------------------------
DEPT  .FT         : Depth Curve
CALSED.IN         : CALIPER FROM SONIC LOG
CALWS .IN         : CALIPER [MCALED SPL. CALSED @ 8179'-9461']
CONDWS.MMHO       : CONDUCTIVITY [1000/DRESWS]
DRESWS.OHMM       : DEEP RESISTIVITY [LNED]
DTED  .US/F       : DELTA-TIME FROM SONIC LOG
DTWS  .US/F       : COMPRESSIONAL SONIC [DTED]
GRNED .UgRa-Eq/T  : GAMMA RAY [GRNED*16.5] FROM GRN LOG
GRSED .GAPI       : GAMMA RAY FROM SONIC LOG
GRWS  .GAPI       : GAMMA RAY [GRNED SPL. TO GRSED @ 8179'-9461']
LATED .OHMM       : LATERAL 18' 8" RESISTIVITY FROM RESISTIVITY LOG
LNED  .OHMM       : LONG NORMAL 64" RESISTIVITY FROM RESISTIVITY LOG
MCALED.IN         : MICRO CALIPER FROM MICROLOG
NEUTED.CPS        : NEUTRON FROM GRN LOG
NEUTWS.CPS        : NEUTRON [NEUTED]
SNED  .OHMM       : SHORT NORMAL 16" RESISTIVITY FROM RESISTIVITY LOG
SPRED .MV         : SPONTANEOUS POTENTIAL FROM RESISTIVITY LOG
SPWS  .MV         : SPONTANEOUS POTENTIAL [BASELINE 0 MV, SPRED]
SRESWS.OHMM       : SHALLOW RESISTIVITY [SNED]
~Params ----------------------------------------------------
LMF .                     KB : LOG MEASURED FROM
DMF .                     KB : DRILLING MEASURED FROM
EKB .FT                 3293 : KELLY BUSHING
DATE.               05/21/58 : RUN DATE
RUN .                      2 : RUN NUMBER
DD  .FT                12881 : DEPTH DRILLER
DL  .FT                12871 : DEPTH LOGGER
BLI .FT                12870 : BOTTOM LOG INTERVAL
TLI .FT                 8178 : TOP LOG INTERVAL
CBD .FT                 8182 : CASING BOTTOM DRILLER
CBL .FT                 8178 : CASING BOTTOM LOGGER
BS  .IN                8.625 : BIT SIZE
BSD .FT                12861 : BIT SIZE AT DEPTH
DFT .                   LIME : DRILLING FLUID TYPE
DFD .                   10.2 : DRILLING FLUID DENSITY
DFV .                     72 : DRILLING FLUID VISCOSITY
MSS .               FLOWLINE : MUD SAMPLE SOURCE
RMS .OHMM               0.52 : RESISTIVITY MUD SAMPLE
MST .DEGF                 65 : MUD SAMPLE TEMPERATURE
RMF .OHMM               0.25 : RESISTIVITY MUD FILTRATE SAMPLE
MFST.DEGF                 85 : MUD FILTRATE SAMPLE TEMPERATURE
RMC .OHMM               0.68 : RESISTIVITY MUD CAKE
MCST.DEGF                 85 : MUD CAKE SAMPLE TEMPERATURE
TCS .HRS                 300 : TIME CIRCULATED STOPPED
LUN .                   1571 : LOGGING UNIT NUMBER
LUL .                    EDM : LOGGING UNIT LOCATION
ENGI.                  JAMES : RECORDING ENGINEER
WITN.                 AITKEN : WITNESSED BY
CLNT.                A2DTECH : CLIENT CODE
ORIG.            2" 5" PRINT : ORIGIN OF DATA
UWI .       100102705117W500 : UNIQUE WELL ID
DICO. A2D Technologies, Inc. : DIGITIZING COMPANY
~Other -----------------------------------------------------
~ASCII -----------------------------------------------------
# ...
 10050.00000    -999.25    8.56440   16.02530   62.40140    -999.25    -999.25   65.02240    -999.25   65.02240  100.00000   62.40140    8.56440  336.03120  336.03120   22.99640  -15.35630   -2.46500   22.99640
 10100.00000    -999.25    8.66290   11.92310   83.87070    -999.25    -999.25   61.18030    -999.25   61.18030  142.19810   83.87070    8.66290  358.41600  358.41600   28.62020  -44.17150  -31.67110   28.62020
 10150.00000    -999.25    8.72560   22.70670   44.04120    -999.25    -999.25   85.69850    -999.25   85.69850   63.42730   44.04120    8.72560  299.28510  299.28510   18.69380  -48.78580  -36.10190   18.69380
 10200.00000    -999.25    8.63460   12.45190   80.30880    -999.25    -999.25   65.31030    -999.25   65.31030   88.54440   80.30880    8.63460  334.58290  334.58290   28.03330  -54.86020  -41.99090   28.03330
 10250.00000    -999.25    8.59850    5.13780  194.63670    -999.25    -999.25  325.58630    -999.25  325.58630  147.82060  194.63670    8.59850  300.26210  300.26210   43.58730  -79.73290  -66.67920   43.58730
 10300.00000    -999.25    8.74050    1.32350  755.56670    -999.25    -999.25   26.75560    -999.25   26.75560  400.32780  755.56670    8.74050  500.06790  500.06790   86.70120  -95.06600  -81.82880   86.70120
 10350.00000    -999.25    8.72890    1.50410  664.83250    -999.25    -999.25   28.27440    -999.25   28.27440  548.19330  664.83250    8.72890  468.05920  468.05920   57.25050 -131.07620 -117.65360   57.25050
 10400.00000    -999.25    8.77110    1.55150  644.52800    -999.25    -999.25   26.72260    -999.25   26.72260  483.35190  644.52800    8.77110  498.25770  498.25770   64.05730 -142.51310 -128.90690   64.05730
 10450.00000    -999.25    9.01510    3.11370  321.16500    -999.25    -999.25   25.06680    -999.25   25.06680  320.95920  321.16500    9.01510  492.79830  492.79830   40.65060 -154.76800 -140.97650   40.65060
 10500.00000    -999.25    9.79200    2.30760  433.34680    -999.25    -999.25   24.76160    -999.25   24.76160  172.59380  433.34680    9.79200  433.47930  433.47930   76.53890 -139.83600 -125.86010   76.53890
 10550.00000    -999.25   10.02860    1.30580  765.84020    -999.25    -999.25   34.47920    -999.25   34.47920  384.70240  765.84020   10.02860  376.26710  376.26710   61.12870 -105.67940  -91.51990   61.12870
 10600.00000    -999.25    9.92230    2.24010  446.39870    -999.25    -999.25   28.56150    -999.25   28.56150  441.24510  446.39870    9.92230  413.67450  413.67450   33.84570 -103.00150  -88.65670   33.84570
 10650.00000    -999.25    9.54300    3.65620  273.51130    -999.25    -999.25   22.09020    -999.25   22.09020  326.55650  273.51130    9.54300  389.30210  389.30210   33.60380 -101.35960  -86.83130   33.60380
 10700.00000    -999.25    9.12270    2.13760  467.81170    -999.25    -999.25   22.96140    -999.25   22.96140  519.60240  467.81170    9.12270  457.90460  457.90460   52.00290  -96.40150  -81.68780   52.00290
 10750.00000    -999.25    9.39190    2.02840  492.98770    -999.25    -999.25   27.50390    -999.25   27.50390  366.82850  492.98770    9.39190  379.23370  379.23370   48.62930 -103.83480  -88.93670   48.62930
 10800.00000    -999.25    8.29010    5.19520  192.48890    -999.25    -999.25   22.08280    -999.25   22.08280  461.77030  192.48890    8.29010  461.64900  461.64900   24.62420 -112.94010  -97.85850   24.62420
 10850.00000    -999.25    8.58990    3.86430  258.77980    -999.25    -999.25   31.68990    -999.25   31.68990  213.59440  258.77980    8.58990  370.42040  370.42040   44.25850 -117.08720 -101.82020   44.25850
 10900.00000    -999.25    7.45450    5.74390  174.10940    -999.25    -999.25   23.32360    -999.25   23.32360  499.27060  174.10940    7.45450  328.70580  328.70580   30.88820 -125.72100 -110.27050   30.88820
 10950.00000    -999.25    8.71280    2.79080  358.32120    -999.25    -999.25   30.03330    -999.25   30.03330  100.00000  358.32120    8.71280  328.24230  328.24230   60.78190 -102.61020  -86.97440   60.78190
 11000.00000    -999.25    8.52530    1.47540  677.78140    -999.25    -999.25   29.29580    -999.25   29.29580  403.42230  677.78140    8.52530  397.54720  397.54720   59.86330  -72.63660  -56.81630   59.86330
 11050.00000    -999.25    8.69100    1.92080  520.61970    -999.25    -999.25   36.46830    -999.25   36.46830  569.85700  520.61970    8.69100  387.22110  387.22110   42.86390  -64.23750  -48.23370   42.86390
 11100.00000    -999.25    8.69570    2.51400  397.76570    -999.25    -999.25   39.17600    -999.25   39.17600  384.11860  397.76570    8.69570  365.64740  365.64740   41.70650  -65.78140  -49.59230   41.70650
 11150.00000    -999.25    8.53730    2.80400  356.63620    -999.25    -999.25   34.34560    -999.25   34.34560  404.59920  356.63620    8.53730  337.37820  337.37820   42.36530  -56.42090  -40.04830   42.36530
 11200.00000    -999.25    8.49500    3.81510  262.11570    -999.25    -999.25   48.24600    -999.25   48.24600  349.75920  262.11570    8.49500  360.55370  360.55370   44.56130  -40.72280  -24.16480   44.56130
 11250.00000    -999.25    8.49930    6.36640  157.07420    -999.25    -999.25   60.10460    -999.25   60.10460  266.99830  157.07420    8.49930  362.66630  362.66630   33.25840  -24.53140   -7.78890   33.25840
 11300.00000    -999.25    8.86130   13.70180   72.99740    -999.25    -999.25   78.32880    -999.25   78.32880  279.57650   72.99740    8.86130  319.73840  319.73840   22.43760  -27.90910  -11.24360   22.43760
 11350.00000    -999.25    8.48950   28.80070   34.72140    -999.25    -999.25   93.73980    -999.25   93.73980   46.69290   34.72140    8.48950  239.95910  239.95910   14.82390  -31.08560  -14.53060   14.82390
 11400.00000    -999.25    8.49480   13.10900   76.28390    -999.25    -999.25   63.62230    -999.25   63.62230  130.26470   76.28390    8.49480  303.61710  303.61710   26.50960  -19.76270   -3.31700   26.50960
 11450.00000    -999.25    9.65940   23.20310   43.09760    -999.25    -999.25  112.20990    -999.25  112.20990   54.22110   43.09760    9.65940  208.51440  208.51440   13.51280  -23.94930   -7.61420   13.51280
 11500.00000    -999.25    8.25220    7.99200  125.12500    -999.25    -999.25  104.03090    -999.25  104.03090  129.74230  125.12500    8.25220  247.98910  247.98910   32.41630  -29.66950  -13.44430   32.41630
 11550.00000    -999.25    8.24290   18.30310   54.63800    -999.25    -999.25   72.39540    -999.25   72.39540  100.16810   54.63800    8.24290  317.08530  317.08530   21.10110  -30.47280  -14.35700   21.10110
 11600.00000    -999.25    8.22710   11.83710   84.48030    -999.25    -999.25   66.88110    -999.25   66.88110   82.78610   84.48030    8.22710  280.29990  280.29990   30.45960  -32.18530  -16.18000   30.45960
 11650.00000    -999.25    8.12860   29.37380   34.04640    -999.25    -999.25   99.68470    -999.25   99.68470   72.43920   34.04640    8.12860  259.27570  259.27570   15.30140  -48.54760  -32.65160   15.30140
 11700.00000    -999.25    8.09490   37.67410   26.54340    -999.25    -999.25  102.96990    -999.25  102.96990   34.54350   26.54340    8.09490  243.71630  243.71630   13.76930  -49.33850  -33.55300   13.76930
 11750.00000    -999.25    8.11400   27.87640   35.87260    -999.25    -999.25   83.50320    -999.25   83.50320   52.54800   35.87260    8.11400  263.63710  263.63710   16.48300  -60.38740  -44.71180   16.48300
 11800.00000    -999.25    8.12090   27.30610   36.62190    -999.25    -999.25  112.09440    -999.25  112.09440   44.96930   36.62190    8.12090  240.33350  240.33350   15.52670  -61.03750  -45.47130   15.52670
 11850.00000    -999.25    8.10890   40.13290   24.91720    -999.25    -999.25  110.87180    -999.25  110.87180   34.20950   24.91720    8.10890  236.66240  236.66240   11.65440  -61.72730  -46.27160   11.65440
 11900.00000    -999.25    8.02620   50.24890   19.90130    -999.25    -999.25  108.19880    -999.25  108.19880   26.34040   19.90130    8.02620  227.39310  227.39310   10.37680  -51.92750  -36.58110   10.37680
