~Version ---------------------------------------------------
VERS.      2.0 : CWLS log ASCII Standard -VERSION 2.0
WRAP.       NO : One line per depth step
CREA. 06/06/13 : LAS Creation Date
~Well ------------------------------------------------------
STRT.M                 350.0 : START DEPTH
STOP.M                4150.0 : STOP DEPTH
STEP.M              50.00000 : STEP LENGTH
NULL.                -999.25 : NULL VALUE
COMP.  CDC OIL & GAS LIMITED : COMPANY
WELL. CDCOG OBED 13-24-55-22 : WELL
FLD .                        : FIELD
LOC .                        : LOCATION
CTRY.                 CANADA : COUNTRY
SRVC. Schlumberger of Canada : SERVICE COMPANY
DATE.            06-Mar-1981 : LOGDATE
PROV.                Alberta : PROVINCE
UWI .       100132405522W500 : UNIQUE WELL ID
SLAT.WGS84          53.77035 : SURFACE LATITUDE
SLON.WGS84         -117.1407 : SURFACE LONGITUDE
~Curve Information -----------------------------------------
DEPT   .M      : DEPTH METER
CALD   .MM     : CALIPER FROM DENSITY LOG
CALS   .MM     : CALIPER FROM SONIC LOG
DCOR   .KG/M3  : DENSITY CORRECTION FROM DENSITY LOG
DPHI_LS.DEC    : DENSITY POROSITY LIMESTONE [M=2710, F=1000] FROM DENSITY LOG
DPHI_SS.DEC    : DENSITY POROSITY SANDSTONE [M=2650, F=1000] FROM DENSITY LOG
DT     .US/M   : DELTA TIME FROM SONIC LOG
GRD    .GAPI   : GAMMA RAY FROM DENSITY LOG
GRR    .GAPI   : GAMMA RAY FROM RESISTIVITY LOG
GRS    .GAPI   : GAMMA RAY FROM SONIC LOG
LLD    .OHMM   : DEEP LATEROLOG FROM RESISTIVITY LOG
LLS    .OHMM   : SHALLOW LATEROLOG FROM RESISTIVITY LOG
NPHI_LS.DEC    : NEUTRON POROSITY LIMESTONE FROM DENSITY LOG
NPHI_SS.DEC    : NEUTRON POROSITY SANDSTONE FROM DENSITY LOG
RHOB   .KG/M3  : BULK DENSITY FROM DENSITY LOG
SPR    .MV     : SPONTANEOUS POTENTIAL FROM RESISTIVITY LOG
~Params ----------------------------------------------------
PD  .                         GL : PERMANENT DATUM
EPD .M                   1011.77 : ELEVATION PERMANENT DATUM
LMF .                         KB : LOG MEASURED FROM
DAPD.M                       7.5 : FEET ABOVE PERMANENT DATUM
DMF .                         KB : DRILLING MEASURED FROM
EKB .M                   1019.27 : KELLY BUSHING
EGL .M                   1011.77 : GROUND LEVEL
DATE.                   03/06/81 : RUN DATE
RUN .                          2 : RUN NUMBER
DD  .M                      4183 : DEPTH DRILLER
DL  .M                    4185.5 : DEPTH LOGGER
BLI .M                    4184.6 : BOTTOM LOG INTERVAL
TLI .M                    2582.5 : TOP LOG INTERVAL
CS  .MM                      244 : CASING SIZE
CBD .M                    2582.6 : CASING BOTTOM DRILLER
CBL .M                    2582.5 : CASING BOTTOM LOGGER
BS  .MM                      216 : BIT SIZE
BSD .M                      4183 : BIT SIZE AT DEPTH
DFT .                        KCL : DRILLING FLUID TYPE
DFD .                       1060 : DRILLING FLUID DENSITY
DFV .                         64 : DRILLING FLUID VISCOSITY
DFPH.                         11 : DRILLING FLUID PH
DFL .                         12 : DRILLING FLUID LOSS
MSS .                CIRCULATION : MUD SAMPLE SOURCE
RMS .OHMM                  0.339 : RESISTIVITY MUD SAMPLE
MST .DEGC                   27.8 : MUD SAMPLE TEMPERATURE
RMF .OHMM                  0.267 : RESISTIVITY MUD FILTRATE SAMPLE
MFST.DEGC                   18.3 : MUD FILTRATE SAMPLE TEMPERATURE
MFSS.                      PRESS : MUD FILTRATE SAMPLE SOURCE
MCSS.                       MEAS : MUD CAKE SAMPLE SOURCE
RMB .OHMM                  0.118 : RESISTIVITY MUD AT BHT
TCS .HRS                     800 : TIME CIRCULATED STOPPED
TLAB.HRS                    2030 : TIME LOGGER AT BOTTOM
LUN .                       8112 : LOGGING UNIT NUMBER
LUL .                      EDSON : LOGGING UNIT LOCATION
ENGI.                    LEBLANC : RECORDING ENGINEER
WITN.                  MACDONALD : WITNESSED BY
CLNT.                    A2DTECH : CLIENT CODE
ORIG. 6.5"/100M 16.5"/100M PRINT : ORIGIN OF DATA
UWI .           100132405522W500 : UNIQUE WELL ID
DICO.     A2D Technologies, Inc. : DIGITIZING COMPANY
~Other -----------------------------------------------------
~ASCII -----------------------------------------------------
# ...
 2650.00000  238.93930  225.94110   -2.77730    -999.25    0.00290  218.37450   51.75340   50.04540   46.43840   16.26250   15.26230    -999.25    0.16850 2643.58810  -96.80590
 2700.00000  265.52410  232.87990 -179.34380    -999.25    0.02680  242.52250   79.16460   73.97580   73.65850   11.59400    8.55310    -999.25    0.20450 2614.63790  -90.01290
 2750.00000  244.84220  229.14740   -7.39360    -999.25    0.02850  220.64580   67.46390   65.49010   59.33940   17.70490   17.77200    -999.25    0.16410 2600.42720  -86.11060
 2800.00000  233.44550  222.05520  -11.72560    -999.25    0.01910  205.47410   60.97360   59.35290   56.94070   85.25770   80.90730    -999.25    0.11330 2610.98170  -94.71790
 2850.00000  232.80010  220.58450   -2.97170    -999.25    0.02240  229.98870  102.34410  101.60430   95.61310   39.57800   37.93450    -999.25    0.19070 2614.37330  -89.00560
 2900.00000  244.25130  216.44110 -134.77800    -999.25   -0.01220  203.48840   81.78900   79.08690   70.19540   34.48570   37.70300    -999.25    0.11270 2699.28590  -87.56470
 2950.00000  330.85650  274.87640 -165.10170    -999.25    0.29200  293.08440  106.48840  119.72080   97.72850   14.48050   13.14900    -999.25    0.34420 2100.57790  -68.21650
 3000.00000  229.97240  205.91360  -11.37410    0.09170    0.03990  198.90390   55.50490   50.34740   49.02670   92.06990   68.32410    0.02260    0.05840 2584.19430  -83.64500
 3050.00000  234.54780  204.65150   21.33410    0.02020    -999.25   77.22650   84.79990   83.76670   75.89910  110.99240  118.49980    0.04360    -999.25 2673.82540  -72.25090
 3100.00000  231.97720  211.13440  162.80780    0.05910    -999.25  183.36590   14.14560    9.59610   11.33380   19.17190   20.08370    0.11150    -999.25 2605.09790  -31.34660
 3150.00000  306.35680  228.98900  199.90460    0.19860    -999.25  166.31950   31.38380   32.82160   25.74750  273.36420  133.88440    0.02750    -999.25 2400.00490  -53.92040
 3200.00000  269.31340  232.35860  200.48580    0.00180    -999.25  163.83160    8.45030    9.40550    7.03770   85.14150   71.26130    0.00760    -999.25 2702.25780  -69.67570
 3250.00000  259.77760  235.77890   45.14760   -0.03130    -999.25  182.42990   64.66150   62.36390   65.62020   42.17890   40.03110    0.06350    -999.25 2761.44970  -53.69070
 3300.00000  259.52610  230.71950   17.67410    0.00380    -999.25  185.14860   41.75670   44.66580   36.12810   42.91890   45.80740    0.02770    -999.25 2690.63620  -51.98930
 3350.00000  246.72600  229.02940   -9.11330    0.01560    -999.25  195.47050   62.75250   58.92040   57.90390   27.41040   28.77980    0.06260    -999.25 2682.96850  -48.34890
 3400.00000  278.55820  227.80660  248.54030   -0.00440    -999.25  157.91470   17.76120   15.50710   17.15180 7392.13920 4033.51830    0.00000    -999.25 2710.38330   -5.74850
 3450.00000  290.32750  237.34530  230.70590   -0.00090    -999.25  159.54510    9.73900    8.69380   13.13870 2080.69630 1628.85210   -0.00480    -999.25 2712.39400  -38.13030
 3500.00000  246.74960  222.24510  130.76010   -0.05510    -999.25  165.88040    7.13150    6.98270    6.91570  226.76940   64.87580    0.01020    -999.25 2812.62010   -4.74220
 3550.00000  301.64670  236.91090  236.77620    0.09330    -999.25  158.93900   14.50510   11.04260   14.26500 10714.80960 3991.84910   -0.00590    -999.25 2544.78300  -38.02220
 3600.00000  322.58870  241.60900  246.78760    0.12360    -999.25  159.78010   13.54880   12.67790   10.83880 28286.39840 1873.43980   -0.00230    -999.25 2516.32500 -155.05240
 3650.00000  436.47790  243.25680  246.10260    0.22410    -999.25  167.44770   21.30950   18.62960   16.65680 1464.89990  115.81370    0.08200    -999.25 2311.85300 -117.38810
 3700.00000  231.86440  215.74480   63.37170    0.04530    -999.25  164.71610   27.81170   28.71330   29.48660 1736.49240 1920.62050    0.00270    -999.25 2628.38600  -85.91980
 3750.00000  230.83860  216.08730   15.38390    0.00620    -999.25  170.70270   31.94100   30.92720   31.41050  340.63650  407.34800    0.01760    -999.25 2691.95750  -92.64810
 3800.00000  228.13140  215.20930   27.60560    0.01690    -999.25  214.62870   90.60430   95.81120   86.14020   38.27700   40.22300    0.13040    -999.25 2703.93850  -32.66490
 3850.00000  230.37600  212.00080   79.83790   -0.02080    -999.25  184.04210   64.86290   58.94950   61.92380  192.11090  202.78620    0.07140    -999.25 2748.02640  -97.08660
 3900.00000  288.73020  221.43190  240.41470    0.18520    -999.25  189.89070   79.25710  126.64830  111.60970  394.28490  350.06500    0.04810    -999.25 2437.32300  -59.29990
 3950.00000  267.74720  231.31300  150.89440    0.03800    -999.25  165.04520    9.49700   10.60230   10.09630  336.86940  239.49060    0.07750    -999.25 2617.13350 -120.38910
 4000.00000  241.52910  236.11680   78.83540   -0.03910    -999.25  151.88070   11.13190    9.16980    9.39160 17355.17580 3560.97560    0.02120    -999.25 2768.76200  -84.21590
 4050.00000  253.24290  221.98790  -38.36380    0.03930    -999.25  160.62380    8.76520    7.49170    8.93590 7140.16160  494.44530    0.02180    -999.25 2616.73070  -70.17740
 4100.00000  312.37940  245.43000  252.32850   -0.00060    -999.25  157.93270   28.01860   21.18650   20.96670 45786.30470  529.32040   -0.00530    -999.25 2746.22830  -80.58810
 4150.00000  269.23750  235.83970  245.37610    0.21250    -999.25  153.41520   19.78800   20.98400   19.42430 48488.78520 1927.97290    0.00600    -999.25 2336.69870  -92.03230
