~Version ---------------------------------------------------
VERS. 2.0 : CWLS log ASCII Standard -VERSION 2.0
WRAP.  NO : ONE LINE PER DEPTH STEP
~Well ------------------------------------------------------
STRT.F                     1500.0 : START DEPTH
STOP.F                     9800.0 : STOP DEPTH
STEP.F                   50.00000 : STEP LENGTH
NULL.                     -999.25 : NULL VALUE
COMP.  PHILLIPS PETROLEUM COMPANY : COMPANY
WELL. PHILLIPS KAYBOB 12-15-64-19 : WELL
FLD .                             : FIELD
LOC .                             : LOCATION
CTRY.                      CANADA : COUNTRY
SRVC.                       Welex : SERVICE COMPANY
DATE.                 11-Jan-1958 : LOGDATE
PROV.                     Alberta : PROVINCE
UWI .            100121506419W500 : UNIQUE WELL ID
SLAT.WGS84               54.53978 : SURFACE LATITUDE
SLON.WGS84              -116.7947 : SURFACE LONGITUDE
~Curve Information -----------------------------------------
DEPT.F    0   1   0  0 : 1 MEASURED DEPTH
GRN .CPS  35 310 30 00 : GAMMA RAY FROM GRN LOG
NEUT.CPS  35 330 30 00 : NEUTRON
MCAL.IN   15 280 00 00 : MLT (MICROLOG) CALIPER
LAT9.OHMM 01 070 09 00 : LATERAL 9'
LT16.OHMM 01 070 16 00 : LATERAL 16'
SN  .OHMM 01 040 18 00 : SHORT NORMAL RESISTIVITY
SPR .MV   01 010 01 00 : SPONTANEOUS POTENTIAL FROM RESISTIVITY LOG
~Params ----------------------------------------------------
PD  .                                        GL : PERMANENT DATUM
EPD .FT                                    2430 : ELEVATION PERMANENT DATUM
LMF .                                        KB : LOG MEASURED FROM
DMF .                                        KB : DRILLING MEASURED FROM
EKB .FT                                    2442 : KELLY BUSHING
EGL .FT                                    2430 : GROUND LEVEL
DATE.                                  01/11/58 : RUN DATE
RUN .                                         1 : RUN NUMBER
DD  .FT                                    9825 : DEPTH DRILLER
DL  .FT                                    9817 : DEPTH LOGGER
BLI .FT                                    9816 : BOTTOM LOG INTERVAL
TLI .FT                                    1514 : TOP LOG INTERVAL
CS  .IN                                  13.375 : CASING SIZE
CBD .FT                                 1513.95 : CASING BOTTOM DRILLER
CBL .FT                                    1514 : CASING BOTTOM LOGGER
BS  .IN                                       9 : BIT SIZE
BSD .FT                                    9825 : BIT SIZE AT DEPTH
DFT . OIL EMULSION CAUSTIC GEL DRISCOSE RAYFLOW : DRILLING FLUID TYPE
DFD .                                      10.9 : DRILLING FLUID DENSITY
DFV .                                        74 : DRILLING FLUID VISCOSITY
DFPH.                                         9 : DRILLING FLUID PH
MSS .                                CIRCULATED : MUD SAMPLE SOURCE
RMS .OHMM                                   3.3 : RESISTIVITY MUD SAMPLE
MST .DEGF                                    54 : MUD SAMPLE TEMPERATURE
RMF .OHMM                                  0.56 : RESISTIVITY MUD FILTRATE SAMPLE
MFST.DEGF                                   182 : MUD FILTRATE SAMPLE TEMPERATURE
RMC .OHMM                                  1.25 : RESISTIVITY MUD CAKE
MCST.DEGF                                   182 : MUD CAKE SAMPLE TEMPERATURE
RMB .OHMM                                  1.05 : RESISTIVITY MUD AT BHT
ENGI.                           EDWARDS CARBERT : RECORDING ENGINEER
WITN.                           TIBBETTS HUNTER : WITNESSED BY
CLNT.                                   A2DTECH : CLIENT CODE
ORIG.                               2" 5" PRINT : ORIGIN OF DATA
UWI .                          100121506419W500 : UNIQUE WELL ID
DICO.                    A2D Technologies, Inc. : DIGITIZING COMPANY
~Other -----------------------------------------------------
~ASCII -----------------------------------------------------
# ...
 6000.00000   82.86620  388.89350    9.45270   24.55300   23.67680   25.20410  -70.19980
 6050.00000   85.30460  379.31480    9.38740   28.90790   20.94660   16.00750  -71.64770
 6100.00000   21.53420  440.61840    9.25320   47.56790   35.89360   25.26330 -111.18430
 6150.00000   29.55810  410.15810    9.36760  165.02240   64.38480   58.18460 -104.37640
 6200.00000   27.52630  410.28210    9.18420  275.57350  141.36490  127.60500 -175.73560
 6250.00000   26.57450  696.03090    9.55410   75.31760  108.77550  139.53900 -105.78570
 6300.00000   64.96850  640.18700    9.54180   79.45230  105.29080   41.79150  -74.58500
 6350.00000   58.56130  439.74740    9.44950  489.66200  340.41070  126.57510 -171.87410
 6400.00000   36.39840  541.91510    9.46100   74.28710   30.95290   57.92220 -116.56680
 6450.00000   41.33990  554.10690    9.45180   33.29900   28.70950   33.82850 -114.31580
 6500.00000   24.01970  529.36150   10.13830  146.67240  155.82660  113.45400 -148.22690
 6550.00000   23.09210  529.59720    9.38760  233.76960  193.27090  113.72480 -238.92470
 6600.00000   24.29440  568.58920    9.48060  311.24320  382.18000  120.91830 -237.79280
 6650.00000   83.51490  382.59550    9.84080   19.96860   34.10450   11.30980  -93.46500
 6700.00000   73.42790  380.14780   10.19440    7.74120    9.51460    7.01220 -123.13380
 6750.00000   59.03950  391.05150    9.45190   14.36910   10.19710   26.81960 -156.51920
 6800.00000   63.19670  407.85610    9.92820   85.39570   78.54230   55.69290  -97.76740
 6850.00000   42.25280  461.60450   10.29050  158.44820   59.91160   84.37290 -146.22280
 6900.00000   32.52460  533.97970    9.39950   93.61990   73.52030  108.85940 -118.95090
 6950.00000   39.84940  416.76190    9.18180  302.41230  218.47430   77.83250 -157.38190
 7000.00000   53.33670  396.39930    9.10850   76.36530   49.01110   47.80810 -151.78890
 7050.00000   49.23300  487.28970    9.10610  108.67630  104.10970   60.54560 -152.68260
 7100.00000   45.65890  524.65670    9.02670  428.17950  565.07180  196.92850 -174.55110
 7150.00000   46.51070  478.64510    9.04030  399.27950  515.89450  226.39450 -164.46420
 7200.00000   63.84380  435.88390    9.15390  135.69550  120.37550   62.20500 -161.49500
 7250.00000   30.41910  344.52810    9.66760   76.80850   80.45360   80.92450 -162.34410
 7300.00000   22.64410  512.01670    9.15360   71.60450   41.49500  230.15700 -134.55650
 7350.00000   22.31130  606.07960    9.27220  601.64980 1463.28920  192.37300 -145.21080
 7400.00000   26.36130  587.86930    9.88230  455.05180  757.56540  206.49930  -93.72120
 7450.00000   22.66450  644.62020    9.91640  495.04460  837.68760  236.26780  -78.51680
 7500.00000   19.29030  590.18040   10.12210  423.90630  708.62390  160.25970  -78.74570
 7550.00000   22.09300  580.48930   10.34310  350.03320  639.19090  288.45950  -77.60250
 7600.00000   20.47500  451.10420   11.07790  350.26560  807.59590  221.84670  -93.28870
 7650.00000   21.01820  496.52460   10.21930  241.82850  458.48270   96.50280 -112.06040
 7700.00000   18.38450  494.06760   10.25200  353.17810  812.32970  221.89370 -106.06210
 7750.00000   21.29900  525.43480    9.69880  417.10480 1048.08020  121.94720 -119.07900
 7800.00000   22.78410  498.81520   10.28260  213.63660  444.70130  204.68950 -129.75750
 7850.00000   17.81270  491.63950   10.23590  565.94790 1432.34960  188.89110 -118.72150
 7900.00000   18.62380  539.39750   10.02870  226.70120  411.82250   84.78460 -116.57900
 7950.00000   24.02280  515.59220    9.64800  397.52730  580.00000  158.30200 -137.81440
 8000.00000   30.99950  446.40060    9.55790  303.78650  357.30940   76.57200 -127.22010
 8050.00000   43.55300  363.76440    9.02270  380.25920  653.94480   92.24260 -152.27390
 8100.00000   24.07870  421.87120    9.53530  281.07640  283.97470   83.73520 -194.36110
 8150.00000   37.49440  417.38930    9.33560  151.70570  183.51750   23.40880 -258.43420
 8200.00000   34.62900  551.41310    9.40360  524.70320  853.30620  230.39790 -191.33060
 8250.00000   39.13930  507.51840    9.31720  663.31800 1469.08840  184.69020 -158.57050
 8300.00000   42.76890  422.24960    9.46080  109.45930  128.22230   95.01820 -144.48820
 8350.00000   25.33740  468.39800   10.10610  205.79740  278.21400  161.03960 -146.69420
 8400.00000   37.65100  494.29130    9.09110  134.43450  134.22330   64.69430 -139.89870
 8450.00000   52.36820  494.52600    9.09660  204.29770  235.15920   81.89000 -124.55270
 8500.00000   58.14130  429.58100    9.07940   82.03260   72.61230   36.02080 -123.10400
 8550.00000   58.30130  417.48430    9.03750   30.02040   23.34490   21.30480  -98.76080
 8600.00000   47.57410  407.41680    9.05130   25.33140   20.99320   26.21490  -70.85960
 8650.00000   41.10290  445.59090    9.05190   58.05200   36.86340   50.50430  -51.68180
 8700.00000   74.65220  239.86990   12.54430    5.85660    4.62190    5.39850  -55.85930
 8750.00000   79.56710  213.55020   13.10980    6.57440    4.62980    5.59920  -56.48680
 8800.00000   81.84380  237.78830   13.09040    7.03220    3.98780    6.19880  -64.20960
 8850.00000   87.36750  209.67380   13.05220    6.59190    4.59870    5.27870  -78.70500
 8900.00000   82.34360  225.67420   13.02500   10.48110    4.46660    7.08650  -87.06260
 8950.00000   70.84690  344.82270    9.71270   21.94860   16.92900   16.64660  -99.73940
 9000.00000   88.42060  308.77060   10.12020   18.16410   11.61590   13.37490 -102.48810
 9050.00000   91.06220  319.60190    9.83110   12.27500   10.01640   12.99380 -103.47310
 9100.00000   81.87470  277.61320    9.93390   16.49590   11.78260   12.28310 -103.29350
 9150.00000  103.83060  251.62440   10.93750    9.79850    7.37840   10.06510 -120.28830
 9200.00000   92.14600  283.75960    9.97530   10.37230    7.50180   11.44760 -130.18290
 9250.00000  109.64440  262.34160   10.71340    9.03450    8.50150    9.79840 -144.82450
 9300.00000  108.53950  356.54060    9.08540   26.11100   15.54140   93.10620 -141.01090
 9350.00000  117.61420  323.90620    8.97460  413.76170  454.08230  157.45040 -142.78740
 9400.00000   34.38030  463.37400    9.14370  143.43740  131.12730  117.46820 -145.67390
 9450.00000  117.45110  233.82520    9.95450  258.44090  187.37450   35.49160 -152.43030
 9500.00000   51.47100  375.33610    9.07640  356.39300  270.65120  119.20360 -141.14090
 9550.00000   55.16990  372.94480    9.03070  140.45480  166.78090   60.09660 -122.71760
 9600.00000   15.75730  603.42750    9.17530  437.46200  746.11820  135.90100 -204.31700
 9650.00000   18.58200  474.28450    8.97600  187.48880  180.06100   93.26420 -271.49510
 9700.00000   19.32280  493.84090    8.97870  301.41270  303.64870   77.68310 -278.16400
 9750.00000   17.88790  576.13710    9.16110  107.51180   84.82620   57.33940 -197.13770
 9800.00000   27.67620  604.61610    9.25200   72.48240  122.42180  870.99400 -202.44430
