~Version ---------------------------------------------------
VERS.      2.0 : CWLS log ASCII Standard -VERSION 2.0
WRAP.       NO : One line per depth step
CREA. 01/09/18 : LAS Creation Date
~Well ------------------------------------------------------
STRT.FT                          1150.0 : START DEPTH
STOP.FT                         12100.0 : STOP DEPTH
STEP.FT                        50.00000 : STEP LENGTH
NULL.                           -999.25 : NULL VALUE
COMP. HUDSONS BAY OIL & GAS COMPANY LTD : COMPANY
WELL. HB ET AL EAST MARLBORO 7-15-55-18 : WELL
FLD .                                   : FIELD
LOC .                                   : LOCATION
CTRY.                            CANADA : COUNTRY
SRVC.            Schlumberger of Canada : SERVICE COMPANY
DATE.                       14-Sep-1968 : LOGDATE
PROV.                           Alberta : PROVINCE
UWI .                  100071505518W500 : UNIQUE WELL ID
SLAT.WGS84                     53.74917 : SURFACE LATITUDE
SLON.WGS84                    -116.5848 : SURFACE LONGITUDE
~Curve Information -----------------------------------------
DEPT    .FT    : Depth Curve
CALDED  .IN    : CALIPER FROM DENSITY LOG, DEPTH ADJUSTED WITH [SPRED]
CALSED  .IN    : CALIPER FROM SONIC LOG, DEPTH ADJUSTED WITH [SPRED]
CALWS   .IN    : CALIPER [CALSED]
CONDWS  .MMHO  : CONDUCTIVITY [1000/DRESWS]
DCORED  .G/C3  : DENSITY CORRECTION FROM DENSITY LOG, DEPTH ADJUSTED WITH [SPRED]
DCORWS  .G/C3  : DENSITY CORRECTION [DCORED]
DENWS   .G/C3  : BULK DENSITY [RHOBED]
DPOLSWS .V/V   : DENITY POROSITY LIMESTONE [CALCULATED FROM DENWS]
DRESWS  .OHMM  : DEEP RESISTIVITY [ILDED]
DTED    .US/F  : DELTA TIME FROM SONIC LOG, DEPTH ADJUSTED WITH [SPRED]
DTWS    .US/F  : DELTA TIME [DTED]
GRNED   .GAPI  : GAMMA RAY FROM NEUTRON LOG, DEPTH ADJUSTED WITH [SPRED]
GRSED   .GAPI  : GAMMA RAY FROM SONIC LOG, DEPTH ADJUSTED WITH [SPRED]
GRWS    .GAPI  : GAMMA RAY [GRSED], SPLICED WITH [GRNED] FROM 8632'-8667'
ILDED   .OHMM  : INDUCTION LOG DEEP RESISTIVITY
ILMED   .OHMM  : INDUCTION LOG MEDIUM RESISTIVITY
LL8ED   .OHMM  : 8 INCH LATEROLOG RESISTIVITY
MRESWS  .OHMM  : MEDIUM RESISTIVITY [ILMED]
NEUTED  .NAPI  : NEUTRON FROM NEUTRON LOG, DEPTH ADJUSTED WITH [SPRED]
NEUTWS  .NAPI  : NEUTRON [NEUTED]
NPOLSWS .V/V   : NEITRON POROSITY LIMESTONE [SNPLSED]
PORLSED .V/V   : DENITY POROSITY LIMESTONE FROM DENSITY LOG, DEPTH ADJUSTED WITH [SPRED]
PORSDMED.V/V   : DENITY POROSITY DOLOMITE FROM DENSITY LOG, DEPTH ADJUSTED WITH [SPRED]
RHOBED  .G/C3  : BULK DENSITY FROM DENSITY LOG, DEPTH ADJUSTED WITH [SPRED]
SNPLSED .V/V   : SIDEWALL NEUTRON POROSITY LIMESTONE FROM DENSITY LOG, DEPTH ADJUSTED WITH [SPRED]
SPRED   .MV    : SPONTANEOUS POTENTIAL FROM RESISTIVITY LOG
SPWS    .MV    : SPONTANEOUS POTENTIAL [BASELINE 0 MV] [SPRED]
SRESWS  .OHMM  : SHALLOW RESISTIVITY [LL8ED]
~Params ----------------------------------------------------
PD  .                     GL : PERMANENT DATUM
EPD .FT                 3167 : ELEVATION PERMANENT DATUM
LMF .                     KB : LOG MEASURED FROM
DAPD.FT                   15 : FEET ABOVE PERMANENT DATUM
EKB .FT                 3182 : KELLY BUSHING
EGL .FT                 3167 : GROUND LEVEL
DATE.               09/14/68 : RUN DATE
RUN .                      3 : RUN NUMBER
DD  .FT                12110 : DEPTH DRILLER
DL  .FT                12109 : DEPTH LOGGER
BLI .FT                12105 : BOTTOM LOG INTERVAL
TLI .FT                11350 : TOP LOG INTERVAL
CBD .FT                 1265 : CASING BOTTOM DRILLER
BS  .IN                 8.75 : BIT SIZE
BSD .FT                12110 : BIT SIZE AT DEPTH
DFT .                    GEL : DRILLING FLUID TYPE
DFD .                   11.1 : DRILLING FLUID DENSITY
DFV .                    300 : DRILLING FLUID VISCOSITY
DFPH.                   11.5 : DRILLING FLUID PH
DFL .                    4.2 : DRILLING FLUID LOSS
MSS .             CIRCULATED : MUD SAMPLE SOURCE
RMS .OHMM               1.59 : RESISTIVITY MUD SAMPLE
MST .DEGF                 52 : MUD SAMPLE TEMPERATURE
RMF .OHMM               0.86 : RESISTIVITY MUD FILTRATE SAMPLE
MFST.DEGF                 58 : MUD FILTRATE SAMPLE TEMPERATURE
RMC .OHMM               1.69 : RESISTIVITY MUD CAKE
MCST.DEGF                 56 : MUD CAKE SAMPLE TEMPERATURE
RMB .OHMM               0.25 : RESISTIVITY MUD AT BHT
TCS .HRS                   4 : TIME CIRCULATED STOPPED
LUN .                   7501 : LOGGING UNIT NUMBER
LUL .                    EDM : LOGGING UNIT LOCATION
ENGI.               STUEHMER : RECORDING ENGINEER
WITN.                 WALKER : WITNESSED BY
CLNT.                A2DTECH : CLIENT CODE
ORIG.            2" 5" PRINT : ORIGIN OF DATA
UWI .       100071505518W500 : UNIQUE WELL ID
DICO. A2D Technologies, Inc. : DIGITIZING COMPANY
~Other -----------------------------------------------------
~ASCII -----------------------------------------------------
# ...
 2400.00000    -999.25    9.76620    9.76620  136.32710    -999.25    -999.25    -999.25    -999.25    7.33530   87.55810   87.55810    -999.25   71.32920   71.32920    7.33530    6.30960    7.40160    6.30960    -999.25    -999.25    -999.25    -999.25    -999.25    -999.25    -999.25  -57.36680   -5.34220    7.40160
 2450.00000    -999.25    8.93650    8.93650   58.24670    -999.25    -999.25    -999.25    -999.25   17.21920   80.02680   80.02680    -999.25   59.46510   59.46510   17.21920   14.46340   15.45080   14.46340    -999.25    -999.25    -999.25    -999.25    -999.25    -999.25    -999.25  -61.05270   -9.14710   15.45080
 2500.00000    -999.25    9.70570    9.70570  209.06070    -999.25    -999.25    -999.25    -999.25    4.78330   96.83200   96.83200    -999.25   65.55390   65.55390    4.78330    4.20060    5.00020    4.20060    -999.25    -999.25    -999.25    -999.25    -999.25    -999.25    -999.25  -55.51170   -3.72380    5.00020
 2550.00000    -999.25   10.74740   10.74740  377.64350    -999.25    -999.25    -999.25    -999.25    2.64800  121.97500  121.97500    -999.25   73.03470   73.03470    2.64800    2.19320    3.41980    2.19320    -999.25    -999.25    -999.25    -999.25    -999.25    -999.25    -999.25  -52.90650   -1.11740    3.41980
 2600.00000    -999.25    9.29740    9.29740  121.98690    -999.25    -999.25    -999.25    -999.25    8.19760   74.72710   74.72710    -999.25   64.20150   64.20150    8.19760    7.05290    7.99070    7.05290    -999.25    -999.25    -999.25    -999.25    -999.25    -999.25    -999.25  -57.38190   -5.57690    7.99070
 2650.00000    -999.25    9.74380    9.74380  205.93930    -999.25    -999.25    -999.25    -999.25    4.85580  100.51560  100.51560    -999.25   70.15320   70.15320    4.85580    4.19560    5.09710    4.19560    -999.25    -999.25    -999.25    -999.25    -999.25    -999.25    -999.25  -55.66550   -3.84460    5.09710
 2700.00000    -999.25    9.69210    9.69210  163.67920    -999.25    -999.25    -999.25    -999.25    6.11350   92.71610   92.71610    -999.25   81.99830   81.99830    6.11350    5.59210    6.55770    5.59210    -999.25    -999.25    -999.25    -999.25    -999.25    -999.25    -999.25  -56.58870   -4.75180    6.55770
 2750.00000    -999.25    9.43880    9.43880  127.21030    -999.25    -999.25    -999.25    -999.25    7.86100   86.37410   86.37410    -999.25   49.24660   49.24660    7.86100    6.97780    8.45620    6.97780    -999.25    -999.25    -999.25    -999.25    -999.25    -999.25    -999.25  -57.79270   -5.93990    8.45620
 2800.00000    -999.25    9.96600    9.96600  179.37220    -999.25    -999.25    -999.25    -999.25    5.57500   91.46210   91.46210    -999.25   73.39530   73.39530    5.57500    4.55440    5.12420    4.55440    -999.25    -999.25    -999.25    -999.25    -999.25    -999.25    -999.25  -57.68790   -5.81920    5.12420
 2850.00000    -999.25    9.51630    9.51630  266.52450    -999.25    -999.25    -999.25    -999.25    3.75200  103.71000  103.71000    -999.25   68.32610   68.32610    3.75200    3.09370    3.97840    3.09370    -999.25    -999.25    -999.25    -999.25    -999.25    -999.25    -999.25  -58.19080   -6.30620    3.97840
 2900.00000    -999.25    9.39620    9.39620  126.75230    -999.25    -999.25    -999.25    -999.25    7.88940   78.99670   78.99670    -999.25   62.82030   62.82030    7.88940    7.22740    8.55280    7.22740    -999.25    -999.25    -999.25    -999.25    -999.25    -999.25    -999.25  -58.65470   -6.75410    8.55280
 2950.00000    -999.25    9.59790    9.59790  163.15260    -999.25    -999.25    -999.25    -999.25    6.13010   82.39200   82.39200    -999.25   63.15910   63.15910    6.13010    5.67150    6.46950    5.67150    -999.25    -999.25    -999.25    -999.25    -999.25    -999.25    -999.25  -58.17740   -6.26080    6.46950
 3000.00000    -999.25    9.93230    9.93230  253.49830    -999.25    -999.25    -999.25    -999.25    3.94480  103.90920  103.90920    -999.25   70.04230   70.04230    3.94480    3.33620    3.66950    3.33620    -999.25    -999.25    -999.25    -999.25    -999.25    -999.25    -999.25  -57.97050   -6.03810    3.66950
 3050.00000    -999.25    9.78040    9.78040  236.18890    -999.25    -999.25    -999.25    -999.25    4.23390   93.06270   93.06270    -999.25   70.90390   70.90390    4.23390    3.92680    4.49210    3.92680    -999.25    -999.25    -999.25    -999.25    -999.25    -999.25    -999.25  -57.00730   -5.05900    4.49210
 3100.00000    -999.25    9.72670    9.72670  182.92570    -999.25    -999.25    -999.25    -999.25    5.46670   95.05120   95.05120    -999.25   71.95600   71.95600    5.46670    4.78050    5.83030    4.78050    -999.25    -999.25    -999.25    -999.25    -999.25    -999.25    -999.25  -57.07740   -5.11310    5.83030
 3150.00000    -999.25    9.37590    9.37590  173.11220    -999.25    -999.25    -999.25    -999.25    5.77660   86.76930   86.76930    -999.25   59.69700   59.69700    5.77660    5.23720    6.42530    5.23720    -999.25    -999.25    -999.25    -999.25    -999.25    -999.25    -999.25  -55.95690   -3.97670    6.42530
 3200.00000    -999.25    9.47240    9.47240  138.23460    -999.25    -999.25    -999.25    -999.25    7.23410   73.35770   73.35770    -999.25   65.79150   65.79150    7.23410    6.34070    7.75100    6.34070    -999.25    -999.25    -999.25    -999.25    -999.25    -999.25    -999.25  -57.03760   -5.04140    7.75100
 3250.00000    -999.25    9.40780    9.40780  157.60940    -999.25    -999.25    -999.25    -999.25    6.34480   99.55410   99.55410    -999.25   69.18960   69.18960    6.34480    5.62350    6.85280    5.62350    -999.25    -999.25    -999.25    -999.25    -999.25    -999.25    -999.25  -55.88860   -3.87660    6.85280
 3300.00000    -999.25    9.25400    9.25400   85.76990    -999.25    -999.25    -999.25    -999.25   11.65910   75.63720   75.63720    -999.25   83.50800   83.50800   11.65910    9.87480   10.84990    9.87480    -999.25    -999.25    -999.25    -999.25    -999.25    -999.25    -999.25  -56.85050   -4.82250   10.84990
 3350.00000    -999.25    9.68650    9.68650  210.19440    -999.25    -999.25    -999.25    -999.25    4.75750   86.84970   86.84970    -999.25   69.09770   69.09770    4.75750    4.10590    4.57150    4.10590    -999.25    -999.25    -999.25    -999.25    -999.25    -999.25    -999.25  -56.81960   -4.77570    4.57150
 3400.00000    -999.25    9.42580    9.42580  201.10200    -999.25    -999.25    -999.25    -999.25    4.97260   95.77330   95.77330    -999.25   72.77030   72.77030    4.97260    4.24780    5.25400    4.24780    -999.25    -999.25    -999.25    -999.25    -999.25    -999.25    -999.25  -56.52730   -4.46750    5.25400
 3450.00000    -999.25    9.32770    9.32770  123.04380    -999.25    -999.25    -999.25    -999.25    8.12800   78.81050   78.81050    -999.25   72.99660   72.99660    8.12800    7.06530    9.13690    7.06530    -999.25    -999.25    -999.25    -999.25    -999.25    -999.25    -999.25  -56.85420   -4.77840    9.13690
 3500.00000    -999.25    9.55920    9.55920  158.92690    -999.25    -999.25    -999.25    -999.25    6.29220   87.94260   87.94260    -999.25   86.85950   86.85950    6.29220    5.45840    6.07070    5.45840    -999.25    -999.25    -999.25    -999.25    -999.25    -999.25    -999.25  -56.07650   -3.98480    6.07070
 3550.00000    -999.25    9.52730    9.52730  120.08980    -999.25    -999.25    -999.25    -999.25    8.32710   87.47320   87.47320    -999.25   69.02860   69.02860    8.32710    7.78060    8.76230    7.78060    -999.25    -999.25    -999.25    -999.25    -999.25    -999.25    -999.25  -55.74540   -3.63780    8.76230
 3600.00000    -999.25    9.59040    9.59040  297.18560    -999.25    -999.25    -999.25    -999.25    3.36490   98.23930   98.23930    -999.25   84.67250   84.67250    3.36490    2.73520    3.12320    2.73520    -999.25    -999.25    -999.25    -999.25    -999.25    -999.25    -999.25  -55.83270   -3.70920    3.12320
