~Version ---------------------------------------------------
VERS.      2.0 : CWLS log ASCII Standard -VERSION 2.0
WRAP.       NO : One line per depth step
CREA. 08/31/13 : LAS Creation Date
~Well ------------------------------------------------------
STRT.M                      400.0 : START DEPTH
STOP.M                     3850.0 : STOP DEPTH
STEP.M                   50.00000 : STEP LENGTH
NULL.                     -999.25 : NULL VALUE
COMP.                  SUNCOR INC : COMPANY
WELL. SUNCOR ET AL KARR 14-2-66-1 : WELL
FLD .                             : FIELD
LOC .                             : Location
CTRY.                      CANADA : COUNTRY
SRVC.                     Unknown : SERVICE COMPANY
DATE.                 23-Jul-1995 : LOGDATE
LOC1.                             : Location 1
SECT.                             : Section
TOWN.                             : Township
RNGE.                             : Range
PDAT.                             : Perm Datum
EPD .                       904.8 : Elevation
LMF .                          KB : Log Measured From
DMF .                          KB : Drill Measured From
APD .                             : Above Perm Datum
EKB .                       914.6 : Elev-Kelly Bushing.
EDF .                             : Elev-Drill Floor
EGL .                       904.8 : Elev-Ground Level
PROV.                     Alberta : PROVINCE
UWI .            100140206601W600 : UNIQUE WELL ID
SLAT.WGS84               54.68824 : SURFACE LATITUDE
SLON.WGS84              -118.0395 : SURFACE LONGITUDE
~Curve Information -----------------------------------------
DEPT    .M      : DEPTH METER
CAL1ED  .MM     : CALIPER 1 FROM DENSITY LOG
CAL2ED  .MM     : CALIPER 2 FROM DENSITY LOG
CALWS   .MM     : CALIPER [CAL1ED]
CONDWS  .MMHO   : CONDUCTIVITY [1000/DRESWS]
DCORWS  .KG/M3  : DENSITY CORRECTION [DRHOED]
DENWS   .KG/M3  : FORMATION BULK DENSITY [CALC FROM DPOLSWS, M=2710.F=1000]
DPHIDMED.V/V    : DENSITY POROSITY DOLOMITE [M=2850,F=1000] FROM DENSITY LOG
DPHILSED.V/V    : DENSITY POROSITY LIMESTONE [M=2710,F=1000] FROM DENSITY LOG
DPHISSED.V/V    : DENSITY POROSITY SANDSTONE [M=2650,F=1000] FROM DENSITY LOG
DPOLSWS .V/V    : DENSITY POROSITY LIMESTONE [DPHISSED CONVERTED TO LIMESTONE MATRIX, M=2710,F=1000 & SPL TO DPHILSED @ 2100.1M]
DRESWS  .OHMM   : DEEP RESISTIVITY [IDPHED]
DRHOED  .KG/M3  : DENSITY CORRECTION FROM DENSITY LOG
DTED    .US/M   : DELTA TIME FROM SONIC LOG
DTWS    .US/M   : COMPRESSIONAL  SONIC [DTED]
GRDED   .GAPI   : GAMMA RAY FROM DENSITY LOG
GRRED   .GAPI   : GAMMA RAY FROM RESISTIVITY LOG
GRWS    .GAPI   : GAMMA RAY [GRRED SPL. TO GRDED @3860M]
HDED    .MM     : HOLE DIAMETER FROM SONIC LOG
IDPHED  .OHMM   : DEEP INDUCTION PHASE RESISTIVITY FROM RESISTIVITY LOG
IMPHED  .OHMM   : MEDIUM INDUCTION PHASE RESISTIVITY FROM RESISTIVITY LOG
MRESWS  .OHMM   : MEDIUM RESISTIVITY [IMPHED]
NPHIDMED.V/V    : NEUTRON POROSITY DOLOMITE FROM DENSITY LOG
NPHILSED.V/V    : NEUTRON POROSITY LIMESTONE FROM DENSITY LOG
NPHISSED.V/V    : NEUTRON POROSITY SANDSTONE FROM DENSITY LOG
NPOLSWS .V/V    : NEUTRON POROSITY LIMESTONE [NPHISSED MATRIX CONVERSION FOR LIMESTONE, SPL. TO NPHILSED @ 2100.1M]
PEFED   .B/E    : PHOTOELECTRIC FACTOR FROM DENSITY LOG
PEFWS   .B/E    : PHOTOLELECTRIC FACTOR [PEFED]
RHOBED  .KG/M3  : BULK DENSITY FROM DENSITY LOG
TENDED  .N      : TENSION FROM DENSITY LOG
TENRED  .N      : TENSION FROM RESISTIVITY LOG
~Params ----------------------------------------------------
RUN .       2 : Run #
DATE.         : Date log was run
TDD .    3889 : Depth - Driller
TDL .    3886 : Depth - Logger
BLI .  3884.2 : Bottom Log Interval
TLI .  2600.0 : Top Log Interval
CBD .     452 : Casing - Driller
CBL .   452.5 : Casing - Logger
BS  .     222 : Bit Size
DFT .  INVERT : Type of Fluid In Hole
DFD .    1120 : Drilling Fluid Density
DFV .      60 : Drilling Fluid Viscosity
DFPH.         : Drilling Fluid pH
DFL .         : Drilling Fluid Loss
MSS .         : Source of Sample
RMS .         : Mud Resitivity
RMFS.         : Mud Filtrate Resistivity
RMCS.         : Mud Cake Resitivity
MFSS.         : Source of Rmf
MCSS.         : Source of Rmc
RMBH.         : Rm at BHT
MRT .      95 : Max Recorded Temperature
CLNT. A2DTECH : CLIENT CODE
~Other -----------------------------------------------------
PI-SFL-BCS LOG RAN IN COMBO & CNL-LDT LOG RAN
RHOB FROM SMALL SCALE SECTION
NEUTRON MATRIX CONVERSION USING SCHLUMBERGER CHART
~ASCII -----------------------------------------------------
# ...
 1600.00000  232.21090  227.92670  232.21090   77.14260    2.57930 2520.80500    -999.25    -999.25    0.07830    0.11060   12.96300    2.57930  243.72270  243.72270   79.70250   77.11530   77.11530  233.48430   12.96300   11.81460   11.81460    -999.25    -999.25    0.23840    0.19460    2.99140    2.99140 2520.80500 11621.84860 11492.17190
 1650.00000  228.13140  234.39880  228.13140  146.70290    9.65640 2594.72500    -999.25    -999.25    0.03350    0.06740    6.81650    9.65640  278.04650  278.04650  119.87240  125.74790  125.74790  240.76940    6.81650    6.49720    6.49720    -999.25    -999.25    0.33840    0.29460    3.49760    3.49760 2594.72500 11615.40920 11711.82030
 1700.00000  226.28330  239.99400  226.28330  106.72590   54.53250 2625.41500    -999.25    -999.25    0.01490    0.04950    9.36980   54.53250  267.12040  267.12040  104.61330  112.37300  112.37300  238.18900    9.36980    9.10090    9.10090    -999.25    -999.25    0.32000    0.27610    3.51740    3.51740 2625.41500 12125.38670 11911.88870
 1750.00000  224.60110  283.91410  224.60110  188.64010   71.14840 2615.18500    -999.25    -999.25    0.02110    0.05540    5.30110   71.14840  277.20030  277.20030  108.02030  103.73520  103.73520  245.86900    5.30110    5.90490    5.90490    -999.25    -999.25    0.33730    0.29350    4.37680    4.37680 2615.18500 12025.35160 12083.26070
 1800.00000  227.01230  233.19380  227.01230  152.50880   20.79430 2552.48500    -999.25    -999.25    0.05910    0.09210    6.55700   20.79430  279.72370  279.72370  114.20560  111.40340  111.40340  240.38280    6.55700    6.68050    6.68050    -999.25    -999.25    0.31530    0.27140    2.96710    2.96710 2552.48500 12127.24900 12215.17380
 1850.00000  227.50430  230.79670  227.50430   93.84820   25.05270 2596.37500    -999.25    -999.25    0.03250    0.06640   10.65550   25.05270  252.64790  252.64790  100.54430   99.33980   99.33980  237.91690   10.65550    9.90650    9.90650    -999.25    -999.25    0.27740    0.23340    2.86910    2.86910 2596.37500 12690.08110 12275.00490
 1900.00000  222.61430  223.97200  222.61430   51.19410    8.40380 2584.49500    -999.25    -999.25    0.03970    0.07340   19.53350    8.40380  225.97200  225.97200   60.09360   53.11940   53.11940  234.51910   19.53350   17.90500   17.90500    -999.25    -999.25    0.24210    0.19820    3.18190    3.18190 2584.49500 12991.01460 12488.42770
 1950.00000  230.81630  243.60750  230.81630   26.95080   73.45060 1796.78500    -999.25    -999.25    0.51710    0.53400   37.10460   73.45060  364.61560  364.61560   66.36680   55.20860   55.20860  237.25520   37.10460   31.56290   31.56290    -999.25    -999.25    0.61510    0.58210    2.02570    2.02570 1796.78500 12909.89360 12742.55180
 2000.00000  236.62930  234.82540  236.62930   19.38670    1.67100 1528.49500    -999.25    -999.25    0.67970    0.69090   51.58180    1.67100  378.57440  378.57440   54.65070   65.17630   65.17630  239.68870   51.58180   50.72780   50.72780    -999.25    -999.25    0.62320    0.59080    1.39660    1.39660 1528.49500 13216.13770 13109.18750
 2050.00000  226.27990  224.38200  226.27990   44.76600    7.97860 2635.97500    -999.25    -999.25    0.00850    0.04330   22.33840    7.97860  203.92640  203.92640   52.77680   52.26480   52.26480  222.07170   22.33840   25.59050   25.59050    -999.25    -999.25    0.17010    0.12710    4.19750    4.19750 2635.97500 13201.03520 13366.50980
 2100.00000  226.15940  224.50140  226.15940   75.79550    8.19980 2538.95500    0.16870    -999.25    0.06730    0.10000   13.19340    8.19980  231.34470  231.34470   60.45060   61.77280   61.77280  234.56880   13.19340   12.19870   12.19870    -999.25    -999.25    0.23420    0.19040    3.50660    3.50660 2538.95500 13408.00290 13512.50200
 2150.00000  224.05040  225.79060  224.05040   33.27580    7.24550 2641.42900    0.11480    0.04010    0.00680    0.04010   30.05190    7.24550  211.16210  211.16210   56.24080   57.98730   57.98730  234.42420   30.05190   29.78700   29.78700    0.09620    0.10940    0.15760    0.10940    2.59140    2.59140 2638.78000 13592.26560 13536.74710
 2200.00000  225.42450  229.08830  225.42450   26.28720    8.34100 2569.78000    0.15350    0.08200    0.05060    0.08200   38.04130    8.34100  205.23740  205.23740   56.16220   61.44260   61.44260  231.52060   38.04130   38.42130   38.42130    0.11430    0.13080    0.15100    0.13080    3.27840    3.27840 2566.51000 13904.20020 14023.30570
 2250.00000  219.21160  222.01950  219.21160   71.85920   35.02720 2479.66300    0.20090    0.13470    0.10420    0.13470   13.91610   35.02720  236.27760  236.27760   31.78950   28.01370   28.01370  224.02860   13.91610   14.84230   14.84230    0.11280    0.12770    0.17520    0.12770    2.19460    2.19460 2478.07000 14252.18460 14386.48630
 2300.00000  224.41860  281.20570  224.41860  295.76170   12.52170 2526.68800    0.17210    0.10720    0.07250    0.10720    3.38110   12.52170  309.96660  309.96660  122.85700  119.93400  119.93400  243.37160    3.38110    3.44370    3.44370    0.33140    0.38450    0.41780    0.38450    3.45830    3.45830 2530.37500 14030.91700 14130.06250
 2350.00000  224.23650  228.43290  224.23650    1.19350    0.08280 2513.52100    0.17850    0.11490    0.07920    0.11490  837.84630    0.08280  225.14640  225.14640   94.54410   95.99080   95.99080  226.69040  837.84630  220.26760  220.26760    0.13950    0.15860    0.21760    0.15860    4.60500    4.60500 2519.32000 14099.16890 14337.58500
 2400.00000  224.16320  222.23170  224.16320  113.83560   16.58240 2590.47100    0.13520    0.06990    0.02960    0.06990    8.78460   16.58240  204.52030  204.52030  109.90490   98.39620   98.39620  228.99340    8.78460    9.04500    9.04500    0.09780    0.11140    0.15330    0.11140    2.93170    2.93170 2601.16000 14467.45700 14739.74710
 2450.00000  224.72840  223.88220  224.72840   31.76380    3.85510 2682.29800    0.08960    0.01620   -0.02080    0.01620   31.48240    3.85510  189.78790  189.78790   83.64220   74.83300   74.83300  228.31190   31.48240   34.87250   34.87250    0.09540    0.10130    0.12970    0.10130    3.12430    3.12430 2684.32000 14967.93750 14850.73630
 2500.00000  224.75000  223.17170  224.75000   18.16040    1.44770 2667.25000    0.09520    0.02500   -0.01530    0.02500   55.06490    1.44770  193.73420  193.73420   90.03550   85.72980   85.72980  226.13820   55.06490   49.36510   49.36510    0.05890    0.06890    0.11210    0.06890    3.26950    3.26950 2675.24500 14770.97750 15110.00680
 2550.00000  226.92630  223.53960  226.92630   20.12020    4.12550 2694.95200    0.08270    0.00880   -0.02870    0.00880   49.70130    4.12550  207.64830  207.64830  124.07370  113.68620  113.68620  226.79500   49.70130   45.63000   45.63000    0.10900    0.12350    0.17380    0.12350    3.86260    3.86260 2697.35500 15089.85350 15389.28810
 2600.00000  221.97730  220.19520  221.97730  198.11400   66.51950 2661.43600    0.11130    0.02840    0.00250    0.02840    5.04760   66.51950  186.14460  186.14460  102.85990  104.73280  104.73280  227.05370    5.04760    5.90670    5.90670    0.11810    0.13350    0.18810    0.13350    3.23680    3.23680 2645.87500 15452.49900 15236.56640
 2650.00000  226.98080  224.82580  226.98080    6.14630   13.37910 2829.87100    0.00750   -0.07010   -0.11090   -0.07010  162.69940   13.37910  160.43180  160.43180   36.06710   39.07090   39.07090  229.76990  162.69940  147.04990  147.04990    0.04220    0.04820    0.09010    0.04820    3.65870    3.65870 2832.98500 16022.12400 15954.46000
 2700.00000  226.18770  224.40950  226.18770    0.98110   19.64940 2818.07200    0.02130   -0.06320   -0.09710   -0.06320 1019.23220   19.64940  150.18380  150.18380   24.41330   16.60430   16.60430  229.82430 1019.23220  478.21040  478.21040    0.04050    0.04840    0.08830    0.04840    3.53710    3.53710 2810.21500 15850.68950 16163.60840
 2750.00000  297.98010  221.19880  297.98010    7.11710  185.77950 2545.66900    0.20050    0.09610    -999.25    0.09610  140.50580  185.77950  175.97130  175.97130   22.57650   21.80740   21.80740  249.39440  140.50580  167.26060  167.26060    0.05690    0.06160    -999.25    0.06160    4.49950    4.49950 2545.66900 18941.20510 16088.73630
