~Version ---------------------------------------------------
VERS.      2.0 : CWLS log ASCII Standard -VERSION 2.0
WRAP.       NO : One line per depth step
CREA. 09/27/17 : LAS Creation Date
~Well ------------------------------------------------------
STRT.FT                750.0 : START DEPTH
STOP.FT               7200.0 : STOP DEPTH
STEP.FT             50.00000 : STEP LENGTH
NULL.                -999.25 : NULL VALUE
COMP.       HUNT OIL COMPANY : COMPANY
WELL. HPC OBERLIN 8-20-38-21 : WELL
FLD .                        : FIELD
LOC .                        : LOCATION
CTRY.                 CANADA : COUNTRY
SRVC. Schlumberger of Canada : SERVICE COMPANY
DATE.            27-May-1962 : LOGDATE
PROV.                Alberta : PROVINCE
UWI .       100082003821W400 : UNIQUE WELL ID
SLAT.WGS84          52.27925 : SURFACE LATITUDE
SLON.WGS84         -112.9595 : SURFACE LONGITUDE
~Curve Information -----------------------------------------
DEPT  .FT    : Depth Curve
ACED  .US/F  : ACOUSTIC TIME FROM SONIC LOG [ADJ. TO RESISTIVITY LOG]
CALSED.IN    : CALIPER FROM SONIC LOG [ADJ. TO RESESTIVITY LOG]
CALWS .IN    : CALIPER [CALSED]
CILDED.MMHO  : CONDUCTIVITY FROM RESISTIVITY LOG
CONDWS.MMHO  : CONDUCTIVITY [1000/DRESWS]
DRESWS.OHMM  : DEEP RESISTIVITY [1000/CILDED,IF ILDED<5,ILDED]
DTWS  .US/F  : COMPRESSIONAL SONIC [ACED]
GRSED .GAPI  : GAMMA RAY FROM SONIC LOG [ADJ. TO RESISTIVITY LOG]
GRWS  .GAPI  : GAMMA RAY [GRSED]
ILDED .OHMM  : DEEP INDUCTION FROM RESISTIVITY LOG
SNED  .OHMM  : SHORT NORMAL FROM RESISTIVITY LOG
SPRED .MV    : SPONTANEOUS POTENTIAL FROM RESISTIVITY LOG
SPWS  .MV    : SPONTENEOUS POTENTIAL [BASELINE 0 MV,SPRED]
SRESWS.OHMM  : SHALLOW RESISTIVITY [SNED]
~Params ----------------------------------------------------
PD  .                     GD : PERMANENT DATUM
EPD .FT                 2640 : ELEVATION PERMANENT DATUM
LMF .                     KB : LOG MEASURED FROM
DAPD.FT                   13 : FEET ABOVE PERMANENT DATUM
DMF .                     KB : DRILLING MEASURED FROM
EKB .FT                 2652 : KELLY BUSHING
EGL .FT                 2640 : GROUND LEVEL
DATE.               05/27/62 : RUN DATE
RUN .                      1 : RUN NUMBER
DD  .FT                 7244 : DEPTH DRILLER
DL  .FT                 7239 : DEPTH LOGGER
BLI .FT                 7243 : BOTTOM LOG INTERVAL
TLI .FT                  742 : TOP LOG INTERVAL
CBD .FT                  742 : CASING BOTTOM DRILLER
CBL .FT                  740 : CASING BOTTOM LOGGER
BS  .IN                7.875 : BIT SIZE
BSD .FT                 7244 : BIT SIZE AT DEPTH
DFT .                   LIME : DRILLING FLUID TYPE
DFD .                   10.6 : DRILLING FLUID DENSITY
DFV .                     60 : DRILLING FLUID VISCOSITY
DFPH.                    8.5 : DRILLING FLUID PH
DFL .                   12.1 : DRILLING FLUID LOSS
RMS .OHMM               0.76 : RESISTIVITY MUD SAMPLE
MST .DEGF                 85 : MUD SAMPLE TEMPERATURE
RMF .OHMM                0.3 : RESISTIVITY MUD FILTRATE SAMPLE
MFST.DEGF                 74 : MUD FILTRATE SAMPLE TEMPERATURE
RMC .OHMM               0.43 : RESISTIVITY MUD CAKE
MCST.DEGF                 76 : MUD CAKE SAMPLE TEMPERATURE
TCS .HRS                 2.5 : TIME CIRCULATED STOPPED
LUN .                   3815 : LOGGING UNIT NUMBER
ENGI.               STAFFORD : RECORDING ENGINEER
WITN.                   COOK : WITNESSED BY
CLNT.                A2DTECH : CLIENT CODE
ORIG.            2" 5" PRINT : ORIGIN OF DATA
UWI .       100082003821W400 : UNIQUE WELL ID
DICO. A2D Technologies, Inc. : DIGITIZING COMPANY
~Other -----------------------------------------------------
IEL-SONIC LOG RUN
ALL CURVES VERIFIED FROM SMALL SCALE SECTION FROM TOP TO BOTTOM, 3800' TO 4700' FROM LARGE SCALE
~ASCII -----------------------------------------------------
# ...
 3200.00000    -999.25    -999.25    -999.25  148.41080  153.46840    6.51600    -999.25    -999.25    -999.25    6.51600    7.69630  -83.93960   -9.77510    7.69630
 3250.00000    -999.25    -999.25    -999.25  109.73740  111.64580    8.95690    -999.25    -999.25    -999.25    8.95690    7.87800  -84.59020  -10.63970    7.87800
 3300.00000    -999.25    -999.25    -999.25  140.43630  133.22320    7.50620    -999.25    -999.25    -999.25    7.50620    6.76900  -83.47320   -9.73560    6.76900
 3350.00000    -999.25    -999.25    -999.25  136.00970  130.12870    7.68470    -999.25    -999.25    -999.25    7.68470    6.61710  -83.20550   -9.68300    6.61710
 3400.00000    -999.25    -999.25    -999.25  144.51050  147.42980    6.78290    -999.25    -999.25    -999.25    6.78290    7.83220  -81.48950   -8.18110    7.83220
 3450.00000    -999.25    -999.25    -999.25  183.98140  189.26490    5.28360    -999.25    -999.25    -999.25    5.28360    6.54250  -80.46160   -7.36720    6.54250
 3500.00000    -999.25    -999.25    -999.25  129.26480  132.58730    7.54220    -999.25    -999.25    -999.25    7.54220   10.80210  -79.66210   -6.78180   10.80210
 3550.00000    -999.25    -999.25    -999.25   62.23540   67.49020   14.81790    -999.25    -999.25    -999.25   14.81790   20.69650  -81.37120   -8.70380   20.69650
 3600.00000    -999.25    -999.25    -999.25  153.07440  149.61320    6.68390    -999.25    -999.25    -999.25    6.68390    9.12180  -78.92640   -6.47410    9.12180
 3650.00000    -999.25    -999.25    -999.25   94.44580  102.79100    9.73050    -999.25    -999.25    -999.25    9.73050   13.70560  -77.36760   -5.12940   13.70560
 3700.00000    -999.25    -999.25    -999.25  128.10870  131.45440    7.60720    -999.25    -999.25    -999.25    7.60720   11.25300  -75.85490   -3.83070   11.25300
 3750.00000  102.35000    9.52640    9.52640  209.76830  184.68930    5.41450  102.35000  105.45600  105.45600    5.41450    6.29160  -74.95350   -3.14330    6.29160
 3800.00000  100.75500    9.20930    9.20930  405.09080  405.09080    2.46910  100.75500   78.49800   78.49800    3.05360    3.41910  -75.02330   -3.38740    3.41910
 3850.00000   99.46000    9.64240    9.64240  303.65680  303.65680    3.29320   99.46000   80.89200   80.89200    4.40540    3.54940  -81.26600   -9.13650    3.54940
 3900.00000  105.30000   10.26220   10.26220  330.47280  330.47280    3.02670  105.30000   90.29400   90.29400    4.43080    3.92140  -80.86150   -8.24100    3.92140
 3950.00000   83.32000    9.38420    9.38420  172.60340  159.64240    6.26400   83.32000   81.04200   81.04200    6.26400    7.41760  -81.23360   -8.12200    7.41760
 4000.00000   74.27000    9.62660    9.62660  131.07000  132.46790    7.54900   74.27000   72.65400   72.65400    7.54900    8.85790  -81.30730   -7.70470    8.85790
 4050.00000  111.22000   13.05570   13.05570  813.37950  813.37950    1.23060  111.22000   68.77200   68.77200    2.70600    1.50770  -80.64730   -6.55610    1.50770
 4100.00000  111.59500   11.28230   11.28230  632.51010  632.51010    1.58100  111.59500   73.22400   73.22400    3.21220    2.20550  -80.97730   -6.39260    2.20550
 4150.00000   79.58000    9.97240    9.97240  134.16800  132.20960    7.56380   79.58000   68.88000   68.88000    7.56380    8.17100  -81.42760   -6.35190    8.17100
 4200.00000   74.94000    9.09260    9.09260   91.23930   95.38160   10.48420   74.94000   75.33600   75.33600   10.48420   12.31180  -81.38100   -5.81430   12.31180
 4250.00000   78.36000    9.37200    9.37200  137.78300  130.15070    7.68340   78.36000   88.29000   88.29000    7.68340    8.27880  -81.49270   -5.43490    8.27880
 4300.00000   76.18000   10.25900   10.25900   81.55900   85.19020   11.73880   76.18000   59.86800   59.86800   11.73880   11.21400  -85.27020   -8.66770   11.21400
 4350.00000  141.11000   13.61230   13.61230   66.39500   69.04890   14.48250  141.11000   30.16800   30.16800   14.48250   25.52650  -95.98920  -18.79850   25.52650
 4400.00000   70.42000    9.06530    9.06530   87.29180   91.76150   10.90150   70.42000   65.99400   65.99400   10.90150   12.93850  -85.34630   -7.57030   12.93850
 4450.00000   70.93000    8.77020    8.77020  103.79070  110.57050    9.04400   70.93000   69.06000   69.06000    9.04400   12.59460  -82.12200   -3.76080   12.59460
 4500.00000   75.15000    9.07840    9.07840  175.52320  173.77700    5.75450   75.15000   76.22400   76.22400    5.75450    8.75130  -90.63470  -11.68820    8.75130
 4550.00000   76.70000    7.39850    7.39850  107.81570  113.01300    8.84930   76.70000   26.66400   26.66400    8.84930   14.58520 -126.46560  -45.49870   14.58520
 4600.00000   67.53000    8.36400    8.36400  150.58470  152.53670    6.55580   67.53000   71.08800   71.08800    6.55580    7.96290  -89.79860   -3.65550    7.96290
 4650.00000   85.14000   12.37530   12.37530  223.86480  223.86490    4.46710   85.14000   73.00200   73.00200    4.88240    5.45920  -90.21390  -14.81980    5.45920
 4700.00000   90.26000   13.05360   13.05360  268.76410  268.76410    3.72070   90.26000   84.79200   84.79200    4.27560    4.67760  -97.43910  -25.01060    4.67760
 4750.00000   66.92400    8.14200    8.14200   41.86550   47.60590   21.00580   66.92400  121.68000  121.68000   21.00580   26.03840  -98.06450  -28.60150   26.03840
 4800.00000   64.22400    8.21470    8.21470   90.69400   87.19730   11.50520   64.22400   42.98400   42.98400   11.50520   15.02430  -99.98930  -33.47710   15.02430
 4850.00000   51.90000    8.09260    8.09260    4.10600    7.88980  126.74620   51.90000   16.68000   16.68000  126.74620   84.95930 -112.53690  -49.00520   84.95930
 4900.00000   56.04000    8.09160    8.09160   32.09300   32.49830   30.78760   56.04000   24.74400   24.74400   30.78760   47.39460  -97.18100  -36.61480   47.39460
 4950.00000   52.72400    8.01580    8.01580   19.24260   20.26910   49.33630   52.72400   17.02800   17.02800   49.33630   50.06860  -91.22900  -33.62840   50.06860
 5000.00000   53.71000    7.94700    7.94700   14.99080   22.20240   45.04010   53.71000   39.43200   39.43200   45.04010   49.93150  -99.61300  -44.97800   49.93150
 5050.00000   49.49200    7.97400    7.97400    6.85330    9.30050  108.17190   49.49200   16.24200   16.24200  108.17190   77.67780 -101.42120  -49.73700   77.67780
 5100.00000   48.54000    7.94200    7.94200    5.71940    8.62560  115.93370   48.54000   26.74800   26.74800  115.93370   75.97990 -101.11530  -52.41150   75.97990
 5150.00000   49.67200    7.94140    7.94140   24.94260   26.20290   38.19210   49.67200   17.17200   17.17200   38.19210   53.00370 -106.78140  -61.04320   53.00370
 5200.00000   52.07400    7.89230    7.89230    7.51270    5.99760  166.73340   52.07400   14.29200   14.29200  166.73340   87.72590 -112.62060  -69.84800   87.72590
 5250.00000   48.52600    8.08570    8.08570   20.15860   20.01730   49.95680   48.52600   14.07000   14.07000   49.95680   72.51980 -109.47700  -69.67000   72.51980
 5300.00000   53.16400    8.07230    8.07230   85.59620    8.75690  124.98050   53.16400   20.73600   20.73600  124.98050   76.26260 -100.35850  -63.50230   76.26260
 5350.00000   52.80400    7.98640    7.98640    5.49560   11.88010   84.17440   52.80400   12.15600   12.15600   84.17440   71.24730  -48.91140  -15.03560   71.24730
 5400.00000   56.96600    7.92190    7.92190   47.25420   49.59840   20.19920   56.96600   52.66800   52.66800   20.19920   31.29450  -65.71120  -34.80090   31.29450
 5450.00000   52.84800    7.80720    7.80720   14.52800   13.39810   74.63750   52.84800   31.98000   31.98000   74.63750   62.42730  -97.27290  -69.32820   62.42730
 5500.00000   64.55600    7.88810    7.88810  111.24300  100.08610    9.99140   64.55600   39.97200   39.97200    9.99140   21.28780  -73.40150  -48.42250   21.28780
 5550.00000   44.95600    7.87800    7.87800    2.16080    5.44740  183.74190   44.95600   24.03600   24.03600  183.74190   99.24410  -63.16450  -41.13620   99.24410
 5600.00000   45.15600    7.70240    7.70240    2.49300    4.04690  247.10270   45.15600   20.36400   20.36400  247.10270  129.97870  -41.89890  -22.85110  129.97870
