~Version ---------------------------------------------------
VERS.      2.0 : CWLS log ASCII Standard -VERSION 2.0
WRAP.       NO : One line per depth step
CREA. 01/04/18 : LAS Creation Date
~Well ------------------------------------------------------
STRT.FT                     1950.0 : START DEPTH
STOP.FT                    11350.0 : STOP DEPTH
STEP.FT                   50.00000 : STEP LENGTH
NULL.                      -999.25 : NULL VALUE
COMP.     CHEVRON STANDARD LIMITED : COMPANY
WELL. CHEVRON CLARK NO 10-15-59-18 : WELL
FLD .                              : FIELD
LOC .                              : LOCATION
CTRY.                       CANADA : COUNTRY
SRVC.                Dresser Atlas : SERVICE COMPANY
DATE.                  26-Oct-1968 : LOGDATE
PROV.                      Alberta : PROVINCE
UWI .             100101505918W500 : UNIQUE WELL ID
SLAT.WGS84                54.10291 : SURFACE LATITUDE
SLON.WGS84               -116.6105 : SURFACE LONGITUDE
~Curve Information -----------------------------------------
DEPT    .FT        : Depth Curve
ACED    .US/F      : DELTA TIME (ACOUSTIC) FROM SONIC LOG [DEPTH ADJ. TO ILDED]
CALSED  .IN        : CALIPER FROM SONIC LOG [DEPTH ADJ. TO ILDED]
CALWS   .IN        : CALIPER [CALSED]
CILED   .MMHO      : CONDUCTIVITY FROM RESISTIVITY LOG
CONDWS  .MMHO      : CONDUCTIVITY [1000/DRESWS]
DRESWS  .OHMM      : DEEP RESISTIVITY [IF ILED<1;1000/CILED;ELSE ILED]
DTWS    .US/F      : DELTA TIME [ACED]
GRSED   .GAPI      : GAMMA RAY FROM SONIC LOG [DEPTH ADJ. TO ILDED]
GRTED   .GAPI      : GAMMA RAY FROM TDT LOG [DEPTH ADJ. TO ILDED]
GRWS    .GAPI      : GAMMA RAY [GRSED]
ILED    .OHMM      : INDUCTION LOG RESISTIVITY
NPHIED  .V/V       : NEUTRON POROSITY FROM DENSITY LOG [DEPTH ADJ. TO ILDED]
NPOWS   .V/V       : NEUTRON POROSITY [NPHIED]
RATIO1ED.UNITLESS  : ATIO FROM TDT LOG  [DEPTH ADJ. TO ILDED]
RATIOED .UNITLESS  : RATIO FROM TDT LOG  [DEPTH ADJ. TO ILDED]
SIGMED  .CU        : NEUTRON CAPTURE CROSS SECTION FROM TDT LOG [DEPTH ADJ. TO ILDED]
SNED    .OHMM      : 16 INCH SHORT NORMAL RESISTIVITY FROM IEL
SPRED   .MV        : SPONTANEOUS POTENTIAL FROM RESISTIVITY LOG
SPWS    .MV        : SPONTANEOUS POTENTIAL [BASELINE 0 MV] [SPRED]
SRESWS  .OHMM      : SHALLOW RESISTIVITY [SNED]
TAUED   .ms        : THERMAL DECAY TIME FROM TDT LOG [DEPTH ADJ. TO ILDED]
~Params ----------------------------------------------------
PD  .                     GL : PERMANENT DATUM
EPD .FT               3420.5 : ELEVATION PERMANENT DATUM
LMF .                     KB : LOG MEASURED FROM
DAPD.FT                 15.5 : FEET ABOVE PERMANENT DATUM
DMF .                     KB : DRILLING MEASURED FROM
EKB .FT                 3436 : KELLY BUSHING
EGL .FT               3420.5 : GROUND LEVEL
DATE.               10/26/68 : RUN DATE
RUN .                      1 : RUN NUMBER
DD  .FT                11393 : DEPTH DRILLER
DL  .FT                11390 : DEPTH LOGGER
BLI .FT                11386 : BOTTOM LOG INTERVAL
TLI .FT                 2028 : TOP LOG INTERVAL
CS  .IN                9.625 : CASING SIZE
CBD .FT                 2028 : CASING BOTTOM DRILLER
CBL .FT                 2028 : CASING BOTTOM LOGGER
BS  .IN                 8.75 : BIT SIZE
BSD .FT                11393 : BIT SIZE AT DEPTH
DFT .                MUD GEL : DRILLING FLUID TYPE
DFD .                    9.6 : DRILLING FLUID DENSITY
DFV .                    100 : DRILLING FLUID VISCOSITY
DFPH.                     11 : DRILLING FLUID PH
DFL .                    8.2 : DRILLING FLUID LOSS
MSS .                   CIRC : MUD SAMPLE SOURCE
RMS .OHMM                1.7 : RESISTIVITY MUD SAMPLE
MST .DEGF                 44 : MUD SAMPLE TEMPERATURE
RMF .OHMM                1.4 : RESISTIVITY MUD FILTRATE SAMPLE
MFST.DEGF                 44 : MUD FILTRATE SAMPLE TEMPERATURE
RMC .OHMM                1.8 : RESISTIVITY MUD CAKE
MCST.DEGF                 44 : MUD CAKE SAMPLE TEMPERATURE
MFSS.                   MEAS : MUD FILTRATE SAMPLE SOURCE
MCSS.                   MEAS : MUD CAKE SAMPLE SOURCE
RMB .OHMM               0.35 : RESISTIVITY MUD AT BHT
TCS .HRS                   4 : TIME CIRCULATED STOPPED
LUN .                   6002 : LOGGING UNIT NUMBER
LUL .                    EDM : LOGGING UNIT LOCATION
ENGI.                  BLAND : RECORDING ENGINEER
WITN.     HOUDEBO JOYCE LEOD : WITNESSED BY
CLNT.                A2DTECH : CLIENT CODE
ORIG.            2" 5" PRINT : ORIGIN OF DATA
UWI .       100101505918W500 : UNIQUE WELL ID
DICO. A2D Technologies, Inc. : DIGITIZING COMPANY
~Other -----------------------------------------------------
~ASCII -----------------------------------------------------
# ...
 5250.00000   82.35330   10.03990   10.03990  141.44970  135.37110    7.38710   82.35330   97.46130    -999.25   97.46130    7.38710    -999.25    -999.25    -999.25    -999.25    -999.25    8.82960  -30.08870   -2.72960    8.82960    -999.25
 5300.00000   76.50440    9.55530    9.55530   91.40240   86.35210   11.58050   76.50440   85.56980    -999.25   85.56980   11.58050    -999.25    -999.25    -999.25    -999.25    -999.25   15.86800  -40.09380  -12.57560   15.86800    -999.25
 5350.00000   80.24740   10.76100   10.76100  108.98660  100.89700    9.91110   80.24740  103.30780    -999.25  103.30780    9.91110    -999.25    -999.25    -999.25    -999.25    -999.25   10.97440  -33.45710   -5.77980   10.97440    -999.25
 5400.00000   79.63230   10.50410   10.50410   95.30930   89.69740   11.14860   79.63230   90.57340    -999.25   90.57340   11.14860    -999.25    -999.25    -999.25    -999.25    -999.25   13.33320  -33.93080   -6.09430   13.33320    -999.25
 5450.00000   81.78520   10.56210   10.56210  123.47530  117.52950    8.50850   81.78520  105.16750    -999.25  105.16740    8.50850    -999.25    -999.25    -999.25    -999.25    -999.25   10.16160  -34.19700   -6.20060   10.16160    -999.25
 5500.00000   84.98350   10.37350   10.37350  142.89510  134.03930    7.46050   84.98350  110.09750    -999.25  110.09750    7.46050    -999.25    -999.25    -999.25    -999.25    -999.25    9.77730  -32.86270   -4.70800    9.77730    -999.25
 5550.00000   87.83570   10.99870   10.99870  150.92240  142.00710    7.04190   87.83570  107.92270    -999.25  107.92270    7.04190    -999.25    -999.25    -999.25    -999.25    -999.25    9.11830  -32.65690   -4.34310    9.11830    -999.25
 5600.00000   87.42580   11.39110   11.39110  138.75580  131.43890    7.60810   87.42580  119.59360    -999.25  119.59360    7.60810    -999.25    -999.25    -999.25    -999.25    -999.25   10.42050  -32.33130   -3.85840   10.42050    -999.25
 5650.00000   89.30450   11.09840   11.09840  125.85580  120.30650    8.31210   89.30450  121.76650    -999.25  121.76650    8.31210    -999.25    -999.25    -999.25    -999.25    -999.25   11.62120  -31.76350   -3.13150   11.62120    -999.25
 5700.00000   90.13490   10.34800   10.34800  126.87460  120.40140    8.30560   90.13490  124.42210    -999.25  124.42220    8.30560    -999.25    -999.25    -999.25    -999.25    -999.25   12.25950  -33.25550   -4.17810   12.25950    -999.25
 5750.00000   90.93680    9.59700    9.59700  109.14440  104.12440    9.60390   90.93680  130.27170    -999.25  130.27170    9.60390    -999.25    -999.25    -999.25    -999.25    -999.25   15.24420  -33.67010   -3.82360   15.24420    -999.25
 5800.00000   90.01630    9.17540    9.17540  105.00120   99.28610   10.07190   90.01630  134.40990    -999.25  134.40990   10.07190    -999.25    -999.25    -999.25    -999.25    -999.25   16.32040  -33.96180   -3.34230   16.32040    -999.25
 5850.00000   93.00260    9.43170    9.43170  103.44420   98.17970   10.18540   93.00260  133.93220    -999.25  133.93220   10.18540    -999.25    -999.25    -999.25    -999.25    -999.25   16.21740  -34.15610   -2.76350   16.21740    -999.25
 5900.00000   91.57720   10.04590   10.04590  129.27120  122.72200    8.14850   91.57720  116.17660    -999.25  116.17660    8.14850    -999.25    -999.25    -999.25    -999.25    -999.25   11.91550  -33.53180   -1.36620   11.91550    -999.25
 5950.00000   99.82760    9.79340    9.79340   88.43370   84.47870   11.83730   99.82760  154.31870    -999.25  154.31870   11.83730    -999.25    -999.25    -999.25    -999.25    -999.25   20.13930  -35.74620   -2.80380   20.13930    -999.25
 6000.00000   85.06930   10.56870   10.56870  134.59370  125.97160    7.93830   85.06930   99.17850    -999.25   99.17850    7.93830    -999.25    -999.25    -999.25    -999.25    -999.25   10.49150  -35.10280   -1.39120   10.49150    -999.25
 6050.00000   85.79820   10.95800   10.95800  145.03700  137.50620    7.27240   85.79820  105.46800    -999.25  105.46800    7.27240    -999.25    -999.25    -999.25    -999.25    -999.25    9.73750  -35.21760   -0.73300    9.73750    -999.25
 6100.00000   85.62460    9.97490    9.97490  157.67600  152.62520    6.55200   85.62460  114.55740    -999.25  114.55740    6.55200    -999.25    -999.25    -999.25    -999.25    -999.25    9.71000  -36.98620   -1.72850    9.71000    -999.25
 6150.00000   86.19800   10.56490   10.56490  156.04410  148.28440    6.74380   86.19800  103.39320    -999.25  103.39320    6.74380    -999.25    -999.25    -999.25    -999.25    -999.25    9.19050  -35.57220    0.45850    9.19050    -999.25
 6200.00000   82.89750   10.23930   10.23930  128.43460  121.97500    8.19840   82.89750  105.25660    -999.25  105.25660    8.19840    -999.25    -999.25    -999.25    -999.25    -999.25   11.44980  -41.28130   -4.47380   11.44980    -999.25
 6250.00000   85.12460   11.15520   11.15520  165.50550  152.26730    6.56740   85.12460  101.14250    -999.25  101.14250    6.56740    -999.25    -999.25    -999.25    -999.25    -999.25    8.21100  -40.91060   -3.33390    8.21100    -999.25
 6300.00000   90.27450   11.43470   11.43470  152.10840  144.75970    6.90800   90.27450  124.00390    -999.25  124.00390    6.90800    -999.25    -999.25    -999.25    -999.25    -999.25    9.55050  -41.93480   -3.58510    9.55050    -999.25
 6350.00000   91.90360   10.42590   10.42590  210.51840  196.58340    5.08690   91.90360  125.12400    -999.25  125.12400    5.08690    -999.25    -999.25    -999.25    -999.25    -999.25    7.14420  -43.94380   -4.82100    7.14420    -999.25
 6400.00000  104.49860   10.81550   10.81550  302.76880  281.44440    3.55310  104.49860  105.84330    -999.25  105.84330    3.55310    -999.25    -999.25    -999.25    -999.25    -999.25    4.59330  -44.81360   -4.91780    4.59330    -999.25
 6450.00000   85.79830   10.94190   10.94190  188.53730  177.53480    5.63270   85.79830   99.26700    -999.25   99.26710    5.63270    -999.25    -999.25    -999.25    -999.25    -999.25    7.48230  -47.21190   -6.53920    7.48230    -999.25
 6500.00000   65.50620    9.25580    9.25580  136.48560  128.48020    7.78330   65.50620   72.36030    -999.25   72.36030    7.78330    0.10370    0.10370    -999.25    -999.25    -999.25   14.75230  -58.92850  -17.48670   14.75230    -999.25
 6550.00000   71.72880   10.67630   10.67630   67.49270   64.00370   15.62410   71.72880   40.36170    -999.25   40.36170   15.62410    0.08120    0.08120    -999.25    -999.25    -999.25   25.61410  -79.87270  -37.65790   25.61410    -999.25
 6600.00000   78.70040   14.67600   14.67600  159.75560  153.20740    6.52710   78.70040   82.58250    -999.25   82.58250    6.52710    0.13550    0.13550    -999.25    -999.25    -999.25   10.20280  -47.47970   -4.49180   10.20280    -999.25
 6650.00000   70.06650   10.82500   10.82500   80.02030   74.92990   13.34580   70.06650   61.85030    -999.25   61.85030   13.34580    0.10330    0.10330    -999.25    -999.25    -999.25   16.65330  -50.70290   -6.94200   16.65330    -999.25
 6700.00000   65.13990   10.81170   10.81170   81.19390   74.52090   13.41910   65.13990   64.19060    -999.25   64.19060   13.41910    -999.25    -999.25    -999.25    -999.25    -999.25   18.76140  -51.36580   -6.82800   18.76140    -999.25
 6750.00000   98.94730   11.66880   11.66880  113.54300  104.50630    9.56880   98.94730   73.46780    -999.25   73.46780    9.56880    -999.25    -999.25    -999.25    -999.25    -999.25   16.27690  -50.43620   -5.12930   16.27690    -999.25
 6800.00000  113.52930   11.68390   11.68390  127.68680  119.49290    8.36870  113.52930   57.42680    -999.25   57.42680    8.36870    -999.25    -999.25    -999.25    -999.25    -999.25   10.28720  -49.64820   -3.56830   10.28720    -999.25
 6850.00000   74.19130   11.18430   11.18430  141.74000  134.62210    7.42820   74.19130   66.21000    -999.25   66.21000    7.42820    -999.25    -999.25    -999.25    -999.25    -999.25    9.57780  -56.58040   -9.72740    9.57780    -999.25
