~Version ---------------------------------------------------
VERS.      2.0 : CWLS log ASCII Standard -VERSION 2.0
WRAP.       NO : One line per depth step
CREA. 01/03/18 : LAS Creation Date
~Well ------------------------------------------------------
STRT.FT                      750.0 : START DEPTH
STOP.FT                     9100.0 : STOP DEPTH
STEP.FT                   50.00000 : STEP LENGTH
NULL.                      -999.25 : NULL VALUE
COMP.            SABINE CANADA LTD : COMPANY
WELL. SABINE VIRGHILLS 14-32-64-12 : WELL
FLD .                              : FIELD
LOC .                              : LOCATION
CTRY.                       CANADA : COUNTRY
SRVC.                 Schlumberger : SERVICE COMPANY
DATE.                  13-Nov-1977 : LOGDATE
PROV.                      Alberta : PROVINCE
UWI .             100143206412W500 : UNIQUE WELL ID
SLAT.WGS84                54.58613 : SURFACE LATITUDE
SLON.WGS84               -115.7817 : SURFACE LONGITUDE
~Curve Information -----------------------------------------
DEPT  .FT    : Depth Curve
CALSED.IN    : CALIPER FROM SONIC LOG
CALWS .IN    : CALIPER [CALSED]
CONDWS.MMHO  : CONDUCTIVITY [1000/DRESWS]
DRESWS.OHMM  : DEEP RESISTIVITY [ILDED]
DTED  .US/F  : DELTA TIME FROM SONIC LOG
DTWS  .US/F  : DELTA TIME [DTED]
GRNED .CU    : GAMMA RAY FROM CBL LOG [DEP. ADJ. TO GRSED]
GRSED .GAPI  : GAMMA RAY FROM SONIC LOG
GRWS  .GAPI  : GAMMA RAY [GRSED]
ILDED .OHMM  : INDUCTION LOG DEEP RESISTIVITY
ILMED .OHMM  : INDUCTION LOG MEDIUM RESISTIVITY
LL8ED .OHMM  : 8 INCH LATEROLOG RESISTIVITY
MRESWS.OHMM  : MEDIUM RESISTIVITY [ILMED]
NEUTED.CU    : NEUTRON FROM CBL LOG [DEP. ADJ. TO GRSED]
NEUTWS.CU    : NEUTRON [NEUTED]
SPRED .MV    : SPONTANEOUS POTENTIAL FROM RESISTIVITY LOG
SPWS  .MV    : SPONTANEOUS POTENTIAL [BASELINE 0 MV] [SPRED]
SRESWS.OHMM  : SHALLOW RESISTIVITY [LL8ED]
~Params ----------------------------------------------------
PD  .                     GL : PERMANENT DATUM
EPD .FT               3348.7 : ELEVATION PERMANENT DATUM
LMF .                     KB : LOG MEASURED FROM
DAPD.FT                 14.3 : FEET ABOVE PERMANENT DATUM
EKB .FT                 3363 : KELLY BUSHING
EGL .FT               3348.7 : GROUND LEVEL
DATE.               11/13/77 : RUN DATE
RUN .                      1 : RUN NUMBER
DD  .FT                 9128 : DEPTH DRILLER
DL  .FT                 9134 : DEPTH LOGGER
BLI .FT                 9128 : BOTTOM LOG INTERVAL
TLI .FT                  720 : TOP LOG INTERVAL
CBD .FT                  716 : CASING BOTTOM DRILLER
CBL .FT                  720 : CASING BOTTOM LOGGER
BS  .IN                7.875 : BIT SIZE
BSD .FT                 9134 : BIT SIZE AT DEPTH
DFT .                    GEL : DRILLING FLUID TYPE
DFD .                    9.1 : DRILLING FLUID DENSITY
DFV .                     94 : DRILLING FLUID VISCOSITY
DFPH.                    9.4 : DRILLING FLUID PH
MSS .               FLOWLINE : MUD SAMPLE SOURCE
RMS .OHMM               2.75 : RESISTIVITY MUD SAMPLE
MST .DEGF                 58 : MUD SAMPLE TEMPERATURE
RMF .OHMM               2.59 : RESISTIVITY MUD FILTRATE SAMPLE
MFST.DEGF                 58 : MUD FILTRATE SAMPLE TEMPERATURE
RMC .OHMM               2.13 : RESISTIVITY MUD CAKE
MCST.DEGF                 62 : MUD CAKE SAMPLE TEMPERATURE
RMB .OHMM               1.04 : RESISTIVITY MUD AT BHT
TCS .HRS                   4 : TIME CIRCULATED STOPPED
LUN .                   7730 : LOGGING UNIT NUMBER
LUL .                    EDM : LOGGING UNIT LOCATION
ENGI.        ACKERMAN BERGEN : RECORDING ENGINEER
WITN.              VANDERLEE : WITNESSED BY
CLNT.                A2DTECH : CLIENT CODE
ORIG.            2" 5" PRINT : ORIGIN OF DATA
UWI .       100143206412W500 : UNIQUE WELL ID
DICO. A2D Technologies, Inc. : DIGITIZING COMPANY
~Other -----------------------------------------------------
~ASCII -----------------------------------------------------
# ...
 6600.00000    8.53870    8.53870   30.94000   32.32060   50.13010   50.13010    -999.25   12.45140   12.45140   32.32060   36.24870   86.00750   36.24870    -999.25    -999.25 -131.75330  -85.38690   86.00750
 6650.00000    8.69440    8.69440   22.15170   45.14320   50.31620   50.31620    -999.25   17.93870   17.93870   45.14320   54.55910  142.49760   54.55910    -999.25    -999.25 -142.64700  -96.47690  142.49760
 6700.00000    8.82100    8.82100   31.99300   31.25680   51.58620   51.58620    -999.25   13.51780   13.51780   31.25680   54.50040  189.72050   54.50040    -999.25    -999.25 -175.12270 -129.14900  189.72050
 6750.00000    8.57110    8.57110    6.71230  148.98010   48.99700   48.99700    -999.25   14.35390   14.35390  148.98010  248.96990 1300.35470  248.96990    -999.25    -999.25 -154.62990 -108.85250 1300.35470
 6800.00000    8.10770    8.10770   32.62210   30.66070   52.70990   52.70990    -999.25   15.42320   15.42320   30.66070   49.74590  178.38840   49.74590    -999.25    -999.25 -170.57220 -124.99020  178.38840
 6850.00000    8.58980    8.58980    5.03670  198.54430   46.97490   46.97490    -999.25   16.56460   16.56460  198.54430  228.47090 1097.83090  228.47090    -999.25    -999.25 -145.46720 -100.08250 1097.83090
 6900.00000    8.58940    8.58940    3.66320  272.98730   48.69720   48.69720    -999.25   15.27530   15.27530  272.98730  241.32260  777.29330  241.32260    -999.25    -999.25 -128.13750  -82.94910  777.29330
 6950.00000    8.56490    8.56490    6.19490  161.42210   48.66110   48.66110    -999.25   17.33490   17.33490  161.42210  150.81550  795.06570  150.81550    -999.25    -999.25 -131.15700  -86.16490  795.06570
 7000.00000    7.64960    7.64960   45.01220   22.21620   53.73640   53.73640    -999.25   14.31940   14.31940   22.21620   41.21940  233.79170   41.21940    -999.25    -999.25 -185.30050 -140.50470  233.79170
 7050.00000    8.49910    8.49910   19.42420   51.48340   48.31140   48.31140    -999.25   20.14270   20.14270   51.48340   74.28150  188.09490   74.28150    -999.25    -999.25 -159.69090 -115.09040  188.09490
 7100.00000    8.06900    8.06900   34.46480   29.01510   50.74520   50.74520    -999.25   21.87310   21.87310   29.01510   50.31720  298.88710   50.31720    -999.25    -999.25 -188.68990 -144.28680  298.88710
 7150.00000    8.45120    8.45120   20.21790   49.46100   47.80480   47.80480    -999.25   19.79640   19.79640   49.46100   79.15810  462.97080   79.15810    -999.25    -999.25 -119.90990  -75.70310  462.97080
 7200.00000    8.40060    8.40060  113.29390    8.82660   55.06400   55.06400    -999.25   56.67660   56.67660    8.82660   11.19310   16.01080   11.19310    -999.25    -999.25 -104.19470  -60.18430   16.01080
 7250.00000    8.11340    8.11340   46.57810   21.46930   48.32970   48.32970    -999.25   22.10680   22.10680   21.46930   33.97720  208.54870   33.97720    -999.25    -999.25 -135.98940  -92.17530  208.54870
 7300.00000    8.38830    8.38830   86.25770   11.60070   52.35550   52.35550    -999.25   42.02890   42.02890   11.60070   13.02460   12.98750   13.02460    -999.25    -999.25 -106.96650  -63.34780   12.98750
 7350.00000    8.41850    8.41850  109.33260    9.14640   53.96010   53.96010    -999.25   36.76990   36.76990    9.14640   10.40940   10.83730   10.40940    -999.25    -999.25 -114.55960  -71.13820   10.83730
 7400.00000    8.41460    8.41460   17.65620   56.63730   54.01060   54.01060    -999.25   36.54950   36.54950   56.63730   70.91740   90.29480   70.91740    -999.25    -999.25  -57.12790  -13.90280   90.29480
 7450.00000    8.30750    8.30750   52.38810   19.08830   57.40910   57.40910    -999.25   50.97680   50.97680   19.08830   22.88820   23.76780   22.88820    -999.25    -999.25  -51.77160   -8.74280   23.76780
 7500.00000    8.50710    8.50710   90.19650   11.08690   61.55760   61.55760    -999.25   63.30000   63.30000   11.08690   13.43190   14.00610   13.43190    -999.25    -999.25  -48.80130   -5.96880   14.00610
 7550.00000   10.23050   10.23050  213.35310    4.68770   76.03820   76.03820    -999.25   99.14130   99.14130    4.68770    5.25830    5.48570    5.25830    -999.25    -999.25  -73.40220  -31.34120    5.48570
 7600.00000   10.59500   10.59500  244.23600    4.09440   79.13620   79.13620    -999.25   99.72040   99.72040    4.09440    4.87650    5.12830    4.87650    -999.25    -999.25  -62.33620  -21.31790    5.12830
 7650.00000    8.63410    8.63410  115.99450    8.62110   64.67300   64.67300    -999.25   67.09170   67.09170    8.62110   10.63300   12.25860   10.63300    -999.25    -999.25  -49.93590   -9.95510   12.25860
 7700.00000    8.46540    8.46540  113.22460    8.83200   64.22970   64.22970    -999.25   63.98190   63.98190    8.83200   10.59320   10.87290   10.59320    -999.25    -999.25  -49.33700  -10.39370   10.87290
 7750.00000    8.34510    8.34510   94.49470   10.58260   65.40690   65.40690    -999.25   74.53480   74.53480   10.58260   12.20810   13.05110   12.20810    -999.25    -999.25  -53.29750  -15.39170   13.05110
 7800.00000    8.39910    8.39910  125.16230    7.99020   63.26780   63.26780    -999.25   62.04030   62.04030    7.99020   10.24070   11.56040   10.24070    -999.25    -999.25  -54.58760  -17.71410   11.56040
 7850.00000    9.32320    9.32320  219.04370    4.56530   74.07690   74.07690    -999.25   71.57130   71.57130    4.56530    5.48630    5.33310    5.48630    -999.25    -999.25  -67.66170  -31.83080    5.33310
 7900.00000   10.55730   10.55730  287.55460    3.47760   83.11700   83.11700    -999.25   95.04180   95.04180    3.47760    4.03080    4.48380    4.03080    -999.25    -999.25  -64.48240  -29.68900    4.48380
 7950.00000   11.03000   11.03000  231.67450    4.31640   76.67960   76.67960    -999.25   80.04580   80.04580    4.31640    5.07960    5.39370    5.07960    -999.25    -999.25  -72.98490  -39.22900    5.39370
 8000.00000   10.35070   10.35070  214.74900    4.65660   82.16100   82.16100    -999.25   82.66350   82.66350    4.65660    5.34540    5.71660    5.34540    -999.25    -999.25  -66.47390  -33.75550    5.71660
 8050.00000    8.41380    8.41380  111.82270    8.94280   63.40580   63.40580    -999.25   66.63960   66.63960    8.94280   10.97370   10.62710   10.97370    -999.25    -999.25  -48.72430  -17.03810   10.62710
 8100.00000    8.49340    8.49340  130.94320    7.63690   68.21760   68.21760    -999.25   96.89640   96.89640    7.63690    9.20240    9.97590    9.20240    -999.25    -999.25  -44.94280  -14.29930    9.97590
 8150.00000    8.46350    8.46350  148.94920    6.71370   69.32570   69.32570    -999.25   90.09430   90.09430    6.71370    8.31550    8.77170    8.31550    -999.25    -999.25  -55.33620  -25.73020    8.77170
 8200.00000    8.49760    8.49760  156.92920    6.37230   69.95410   69.95410    -999.25   87.00830   87.00830    6.37230    8.14630    9.76350    8.14630    -999.25    -999.25  -57.03540  -28.46690    9.76350
 8250.00000   10.24610   10.24610  249.43250    4.00910   78.89490   78.89490    -999.25  101.96420  101.96420    4.00910    4.81750    5.22000    4.81750    -999.25    -999.25  -67.01470  -39.48370    5.22000
 8300.00000   10.41230   10.41230  269.23830    3.71430   88.84550   88.84550    -999.25  112.27620  112.27620    3.71430    4.46770    4.84070    4.46770    -999.25    -999.25  -64.74690  -38.24820    4.84070
 8350.00000    9.42800    9.42800  240.49450    4.15810   83.44540   83.44540    -999.25   95.56760   95.56760    4.15810    4.78240    5.31680    4.78240    -999.25    -999.25  -59.47410  -34.01800    5.31680
 8400.00000    8.37400    8.37400  210.49530    4.75070   76.70490   76.70490    -999.25   84.07400   84.07400    4.75070    5.80350    6.62940    5.80350    -999.25    -999.25  -57.12060  -32.70200    6.62940
 8450.00000   10.04090   10.04090  315.09960    3.17360   89.37070   89.37070    -999.25  102.88260  102.88260    3.17360    3.76320    4.25550    3.76320    -999.25    -999.25  -64.05540  -40.67430    4.25550
 8500.00000    8.26040    8.26040   42.76150   23.38550   73.59150   73.59150   76.22430  134.41770  134.41770   23.38550   34.09520   63.92440   34.09520  188.26790  188.26790  -29.95240   -7.60880   63.92440
