~Version ---------------------------------------------------
VERS.      2.0 : CWLS log ASCII Standard -VERSION 2.0
WRAP.       NO : One line per depth step
CREA. 08/23/13 : LAS Creation Date
~Well ------------------------------------------------------
STRT.M                      550.0 : START DEPTH
STOP.M                     3600.0 : STOP DEPTH
STEP.M                   50.00000 : STEP LENGTH
NULL.                     -999.25 : NULL VALUE
COMP.   GULF CANADA RESOURCES INC : COMPANY
WELL. GULF ANTE CREEK 13-21-65-24 : WELL
FLD .                  ANTE CREEK : FIELD
LOC .                             : LOCATION
CTRY.                      CANADA : COUNTRY
SRVC.      Schlumberger of Canada : SERVICE COMPANY
DATE.                 31-Mar-1982 : LOGDATE
PROV.                     Alberta : PROVINCE
UWI .            100132106524W500 : UNIQUE WELL ID
SLAT.WGS84               54.64334 : SURFACE LATITUDE
SLON.WGS84               -117.574 : SURFACE LONGITUDE
~Curve Information -----------------------------------------
DEPT   .M      : DEPTH METER
CALD   .MM     : CALIPER FROM DENSITY LOG
CALS   .MM     : CALIPER FROM SONIC LOG
CNL_LS .DEC    : NEUTRON POROSITY LIMESTONE [M=2710,F=1000] FROM DENSITY LOG
DPHI_LS.DEC    : DENSITY POROSITY LIMESTONE [M=2710,F=1000] FROM DENSITY LOG
DPHI_SS.DEC    : DENSITY POROSITY SANDTONE [M=2680,F=1000] FROM DENSITY LOG
DRHO   .KG/M3  : DENSITY CORRECTION FROM DENSITY LOG
DTME   .US/M   : DELTA-T FROM SONIC LOG
GRD    .GAPI   : GAMMA RAY FROM DENSITY LOG
GRS    .GAPI   : GAMMA RAY FROM SONIC LOG
ILD    .OHMM   : DEEP INDUCTION FROM RESISTIVITY LOG
ILM    .OHMM   : MEDIUM INDUCTION FROM RESISTIVITY LOG
NPHI_LS.DEC    : NEUTRON POROSITY LIMESTONE FROM DENSITY LOG
NPHI_SS.DEC    : NEUTRON POROSITY SANDTONE FROM DENSITY LOG
RHOB   .KG/M3  : BULK DENSITY FROM DENSITY LOG
SFLU   .OHMM   : SPHERICALLY FOCUSED FROM RESISTIVITY LOG
SPR    .MV     : SPONTANEOUS POTENTIAL FROM RESISTIVITY LOG
~Params ----------------------------------------------------
PD  .                         GL : PERMANENT DATUM
EPD .M                    879.75 : ELEVATION PERMANENT DATUM
LMF .                         KB : LOG MEASURED FROM
DAPD.M                      4.04 : FEET ABOVE PERMANENT DATUM
DMF .                         KB : DRILLING MEASURED FROM
EKB .M                    883.79 : KELLY BUSHING
EDF .M                    883.39 : DRILLING FLOOR
EGL .M                    879.75 : GROUND LEVEL
DATE.                   03/31/82 : RUN DATE
RUN .                          2 : RUN NUMBER
DD  .M                      3625 : DEPTH DRILLER
DL  .M                      3626 : DEPTH LOGGER
BLI .M                      3625 : BOTTOM LOG INTERVAL
TLI .M                      2300 : TOP LOG INTERVAL
CS  .MM                      244 : CASING SIZE
CBD .M                       611 : CASING BOTTOM DRILLER
CBL .M                       612 : CASING BOTTOM LOGGER
BS  .MM                      222 : BIT SIZE
BSD .M                      3625 : BIT SIZE AT DEPTH
DFT .                   GEL CHEM : DRILLING FLUID TYPE
DFD .                       1115 : DRILLING FLUID DENSITY
DFV .                       1113 : DRILLING FLUID VISCOSITY
DFPH.                         10 : DRILLING FLUID PH
DFL .                        7.4 : DRILLING FLUID LOSS
MSS .                   FLOWLINE : MUD SAMPLE SOURCE
RMS .OHMM                   1.69 : RESISTIVITY MUD SAMPLE
MST .DEGC                   17.8 : MUD SAMPLE TEMPERATURE
RMF .OHMM                   1.43 : RESISTIVITY MUD FILTRATE SAMPLE
MFST.DEGC                   19.4 : MUD FILTRATE SAMPLE TEMPERATURE
MFSS.                  MUD PRESS : MUD FILTRATE SAMPLE SOURCE
MCSS.                  MUD PRESS : MUD CAKE SAMPLE SOURCE
RMB .OHMM                  1.176 : RESISTIVITY MUD AT BHT
TCS .HRS                     130 : TIME CIRCULATED STOPPED
TLAB.HRS                    1100 : TIME LOGGER AT BOTTOM
LUN .                       8110 : LOGGING UNIT NUMBER
LUL .                        EDS : LOGGING UNIT LOCATION
ENGI.                   MORRISON : RECORDING ENGINEER
WITN.                   STEPHENS : WITNESSED BY
CLNT.                    A2DTECH : CLIENT CODE
ORIG. 6.5"/100M 16.5"/100M PRINT : ORIGIN OF DATA
UWI .           100132106524W500 : UNIQUE WELL ID
DICO.     A2D Technologies, Inc. : DIGITIZING COMPANY
~Other -----------------------------------------------------
~ASCII -----------------------------------------------------
  550.00000    -999.25    -999.25    -999.25    -999.25    -999.25    -999.25    -999.25    -999.25   62.37070    -999.25    -999.25    -999.25    -999.25    -999.25    -999.25    -999.25
  600.00000    -999.25    -999.25    -999.25    -999.25    -999.25    -999.25    -999.25    -999.25    -999.25    -999.25    -999.25    -999.25    -999.25    -999.25    -999.25    -999.25
  650.00000  284.76330  277.00170    -999.25    -999.25    0.24170    0.08740  316.71760   67.26440   64.54360    7.58060    6.99270    -999.25    0.38230 2250.87870    -999.25  -23.07510
  700.00000  321.02340  277.07840    -999.25    -999.25    0.25050    0.16570  327.86690   84.02720   72.11730    5.53260    5.04900    -999.25    0.36690 2237.02340    -999.25  -21.87820
  750.00000  255.55570  237.34930    -999.25    -999.25    0.16900    0.01360  317.02700   79.34020   64.92050    6.23170    5.69420    -999.25    0.40790 2370.02540    -999.25  -24.43510
  800.00000  251.22290  231.83910    -999.25    -999.25    0.18580    0.02530  314.04400   61.26420   62.55930    9.13590    8.25490    -999.25    0.33430 2352.70120    -999.25  -26.08230
  850.00000  293.22840  233.98270    -999.25    -999.25    0.28270    0.24810  323.79140   71.09690   72.94280    5.09110    4.83740    -999.25    0.38970 2167.95070    -999.25  -20.96020
  900.00000  271.29680  228.66380    -999.25    -999.25    0.24210    0.25100  311.41940   76.44750   65.81920    5.85830    5.48380    -999.25    0.33640 2243.50170    -999.25  -22.24940
  950.00000  249.35520  230.01270    -999.25    -999.25    0.14440    0.01250  294.19000   66.42070   58.05460    7.14370    6.91120    -999.25    0.31090 2414.94730    -999.25  -23.84470
 1000.00000  260.89620  227.34670    -999.25    -999.25    0.25640    0.24490  316.23240   85.58820   78.73350    6.10750    5.94780    -999.25    0.40980 2220.00680    -999.25  -20.30470
 1050.00000  249.13830  242.57260    -999.25    -999.25    0.07090    0.07300  311.15190  128.25140  121.94050   10.51610   10.05120    -999.25    0.38170 2531.89060    -999.25  -20.99250
 1100.00000  261.92560  236.29260    -999.25    -999.25    0.22320    0.15960  306.60990  119.31480  105.56280    7.75140    7.41030    -999.25    0.38600 2273.05880    -999.25  -20.32650
 1150.00000  262.67400  236.81240    -999.25    -999.25    0.24860    0.24970  287.84350  115.33330  102.73510    9.27720    9.09670    -999.25    0.36210 2239.31810    -999.25  -19.92350
 1200.00000  221.65230  204.00450    -999.25    -999.25    0.14240    0.06960  278.10210   82.21260   76.81510   11.75600   13.09620    -999.25    0.26580 2426.95120    -999.25  -39.05410
 1250.00000  274.59980  237.42380    -999.25    -999.25    0.14820    0.17860  292.66930  118.17690  113.60530   11.18890   10.76160    -999.25    0.31870 2405.63620    -999.25  -19.35000
 1300.00000  262.77900  222.48380    -999.25    -999.25    0.05070    0.12820  302.60490  136.39220  120.17200    8.60640    8.41060    -999.25    0.34940 2572.69900   10.23120  -18.55030
 1350.00000  258.04800  230.62010    -999.25    -999.25    0.04970    0.05250  283.17900  132.07480  121.68440   11.85090   12.49740    -999.25    0.35760 2567.69510   20.48160  -17.30960
 1400.00000  251.56170  222.01500    -999.25    -999.25    0.20020    0.25010  297.32960  129.25670  119.97170   10.53000   10.70600    -999.25    0.36390 2317.74020   12.44550  -27.03310
 1450.00000  242.28160  233.65450    -999.25    -999.25    0.05540    0.06720  264.31640  100.26440   91.71280    8.37930    8.49870    -999.25    0.27510 2558.18330    8.84380  -25.09710
 1500.00000  263.35510  234.72470    -999.25    -999.25    0.04240    0.06120  272.90800  124.28950  108.98850    7.50210    7.78500    -999.25    0.29350 2581.09620    9.98340  -21.39740
 1550.00000  254.88560  236.19940    -999.25    -999.25    0.04100    0.20840  284.54130  122.07910  109.98850    6.20330    6.38900    -999.25    0.35170 2588.51150    7.26260  -19.19900
 1600.00000  253.48010  243.19730    -999.25    -999.25    0.07210    0.07910  299.77920  110.72000   98.04600    3.88580    4.18840    -999.25    0.33350 2529.71090    5.96850  -16.66610
 1650.00000  280.58170  247.45340    -999.25    -999.25    0.10290    0.10400  285.29200  126.82120  109.84820    6.03490    6.16980    -999.25    0.35250 2480.08720    6.40070  -15.52750
 1700.00000  228.93070  219.28760    -999.25    -999.25    0.13410    0.02700  227.41220   56.10150   47.24740   18.47640   23.85110    -999.25    0.22260 2427.36840   31.69940  -47.30480
 1750.00000  270.07360  277.09320    -999.25    -999.25    0.05390    0.03160  272.91080   75.33250   64.18320   12.33590   12.36290    -999.25    0.33690 2532.88130   18.74660  -14.20970
 1800.00000  236.62070  224.94060    -999.25    -999.25    0.16620    0.16360  249.73610   39.61600   38.12640   14.84250   20.37410    -999.25    0.23160 2395.52420   30.72890  -55.00450
 1850.00000  280.00700  279.03980    -999.25    -999.25    0.06380    0.02810  237.82620   93.97450   82.42830   10.56250   11.38810    -999.25    0.26330 2545.54590   13.78940   -8.47470
 1900.00000  278.27330  273.29520    -999.25    -999.25    0.03840    0.01970  257.80240   94.17620   85.67250   10.05910   10.42190    -999.25    0.28270 2580.84960   12.18510   -6.82130
 1950.00000  266.23660  260.42390    -999.25    -999.25    0.03460   -0.00010  245.98940   96.31010   81.32250   10.55860   11.15420    -999.25    0.29700 2591.82370   12.24570   -3.52830
 2000.00000  253.94630  242.67250    -999.25    -999.25    0.09990    0.02170  239.36490  112.15660   88.63400   29.93170   26.84720    -999.25    0.33040 2513.20780   47.31640   -3.02120
 2050.00000  251.90390  243.25020    -999.25    -999.25    0.04450    0.00310  226.87180  108.80080   83.65090   20.83930   21.01850    -999.25    0.21060 2577.09840   31.75980   -2.41060
 2100.00000  222.07260  211.26500    -999.25    -999.25    0.11980    0.05230  229.64890   32.14590   26.36960    4.63200    6.30690    -999.25    0.17990 2439.45340   19.58260  -71.82610
 2150.00000  241.33150  224.68970    -999.25    0.23960    -999.25    0.00240  329.22310  299.61350  252.69170  411.93670  236.21910    0.41410    -999.25 2303.05640 1960.38650  -50.67100
 2200.00000  243.38200  242.31950    -999.25    0.01860    -999.25    0.01710  176.40170  120.00030  100.17520   24.34460   25.13130    0.11370    -999.25 2674.92310   33.42570   20.26760
 2250.00000  232.48210  224.05890    -999.25    0.04620    -999.25   -0.00720  166.21980  109.15180   98.71380   31.56100   32.00790    0.09870    -999.25 2629.17750   39.33450   12.83500
 2300.00000  233.31060  243.47620    -999.25   -0.03200    -999.25    0.05000  177.81300   41.11130   37.72840   16.47400   15.43680    0.11410    -999.25 2775.40700   19.51580  -22.85150
 2350.00000  229.79580  233.58240    0.11770   -0.02470    -999.25   10.12700  180.56770   65.63530   67.27140   33.64680   28.29080    -999.25    -999.25 2756.28860   52.91500  -73.80770
 2400.00000  284.70980  236.41180    0.16490    0.00670    -999.25  248.73790  192.10830   42.82970   45.90150    9.23500   10.26250    -999.25    -999.25 2669.63330   10.87210 -109.03560
 2450.00000  233.87770  245.61000    0.02610    0.00790    -999.25   15.24390  163.06390   19.51000   18.68530  216.21810  295.49070    -999.25    -999.25 2695.95210  429.32720  -78.96650
 2500.00000  232.92790  253.51930    0.06060    0.01360    -999.25   10.22270  163.38530   16.70550   14.60660   37.90440   42.58190    -999.25    -999.25 2683.60110  110.77220  -93.73120
 2550.00000  244.91080  240.84690    0.03500   -0.00970    -999.25   12.61480  164.06180   14.25370   13.52070  168.86830  224.92690    -999.25    -999.25 2727.83300  563.99100  -92.53050
 2600.00000  253.23250  250.23910    0.18870    0.00350    -999.25   26.08620  201.63390   55.92730   63.14770    6.38180    6.68690    -999.25    -999.25 2702.99760    7.42610  -66.52660
 2650.00000  275.93270  253.75630    0.04350   -0.00830    -999.25  162.46360  173.45230   20.45010   20.72970   95.56980   99.32530    -999.25    -999.25 2737.63820  152.27240  -26.77050
