~Version ---------------------------------------------------
VERS.      2.0 : CWLS log ASCII Standard -VERSION 2.0
WRAP.       NO : One line per depth step
CREA. 09/04/14 : LAS Creation Date
~Well ------------------------------------------------------
STRT.FT                      650.0 : START DEPTH
STOP.FT                    10650.0 : STOP DEPTH
STEP.FT                   50.00000 : STEP LENGTH
NULL.                      -999.25 : NULL VALUE
COMP.              SUN OIL COMPANY : COMPANY
WELL. SUN SHELL ROSEVEAR 6-6-55-14 : WELL
FLD .                              : FIELD
LOC .                              : LOCATION
CTRY.                       CANADA : COUNTRY
SRVC.       Schlumberger of Canada : SERVICE COMPANY
DATE.                  23-Jun-1971 : LOGDATE
PROV.                      Alberta : PROVINCE
UWI .             100060605514W500 : UNIQUE WELL ID
SLAT.WGS84                53.72017 : SURFACE LATITUDE
SLON.WGS84                -116.074 : SURFACE LONGITUDE
~Curve Information -----------------------------------------
DEPT   .FT                : Depth Curve
CALD   .IN   45 280 00 00 : CALIPER FROM DENSITY LOG
CALN   .IN   41 280 60 00 : CALIPER FROM NEUTRON LOG
CALS   .IN   60 280 50 00 : CALIPER FROM SONIC LOG
CILD   .MMHO 07 110 46 00 : INDUCTION DEEP CONDUCTIVITY
CORR   .G/C3 45 356 01 00 : DENSITY CORRECTION
DPHI_LS.DEC  45 890 10 00 : DENSITY POROSITY LIMESTONE
DPHI_SS.DEC  45 890 12 00 : DENSITY POROSITY SANDSTONE
DT     .US/F 60 500 00 00 : DELTA-T (INTERVAL TRANSIT TIME)
GRN    .GAPI 41 310 01 00 : GAMMA RAY FROM GRN LOG
GRS    .GAPI 60 310 01 00 : GAMMA RAY FROM SONIC LOG
ILD    .OHMM 07 120 46 00 : INDUCTION DEEP RESISTIVITY
ILM    .OHMM 07 120 44 00 : INDUCTION MEDIUM RESISTIVITY
LL8    .OHMM 07 220 08 00 : LATEROLOG 8
RHOB   .G/C3 45 350 01 00 : BULK DENSITY
SNP1   .DEC  41 890 01 00 : 
SNP_LS .DEC  41 890 01 00 : SIDEWALL NEUTRON POROSITY [LIMESTONE]
SPR    .MV   07 010 01 00 : SPONTANEOUS POTENTIAL FROM RESISTIVITY LOG
~Params ----------------------------------------------------
PD  .                     GL : PERMANENT DATUM
EPD .FT                 2803 : ELEVATION PERMANENT DATUM
LMF .                     KB : LOG MEASURED FROM
DAPD.FT                   13 : FEET ABOVE PERMANENT DATUM
EKB .FT                 2816 : KELLY BUSHING
EGL .FT                 2803 : GROUND LEVEL
DATE.               07/14/71 : RUN DATE
RUN .                      2 : RUN NUMBER
DD  .FT                10687 : DEPTH DRILLER
DL  .FT                10692 : DEPTH LOGGER
BLI .FT                10686 : BOTTOM LOG INTERVAL
TLI .FT                 5078 : TOP LOG INTERVAL
CBD .FT                 5077 : CASING BOTTOM DRILLER
CBL .FT                 5078 : CASING BOTTOM LOGGER
BS  .IN                 8.75 : BIT SIZE
BSD .FT                10687 : BIT SIZE AT DEPTH
DFT .               GEL CHEM : DRILLING FLUID TYPE
DFD .                    9.8 : DRILLING FLUID DENSITY
DFV .                     80 : DRILLING FLUID VISCOSITY
DFPH.                     10 : DRILLING FLUID PH
DFL .                   10.2 : DRILLING FLUID LOSS
MSS .               FLOWLINE : MUD SAMPLE SOURCE
RMS .OHMM               2.12 : RESISTIVITY MUD SAMPLE
MST .DEGF                 76 : MUD SAMPLE TEMPERATURE
RMF .OHMM               1.66 : RESISTIVITY MUD FILTRATE SAMPLE
MFST.DEGF                 76 : MUD FILTRATE SAMPLE TEMPERATURE
RMB .OHMM               0.62 : RESISTIVITY MUD AT BHT
TCS .HRS                 3.5 : TIME CIRCULATED STOPPED
LUN .                   5628 : LOGGING UNIT NUMBER
LUL .                    EDM : LOGGING UNIT LOCATION
ENGI.                 HUTZAL : RECORDING ENGINEER
WITN.                   HERB : WITNESSED BY
CLNT.                A2DTECH : CLIENT CODE
ORIG.            2" 5" PRINT : ORIGIN OF DATA
UWI .       100060605514W500 : UNIQUE WELL ID
DICO. A2D Technologies, Inc. : DIGITIZING COMPANY
~Other -----------------------------------------------------
~ASCII -----------------------------------------------------
# ...
 4750.00000    -999.25    -999.25   12.29810    -999.25    -999.25    -999.25    -999.25   78.94120    -999.25   76.73440    8.99110   10.39560   12.27280    -999.25    -999.25    -999.25  -38.78390
 4800.00000    -999.25    -999.25   12.36940    -999.25    -999.25    -999.25    -999.25   85.74540    -999.25   88.29470    6.73450    7.58240    9.49600    -999.25    -999.25    -999.25  -37.67200
 4850.00000    -999.25    -999.25   12.38540    -999.25    -999.25    -999.25    -999.25   82.72090    -999.25   82.11920    7.07470    8.27360    9.82110    -999.25    -999.25    -999.25  -37.00330
 4900.00000    -999.25    -999.25   12.43830    -999.25    -999.25    -999.25    -999.25   85.84260    -999.25   84.17510    6.56980    7.46100    9.31800    -999.25    -999.25    -999.25  -36.86270
 4950.00000    -999.25    -999.25   12.30700    -999.25    -999.25    -999.25    -999.25   79.32750    -999.25   75.74770    8.69250   10.29170   12.16710    -999.25    -999.25    -999.25  -36.84910
 5000.00000    -999.25    -999.25   12.33470    -999.25    -999.25    -999.25    -999.25   78.69390    -999.25   80.07800    8.35240   10.05030   12.20290    -999.25    -999.25    -999.25  -36.72160
 5050.00000    -999.25    -999.25   12.31440    -999.25    -999.25    -999.25    -999.25   77.45510    -999.25   39.79500    -999.25    -999.25    -999.25    -999.25    -999.25    -999.25    -999.25
 5100.00000    -999.25    -999.25   11.17740  106.64300    -999.25    -999.25    -999.25   77.83530    -999.25   86.33810   10.39450    -999.25   11.38350    -999.25    -999.25    -999.25  -84.44640
 5150.00000    -999.25    -999.25   11.18600  122.73390    -999.25    -999.25    -999.25   81.79570    -999.25   87.44740    8.86920    -999.25   10.23510    -999.25    -999.25    -999.25  -85.09120
 5200.00000    -999.25    -999.25   11.07220  131.90500    -999.25    -999.25    -999.25   78.79340    -999.25   78.89780    8.31310    -999.25    9.65970    -999.25    -999.25    -999.25  -84.21640
 5250.00000    -999.25    -999.25   10.83800  109.54710    -999.25    -999.25    -999.25   77.97320    -999.25   87.85880    9.98350    -999.25   11.05070    -999.25    -999.25    -999.25  -84.45530
 5300.00000    -999.25    -999.25   11.28680  137.26820    -999.25    -999.25    -999.25   82.63450    -999.25   80.08910    7.94570    -999.25    9.84860    -999.25    -999.25    -999.25  -83.52080
 5350.00000    -999.25    -999.25   10.27860  152.96210    -999.25    -999.25    -999.25   93.01790    -999.25   93.76340    7.05610    -999.25    9.20970    -999.25    -999.25    -999.25  -82.89170
 5400.00000    -999.25    -999.25    9.60820  108.14410    -999.25    -999.25    -999.25   88.90970    -999.25  108.19700   10.43420    -999.25   13.52990    -999.25    -999.25    -999.25  -83.52820
 5450.00000    -999.25    -999.25   10.09260  122.29540    -999.25    -999.25    -999.25   87.07770    -999.25   95.16240    9.00130    -999.25   11.98840    -999.25    -999.25    -999.25  -82.43830
 5500.00000    -999.25    -999.25    9.75070  103.94800    -999.25    -999.25    -999.25   88.38490    -999.25   95.74430   10.50950    -999.25   14.16480    -999.25    -999.25    -999.25  -81.54270
 5550.00000    -999.25    -999.25    9.40940   91.33650    -999.25    -999.25    -999.25   88.80420    -999.25  101.25300   11.86770    -999.25   17.21470    -999.25    -999.25    -999.25  -81.52300
 5600.00000    -999.25    -999.25    9.47050   82.97800    -999.25    -999.25    -999.25   82.56490    -999.25   87.39340   13.57910    -999.25   19.26710    -999.25    -999.25    -999.25  -80.80420
 5650.00000    -999.25    -999.25    9.75770  116.07010    -999.25    -999.25    -999.25   89.56290    -999.25   88.45720    9.40720    -999.25   13.58250    -999.25    -999.25    -999.25  -80.65610
 5700.00000    -999.25    -999.25    9.85320   80.78990    -999.25    -999.25    -999.25   75.57180    -999.25   82.13910   13.50510    -999.25   16.32890    -999.25    -999.25    -999.25  -80.69580
 5750.00000    -999.25    -999.25   10.76380  133.97180    -999.25    -999.25    -999.25   79.88930    -999.25   78.60010    7.98710    -999.25   10.17030    -999.25    -999.25    -999.25  -81.03410
 5800.00000    -999.25    -999.25   10.07300  166.97020    -999.25    -999.25    -999.25   82.43160    -999.25   91.06170    6.32300    -999.25    8.33960    -999.25    -999.25    -999.25  -80.49880
 5850.00000    -999.25    -999.25   10.68850  168.38600    -999.25    -999.25    -999.25   80.82770    -999.25   86.27020    6.23520    -999.25    8.37630    -999.25    -999.25    -999.25  -79.36390
 5900.00000    -999.25    -999.25   10.52940  146.21820    -999.25    -999.25    -999.25   82.87910    -999.25   86.10020    7.32030    -999.25    9.40600    -999.25    -999.25    -999.25  -79.87570
 5950.00000    -999.25    -999.25   11.27750  161.27170    -999.25    -999.25    -999.25   84.59570    -999.25   84.15990    6.58700    -999.25    8.74310    -999.25    -999.25    -999.25  -78.56080
 6000.00000    -999.25    -999.25   10.58240  203.87330    -999.25    -999.25    -999.25   96.66530    -999.25  123.55030    5.43930    -999.25    7.39360    -999.25    -999.25    -999.25  -78.29280
 6050.00000    5.30250   14.98180   11.64350  292.54810    -999.25    -999.25    -999.25  101.20990    -999.25   75.55230    3.53590    -999.25    5.19240    -999.25    -999.25    -999.25  -77.43620
 6100.00000   13.23590   13.69710   10.58920    -999.25    0.15520    -999.25    0.44590   87.12870   86.19110   90.85800    5.62530    6.00010    7.22680    1.94960    -999.25    0.50370  -75.81800
 6150.00000    8.96910    8.94590    9.20870    -999.25    0.10590    -999.25    0.10120   78.48890   77.87440   81.18090   14.28150   15.47390   16.08450    2.54470    -999.25    0.17300  -86.80280
 6200.00000   11.05820   11.21510    9.23690    -999.25    0.23550    -999.25    0.06860   66.96790   39.58590   37.58740   24.94360   27.13580   32.04000    2.47870    -999.25    0.13190  -88.83080
 6250.00000   10.86620   10.92940    9.89610    -999.25    0.23370    -999.25    0.26860   85.57210   71.05360   72.64100   11.87270   14.27500   12.90270    2.24970    -999.25    0.29330  -76.32820
 6300.00000    9.68940    9.74390    9.40180    -999.25    0.05460    -999.25   -0.00160   63.63160   38.60350   39.88830   17.75380   20.41250   24.66250    2.66960    -999.25    0.10760  -87.09950
 6350.00000    9.89460    9.96990    9.62870    -999.25    0.07070    -999.25    0.04540   69.03090   64.00780   66.02120   12.01050   13.33800   16.79940    2.32990    -999.25    0.27890  -79.39340
 6400.00000    9.35100    9.54180    9.16280    -999.25    0.10020    -999.25    0.05590   67.05150   61.54880   61.25820   14.33580   15.72970   17.54210    2.57600    -999.25    0.16640  -88.86420
 6450.00000    9.24930    9.35810    9.16690    -999.25    0.04630    -999.25   -0.03330   71.76640   70.06640   72.84680   15.46080   17.45680   21.66050    2.66230    -999.25    0.19920  -77.14350
 6500.00000    9.49100    9.83710    9.62780    -999.25    0.16180    -999.25    0.03140   73.43150   74.87800   73.61210   14.19480   15.04130   17.40660    2.62740    -999.25    0.23310  -76.49220
 6550.00000    9.56190    9.56450    9.24040    -999.25    0.06900    -999.25   -0.01610   62.77230   53.89230   48.79400   18.00450   22.19750   29.87900    2.68920    -999.25    0.12240  -76.77180
 6600.00000    9.24250    9.54550    9.42410    -999.25    0.04140    -999.25    0.01190   64.59720   45.94970   44.94990   14.85680   17.13320   19.71820    2.63090    -999.25    0.11750  -76.82880
 6650.00000    9.56070    9.79810    9.65380    -999.25    0.03960    -999.25    0.02330   69.60100   58.11660   60.72980   10.10350   10.84870   15.79720    2.55200    -999.25    0.13110  -77.27710
 6700.00000    9.06680    9.41230    9.20720    -999.25    0.02170    -999.25   -0.02080   69.84190   66.21410   65.85690   19.50670   21.01040   24.01850    2.64250    -999.25    0.13120  -65.17860
 6750.00000    9.63030    9.78360    9.44260    -999.25    0.06420    -999.25   -0.04540   68.45580   73.34290   64.20830   15.15080   16.04370   19.87350    2.70680    -999.25    0.14610  -64.85960
