~Version ---------------------------------------------------
VERS.      2.0 : CWLS log ASCII Standard -VERSION 2.0
WRAP.       NO : One line per depth step
CREA. 09/25/17 : LAS Creation Date
~Well ------------------------------------------------------
STRT.FT                          1050.0 : START DEPTH
STOP.FT                         10150.0 : STOP DEPTH
STEP.FT                        50.00000 : STEP LENGTH
NULL.                           -999.25 : NULL VALUE
COMP.           CANADA FINA OIL LIMITED : COMPANY
WELL. FINA ET AL HEAVYSOUND 10-26-62-17 : WELL
FLD .                                   : FIELD
LOC .                                   : LOCATION
CTRY.                            CANADA : COUNTRY
SRVC.                      Schlumberger : SERVICE COMPANY
DATE.                       01-Mar-1964 : LOGDATE
PROV.                           Alberta : PROVINCE
UWI .                  100102606217W500 : UNIQUE WELL ID
SLAT.WGS84                     54.39382 : SURFACE LATITUDE
SLON.WGS84                    -116.4347 : SURFACE LONGITUDE
~Curve Information -----------------------------------------
DEPT  .FT    : Depth Curve
CALWS .IN    : CALIPER [MCALED]
CILDED.MMHO  : CONDUCTIVITY FROM RESISTIVITY LOG
CONDWS.MMHO  : CONDUCTIVITY [1000/DRESWS]
DRESWS.OHMM  : DEEP RESISTIVITY [1000/CILDED IF ILDED<5, ILDED]
DTED  .US/F  : DELTA TIME FROM SONIC LOG
DTWS  .US/F  : COMPRESSIONAL  SONIC [DTED]
GRSED .GAPI  : GAMMA RAY FROM SONIC LOG
GRWS  .GAPI  : GAMMA RAY [GRSED]
ILDED .OHMM  : DEEP INDUCTION RESISTIVITY FROM RESISTIVITY LOG
MCALED.IN    : CALIPER FROM MICROLOG
SNED  .OHMM  : 16 INCH SHORT NORMAL RESISTIVITY FROM RESISTIVITY LOG
SPRED .MV    : SPONTANEOUS POTENTIAL FROM RESISTIVITY LOG
SPWS  .MV    : SPONTANEOUS POTENTIAL [BASELINE 0 MV, SPRED]
SRESWS.OHMM  : SHALLOW RESISTIVITY [SNED]
~Params ----------------------------------------------------
PD  .                     GL : PERMANENT DATUM
EPD .FT                 3042 : ELEVATION PERMANENT DATUM
LMF .                     KB : LOG MEASURED FROM
DAPD.FT                16.75 : FEET ABOVE PERMANENT DATUM
DMF .                     KB : DRILLING MEASURED FROM
EKB .FT              3058.75 : KELLY BUSHING
EGL .FT                 3042 : GROUND LEVEL
DATE.               03/01/64 : RUN DATE
RUN .                      1 : RUN NUMBER
DD  .FT                10173 : DEPTH DRILLER
DL  .FT                10174 : DEPTH LOGGER
BLI .FT                10173 : BOTTOM LOG INTERVAL
TLI .FT                 1030 : TOP LOG INTERVAL
CBD .FT                 1030 : CASING BOTTOM DRILLER
CBL .FT                 1030 : CASING BOTTOM LOGGER
BS  .IN                    9 : BIT SIZE
BSD .FT                10173 : BIT SIZE AT DEPTH
DFT .               CHEMICAL : DRILLING FLUID TYPE
DFD .                    9.8 : DRILLING FLUID DENSITY
DFV .                     84 : DRILLING FLUID VISCOSITY
DFPH.                     10 : DRILLING FLUID PH
DFL .                    8.6 : DRILLING FLUID LOSS
MSS .             CIRCULATED : MUD SAMPLE SOURCE
RMS .OHMM               1.69 : RESISTIVITY MUD SAMPLE
MST .DEGF                 64 : MUD SAMPLE TEMPERATURE
RMF .OHMM               1.11 : RESISTIVITY MUD FILTRATE SAMPLE
MFST.DEGF                 74 : MUD FILTRATE SAMPLE TEMPERATURE
RMC .OHMM               2.58 : RESISTIVITY MUD CAKE
MCST.DEGF                 72 : MUD CAKE SAMPLE TEMPERATURE
RMB .OHMM               0.67 : RESISTIVITY MUD AT BHT
TCS .HRS                 300 : TIME CIRCULATED STOPPED
LUN .                   2597 : LOGGING UNIT NUMBER
LUL .                    WCT : LOGGING UNIT LOCATION
ENGI.                  MOORE : RECORDING ENGINEER
WITN.        WENDEBORN ANKLE : WITNESSED BY
CLNT.                A2DTECH : CLIENT CODE
ORIG.            2" 5" PRINT : ORIGIN OF DATA
UWI .       100102606217W500 : UNIQUE WELL ID
DICO. A2D Technologies, Inc. : DIGITIZING COMPANY
~Other -----------------------------------------------------
~ASCII -----------------------------------------------------
# ...
 8400.00000   10.51050   70.29970   74.02200   13.50950   56.77930   56.77930   34.12610   34.12610   13.50950   10.51050   23.01620  -70.66420  -61.42230   23.01620
 8450.00000    9.27770    8.61680    6.68820  149.51780   52.51820   52.51820   24.55940   24.55940  149.51780    9.27770   91.63240  -31.54980  -24.45270   91.63240
 8500.00000    9.30650    9.72640    8.46210  118.17440   53.80450   53.80450   31.28110   31.28110  118.17440    9.30650   75.22450  -11.17030   -5.92940   75.22450
 8550.00000    9.45850    8.47180    6.74490  148.27580   54.84430   54.84430   28.23360   28.23360  148.27580    9.45850   95.15490  -12.09290   -7.85440   95.15490
 8600.00000    9.53850   14.65760   13.19800   75.76910   55.52540   55.52540   35.71720   35.71720   75.76910    9.53850   66.64280  -13.85610  -10.62660   66.64280
 8650.00000    9.30770   21.92790   21.56350   46.37470   57.85030   57.85030   41.92070   41.92070   46.37470    9.30770   49.65590  -10.07020   -5.90210   49.65590
 8700.00000    9.49640   42.95870   44.62770   22.40760   59.21150   59.21150   48.22520   48.22520   22.40760    9.49640   27.92950  -11.98230   -4.45620   27.92950
 8750.00000    9.71420   90.17160   93.94260   10.64480   66.38100   66.38100   66.60110   66.60110   10.64480    9.71420   14.42260  -13.96440   -3.10210   14.42260
 8800.00000    9.46210   53.77640   55.66290   17.96530   62.04520   62.04520   43.31560   43.31560   17.96530    9.46210   23.34660  -26.94150   -8.18550   23.34660
 8850.00000    9.41670   44.30490   45.39820   22.02730   59.42790   59.42790   35.17060   35.17060   22.02730    9.41670   30.92000  -39.12010  -12.06050   30.92000
 8900.00000    9.68800   93.23270   96.26860   10.38760   65.02970   65.02970   49.74950   49.74950   10.38760    9.68800   15.89560  -37.71540   -2.55790   15.89560
 8950.00000   13.16120  114.70840  117.27590    8.52690   74.76410   74.76410   72.92920   72.92920    8.52690   13.16120   10.28520  -45.15070   -5.55280   10.28520
 9000.00000   10.50640  112.17040  115.09070    8.68880   75.78600   75.78600   70.00130   70.00130    8.68880   10.50640   11.69130  -46.04810   -3.73120   11.69130
 9050.00000   12.53760  182.91060  189.97880    5.26720   77.68890   77.68890   76.27630   76.27630    5.26720   12.53760    7.27460  -59.70580  -16.70570    7.27460
 9100.00000   10.22850   55.50820   54.83360   18.23700   57.93360   57.93360   35.21770   35.21770   18.23700   10.22850   17.00180  -54.42460  -10.73680   17.00180
 9150.00000   14.43900  207.00380  207.00380    4.83080   81.95620   81.95620   64.70380   64.70380    4.86800   14.43900    5.68730  -65.76240  -21.39130    5.68730
 9200.00000   10.00200   76.38840   77.67470   12.87420   64.76870   64.76870   56.51090   56.51090   12.87420   10.00200   16.67720  -46.38170   -2.18230   16.67720
 9250.00000   10.06800  110.26300  112.35320    8.90050   70.70480   70.70480   72.95840   72.95840    8.90050   10.06800   12.39640  -44.84670   -2.38320   12.39640
 9300.00000    9.96580   82.89990   84.10800   11.89170   68.13160   68.13160   64.39990   64.39990   11.89170    9.96580   16.68090  -42.96750   -2.23990   16.68090
 9350.00000   11.85610  137.28750  138.80410    7.20440   77.16930   77.16930   91.72400   91.72400    7.20440   11.85610    9.69740  -48.74490   -8.66920    9.69740
 9400.00000   10.86930  139.60950  139.45830    7.17060   74.11930   74.11930   73.94870   73.94870    7.17060   10.86930    9.98120  -48.53820   -9.02590    9.98120
 9450.00000   10.96340  140.36870  140.95430    7.09450   74.65250   74.65250   68.58270   68.58270    7.09450   10.96340   10.17520  -48.58920   -9.64390   10.17520
 9500.00000   11.00190   86.08770   86.52760   11.55700   78.10600   78.10600   82.19500   82.19500   11.55700   11.00190   17.74590  -45.02900   -6.64710   17.74590
 9550.00000    9.14410    1.21730    2.15120  464.86120   77.58010   77.58010  112.15150  112.15150  464.86120    9.14410  213.78190  -49.87180  -12.05320  213.78190
 9600.00000    9.28340    2.82580    2.14760  465.62660   77.67600   77.67600  133.62480  133.62480  465.62660    9.28340  179.67730  -42.74190   -5.49040  179.67730
 9650.00000    9.35560    6.94480    6.31380  158.38290   55.08090   55.08090   27.00090   27.00090  158.38290    9.35560   98.81560  -45.60730   -8.91920   98.81560
 9700.00000   11.63720  109.58380  111.55110    8.96450   73.55440   73.55440   71.45950   71.45950    8.96450   11.63720   15.50660  -51.47600  -15.08810   15.50660
 9750.00000    9.39020   14.96460   14.79570   67.58740   62.23310   62.23310   44.56410   44.56410   67.58740    9.39020   79.58240  -66.29210  -29.90420   79.58240
 9800.00000    9.73720   19.96810   20.42110   49.11320   55.47200   55.47200   32.50240   32.50240   49.11320    9.73720   52.38910  -66.24690  -29.85900   52.38910
 9850.00000    9.50370   10.17620    9.04320  110.58020   54.19350   54.19350   28.28350   28.28350  110.58020    9.50370   86.93370  -60.17940  -23.79150   86.93370
 9900.00000    9.44620    1.10030    2.15380  464.30370   53.65640   53.65640   24.90670   24.90670  464.30370    9.44620  151.35320  -63.97540  -27.58750  151.35320
 9950.00000    9.40140   20.94150   20.32240   49.20680   56.61120   56.61120   41.82430   41.82430   49.20680    9.40140   53.60990  -55.08790  -18.70000   53.60990
 10000.00000    9.38390   25.72810   26.74950   37.38390   61.18020   61.18020   55.18790   55.18790   37.38390    9.38390   48.73240  -52.88380  -16.49590   48.73240
 10050.00000   10.03260    0.79400    2.13600  468.16400   52.95570   52.95570   12.49610   12.49610  468.16400   10.03260  190.11720 -133.54570  -97.15780  190.11720
 10100.00000    9.21460    3.45170    2.14520  466.14710   50.95430   50.95430   22.05670   22.05670  466.14710    9.21460  113.89870 -145.59520 -109.20730  113.89870
 10150.00000    9.04110  109.04110  107.74470    9.28120   77.34560   77.34560    -999.25    -999.25    9.28120    9.04110   21.73370  -56.11580  -19.72790   21.73370
