~Version ---------------------------------------------------
VERS.      2.0 : CWLS log ASCII Standard -VERSION 2.0
WRAP.       NO : One line per depth step
CREA. 08/04/17 : LAS Creation Date
~Well ------------------------------------------------------
STRT.FT                           300.0 : START DEPTH
STOP.FT                         10100.0 : STOP DEPTH
STEP.FT                        50.00000 : STEP LENGTH
NULL.                           -999.25 : NULL VALUE
COMP.             CANADIAN FINA OIL LTD : COMPANY
WELL. FINA ET AL HEAVYSOUND 10-14-62-16 : WELL
FLD .                                WC : FIELD
LOC .                                   : LOCATION
CTRY.                            CANADA : COUNTRY
SRVC.            Schlumberger of Canada : SERVICE COMPANY
DATE.                       08-Apr-1960 : LOGDATE
PROV.                           Alberta : PROVINCE
UWI .                  100101406216W500 : UNIQUE WELL ID
SLAT.WGS84                     54.36487 : SURFACE LATITUDE
SLON.WGS84                    -116.2841 : SURFACE LONGITUDE
~Curve Information -----------------------------------------
DEPT  .FT         : Depth Curve
CALWS .IN         : CALIPER [MCALED]
CILDED.MMHO       : DEEP INDUCTION CONDUCTIVITY FROM IEL LOG
CONDWS.MMHO       : CONDUCTIVITY [1000/DRESWS]
DRESWS.OHMM       : DEEP RESISTIVITY [ILDED]
GRNED .UgRa-Eq/T  : GAMMA RAY FROM GRN LOG
GRWS  .GAPI       : GAMMA RAY [GRNED*16.5 TO CONVERT MG/TON TO GAPI]
ILDED .OHMM       : DEEP INDUCTION  FROM IEL LOG
LLED  .OHMM       : LATEROLOG FROM LL LOG
MCALED.IN         : MLT (MICROLOG) CALIPER FROM MICRO LOG
NEUTED.CPS        : NEUTRON FROM GRN LOG
NEUTWS.CPS        : NEUTRON [NEUTED]
SNED  .OHMM       : SHORT NORMAL RESISTIVITY FROM IEL LOG
SPR1ED.MV         : SPONTANEOUS POTENTIAL FROM LL LOG
SPRED .MV         : SPONTANEOUS POTENTIAL FROM IEL LOG
SPWS  .MV         : SPONTANEOUS POTENTIAL [BASELINE 0 MV, SPRED]
SRESWS.OHMM       : SHALLOW RESISTIVITY [SNED]
~Params ----------------------------------------------------
LMF .                     KB : LOG MEASURED FROM
DMF .                     KB : DRILLING MEASURED FROM
EKB .FT              3183.62 : KELLY BUSHING
EGL .FT               3169.7 : GROUND LEVEL
DATE.               04/08/60 : RUN DATE
RUN .                      1 : RUN NUMBER
DD  .FT                10100 : DEPTH DRILLER
DL  .FT                10110 : DEPTH LOGGER
BLI .FT                10103 : BOTTOM LOG INTERVAL
TLI .FT                 1180 : TOP LOG INTERVAL
CBD .FT                 1172 : CASING BOTTOM DRILLER
CBL .FT                 1180 : CASING BOTTOM LOGGER
BS  .IN                    9 : BIT SIZE
BSD .FT                10100 : BIT SIZE AT DEPTH
DFT .                    GEL : DRILLING FLUID TYPE
DFD .                    9.9 : DRILLING FLUID DENSITY
DFV .                    146 : DRILLING FLUID VISCOSITY
DFPH.                   10.5 : DRILLING FLUID PH
DFL .                   10.5 : DRILLING FLUID LOSS
MSS .             CIRCULATED : MUD SAMPLE SOURCE
RMS .OHMM                3.5 : RESISTIVITY MUD SAMPLE
MST .DEGF                 67 : MUD SAMPLE TEMPERATURE
RMF .OHMM               2.36 : RESISTIVITY MUD FILTRATE SAMPLE
MFST.DEGF                 63 : MUD FILTRATE SAMPLE TEMPERATURE
RMC .OHMM                4.7 : RESISTIVITY MUD CAKE
MCST.DEGF                 62 : MUD CAKE SAMPLE TEMPERATURE
MFSS.                   MEAS : MUD FILTRATE SAMPLE SOURCE
MCSS.                   MEAS : MUD CAKE SAMPLE SOURCE
RMB .OHMM               1.14 : RESISTIVITY MUD AT BHT
TCS .HRS                 700 : TIME CIRCULATED STOPPED
LUN .                   1573 : LOGGING UNIT NUMBER
LUL .                   C WC : LOGGING UNIT LOCATION
ENGI.              HAUSEGGER : RECORDING ENGINEER
WITN.        WENDEBORN ANKLE : WITNESSED BY
CLNT.                A2DTECH : CLIENT CODE
ORIG.            2" 5" PRINT : ORIGIN OF DATA
UWI .       100101406216W500 : UNIQUE WELL ID
DICO. A2D Technologies, Inc. : DIGITIZING COMPANY
~Other -----------------------------------------------------
~ASCII -----------------------------------------------------
# ...
 8900.00000   11.22050   46.14290   46.57180   21.47250    3.85050   63.53330   21.47250   34.49350   11.22050  192.10950  192.10950   25.27830  -80.78830    1.38550   -7.73160   25.27830
 8950.00000   13.06590  140.75160  144.35010    6.92760    3.89290   64.23280    6.92760   10.14240   13.06590  171.36070  171.36070   10.19930  -75.26930    2.60570   -7.49850   10.19930
 9000.00000   11.76270  144.71810  151.81420    6.58700    2.55820   42.21030    6.58700    8.29030   11.76270  225.68610  225.68610   10.75280  -71.75160   -9.67000  -20.75480   10.75280
 9050.00000   15.76020  221.03890  234.96260    4.25670    3.32460   54.85510    4.25670    7.26100   15.76020  162.30350  162.30350    6.50120  -82.25720  -12.26920  -24.33470    6.50120
 9100.00000   12.71700   90.69570   91.39930   10.94100    3.60050   59.40820   10.94100   16.96800   12.71700  183.72070  183.72070   14.35170  -66.82330    0.98610  -12.06650   14.35170
 9150.00000   11.75860  111.20060  112.11330    8.91950    4.48550   74.01160    8.91950   13.01880   11.75860  200.07390  200.07390   11.84590  -45.29020    3.48920  -10.54410   11.84590
 9200.00000   11.71440   95.63830   95.17740   10.50670    4.28380   70.68270   10.50670   16.06130   11.71440  198.43770  198.43770   14.13180  -33.37930    4.35510  -10.66530   14.13180
 9250.00000   15.83860  139.95080  143.18650    6.98390    4.83080   79.70820    6.98390   10.14740   15.83860  175.32720  175.32720    9.08060  -50.38440  -11.22360  -27.22460    9.08060
 9300.00000   14.63410  154.95240  156.34520    6.39730    5.03460   83.07010    6.39730    9.70620   14.63410  165.19930  165.19930    8.99280  -53.66470  -14.80170  -31.78340    8.99280
 9350.00000   14.15280  146.47540  145.21800    6.88620    4.67110   77.07310    6.88620   10.31060   14.15280  180.12210  180.12210    9.41120  -39.47810  -12.70270  -30.67150    9.41120
 9400.00000   14.04920  150.95620  146.68040    6.81880    4.55630   75.17890    6.81880   10.97910   14.04920  166.54120  166.54120    9.08430  -48.98000   -5.49930  -24.44870    9.08430
 9450.00000    9.15160    4.13170    4.75980  210.09290    7.97650  131.61220  210.09290 2495.94020    9.15160  228.49500  228.49500  193.60580  -91.03330  -12.01440  -31.95090  193.60580
 9500.00000    9.82760    2.56100    3.85140  259.64480    6.34670  104.72060  259.64480 3130.60250    9.82760  229.61850  229.61850  236.98340  -91.65440   -3.85400  -24.77120  236.98340
 9550.00000   10.63140    4.34920    5.23830  190.96870    6.28640  103.72480  190.96870 6264.19780   10.63140  220.15700  220.15700  153.42300  -48.69070   10.08050  -11.81730  153.42300
 9600.00000   12.89690   26.54580   28.16430   35.50600    3.18920   52.62180   35.50600   85.12720   12.89690  221.75230  221.75230   52.62970  -11.52440   19.97510   -2.90980   52.62970
 9650.00000   10.57930    5.10380    5.48810  182.75040    3.43490   56.67670  182.75040 1003.50040   10.57930  223.32940  223.32940  126.09650   14.48070  -16.51850  -37.54730  126.09650
 9700.00000   11.78220   10.97660   11.57650   86.38180    0.89980   14.84670   86.38180  375.99930   11.78220  282.53520  282.53520   92.63020  -89.81650  -98.70180 -117.63960   92.63020
 9750.00000   11.20730   -3.87900    2.00000  500.00000    0.84510   13.94410  500.00000 8772.03030   11.20730  351.25580  351.25580  115.20650  -70.64080  -58.80280  -75.66320  115.20650
 9800.00000   10.66310    0.58570    2.16410  464.58970    1.05410   17.39260  464.58970 2993.50220   10.66310  359.87140  359.87140  157.98580  -41.77290  -66.65440  -81.43740  157.98580
 9850.00000   10.43650    3.86220    5.50840  181.53930    0.87060   14.36490  181.53930  387.42500   10.43650  288.59130  288.59130   99.63460  -76.63130  -89.91540 -102.60730   99.63460
 9900.00000   10.95400   12.13600   14.06210   71.16530    0.78710   12.98630   71.16530  181.90400   10.95400  318.90150  318.90150   72.66360 -121.35720  -96.98100 -107.59550   72.66360
 9950.00000   11.70650   18.20720   21.59440   46.30820    0.88480   14.59920   46.30820  597.53080   11.70650  316.13070  316.13070  109.08560 -141.81580 -103.00130 -111.52470  109.08560
 10000.00000   10.19180    2.08800    3.41290  293.00970    1.12380   18.54270  293.00970 9913.55470   10.19180  376.94260  376.94260  251.31300 -128.06920  -86.26410  -92.71010  251.31300
 10050.00000    9.30790   29.64460   29.87630   33.51630    8.05930  132.97760   33.51630   73.55660    9.30790  191.07520  191.07520   85.18270  -16.75660   -4.11900   -8.48770   85.18270
 10100.00000    9.03200   45.85560   44.02590   22.71390    8.62870  142.37350   22.71390   57.50860    9.03200  178.81260  178.81260   38.63280  -43.38350   -4.14780   -7.95610   38.63280
