~Version ---------------------------------------------------
VERS.      2.0 : CWLS log ASCII Standard -VERSION 2.0
WRAP.       NO : One line per depth step
CREA. 08/27/13 : LAS Creation Date
~Well ------------------------------------------------------
STRT.m                           300.0 : START DEPTH
STOP.m                          4000.0 : STOP DEPTH
STEP.m                        50.00000 : STEP LENGTH
NULL.                          -999.25 : NULL VALUE
COMP. CHEVRON CANADA RESOURCES LIMITED : COMPANY
WELL.   CHEVRON SHELL SIMONETTE 11-14- : WELL
FLD .                                  : FIELD
LOC .                                  : LOCATION
CTRY.                           CANADA : COUNTRY
SRVC.                     Schlumberger : SERVICE COMPANY
DATE.                      10-Sep-1995 : LOGDATE
PROV.                          Alberta : PROVINCE
UWI .                 100111406427W500 : UNIQUE WELL ID
SLAT.WGS84                    54.53996 : SURFACE LATITUDE
SLON.WGS84                   -117.9743 : SURFACE LONGITUDE
~Curve Information -----------------------------------------
DEPT    .m      : Depth meter
CAL2DED .MM     : CALIPER FROM COMPENSATED DENSITY
CALDED  .MM     : CALIPER FROM FDC LOG
CALWS   .MM     : CALIPER [HDSED,SPLICED CALDED @ 3857-3862.5]
CONDWS  .MMHO   : CONDUCTIVITY [1000/DRESWS]
DCORWS  .KG/M3  : DENSITY CORRECTION [DRHOED]
DENWS   .KG/M3  : BUCK DENSITY  M=2.65 F=1.0] [RHOZED]
DPHILSED.V/V    : DENSITY POROSITY LIMESTONE FROM FDC LOG
DPHISSED.V/V    : DENSITY POROSITY SANDSTONE FROM FDC LOG
DPOLSWS .V/V    : DENSITY POROSITY [M=2.71 F=1.0] [DENWS]
DRESWS  .OHMM   : DEEP RESISTIVITY [IDPHED,SPLICED LLGDED @ 3863-3980 M]
DRHOED  .KG/M3  : DENSITY CORRECTION FROM FDC LOG
DTED    .US/M   : DELTA TIME FROM SONIC LOG
DTWS    .US/M   : DELTA TIME [DTED]
GRDED   .GAPI   : GAMMA RAY FROM FDC LOG
GRSED   .GAPI   : GAMMA RAY FROM SONIC LOG
GRWS    .GAPI   : GAMMA RAY [GRSED+15 @ 300, SPLICED GRDED @ 4001 M]
HDSED   .MM     : HOLE DIAMETER FROM SONIC LOG
IDPHED  .OHMM   : INDUCTION DEEP PHASOR RES
IMPHED  .OHMM   : INDUCTION MEDIUM PHASOR RES.
LLDGED  .OHMM   : GRONINGEN PHASE CORRECTED DEEP RESISTIVITY
LLSED   .OHMM   : LATEROLOG SHALLOW RESISTIVITY
MRESWS  .OHMM   : SHALLOW LATERAL RESISTIVITY [IMPHED,SPLICED LLSED @ 3863-3980 M]
MSFLED  .OHMM   : MICRO SPHERICALLY FOCUSED RESISTIVITY
NPOLSWS .V/V    : NEUTRON POROSITY[CONVERTED FROM [NPORLSED,SPLICED NPORSSED @ 434-2753 M]
NPORLSED.V/V    : ENCHANCED THERMAL NEUTRON POROSITY IN SELECTED LITHOLOGY SANDSTONE
NPORSSED.V/V    : NEUTRON POROSITY SANDSTONE FROM DENSITY LOG
PEFED   .B/E    : PHOTO ELECTROL LOG FROM FDC LOG [DEPTH ADJ. TO GRR]
PEFWS   .B/E    : PHOTO ELECTROL [PEFED]
RHOBED  .KG/M3  : BUCK DENSITY FROM FDC LOG
SFLUED  .OHMM   : SHALLOW FOCUS LOG
SPRED   .MV     : SPONTANEOUS POTENTIAL FROM RESISTIVITY LOG
SPWS    .MV     : SPONTANEOUS POTENTIAL [BASELINE 0 MV] [SPRED]
SRESWS  .OHMM   : SHALLOW RESISTIVITY [SFLUED,SPLICED MSFLED @ 3863-3980 M]
TENDED  .N      : TENSION FROM FDC LOG [DEPTH ADJ. TO GRR]
TENRED  .N      : TENSION FROM RESISTIVITY LOG
TENSED  .N      : TENSTION FROM SONIC LOG
~Params ----------------------------------------------------
PD  .                         GL : PERMANENT DATUM
EPD .M                    961.35 : ELEVATION PERMANENT DATUM
LMF .                         KB : LOG MEASURED FROM
DAPD.M                       5.6 : FEET ABOVE PERMANENT DATUM
DMF .                         KB : DRILLING MEASURED FROM
EKB .M                     966.9 : KELLY BUSHING
EGL .M                    961.35 : GROUND LEVEL
DATE.                   09/10/95 : RUN DATE
RUN .                          1 : RUN NUMBER
DD  .M                      4023 : DEPTH DRILLER
DL  .M                      4021 : DEPTH LOGGER
BLI .M                    4019.2 : BOTTOM LOG INTERVAL
TLI .M                    3862.5 : TOP LOG INTERVAL
CS  .MM                      177 : CASING SIZE
CBD .M                      3867 : CASING BOTTOM DRILLER
CBL .M                    3862.5 : CASING BOTTOM LOGGER
BS  .MM                      153 : BIT SIZE
BSD .M                      4023 : BIT SIZE AT DEPTH
DFT .                GEL POLYMER : DRILLING FLUID TYPE
DFD .                       1165 : DRILLING FLUID DENSITY
DFV .                         76 : DRILLING FLUID VISCOSITY
DFPH.                       11.5 : DRILLING FLUID PH
DFL .                        6.8 : DRILLING FLUID LOSS
MSS .                   FLOWLINE : MUD SAMPLE SOURCE
RMS .OHMM                   1.27 : RESISTIVITY MUD SAMPLE
MST .DEGC                     23 : MUD SAMPLE TEMPERATURE
RMF .OHMM                   1.14 : RESISTIVITY MUD FILTRATE SAMPLE
MFST.DEGC                     23 : MUD FILTRATE SAMPLE TEMPERATURE
RMC .OHMM                   1.39 : RESISTIVITY MUD CAKE
MCST.DEGC                     19 : MUD CAKE SAMPLE TEMPERATURE
MFSS.                   MEASURED : MUD FILTRATE SAMPLE SOURCE
MCSS.                   MEASURED : MUD CAKE SAMPLE SOURCE
RMB .OHMM                  0.469 : RESISTIVITY MUD AT BHT
TCS .HRS                     800 : TIME CIRCULATED STOPPED
TLAB.HRS                    1355 : TIME LOGGER AT BOTTOM
LUN .                       2028 : LOGGING UNIT NUMBER
LUL .             GRANDE PRAIRIE : LOGGING UNIT LOCATION
ENGI.                      CORTI : RECORDING ENGINEER
WITN.                     HENDRY : WITNESSED BY
CLNT.                    A2DTECH : CLIENT CODE
ORIG. 6.5"/100M 16.5"/100M PRINT : ORIGIN OF DATA
UWI .           100111406427W500 : UNIQUE WELL ID
DICO.     A2D Technologies, Inc. : DIGITIZING COMPANY
~Other -----------------------------------------------------
1. ALL CURVES APPEAR ON DEPTH, MUD DENSITY 1265 PPM.
~ASCII -----------------------------------------------------
# ...
 2300.00000  250.75650  263.41090  272.29840   58.48570  249.36960 2764.90800    -999.25   -0.06500   -0.03210   17.09820  249.36960  241.24280  241.24280   95.10560   92.75500   92.75500  272.29840   17.09820   17.55780    -999.25    -999.25   17.55780    -999.25    0.27770    -999.25    0.27770    3.16940    3.16940 2764.90800   20.56670  -51.44670  -13.31670   20.56670 19422.37500 17673.43550 17603.72850
 2350.00000  272.71090  247.41240  257.55580   25.31240   49.61170 2662.42190    -999.25   -0.00620    0.02780   39.50630   49.61170  197.53800  197.53800   74.93990   59.15110   59.15110  257.55580   39.50630   45.90660    -999.25    -999.25   45.90660    -999.25    0.22230    -999.25    0.22230    3.07790    3.07790 2662.42190  105.29690  -45.60800   -9.34920  105.29690 19029.73630 17766.33590 17610.91990
 2400.00000  313.22550  232.89260  265.98660   69.45600   29.23950 2550.02830    -999.25    0.06110    0.09360   14.39760   29.23950  229.79980  229.79980  117.04330  104.63000  104.63000  265.98660   14.39760   15.56750    -999.25    -999.25   15.56750    -999.25    0.30860    -999.25    0.30860    2.51290    2.51290 2550.02830   21.35530  -41.48540   -7.09780   21.35530 19643.51170 18124.94140 17896.15820
 2450.00000  247.62420  223.11100  227.72560   42.89930   24.74660 2636.03540    -999.25    0.00750    0.04330   23.31040   24.74660  206.86570  206.86570   79.38850   67.01460   67.01460  227.72560   23.31040   24.41600    -999.25    -999.25   24.41600    -999.25    0.16300    -999.25    0.16300    2.44950    2.44950 2636.03540   27.86790  -52.31350  -19.79710   27.86790 19819.23830 18167.89060 18055.09570
 2500.00000  275.50110  342.20860  349.31140  180.51190  173.56510 2396.96410    -999.25    0.14600    0.18310    5.53980  173.56510  279.74640  279.74640   67.50290   69.96650   69.96650  349.31140    5.53980    5.29140    -999.25    -999.25    5.29140    -999.25    0.41710    -999.25    0.41710    3.37140    3.37140 2396.96410    6.11570  -30.92710   -0.48800    6.11570 20264.34380 18625.38670 18570.47460
 2550.00000  243.51140  250.83790  241.82860   45.33500   -1.66070 2664.80980    -999.25   -0.01340    0.02640   22.05800   -1.66070  196.56980  196.56980   75.29320   71.36010   71.36010  241.82860   22.05800   24.33680    -999.25    -999.25   24.33680    -999.25    0.12630    -999.25    0.12630    3.63310    3.63310 2664.80980   26.34070  -59.63870  -36.22130   26.34070 20267.59960 18748.00780 18729.38670
 2600.00000  245.41210  250.11000  244.51500   35.09840   20.84100 2651.63990    -999.25   -0.00390    0.03410   28.49130   20.84100  197.08650  197.08650   72.73780   67.40120   67.40120  244.51500   28.49130   27.27220    -999.25    -999.25   27.27220    -999.25    0.10070    -999.25    0.10070    3.60270    3.60270 2651.63990   32.77330  -70.17720  -53.78160   32.77330 20445.27930 19095.42190 19156.08010
 2650.00000  257.14060  244.44280  245.32660   28.17080    0.36370 2663.34380    -999.25   -0.00980    0.02730   35.49770    0.36370  195.30740  195.30740   72.62610   70.17570   70.17570  245.32660   35.49770   34.73100    -999.25    -999.25   34.73100    -999.25    0.10370    -999.25    0.10370    3.55110    3.55110 2663.34380   39.76900  -67.09840  -57.72450   39.76900 20712.19340 19197.41800 19111.81250
 2700.00000  272.15720  269.13470  280.05000   20.26860    1.86210 2681.35620    0.00090   -0.01880    0.01680   49.33730    1.86210  206.43680  206.43680   90.35900   82.46980   82.46980  280.05000   49.33730   46.67630    -999.25    -999.25   46.67630    -999.25    0.16880    -999.25    0.16880    3.94090    3.94090 2681.35620   54.16710  -46.52560  -44.17350   54.16710 20998.33200 19626.25000 19510.27540
 2750.00000  256.54230  326.13540  258.31400    3.25690  213.88990 2666.09330    0.02610   -0.01100    0.02570  307.03700  213.88990  171.13760  171.13760   18.60210   16.81090   16.81090  258.31400  307.03700   61.61150    -999.25    -999.25   61.61150    -999.25    0.07330    0.07330    0.11360    6.31820    6.31820 2666.09330  110.65940  -91.86220  -96.53180  110.65940 20523.84180 19569.44530 19636.72850
 2800.00000    -999.25    -999.25  253.51170    -999.25    -999.25    -999.25    -999.25    -999.25    -999.25    -999.25    -999.25  164.62500  164.62500    -999.25   14.90650   14.90650  253.51170    -999.25  155.04030    -999.25    -999.25  155.04030    -999.25    -999.25    -999.25    -999.25    -999.25    -999.25    -999.25 1966.18950 -242.27130 -253.96270 1966.18950    -999.25 19812.88670 19832.99800
 2850.00000    -999.25    -999.25  222.99190   10.10670    -999.25    -999.25    -999.25    -999.25    -999.25   98.94420    -999.25  158.34370  158.34370    -999.25   12.47910   12.47910  222.99190   98.94420  142.80100    -999.25    -999.25  142.80100    -999.25    -999.25    -999.25    -999.25    -999.25    -999.25    -999.25  428.41840 -152.63810 -171.35130  428.41840    -999.25 19852.63480 19859.71680
 2900.00000    -999.25    -999.25  235.54720    2.72330    -999.25    -999.25    -999.25    -999.25    -999.25  367.20430    -999.25  173.53000  173.53000    -999.25   13.61760   13.61760  235.54720  367.20430  191.19560    -999.25    -999.25  191.19560    -999.25    -999.25    -999.25    -999.25    -999.25    -999.25    -999.25  174.29860 -128.80590 -154.54080  174.29860    -999.25 20301.00390 20237.01560
 2950.00000    -999.25    -999.25  235.96200   10.59870    -999.25    -999.25    -999.25    -999.25    -999.25   94.35140    -999.25  164.28250  164.28250    -999.25   10.30270   10.30270  235.96200   94.35140  619.77250    -999.25    -999.25  619.77250    -999.25    -999.25    -999.25    -999.25    -999.25    -999.25    -999.25  230.80540 -112.42200 -145.17870  230.80540    -999.25 21041.64260 21014.11910
 3000.00000    -999.25    -999.25  238.77770    2.13110    -999.25    -999.25    -999.25    -999.25    -999.25  469.23850    -999.25  172.68500  172.68500    -999.25   10.39440   10.39440  238.77770  469.23850   95.16620    -999.25    -999.25   95.16620    -999.25    -999.25    -999.25    -999.25    -999.25    -999.25    -999.25  163.07580 -125.77700 -165.55540  163.07580    -999.25 21546.22270 21575.16410
 3050.00000    -999.25    -999.25  242.27940  112.91400    -999.25    -999.25    -999.25    -999.25    -999.25    8.85630    -999.25  210.10550  210.10550    -999.25   57.77980   57.77980  242.27940    8.85630    8.84570    -999.25    -999.25    8.84570    -999.25    -999.25    -999.25    -999.25    -999.25    -999.25    -999.25    8.69440  -43.30690  -90.10710    8.69440    -999.25 21344.44340 21424.48830
 3100.00000    -999.25    -999.25  255.55650    6.91670    -999.25    -999.25    -999.25    -999.25    -999.25  144.57730    -999.25  180.79740  180.79740    -999.25   31.28400   31.28400  255.55650  144.57730   67.33170    -999.25    -999.25   67.33170    -999.25    -999.25    -999.25    -999.25    -999.25    -999.25    -999.25   98.68320  -43.28140  -97.10330   98.68320    -999.25 21700.42190 21558.04300
 3150.00000    -999.25    -999.25  232.35520   28.12010    -999.25    -999.25    -999.25    -999.25    -999.25   35.56180    -999.25  185.92140  185.92140    -999.25   35.25560   35.25560  232.35520   35.56180   34.35800    -999.25    -999.25   34.35800    -999.25    -999.25    -999.25    -999.25    -999.25    -999.25    -999.25   44.24000  -64.04440 -124.88810   44.24000    -999.25 22103.16020 22078.33590
 3200.00000    -999.25    -999.25  259.94310   91.54830    -999.25    -999.25    -999.25    -999.25    -999.25   10.92320    -999.25  212.89590  212.89590    -999.25   48.39540   48.39540  259.94310   10.92320   10.92690    -999.25    -999.25   10.92690    -999.25    -999.25    -999.25    -999.25    -999.25    -999.25    -999.25   12.12540   -2.59530  -70.46070   12.12540    -999.25 22122.07420 22037.01560
 3250.00000  220.82830  303.71250  233.55410    -999.25    -999.25 2595.24050    0.07990    -999.25    0.06710    -999.25    -999.25  161.47230  161.47230   11.79450   10.92620   10.92620  233.55410    -999.25 1956.63420    -999.25    -999.25 1956.63420    -999.25   -0.00640   -0.00640    -999.25   10.04540   10.04540 2595.24050    -999.25 -142.08470 -216.97190    -999.25 -432.84770 22192.53520 22240.38670
