~Version ---------------------------------------------------
VERS.      2.0 : CWLS log ASCII Standard -VERSION 2.0
WRAP.       NO : One line per depth step
CREA. 08/26/14 : LAS Creation Date
~Well ------------------------------------------------------
STRT.FT                         1100.0 : START DEPTH
STOP.FT                        10800.0 : STOP DEPTH
STEP.FT                       50.00000 : STEP LENGTH
NULL.                          -999.25 : NULL VALUE
COMP. AMOCO CANADA PETROLEUM CO., LTD. : COMPANY
WELL.       AMOCO N-2 ANTE 11-25-65-23 : WELL
FLD .                                  : FIELD
LOC .                                  : LOCATION
CTRY.                           CANADA : COUNTRY
SRVC.           Schlumberger of Canada : SERVICE COMPANY
DATE.                      30-Oct-1976 : LOGDATE
PROV.                          Alberta : PROVINCE
UWI .                 100112506523W500 : UNIQUE WELL ID
SLAT.WGS84                    54.65705 : SURFACE LATITUDE
SLON.WGS84                   -117.3447 : SURFACE LONGITUDE
~Curve Information -----------------------------------------
DEPT   .FT    : DEPTH FEET
CALD   .IN    : CALIPER FROM DENSITY LOG
CALS   .IN    : CALIPER FROM SONIC LOG [TAKEN FROM SUBSC. LAS FILE]
DPHI_SS.V/V   : DENSITY POROSITY [M=2.65 F=1.0] FROM DENSITY LOG
DPHI_LS.V/V   : DENSITY POROSITY [M=2.71 F=1.0] FROM DENSITY LOG
DRHO   .G/C3  : DENSITY CORRECTION FROM DENSITY LOG
DT     .US/F  : DELTA TIME FROM SONIC LOG
GRD    .GAPI  : GAMMA RAY FROM DENSITY LOG [TAKEN FROM SUBSC. LAS FILE]
GRS    .GAPI  : GAMMA RAY FROM SONIC LOG
ILD    .OHMM  : INDUCTION LOG DEEP RESISTIVITY
ILM    .OHMM  : INDUCTION LOG MEDIUM RESISTIVITY
LL8    .OHMM  : 8 INCH LATEROLOG RESISTIVITY
NPHI_SS.V/V   : NEUTRON POROSITY SANDSTONE FROM DENSITY LOG
NPHI_LS.V/V   : NEUTRON POROSITY LIMESTONE FROM DENSITY LOG
RHOB   .G/C3  : BULK DENSITY FROM DENSITY LOG
SPR    .MV    : SPONTANEOUS POTENTIAL FROM RESISTIVITY LOG
~Params ----------------------------------------------------
PD  .                     GL : PERMANENT DATUM
EPD .FT                 2441 : ELEVATION PERMANENT DATUM
LMF .                     KB : LOG MEASURED FROM
DAPD.FT                 13.6 : FEET ABOVE PERMANENT DATUM
EKB .FT               2454.6 : KELLY BUSHING
EGL .FT                 2441 : GROUND LEVEL
DATE.               10/30/76 : RUN DATE
RUN .                      1 : RUN NUMBER
DD  .FT                10805 : DEPTH DRILLER
DL  .FT                10818 : DEPTH LOGGER
BLI .FT                10812 : BOTTOM LOG INTERVAL
TLI .FT                 1155 : TOP LOG INTERVAL
CBD .FT                 1153 : CASING BOTTOM DRILLER
CBL .FT                 1155 : CASING BOTTOM LOGGER
BS  .IN                 8.75 : BIT SIZE
BSD .FT                10805 : BIT SIZE AT DEPTH
DFT .                    GEL : DRILLING FLUID TYPE
DFD .                      9 : DRILLING FLUID DENSITY
DFV .                    115 : DRILLING FLUID VISCOSITY
DFPH.                    9.5 : DRILLING FLUID PH
DFL .                    8.6 : DRILLING FLUID LOSS
MSS .             CIRCULATED : MUD SAMPLE SOURCE
RMS .OHMM               3.02 : RESISTIVITY MUD SAMPLE
MST .DEGF                 62 : MUD SAMPLE TEMPERATURE
RMF .OHMM               2.62 : RESISTIVITY MUD FILTRATE SAMPLE
MFST.DEGF                 52 : MUD FILTRATE SAMPLE TEMPERATURE
MFSS.             CALCULATED : MUD FILTRATE SAMPLE SOURCE
MCSS.             CALCULATED : MUD CAKE SAMPLE SOURCE
TCS .HRS                   3 : TIME CIRCULATED STOPPED
LUN .                   7809 : LOGGING UNIT NUMBER
LUL .                    EDM : LOGGING UNIT LOCATION
ENGI.               SEDGWICK : RECORDING ENGINEER
WITN.              SCHWIEDER : WITNESSED BY
CLNT.                A2DTECH : CLIENT CODE
ORIG.            2" 5" PRINT : ORIGIN OF DATA
UWI .       100112506523W500 : UNIQUE WELL ID
DICO. A2D Technologies, Inc. : DIGITIZING COMPANY
~Other -----------------------------------------------------
~ASCII -----------------------------------------------------
# ...
 8000.00000    9.20530    8.64900    -999.25    0.01520    0.03120   51.41200   29.49000   47.79500  310.11810  355.60800  492.73390    -999.25    0.02230    2.70940  -28.97600
 8050.00000    9.19790    8.94900    -999.25   -0.02250    0.06670   56.85440   54.28500   84.40250   62.38260   71.67200   82.38240    -999.25    0.05980    2.76050  -26.33450
 8100.00000    9.22840    8.94900    -999.25    0.00340    0.02490   56.30760   51.00000   78.60120   76.02730   86.96080  100.73600    -999.25    0.06830    2.69080  -14.75210
 8150.00000   13.29140    9.94900    -999.25    0.06420    0.21610   53.22430   26.59500   48.72030  330.58640  272.67700 1084.04140    -999.25    0.01800    2.55950    9.56550
 8200.00000    9.57170    8.94900    -999.25    0.02160    0.16920   66.75500   30.49500   95.37800  244.89730  497.95410 1098.59590    -999.25    0.01880    2.70870    2.60680
 8250.00000   10.09090    9.29900    -999.25   -0.02440    0.09010   49.75850   19.18500   31.99070  596.92580  518.73790 1081.79300    -999.25    0.01110    2.72170  -51.04270
 8300.00000   11.01250    9.79900    -999.25    0.03050    0.21920   49.12690   21.79500   35.56440  439.25270  413.02180 1089.29940    -999.25    0.00900    2.72970  -30.34590
 8350.00000   10.76500    9.59900    -999.25    0.03500    0.24350   49.70020   18.28500   36.17960  423.41750  365.63570  638.83330    -999.25    0.00800    2.61660  -56.84370
 8400.00000   10.67730    9.75000    -999.25    0.02730    -999.25   49.65020   19.89000   36.28710  241.98220  216.12420  303.95900    -999.25    0.01900    2.69230  -47.86130
 8450.00000   12.14930    9.79900    -999.25    0.10070    0.24320   49.05790   17.29500   23.56580 1510.26880  837.89600 1117.95120    -999.25    0.01040    2.58320  -39.94850
 8500.00000   10.01350    9.69900    -999.25    0.08040    0.10890   50.50000   13.50000   27.69520   57.17680   75.62620  116.65130    -999.25    0.02370    2.62900 -127.13700
 8550.00000   11.47040    9.69900    -999.25    0.08530    0.25070   50.11850   15.79500   22.39870  251.83130  165.61450  239.05530    -999.25    0.00690    2.55670  -68.89270
 8600.00000   12.64890    9.75000    -999.25    0.11350    0.15630   49.55920   16.99500   21.39380 1206.99790  333.08690  790.20000    -999.25    0.02010    2.55350  -52.79640
 8650.00000   11.67850    9.69900    -999.25    0.14890    0.24810   50.42080   16.69500   19.52910  259.93890  165.73910  243.15200    -999.25    0.02250    2.45800  -78.72180
 8700.00000   12.65620    9.69900    -999.25    0.17720    0.24940   50.62470   15.88500   20.74790  606.74430  261.35130  701.18110    -999.25    0.02640    2.39450  -58.71290
 8750.00000   11.87670    9.69900    -999.25    0.11020    -999.25   49.69190   19.29000   23.09330  545.81450  476.86660  778.29800    -999.25    0.01610    2.54120  -77.93460
 8800.00000   12.78690    9.75000    -999.25    0.17680    0.15760   50.70310   15.39000   20.20340 1091.82960  380.11000 1107.07810    -999.25    0.02500    2.40490  -71.01140
 8850.00000   11.87410    9.79900    -999.25    0.16290    0.25090   50.42910   18.99000   23.09470  428.56020  227.00780  286.68540    -999.25    0.02440    2.38310 -102.69710
 8900.00000   10.19330    9.14900    -999.25    0.01720    0.11850   50.68010   14.89500   17.89070   57.38790   65.54440  183.29020    -999.25    0.02620    2.67460 -100.93660
 8950.00000    9.74030    9.25000    -999.25    0.11350    0.17620   55.88050   22.50000   24.85870    5.35560   10.07910   23.55880    -999.25    0.19210    2.46680 -102.60960
 9000.00000    9.56840    9.14900    -999.25   -0.00050    0.02860   50.93580   36.39000   42.24220   81.25200  125.17610  243.83680    -999.25    0.02720    2.72970 -172.36030
 9050.00000   10.73430    9.89900    -999.25    0.01860    0.20110   50.35140   25.69500   30.75090  341.43520  467.87060 1007.65450    -999.25    0.02110    2.69250 -133.31220
 9100.00000    9.55780    8.94900    -999.25   -0.00010    0.01650   51.94670   37.39500   39.56820  130.31470  138.97630  126.58220    -999.25    0.02500    2.70450 -125.37630
 9150.00000    9.84460    9.39900    -999.25   -0.00010    0.00690   50.66250   28.39500   40.74780  159.54310  153.20350  144.91500    -999.25    0.01800    2.69330 -131.18430
 9200.00000    9.78470    9.34900    -999.25   -0.00330    0.06800   54.09590   32.08500   37.32990  110.18890  120.40640  138.05650    -999.25    0.03850    2.72790 -124.59630
 9250.00000    9.18490    9.09900    -999.25    0.01100    0.01180   51.98980   34.78500   50.60370  127.53440  144.84460  177.84990    -999.25    0.01780    2.68770 -154.07800
 9300.00000    9.22330    9.14900    -999.25   -0.00680    0.01140   51.67590   33.69000   49.03230  121.15250  127.79610  136.15700    -999.25    0.02440    2.71680 -137.81530
 9350.00000    9.19010    9.14900    -999.25   -0.00390    0.00660   53.40870   42.19500   54.42720   49.21060   55.35730   62.92210    -999.25    0.03470    2.70580 -134.85550
 9400.00000    9.25950    9.19900    -999.25    0.01830    0.02900   55.64090   46.69500   57.95460   30.79190   33.43620   39.25250    -999.25    0.05060    2.68470 -122.56160
 9450.00000    9.23380    9.09900    -999.25    0.01980    0.01020   55.59460   47.08500   52.31300   39.57750   45.54000   56.54260    -999.25    0.04190    2.68910 -113.29510
 9500.00000    9.22840    8.84900    -999.25    0.02600    0.01800   57.71980   45.79500   51.95560   21.34860   23.11120   34.44100    -999.25    0.05150    2.67440 -110.15530
 9550.00000    9.26130    8.69900    -999.25   -0.02610    0.05090   59.10670   39.58500   48.47220   15.03200   16.77950   21.71360    -999.25    0.07260    2.76460 -116.21030
 9600.00000    9.37230    9.25000    -999.25    0.02630    0.02890   64.94250   56.49000   65.69770    7.40980    8.37830   11.58190    -999.25    0.12970    2.67260 -118.73950
 9650.00000    9.60990    9.19900    -999.25    0.03830    0.01090   70.53220   84.39000   93.75470   15.58940   19.59430   29.33330    -999.25    0.18450    2.63130 -118.37020
 9700.00000   14.06490   12.54900    -999.25    0.20870    0.16010   73.07620   66.49500   73.41000    4.72640    5.22950    6.24490    -999.25    0.26030    2.38940 -131.03280
 9750.00000   13.86130   12.19900    -999.25    0.15720    0.14360   78.06490   82.09500   89.47830    3.48200    3.78410    4.80360    -999.25    0.29760    2.44650 -147.91080
 9800.00000   14.06170   12.39900    -999.25    0.13890    0.19140   82.21640   93.49500  100.11780    2.95690    3.38130    4.68770    -999.25    0.34970    2.40240 -129.16540
 9850.00000   10.00750    9.64900    -999.25    0.02780    0.17910   67.22860   66.28500   73.16370    6.42020    7.17180    8.07990    -999.25    0.17300    2.70060 -110.09780
 9900.00000    9.63290    9.50000    -999.25   -0.00310    0.02820   65.22430   67.78500   76.06100    7.64530    8.38320    9.82230    -999.25    0.16640    2.72770 -106.14780
 9950.00000   10.18270    9.64900    -999.25   -0.02620    0.20660   69.70430   92.38500  100.18940    5.85320    6.54730    8.14990    -999.25    0.23900    2.69840 -108.37040
 10000.00000    9.97370    9.64900    -999.25    0.05430    0.14150   71.49280   81.49500   90.40780    5.31890    6.07830    7.52310    -999.25    0.22510    2.59200 -113.55740
 10050.00000   10.74750   10.39900    -999.25    0.05290    0.11480   68.13090   74.68500   78.60140    5.51070    6.22880    8.18800    -999.25    0.20540    2.60700 -113.32810
 10100.00000    9.87800    9.25000    -999.25    0.00530    0.03110   70.01540   77.89500   88.64650    6.46780    7.07160    8.86290    -999.25    0.20450    2.68870 -104.27860
 10150.00000   11.78580   10.04900    -999.25    0.03320    0.21030   73.71240   87.58500   97.81250    6.59410    7.44780    8.13320    -999.25    0.27470    2.60390 -121.66320
 10200.00000    9.88680    9.50000    -999.25    0.03300    0.16740   66.62440   80.68500   85.95100    6.04780    7.17370    9.51590    -999.25    0.20210    2.67790 -117.32610
 10250.00000   10.62560    9.69900    -999.25    0.13320    0.23060   82.30450  126.28500  130.83550    4.65970    5.02450    6.59750    -999.25    0.27250    2.50970 -130.40200
