~Version ---------------------------------------------------
VERS. 2.0 : CWLS log ASCII Standard -VERSION 2.0
WRAP.  NO : ONE LINE PER DEPTH STEP
~Well ------------------------------------------------------
STRT.F                        300.0 : START DEPTH
STOP.F                       9300.0 : STOP DEPTH
STEP.F                     50.00000 : STEP LENGTH
NULL.                       -999.25 : NULL VALUE
COMP. CANADIAN EXPORT OIL & GAS LTD : COMPANY
WELL. CEGO ET AL SUNSET 10-23-69-19 : WELL
FLD .                               : FIELD
LOC .                               : LOCATION
CTRY.                        CANADA : COUNTRY
SRVC.                       Unknown : SERVICE COMPANY
DATE.                   18-Jan-1973 : LOGDATE
PROV.                       Alberta : PROVINCE
UWI .              100102306919W500 : UNIQUE WELL ID
SLAT.WGS84                   54.992 : SURFACE LATITUDE
SLON.WGS84                -116.7783 : SURFACE LONGITUDE
~Curve Information -----------------------------------------
DEPT  .F                 : 
ASN   .OHMM 05 041 16 00 : AMPLIFIED SHORT NORMAL RESISTIVITY 16"
CILD_1.MMHO 07 110 46 00 : CONDUCTIVITY INDUCTION LOG DEEP
ILD_1 .None              : 
SPR_1 .M/V  00 000 00 01 : SPONTANEOUS POTENTIAL FROM RESISTIVITY
CALS  .IN                : CALIPER FROM SONIC LOG
DT    .US/F 60 520 00 00 : DELTA TIME FROM SONIC LOG
GRS   .GAPI              : GAMMA RAY FROM SONIC LOG
SPR   .MV   99 010 00 00 : SELF POTENTIAL
ASFL  .OHMM 06 221 01 00 : AMPLIFIED SHALLOW FOCUSED RESISTIVITY
CILD  .MMHO 07 110 00 00 : CONDUCTIVITY INDUCTION LOG
ILD   .OHMM 06 121 12 00 : INDUCTION LOG RESISTIVITY
GR    .GAPI              : GAMMA RAY FROM CEMENT BOND
~Params ----------------------------------------------------
PD  .                     GL : PERMANENT DATUM
EPD .FT                 2660 : ELEVATION PERMANENT DATUM
LMF .                     KB : LOG MEASURED FROM
DAPD.FT                 14.7 : FEET ABOVE PERMANENT DATUM
EKB .FT               2674.7 : KELLY BUSHING
EGL .FT                 2660 : GROUND LEVEL
DATE.               01/18/73 : RUN DATE
RUN .                      2 : RUN NUMBER
DD  .FT                 9336 : DEPTH DRILLER
DL  .FT                 9336 : DEPTH LOGGER
BLI .FT                 9325 : BOTTOM LOG INTERVAL
TLI .FT                 8800 : TOP LOG INTERVAL
CBD .FT                  944 : CASING BOTTOM DRILLER
CBL .FT                  941 : CASING BOTTOM LOGGER
BS  .IN                7.875 : BIT SIZE
BSD .FT                 9336 : BIT SIZE AT DEPTH
DFT .                    KCL : DRILLING FLUID TYPE
DFD .                    9.1 : DRILLING FLUID DENSITY
DFV .                     60 : DRILLING FLUID VISCOSITY
DFPH.                    9.0 : DRILLING FLUID PH
DFL .                    8.2 : DRILLING FLUID LOSS
RMS .OHMM               0.44 : RESISTIVITY MUD SAMPLE
MST .DEGF                 55 : MUD SAMPLE TEMPERATURE
RMF .OHMM                0.6 : RESISTIVITY MUD FILTRATE SAMPLE
MFST.DEGF                 60 : MUD FILTRATE SAMPLE TEMPERATURE
RMB .OHMM               0.14 : RESISTIVITY MUD AT BHT
TCS .HRS                   2 : TIME CIRCULATED STOPPED
LUN .                   7635 : LOGGING UNIT NUMBER
LUL .                    D C : LOGGING UNIT LOCATION
ENGI.                   HALL : RECORDING ENGINEER
WITN.         WIGGINS WILMER : WITNESSED BY
CLNT.                A2DTECH : CLIENT CODE
ORIG.            2" 5" PRINT : ORIGIN OF DATA
UWI .       100102306919W500 : UNIQUE WELL ID
DICO. A2D Technologies, Inc. : DIGITIZING COMPANY
~Other -----------------------------------------------------
~ASCII -----------------------------------------------------
# ...
 3100.00000    -999.25    -999.25    -999.25    -999.25   10.71780  102.91200   89.77110  -23.44240    4.37400  197.07890    6.12520  104.52730
 3150.00000    -999.25    -999.25    -999.25    -999.25    9.67810  101.84050   92.02040  -21.40260    4.06220  208.64990    5.92990   90.67950
 3200.00000    -999.25    -999.25    -999.25    -999.25    9.16060  112.36550   92.59030  -21.93330    2.90630  278.30580    4.76170   85.22150
 3250.00000    -999.25    -999.25    -999.25    -999.25    8.50980   93.98530   84.33440  -21.73230    5.04160  180.37130    6.94490   89.73580
 3300.00000    -999.25    -999.25    -999.25    -999.25    8.96330  101.36670   93.04950  -20.23880    3.36960  220.57070    5.86790   92.30770
 3350.00000    -999.25    -999.25    -999.25    -999.25   10.02480  121.83530  103.12990  -19.20490    3.22030  233.25280    5.59270   94.77130
 3400.00000    -999.25    -999.25    -999.25    -999.25   10.73350  161.83330   99.66960  -17.63440    1.77370  380.61020    3.57970   92.02500
 3450.00000    -999.25    -999.25    -999.25    -999.25    9.56940  138.03870   94.50250  -15.33630    1.55360  456.27550    3.38440  109.67580
 3500.00000    -999.25    -999.25    -999.25    -999.25    8.52120  100.82010   85.23410  -17.70480    2.06520  352.61210    4.04340  100.61800
 3550.00000    -999.25    -999.25    -999.25    -999.25    9.55310  105.35360   91.37130  -18.44810    2.14660  331.28800    4.15830   94.69420
 3600.00000    -999.25    -999.25    -999.25    -999.25    9.54740  117.16720  103.66860  -14.97300    2.21030  378.76380    3.80290  105.23800
 3650.00000    -999.25    -999.25    -999.25    -999.25    8.58230   87.44470   54.19760  -21.75860    6.67390  181.12080    6.96810   64.68280
 3700.00000    -999.25    -999.25    -999.25    -999.25    9.02260   90.85860   63.79940  -19.75390    4.50810  246.77640    5.21200   69.82030
 3750.00000    -999.25    -999.25    -999.25    -999.25    7.02280  111.82860   91.77310  -13.06800    1.72970  340.77320    4.00330   98.97040
 3800.00000    -999.25    -999.25    -999.25    -999.25    8.34490   84.59320   63.70410  -17.00650    5.38090  192.76620    6.66670   55.32610
 3850.00000    -999.25    -999.25    -999.25    -999.25    8.61870   93.42510   84.72470  -17.59970    4.79390  233.16290    5.35250  111.82450
 3900.00000    -999.25    -999.25    -999.25    -999.25    9.17100  110.38710   77.05940  -15.51250    3.87850  256.64660    5.08500   72.33240
 3950.00000    -999.25    -999.25    -999.25    -999.25    8.73180   91.08210   59.63370  -25.72540    5.95870  234.42090    5.59070   60.48100
 4000.00000    -999.25    -999.25    -999.25    -999.25    8.63850   92.52630   72.68750  -22.62120    4.86390  223.34490    5.82060   85.33590
 4050.00000    -999.25    -999.25    -999.25    -999.25    7.84610   94.93400   58.02550  -26.44630    4.09590  236.43620    5.49630   58.15810
 4100.00000    -999.25    -999.25    -999.25    -999.25    8.89100   91.63770   77.09510  -25.06380    4.75090  244.58510    5.40590   85.75440
 4150.00000    -999.25    -999.25    -999.25    -999.25    8.23980   91.30540   71.97560  -27.98830    5.18070  248.23650    5.38530   83.08420
 4200.00000    -999.25    -999.25    -999.25    -999.25    7.66770   97.22440   51.20760  -29.99140    2.13700  340.74840    4.11110   59.38010
 4250.00000    -999.25    -999.25    -999.25    -999.25    7.49900   84.24980   56.80600  -29.16460    8.18760  140.76540    8.39880   66.68390
 4300.00000    -999.25    -999.25    -999.25    -999.25    8.84130   94.50060   61.71620  -30.47780    4.10250  329.38860    4.14820   62.47860
 4350.00000    -999.25    -999.25    -999.25    -999.25    9.12290   92.74330   80.07470  -25.37370    4.27410  239.95230    5.41080   76.79070
 4400.00000    -999.25    -999.25    -999.25    -999.25    8.73930   87.47470   52.02560  -30.97750    3.43320  273.91930    4.62580   57.73910
 4450.00000    -999.25    -999.25    -999.25    -999.25    8.82810   88.57490   64.54620  -28.25220    5.38220  259.96590    5.17280   58.47990
 4500.00000    -999.25    -999.25    -999.25    -999.25    8.57510   92.23130   75.32500  -24.52110    4.73830  194.35800    6.50550   77.76700
 4550.00000    -999.25    -999.25    -999.25    -999.25    8.63250   85.74560   72.25300  -24.96040    6.88320  165.53310    7.50600   79.55570
 4600.00000    -999.25    -999.25    -999.25    -999.25   11.38990  138.25940   67.45250  -16.42280    1.61540  470.29410    3.11920   61.22590
 4650.00000    -999.25    -999.25    -999.25    -999.25    9.57650   82.36350   79.92240  -24.13430    6.88650  150.17000    7.95710   79.75180
 4700.00000    -999.25    -999.25    -999.25    -999.25    8.37380   79.71800   67.17720  -30.95970    9.61020  126.21940    9.88720   60.52300
 4750.00000    -999.25    -999.25    -999.25    -999.25    8.56070   76.98050   50.97410  -22.17570   18.54880   73.61250   16.55690   51.01490
 4800.00000    -999.25    -999.25    -999.25    -999.25    8.69300   84.61470  100.09530  -23.43000    8.19010  154.05980    8.00710  104.79790
 4850.00000    -999.25    -999.25    -999.25    -999.25   12.06080  109.22980   80.47140  -11.46310    2.45800  322.10650    4.21200   96.48870
 4900.00000    -999.25    -999.25    -999.25    -999.25    8.17260  113.74580  124.53670  -18.94090   26.45970   60.46460   20.23250  109.20970
 4950.00000    -999.25    -999.25    -999.25    -999.25    8.10810  110.62360  118.21010  -16.76020   24.47030  120.38110    9.58000  114.73710
 5000.00000    -999.25    -999.25    -999.25    -999.25    7.74600   80.83400  152.40480  -11.62780  127.55710    4.62530    -999.25  179.22350
 5050.00000    -999.25    -999.25    -999.25    -999.25    7.41260   77.45280   78.89860  -23.15190    6.12960  385.90770    3.59070   74.17070
 5100.00000    -999.25    -999.25    -999.25    -999.25    7.57270   74.69950   77.39510  -19.48040    8.03960  335.25100    3.85240   57.07080
 5150.00000    -999.25    -999.25    -999.25    -999.25    7.87770   74.87900  109.94570   -6.19060    6.82780  335.76280    3.86740   97.33020
 5200.00000    -999.25    -999.25    -999.25    -999.25    7.31180   79.33070   21.33170  -28.46570    2.45140  652.20810    2.35030   33.10660
 5250.00000    -999.25    -999.25    -999.25    -999.25    7.36330   67.31130   28.49400  -75.80530    5.33910  234.92220    5.23620   31.79700
 5300.00000    -999.25    -999.25    -999.25    -999.25    7.76300   58.03510   39.30320    -999.25   10.64640  134.11580    8.12240   14.59970
 5350.00000    -999.25    -999.25    -999.25    -999.25    7.69970   64.12710   24.07660    -999.25   36.09430   86.44660   13.28840   21.15580
 5400.00000    -999.25    -999.25    -999.25    -999.25    7.70160   51.32970   23.98680    -999.25   88.87350   14.53850  105.42220   31.59340
 5450.00000    -999.25    -999.25    -999.25    -999.25    8.06570   54.89630   25.83210    -999.25   49.66470   41.71420   30.59310   13.59930
 5500.00000    -999.25    -999.25    -999.25    -999.25    8.02040   59.07240   55.09100    -999.25   33.80610   48.56490   25.03380   14.82840
 5550.00000    -999.25    -999.25    -999.25    -999.25    8.34240   68.53950   80.37450    -999.25   16.27490   97.98080   11.79960   58.98820
 5600.00000    -999.25    -999.25    -999.25    -999.25    7.99640   58.75930   11.27800    -999.25   23.83710  107.84520   11.53490   27.76970
 5650.00000    -999.25    -999.25    -999.25    -999.25    8.21950   64.32730   27.53860    -999.25   18.91010  208.75780    5.44570   16.23230
 5700.00000    -999.25    -999.25    -999.25    -999.25    8.13380   70.95260   28.97260    -999.25    2.78250  877.92130    1.11000   33.35400
 5750.00000    -999.25    -999.25    -999.25    -999.25    8.15220   63.23250   47.04480    -999.25   17.27970   85.67870   13.14890   39.77730
 5800.00000    -999.25    -999.25    -999.25    -999.25    8.01630   60.99740   23.70110    -999.25   22.72120  144.61270    7.45420   20.52040
 5850.00000    -999.25    -999.25    -999.25    -999.25    7.96220   60.98990   14.45430    -999.25   14.09580  171.18240    6.46580   23.60830
