~Version ---------------------------------------------------
VERS.      2.0 : CWLS log ASCII Standard -VERSION 2.0
WRAP.       NO : One line per depth step
CREA. 08/31/13 : LAS Creation Date
~Well ------------------------------------------------------
STRT.M                         300.0 : START DEPTH
STOP.M                        2800.0 : STOP DEPTH
STEP.M                      50.00000 : STEP LENGTH
NULL.                        -999.25 : NULL VALUE
COMP.                ORBIT OIL & GAS : COMPANY
WELL. ORBIT ET AL SAKWATAMAU 5-31-62 : WELL
FLD .                                : FIELD
LOC .                                : LOCATION
CTRY.                         CANADA : COUNTRY
SRVC.                        Unknown : SERVICE COMPANY
DATE.                    11-Mar-1981 : LOGDATE
PROV.                        Alberta : PROVINCE
UWI .               100053106213W500 : UNIQUE WELL ID
SLAT.WGS84                  54.40451 : SURFACE LATITUDE
SLON.WGS84                 -115.9449 : SURFACE LONGITUDE
~Curve Information -----------------------------------------
DEPT    .M      : DEPTH METER
CALDED  .MM     : CALIPER FROM DENSITY LOG [ADJ. TO RESISTIVITY LOG]
CALSED  .MM     : CALIPER FROM SONIC LOG [ADJ. TO RESISTIVITY LOG]
CALWS   .MM     : CALIPER [CALDED]
CONDWS  .MMHO   : CONDUCTIVITY [1000/DRESWS]
DCORED  .KG/M3  : DENSITY CORRECTION FROM DENSITY LOG [ADJ. TO DPHILSED/DPHISSED/RESISTIVITY LOG]
DCORWS  .KG/M3  : DENSITY CORRECTION [DCORED]
DENWS   .KG/M3  : FORMATION BULK DENSITY [CALC. FROM DPOLSWS, M=2710, F=1000]
DPHILSED.V/V    : DENSITY POROSITY LIMESTONE [M=2710, F=1000] FROM DENSITY LOG [ADJ. TO RESISTIVITY LOG]
DPHISSED.V/V    : DENSITY POROSITY SANDSTONE [M=2650, F=1000] FROM DENSITY LOG [ADJ. TO RESISTIVITY LOG]
DPOLSWS .V/V    : DENSITY POROSITY LIMESTONE [DPHISSED CONVERTED INTO LIMESTONE MATRIX, SPL. TO DPHILSED @ 1705 M]
DRESWS  .OHMM   : DEEP RESISTIVITY [ILDED]
DTED    .US/M   : DELTA-T FROM SONIC LOG [ADJ. TO RESISTIVITY LOG]
DTWS    .US/M   : COMPRESSIONAL SONIC [DTED]
GRDED   .GAPI   : GAMMA RAY FROM DENSITY LOG [ADJ. TO RESISTIVITY LOG]
GRSED   .GAPI   : GAMMA RAY FROM SONIC LOG [ADJ. TO RESISTIVITY LOG]
GRWS    .GAPI   : GAMMA RAY [GRDED]
ILDED   .OHMM   : DEEP INDUCTION RESISTIVITY FROM RESISTIVITY LOG
ILMED   .OHMM   : MEDIUM INDUCTION RESISTIVITY FROM RESISTIVITY LOG
MRESWS  .OHMM   : MEDIUM RESISTIVITY [ILMED]
NPHILSED.V/V    : NEUTRON POROSITY LIMESTONE FROM DENSITY LOG [ADJ. TO RESISTIVITY LOG]
NPHISSED.V/V    : NEUTRON POROSITY SANDSTONE FROM DENSITY LOG [ADJ. TO RESISTIVITY LOG]
NPOLSWS .V/V    : NEUTRON POROSITY LIMESTONE [NPHISSED CONVERTED INTO LIMESTONE MATRIX, SPL. TO NPHILSED @ 1705 M]
RHOBED  .KG/M3  : BULK DENSITY FROM DENSITY LOG [ADJ. TO DPHILSED/DPHISSED/RESISTIVITY LOG]
SFLED   .OHMM   : SPHERICALLY FOCUSED FROM RESISTIVITY LOG
SPRED   .MV     : SPONTANEOUS POTENTIAL FROM RESISTIVITY LOG
SPWS    .MV     : SPONTANEOUS POTENTIAL [BASELINE 0 MV, SPRED]
SRESWS  .OHMM   : SHALLOW RESISTIVITY [SFLUED]
~Params ----------------------------------------------------
PD  .                         GL : PERMANENT DATUM
EPD .M                     885.5 : ELEVATION PERMANENT DATUM
LMF .                         KB : LOG MEASURED FROM
DAPD.M                       4.5 : FEET ABOVE PERMANENT DATUM
DMF .                         KB : DRILLING MEASURED FROM
EKB .M                       890 : KELLY BUSHING
EDF .M                     889.7 : DRILLING FLOOR
EGL .M                     885.5 : GROUND LEVEL
DATE.                   03/11/81 : RUN DATE
RUN .                          2 : RUN NUMBER
DD  .M                      2818 : DEPTH DRILLER
DL  .M                    2818.2 : DEPTH LOGGER
BLI .M                    2817.2 : BOTTOM LOG INTERVAL
TLI .M                      1825 : TOP LOG INTERVAL
CS  .MM                      244 : CASING SIZE
CBD .M                       282 : CASING BOTTOM DRILLER
CBL .M                     282.2 : CASING BOTTOM LOGGER
BS  .MM                    222.2 : BIT SIZE
BSD .M                      2818 : BIT SIZE AT DEPTH
DFT .                   GEL CHEM : DRILLING FLUID TYPE
DFD .                       1085 : DRILLING FLUID DENSITY
DFV .                        210 : DRILLING FLUID VISCOSITY
DFPH.                         12 : DRILLING FLUID PH
DFL .                         11 : DRILLING FLUID LOSS
MSS .                CIRCULATION : MUD SAMPLE SOURCE
RMS .OHMM                   0.96 : RESISTIVITY MUD SAMPLE
MST .DEGC                     22 : MUD SAMPLE TEMPERATURE
RMF .OHMM                   0.79 : RESISTIVITY MUD FILTRATE SAMPLE
MFST.DEGC                     20 : MUD FILTRATE SAMPLE TEMPERATURE
MFSS.                      WATER : MUD FILTRATE SAMPLE SOURCE
MCSS.                       LOSS : MUD CAKE SAMPLE SOURCE
RMB .OHMM                   0.45 : RESISTIVITY MUD AT BHT
TCS .HRS                    1330 : TIME CIRCULATED STOPPED
TLAB.HRS                    1930 : TIME LOGGER AT BOTTOM
LUN .                       8211 : LOGGING UNIT NUMBER
LUL .                        EDM : LOGGING UNIT LOCATION
ENGI.                   MISSIUNA : RECORDING ENGINEER
WITN.                CHRISTENSEN : WITNESSED BY
CLNT.                    A2DTECH : CLIENT CODE
ORIG. 6.5"/100M 16.5"/100M PRINT : ORIGIN OF DATA
UWI .           100053106213W500 : UNIQUE WELL ID
DICO.     A2D Technologies, Inc. : DIGITIZING COMPANY
~Other -----------------------------------------------------
CNFD-DILSFL-BCS LOG RAN.
RHOB & DCOR FROM SMALL SCALE.
~ASCII -----------------------------------------------------
# ...
 1600.00000  283.71780  291.48930  283.71780  249.73780  149.01140  149.17610 2346.23500    -999.25    0.18410    0.21270    4.00420  287.03460  287.03460   79.73920   79.76790   79.73920    4.00420    4.09010    4.09010    -999.25    0.34930    0.30570 2348.92020    4.14560  -29.16280   -5.94330    4.14560
 1650.00000  220.84680  216.19440  220.84680   65.40860   21.36550   25.98300 2392.27000    -999.25    0.15620    0.18580   15.28850  222.79340  222.79340   28.59810   25.49900   28.59810   15.28850   24.53170   24.53170    -999.25    0.18900    0.14570 2396.61790   60.21630  -72.77330  -52.46610   60.21630
 1700.00000  259.79010  260.16410  259.79010  193.45350  112.87870   98.84440 2317.85500    0.26160    0.20130    0.22930    5.16920  280.61870  287.14330   94.31870   87.22180   94.31870    5.16920    5.28310    5.28310    0.27670    0.32380    0.27990 2299.82840    8.10070  -23.85350   -6.25720    8.10070
 1750.00000  228.51780  231.84840  228.51780    6.44110   -1.48790    3.80390 2683.66600    0.01540    -999.25    0.01540  155.25250  158.73310  159.63580   15.17890   12.53790   15.17890  155.25250  179.61980  179.61980    0.00390    -999.25    0.00390 2678.92040  308.94590  -95.14140  -79.84340  308.94590
 1800.00000  223.49540  259.30100  223.49540  350.61880   -3.81830  -15.09500 2594.57500    0.06750    -999.25    0.06750    2.85210  219.15940  222.78040   58.75160   59.86830   58.75160    2.85210    3.00960    3.00960    0.20040    -999.25    0.20040 2602.34620    3.39660  -47.61730  -34.61760    3.39660
 1850.00000  219.47710  236.04740  219.47710    9.46560   -1.56920   -4.12780 2676.82600    0.01940    -999.25    0.01940  105.64540  166.26830  165.64380   12.12990   10.51090   12.12990  105.64540  110.98030  110.98030    0.01410    -999.25    0.01410 2676.85210  114.65490  -82.72770  -72.02630  114.65490
 1900.00000  228.75430  228.22350  228.75430   17.71980    0.47980   20.13890 2694.61000    0.00900    -999.25    0.00900   56.43410  179.80480  179.80480   30.49290   29.34860   30.49290   56.43410   60.08000   60.08000    0.02960    -999.25    0.02960 2698.49020   74.35370  -62.06270  -48.30360   74.35370
 1950.00000  237.74370  233.46350  237.74370   37.45210    8.08610   14.83970 2655.96400    0.03160    -999.25    0.03160   26.70080  210.53320  210.34170   71.88320   65.10350   71.88320   26.70080   32.62980   32.62980    0.09910    -999.25    0.09910 2648.72830   59.35520  -44.93470  -25.71160   59.35520
 2000.00000  237.52400  243.02540  237.52400    0.49690   -3.00880  -12.48660 2682.81100    0.01590    -999.25    0.01590 2012.53910  161.78940  161.76960   11.85900   13.57240   11.85900 2012.53910 2004.19270 2004.19270    0.01310    -999.25    0.01310 2687.80960  622.30630 -152.13380 -127.44660  622.30630
 2050.00000  245.54280  242.34950  245.54280    0.49500    6.22930   12.12900 2734.62400   -0.01440    -999.25   -0.01440 2020.03050  159.14130  159.25200   13.39880   14.43410   13.39880 2020.03050 1556.30870 1556.30870    0.01180    -999.25    0.01180 2733.71000  386.20720 -150.82750 -120.67630  386.20720
 2100.00000  241.77750  233.35340  241.77750    1.43140   22.21120   22.21120 2724.87700   -0.00870    -999.25   -0.00870  698.61750  159.17600  159.72470   10.89160   12.25720   10.89160  698.61750 1751.33840 1751.33840    0.01270    -999.25    0.01270 2743.65890  532.58760 -135.65770 -100.04250  532.58760
 2150.00000  227.85050  235.68450  227.85050    1.91680    0.53820    0.15040 2680.58800    0.01720    -999.25    0.01720  521.68990  159.48710  159.48710   15.06120   11.31730   15.06120  521.68990 2020.03050 2020.03050    0.00810    -999.25    0.00810 2681.68360 1235.53640 -164.49110 -123.41180 1235.53640
 2200.00000  240.06000  248.25500  240.06000    2.07360    2.65700    5.04310 2827.99000   -0.06900    -999.25   -0.06900  482.25410  160.01830  160.01830   10.12900   11.09600   10.12900  482.25410 2012.89490 2012.89490    0.02050    -999.25    0.02050 2825.83300 1108.40320  -91.77830  -45.23500 1108.40320
 2250.00000  243.73450  236.41080  243.73450   98.57950   24.35190   21.55330 2681.27200    0.01680    -999.25    0.01680   10.14410  176.86440  164.77930   23.50490   24.01900   23.50490   10.14410   12.26220   12.26220    0.13370    -999.25    0.13370 2696.02730   27.79310 -106.35670  -63.89650   27.79310
 2300.00000  232.21190  232.52090  232.21190   15.49790   -2.99960   -4.22650 2670.49900    0.02310    -999.25    0.02310   64.52470  177.70720  177.70720   35.78120   33.01440   35.78120   64.52470   68.15400   68.15400    0.03540    -999.25    0.03540 2671.53270   73.44880  -46.10710  -10.05730   73.44880
 2350.00000  259.64150  256.99740  259.64150  111.08150    8.83680    9.10240 2698.71400    0.00660    -999.25    0.00660    9.00240  220.91840  220.91840   57.34380   57.49450   57.34380    9.00240    9.72740    9.72740    0.13880    -999.25    0.13880 2697.12770    9.89740  -33.22420   -3.58480    9.89740
 2400.00000  349.87310  299.13930  349.87310  239.61850  199.18520  199.45260 2229.31900    0.28110    -999.25    0.28110    4.17330  282.25430  282.25430   90.64690   84.49760   90.64690    4.17330    4.34760    4.34760    0.37000    -999.25    0.37000 2213.89360    4.72600  -39.21000   -9.46450    4.72600
 2450.00000  377.51360  309.54290  377.51360  194.02410  167.28010  167.28010 2386.81000    0.18900    -999.25    0.18900    5.15400  260.27510  261.55260   90.55330   85.97440   90.55330    5.15400    4.93430    4.93430    0.31000    -999.25    0.31000 2407.61060    5.72150  -44.66140  -14.66320    5.72150
 2500.00000  236.00820  232.34640  236.00820  105.06520   74.08750   74.08750 2678.70700    0.01830    -999.25    0.01830    9.51790  222.26470  222.38250   80.03570   78.38940   80.03570    9.51790   10.12390   10.12390    0.17580    -999.25    0.17580 2672.50220   12.30930  -37.02670   -6.77570   12.30930
 2550.00000  313.99690  276.69030  313.99690  202.77390  169.88180  169.88180 2573.20000    0.08000    -999.25    0.08000    4.93160  270.72260  269.07970  107.99140  106.11170  107.99140    4.93160    5.09070    5.09070    0.28920    -999.25    0.28920 2575.83350    5.78930  -46.73950  -16.23580    5.78930
 2600.00000  292.50990  239.72530  292.50990  206.19410  147.57820  133.34720 2598.50800    0.06520    -999.25    0.06520    4.84980  272.74990  273.61870  127.12400  120.39590  127.12400    4.84980    5.26410    5.26410    0.25370    -999.25    0.25370 2608.33790    6.28080  -44.57070  -13.81430    6.28080
 2650.00000  256.78340  250.73880  256.78340  146.62110  109.60610  208.49480 2607.74200    0.05980    -999.25    0.05980    6.82030  248.60630  249.66870   94.03520   83.87690   94.03520    6.82030    7.14120    7.14120    0.21970    -999.25    0.21970 2599.66160    9.73940  -42.07110  -12.30630    9.73940
 2700.00000  219.19760  221.15330  219.19760    5.41400    5.25850   14.89620 2706.06700    0.00230    -999.25    0.00230  184.70590  170.43060  169.88020   22.44380   20.62770   22.44380  184.70590  197.55580  197.55580    0.02250    -999.25    0.02250 2707.19600  209.38230  -79.66460  -52.32900  209.38230
 2750.00000  218.84860  220.14440  218.84860    0.93380    5.30770    2.94990 2713.24900   -0.00190    -999.25   -0.00190 1070.94350  164.96580  165.66840   15.06390   15.76320   15.06390 1070.94350 1755.44370 1755.44370    0.01430    -999.25    0.01430 2713.81270  598.42760 -148.91740 -124.01100  598.42760
 2800.00000  207.67050  212.21100  207.67050  335.03080   26.33190   16.28560 2588.59000    0.07100    -999.25    0.07100    2.98480  213.18940  213.18940   68.79530  205.98660   68.79530    2.98480    3.50510    3.50510    0.07870    -999.25    0.07870 2587.90820   11.24510  -97.67890  -75.14820   11.24510
