~Version ---------------------------------------------------
VERS.      2.0 : CWLS log ASCII Standard -VERSION 2.0
WRAP.       NO : One line per depth step
CREA. 09/30/14 : LAS Creation Date
~Well ------------------------------------------------------
STRT.FT                      1000.0 : START DEPTH
STOP.FT                      9700.0 : STOP DEPTH
STEP.FT                    50.00000 : STEP LENGTH
NULL.                       -999.25 : NULL VALUE
COMP. HUDSON'S BAY OIL & GAS CO LTD : COMPANY
WELL.         HB MEEKWAP 11-8-66-18 : WELL
FLD .                               : FIELD
LOC .                               : LOCATION
CTRY.                        CANADA : COUNTRY
SRVC.                  Schlumberger : SERVICE COMPANY
DATE.                   20-Feb-1976 : LOGDATE
PROV.                       Alberta : PROVINCE
UWI .              100110806618W500 : UNIQUE WELL ID
SLAT.WGS84                 54.70024 : SURFACE LATITUDE
SLON.WGS84                -116.6871 : SURFACE LONGITUDE
~Curve Information -----------------------------------------
DEPT   .FT    : Depth Curve
CALD   .IN    : CALIPER FROM DENSITY LOG
CALS   .IN    : CALIPER FROM SONIC LOG
CILD   .MMHO  : CONDUCTIVITY FROM RESISTIVITY LOG
DPHI_LS.DEC   : DENSITY POROSITY LIMESTONE [M=2.71,F=1.0] FROM DENSITY LOG
DPHI_SS.DEC   : DENSITY POROSITY SANDSTONE [M=2.65,F=1.0] FROM DENSITY LOG
DRHO   .G/C3  : BULK DENSITY CORRECTION FROM DENSITY LOG
DT     .US/F  : DELTA-T FROM SONIC LOG
GRD    .GAPI  : GAMMA RAY FROM DENSITY LOG
GRS    .GAPI  : GAMMA RAY FROM SONIC LOG
ILD    .OHMM  : DEEP INDUCTION FROM RESISTIVITY LOG
ILM    .OHMM  : MEDIUM INDUCTION FROM RESISTIVITY LOG
LL8    .OHMM  : LATEROLOG 8 FROM RESISTIVITY LOG
NPHI_LS.DEC   : NEUTRON POROSITY LIMESTONE FROM DENSITY LOG
NPHI_SS.DEC   : NEUTRON POROSITY SANDSTONE FROM DENSITY LOG
RHOB   .G/C3  : BULK DENSITY FROM DENSITY LOG
SPR    .MV    : SPONTANEOUS POTENTIAL FROM RESISTIVITY LOG
~Params ----------------------------------------------------
PD  .                     GL : PERMANENT DATUM
EPD .FT                 2674 : ELEVATION PERMANENT DATUM
LMF .                     KB : LOG MEASURED FROM
DAPD.FT                 16.8 : FEET ABOVE PERMANENT DATUM
EKB .FT               2690.8 : KELLY BUSHING
EGL .FT                 2674 : GROUND LEVEL
DATE.               02/20/76 : RUN DATE
RUN .                      1 : RUN NUMBER
DD  .FT                 9730 : DEPTH DRILLER
DL  .FT                 9732 : DEPTH LOGGER
BLI .FT                 9726 : BOTTOM LOG INTERVAL
TLI .FT                  995 : TOP LOG INTERVAL
CBD .FT                  995 : CASING BOTTOM DRILLER
CBL .FT                  995 : CASING BOTTOM LOGGER
BS  .IN                 8.75 : BIT SIZE
BSD .FT                 9730 : BIT SIZE AT DEPTH
DFT .                    GEL : DRILLING FLUID TYPE
DFD .                    9.6 : DRILLING FLUID DENSITY
DFV .                    120 : DRILLING FLUID VISCOSITY
DFPH.                      9 : DRILLING FLUID PH
DFL .                     10 : DRILLING FLUID LOSS
MSS .               FLOWLINE : MUD SAMPLE SOURCE
RMS .OHMM               0.68 : RESISTIVITY MUD SAMPLE
MST .DEGF                199 : MUD SAMPLE TEMPERATURE
RMF .OHMM                1.9 : RESISTIVITY MUD FILTRATE SAMPLE
MFST.DEGF                 60 : MUD FILTRATE SAMPLE TEMPERATURE
RMB .OHMM               0.57 : RESISTIVITY MUD AT BHT
LUN .                   7800 : LOGGING UNIT NUMBER
LUL .                    EDM : LOGGING UNIT LOCATION
ENGI.               BERNLSKY : RECORDING ENGINEER
WITN.                HARDMAN : WITNESSED BY
CLNT.                A2DTECH : CLIENT CODE
ORIG.            2" 5" PRINT : ORIGIN OF DATA
UWI .       100110806618W500 : UNIQUE WELL ID
DICO. A2D Technologies, Inc. : DIGITIZING COMPANY
~Other -----------------------------------------------------
~ASCII -----------------------------------------------------
# ...
 3150.00000    -999.25   13.48460  159.51060    -999.25    -999.25    -999.25    -999.25    -999.25    -999.25    5.53310    -999.25    5.07400    -999.25    -999.25    -999.25  -52.53710
 3200.00000    -999.25   12.16610  122.75180    -999.25    -999.25    -999.25    -999.25    -999.25    -999.25    7.30550    -999.25    6.50090    -999.25    -999.25    -999.25  -59.28510
 3250.00000    -999.25   13.73020  136.73880    -999.25    -999.25    -999.25    -999.25    -999.25    -999.25    6.45200    -999.25    5.74140    -999.25    -999.25    -999.25  -52.95500
 3300.00000    -999.25   13.67120  150.32560    -999.25    -999.25    -999.25    -999.25    -999.25    -999.25    5.98680    -999.25    5.48480    -999.25    -999.25    -999.25  -62.32230
 3350.00000    -999.25   10.26500  124.49990    -999.25    -999.25    -999.25    -999.25    -999.25    -999.25    7.17830    -999.25    7.32790    -999.25    -999.25    -999.25  -53.24020
 3400.00000    -999.25   10.75820  177.12310    -999.25    -999.25    -999.25    -999.25    -999.25    -999.25    4.80520    -999.25    5.63620    -999.25    -999.25    -999.25  -59.91060
 3450.00000    -999.25   10.61750  172.45990    -999.25    -999.25    -999.25    -999.25    -999.25    -999.25    4.97210    -999.25    5.94540    -999.25    -999.25    -999.25  -51.91360
 3500.00000    -999.25   11.85000  158.64430    -999.25    -999.25    -999.25    -999.25    -999.25    -999.25    5.43060    -999.25    6.46060    -999.25    -999.25    -999.25  -62.21950
 3550.00000    -999.25   11.26740  164.93400    -999.25    -999.25    -999.25    -999.25    -999.25    -999.25    5.28960    -999.25    6.61450    -999.25    -999.25    -999.25  -55.99520
 3600.00000    -999.25    9.80660  124.36780    -999.25    -999.25    -999.25    -999.25    -999.25    -999.25    7.05630    -999.25    9.74670    -999.25    -999.25    -999.25  -63.19680
 3650.00000    -999.25    9.34890  126.97500    -999.25    -999.25    -999.25    -999.25    -999.25    -999.25    7.18620    -999.25   10.37560    -999.25    -999.25    -999.25  -62.66050
 3700.00000    -999.25    9.55380  133.31770    -999.25    -999.25    -999.25    -999.25    -999.25    -999.25    6.72530    -999.25    8.59490    -999.25    -999.25    -999.25  -70.26730
 3750.00000    -999.25   10.41340  148.63670    -999.25    -999.25    -999.25    -999.25    -999.25    -999.25    6.14270    -999.25    6.52890    -999.25    -999.25    -999.25  -88.62970
 3800.00000    -999.25   10.26610  176.01720    -999.25    -999.25    -999.25    -999.25    -999.25    -999.25    4.81820    -999.25    5.75800    -999.25    -999.25    -999.25  -93.08270
 3850.00000    -999.25   10.18000  169.05890    -999.25    -999.25    -999.25    -999.25    -999.25    -999.25    4.96000    -999.25    5.99440    -999.25    -999.25    -999.25  -88.28530
 3900.00000    -999.25   11.08600  189.99000    -999.25    -999.25    -999.25    -999.25    -999.25    -999.25    4.32830    -999.25    5.49020    -999.25    -999.25    -999.25  -90.01950
 3950.00000    -999.25   10.52990  173.32610    -999.25    -999.25    -999.25    -999.25    -999.25    -999.25    4.99360    -999.25    5.91800    -999.25    -999.25    -999.25  -90.64630
 4000.00000    -999.25   11.12240  218.26030    -999.25    -999.25    -999.25    -999.25    -999.25    -999.25    3.56220    -999.25    4.83130    -999.25    -999.25    -999.25  -91.85820
 4050.00000    -999.25   10.73960  207.47670    -999.25    -999.25    -999.25  121.69410    -999.25  100.99490    4.04140    -999.25    4.96290    -999.25    -999.25    -999.25  -90.82260
 4100.00000    -999.25   11.61560    -999.25    -999.25    0.07620    0.12080   96.02900  116.20960  125.77140    4.50950    4.29590    5.17820    -999.25    0.36830    2.56080 -101.32960
 4150.00000    -999.25    9.95000    -999.25    -999.25    0.12720    0.10190  107.80900  116.93110  156.23020    2.72550    2.56660    3.67430    -999.25    0.38970    2.44390 -101.21850
 4200.00000    -999.25   10.14020    -999.25    -999.25    0.13630    0.14310  107.22230  103.45870  109.50330    2.21250    2.07650    2.73730    -999.25    0.42450    2.43550 -105.44740
 4250.00000    -999.25   11.86530    -999.25    -999.25    0.08720    0.11740   95.47750   94.72240  108.26270    3.51160    3.32750    3.91670    -999.25    0.35180    2.47760 -101.13520
 4300.00000   13.07500   11.74650    -999.25    -999.25    0.13690    0.17030   97.07950  101.71300   92.31470    3.54880    3.36590    3.88730    -999.25    0.42050    2.38270 -103.46880
 4350.00000   10.93600   10.56520    -999.25    -999.25    0.09930    0.22620   91.52620  131.70720  125.39050    6.46230    6.12120    7.35820    -999.25    0.30910    2.50660 -102.25070
 4400.00000    9.07590    8.71820    -999.25    -999.25    0.09770    0.24620   78.85620   48.50100   51.86320   14.28970   12.45950   15.88560    -999.25    0.21280    2.51270 -122.96490
 4450.00000   12.67790   11.57670    -999.25    -999.25    0.16010    0.14120   98.80150   84.01100   85.26920    3.26660    3.10740    4.07000    -999.25    0.37270    2.41930 -100.94790
 4500.00000   11.37310   11.29290    -999.25    -999.25    0.03710    0.04050   81.83350   72.85670   72.33150    8.88010    8.43660    9.14050    -999.25    0.30910    2.56190 -106.03150
 4550.00000   11.67280   10.98710    -999.25    -999.25    0.09300    0.02610   75.46350   64.15600   62.70700   12.73560   12.15480   17.42930    -999.25    0.23400    2.50090 -111.39230
 4600.00000   11.63850   10.73510    -999.25    -999.25    0.04240    0.05730   81.67210   76.59870   77.18670    8.98480    8.16870   10.07690    -999.25    0.28220    2.54910 -102.82970
 4650.00000   11.90810   11.04310    -999.25    -999.25    0.04450    0.05050   78.52710   53.86060   73.73740    8.89180    8.37890   10.95380    -999.25    0.26800    2.53180 -110.33500
 4700.00000   10.83110   10.15970    -999.25    -999.25   -0.00600    0.06780   79.75910   89.33160   85.22040    7.39070    7.10540    7.87770    -999.25    0.30130    2.65850 -102.38230
 4750.00000   11.65970   12.16180    -999.25    -999.25    0.41030    0.02330  137.17060   77.32960   57.44310   12.58300   11.69850   17.10860    -999.25    0.44300    2.03330 -104.72790
 4800.00000   12.21110   11.47540    -999.25    -999.25    0.48490    0.15410  121.68190   69.03650   57.30520   10.22400    9.72520   21.20140    -999.25    0.59140    1.96040 -104.63730
 4850.00000   11.06000   10.98210    -999.25    -999.25    0.09290    0.11920   77.72350   74.80690   61.03120    6.42530    6.04410    5.89800    -999.25    0.25490    2.52650  -97.73880
 4900.00000   11.21660    9.50470    -999.25    -999.25    0.08830    0.06290   79.16350   64.74920   73.32080    6.17300    5.22790    9.96580    -999.25    0.27140    2.53430 -128.05760
 4950.00000   11.11480   11.89850    -999.25    -999.25    0.06750    0.20800   80.75110   68.43280   77.52070    5.63810    5.15400    6.19320    -999.25    0.29670    2.50820 -111.71680
 5000.00000    9.90160   10.48980    -999.25    -999.25    0.07100    0.17580   80.31250   51.58880   72.22350    6.63130    5.79250    8.23920    -999.25    0.26970    2.53280 -117.10720
 5050.00000   10.66330   10.37290    -999.25    -999.25    0.06880    0.05440   80.19390   83.26650   82.27980    6.96790    6.59720    7.19900    -999.25    0.27020    2.55390 -103.87040
 5100.00000   10.80950   10.54920    -999.25    -999.25    0.03350    0.11350   75.99230   82.09860   72.18710    7.50770    6.98820    8.81050    -999.25    0.27570    2.63410 -102.86050
 5150.00000   10.68660   10.96480    -999.25    -999.25    0.04730    0.05740   82.55590   98.10440   97.22830    7.64710    7.24580    8.90740    -999.25    0.28910    2.59440  -95.58370
 5200.00000   10.04600   10.61990    -999.25    -999.25    0.04390    0.12500   80.10130   76.83280   78.81580    6.47860    6.12380    7.23750    -999.25    0.37880    2.52490  -93.18580
 5250.00000   11.62360   12.06070    -999.25    -999.25    0.28260    0.22760   95.79650   55.87500   85.54860    3.76270    3.47000    4.07930    -999.25    0.47600    2.14150  -93.68600
