~Version ---------------------------------------------------
VERS.      2.0 : CWLS log ASCII Standard -VERSION 2.0
WRAP.       NO : One line per depth step
CREA. 01/05/18 : LAS Creation Date
~Well ------------------------------------------------------
STRT.FT                              300.0 : START DEPTH
STOP.FT                            15450.0 : STOP DEPTH
STEP.FT                           50.00000 : STEP LENGTH
NULL.                              -999.25 : NULL VALUE
COMP.                        BANFF OIL LTD : COMPANY
WELL. BANFF AQUIT CHIEFCO WAWA 11-20-42-13 : WELL
FLD .                                      : FIELD
LOC .                                      : LOCATION
CTRY.                               CANADA : COUNTRY
SRVC.               Schlumberger of Canada : SERVICE COMPANY
DATE.                          07-Apr-1970 : LOGDATE
PROV.                              Alberta : PROVINCE
UWI .                     100112004213W500 : UNIQUE WELL ID
SLAT.WGS84                        52.63304 : SURFACE LATITUDE
SLON.WGS84                       -115.8375 : SURFACE LONGITUDE
~Curve Information -----------------------------------------
DEPT    .FT    : Depth Curve
CALDED  .IN    : CALIPER FROM DENSITY LOG [ADJ. TO RESISTIVITY LOG]
CALNED  .IN    : CALIPER FROM SNP LOG [ADJ. TO RESISTIVITY LOG]
CALSED  .IN    : CALIPER FROM SONIC LOG [ADJ. TO RESISTIVITY LOG]
CALWS   .IN    : CALIPER [CALSED]
CONDWS  .MMHO  : CONDUCTIVITY [1000/DRESWS]
CORRED  .G/C3  : DENSITY CORRECTION FROM DENSITY LOG [ADJ. TO RESISTIVITY LOG]
DCORWS  .G/C3  : DENSITY CORRECTION [CORRED]
DENWS   .G/C3  : FORMATION BULK DENSITY [RHOBED]
DPHILSED.V/V   : DENSITY POROSITY LIMESTONE FROM DENSITY LOG [ADJ. TO RESISTIVITY LOG]
DPOLSWS .V/V   : DENSITY POROSITY LIMESTONE [CALC. FROM DENWS, M=2.71 F=1.00]
DRESWS  .OHMM  : DEEP RESISTIVITY [ILDED]
DTED    .US/F  : DELTA T FROM SONIC LOG [ADJ. TO RESISTIVITY LOG]
DTWS    .US/F  : COMPRESSIONAL SONIC [DTED]
GRDED   .GAPI  : GAMMA RAY FROM DENSITY LOG [ADJ. TO RESISTIVITY LOG]
GRDRED  .GAPI  : GAMMA RAY (REPEAT) FROM DENSITY LOG
GRNED   .GAPI  : GAMMA RAY FROM SNP LOG [ADJ. TO RESISTIVITY LOG]
GRSED   .GAPI  : GAMMA RAY FROM SONIC LOG [ADJ. TO RESISTIVITY LOG]
GRWS    .GAPI  : GAMMA RAY [GRSED]
ILDED   .OHMM  : DEEP INDUCTION RESISTIVITY FROM RESISTIVITY LOG
ILMED   .OHMM  : MEDIUM INDUCTION RESISTIVITY FROM RESISTIVITY LOG
ILMRED  .OHMM  : MEDIUM INDUCTION RESISTIVITY(REPEAT) FROM RESISTIVITY LOG [ADJ. TO ILDED]
LL8ED   .OHMM  : LATEROLOG 8 RESISTIVITY FROM RESISTIVITY LOG
MRESWS  .OHMM  : MEDIUM RESISTIVITY [ILMED SPL. TO ILMRED @ 15233']
NPOLSWS .V/V   : NEUTRON POROSITY LIMESTONE [SNPLSED]
RHOBED  .G/C3  : BULK DENSITY FROM DENSITY LOG [ADJ. TO RESISTIVITY LOG]
SNPLSED .V/V   : SIDEWALL NEUTRON POROSITY LIMESTONE FROM SNP LOG [ADJ. TO RESISTIVITY LOG]
SPRED   .MV    : SPONTANEOUS POTENTIAL FROM RESISTIVITY LOG
SPRRED  .MV    : SPONTANEOUS POTENTIAL(REPEAT) FROM RESISTIVITY LOG [ADJ. TO ILDED]
SPWS    .MV    : SPONTANEOUS POTENTIAL [BASELINE 0 MV, SPRED SPL. TO SPRRED @ 15223']
SRESWS  .OHMM  : SHALLOW RESISTIVITY [LL8ED]
~Params ----------------------------------------------------
PD  .                     GL : PERMANENT DATUM
EPD .FT                 4345 : ELEVATION PERMANENT DATUM
LMF .                     KB : LOG MEASURED FROM
DAPD.FT                   14 : FEET ABOVE PERMANENT DATUM
EKB .FT                 4359 : KELLY BUSHING
EGL .FT                 4345 : GROUND LEVEL
DATE.               06/04/70 : RUN DATE
RUN .                      3 : RUN NUMBER
DD  .FT                15476 : DEPTH DRILLER
DL  .FT                15473 : DEPTH LOGGER
BLI .FT                15471 : BOTTOM LOG INTERVAL
TLI .FT                14327 : TOP LOG INTERVAL
CBD .FT                12360 : CASING BOTTOM DRILLER
CBL .FT                12355 : CASING BOTTOM LOGGER
BS  .IN                    6 : BIT SIZE
BSD .FT                15476 : BIT SIZE AT DEPTH
DFT .               GEL CHEM : DRILLING FLUID TYPE
DFD .                    8.9 : DRILLING FLUID DENSITY
DFV .                     47 : DRILLING FLUID VISCOSITY
DFPH.                     11 : DRILLING FLUID PH
DFL .                   12.4 : DRILLING FLUID LOSS
MSS .               FLOWLINE : MUD SAMPLE SOURCE
RMS .OHMM               2.62 : RESISTIVITY MUD SAMPLE
TCS .HRS                   4 : TIME CIRCULATED STOPPED
LUN .                  CSU C : LOGGING UNIT NUMBER
LUL .                 364 RD : LOGGING UNIT LOCATION
ENGI.                 MEGSON : RECORDING ENGINEER
WITN.                BRINKER : WITNESSED BY
CLNT.                A2DTECH : CLIENT CODE
ORIG.        2" 5" 10" PRINT : ORIGIN OF DATA
UWI .       100112004213W500 : UNIQUE WELL ID
DICO. A2D Technologies, Inc. : DIGITIZING COMPANY
~Other -----------------------------------------------------
~ASCII -----------------------------------------------------
# ...
 12300.00000    8.71560    9.63940    8.99630    8.99630    0.61290    0.01910    0.01910    2.68320    0.01330    0.01570 1631.55520   48.72260   48.72260    6.80510    -999.25    9.06200   10.06990   10.06990 1631.55520 1407.86660    -999.25 1563.03520 1407.86660    0.01290    2.68320    0.01290 -285.34130    -999.25 -108.55030 1563.03520
 12350.00000    8.29660    8.23700    8.55620    8.55620   94.12830    0.04280    0.04280    2.65030    0.03200    0.03490   10.62380   53.00890   53.00890    -999.25    -999.25   12.16430    8.46150    8.46150   10.62380   15.77840    -999.25   65.35790   15.77840    0.12190    2.65030    0.12190 -300.04560    -999.25 -128.93310   65.35790
 12400.00000    7.04720    7.02720    6.30400    6.30400    3.86440    0.24870    0.24870    2.65840    0.02620    0.03020  258.76910   52.00750   52.00750    -999.25    -999.25   10.97740    7.16220    7.16220  258.76910  409.82320    -999.25 1587.24780  409.82320    0.01720    2.65840    0.01720    -999.25    -999.25    -999.25 1587.24780
 12450.00000    6.12980    7.00270    6.19410    6.19410   22.87320    0.24280    0.24280    2.69250    0.00740    0.01020   43.71920   52.01950   52.01950    -999.25    -999.25   54.34950   46.99410   46.99410   43.71920   46.78140    -999.25   71.11020   46.78140    0.08190    2.69250    0.08190    -999.25    -999.25    -999.25   71.11020
 12500.00000    6.94650    6.79610    6.20660    6.20660   31.47670    0.25000    0.25000    2.44900    0.10680    0.15260   31.76950   58.71860   58.71860    -999.25    -999.25   62.62950   57.18680   57.18680   31.76950   39.43780    -999.25   56.21060   39.43780    0.06600    2.44900    0.06600    -999.25    -999.25    -999.25   56.21060
 12550.00000    7.75540    7.01900    6.19750    6.19750    1.66330    0.25300    0.25300    2.43380    0.10590    0.16150  689.35540   48.45330   48.45330    -999.25    -999.25   38.33310   31.41020   31.41020  689.35540 1163.52380    -999.25 1680.81870 1163.52380    0.04710    2.43380    0.04710    -999.25    -999.25    -999.25 1680.81870
 12600.00000    7.56570    7.06400    6.33170    6.33170    3.94670    0.25000    0.25000    2.46980    0.09560    0.14050  253.37500   56.83920   56.83920    -999.25    -999.25   83.52350   75.99020   75.99020  253.37500  314.94740    -999.25  384.09430  314.94740    0.05010    2.46980    0.05010    -999.25    -999.25    -999.25  384.09430
 12650.00000    6.73380    6.57580    6.20120    6.20120    0.61110    0.25000    0.25000    2.54900    0.06320    0.09420 1636.35740   53.89610   53.89610    -999.25    -999.25   58.85340   54.48340   54.48340 1636.35740 1541.50990    -999.25  259.64810 1541.50990    0.05120    2.54900    0.05120    -999.25    -999.25    -999.25  259.64810
 12700.00000    6.81350    6.64880    6.16370    6.16370    0.61580    0.09610    0.09610    2.69390    0.00530    0.00940 1623.97340   50.13910   50.13910    -999.25    -999.25   10.19800    5.91050    5.91050 1623.97340 1494.03660    -999.25 1061.54760 1494.03660    0.00130    2.69390    0.00130    -999.25    -999.25    -999.25 1061.54760
 12750.00000   10.08430    9.70450    7.09900    7.09900   31.07810    0.20150    0.20150    2.36810    0.13230    0.19990   32.17700   50.23690   50.23690    -999.25    -999.25   15.11380   11.57620   11.57620   32.17700   17.77850    -999.25   36.03080   17.77850    0.18870    2.36810    0.18870    -999.25    -999.25    -999.25   36.03080
 12800.00000    6.66670    6.54230    6.17290    6.17290   15.46270    0.25000    0.25000    2.55430    0.06180    0.09110   64.71780   53.27280   53.27280    -999.25    -999.25   23.32120   18.79960   18.79960   64.71780   60.80320    -999.25  101.96730   60.80320    0.03530    2.55430    0.03530    -999.25    -999.25    -999.25  101.96730
 12850.00000    6.13130    5.75740    6.07930    6.07930   17.52370    0.22140    0.22140    2.33030    0.14670    0.22200   57.06550   59.04020   59.04020    -999.25    -999.25   25.68870   24.34280   24.34280   57.06550   50.81730    -999.25   74.10830   50.81730    0.03890    2.33030    0.03890    -999.25    -999.25    -999.25   74.10830
 12900.00000    6.46930    6.29810    6.31660    6.31660   17.28880   -0.00230   -0.00230    2.64220    0.02680    0.03960   57.84090   64.31950   64.31950    -999.25    -999.25   88.39560   82.96150   82.96150   57.84090   47.92470    -999.25   70.26480   47.92470    0.10120    2.64220    0.10120    -999.25    -999.25    -999.25   70.26480
 12950.00000    5.83890    5.68780    6.03420    6.03420   12.23100    0.01060    0.01060    2.66950    0.01500    0.02370   81.75960   55.14520   55.14520    -999.25    -999.25   85.76470   83.21000   83.21000   81.75960   77.66390    -999.25   68.77730   77.66390    0.03380    2.66950    0.03380    -999.25    -999.25    -999.25   68.77730
 13000.00000    6.82850    7.12730    6.29340    6.29340    0.61250    0.14980    0.14980    2.55390    0.06090    0.09130 1632.57170   49.29270   49.29270    -999.25    -999.25    7.50220    5.49980    5.49980 1632.57170  215.45800    -999.25  757.05220  215.45800    0.05850    2.55390    0.05850    -999.25    -999.25    -999.25  757.05220
 13050.00000    8.69390    8.88840    6.28070    6.28070    0.62400    0.20200    0.20200    2.63020    0.03250    0.04670 1602.69660   49.59420   49.59420    -999.25    -999.25    7.54030    4.94650    4.94650 1602.69660  400.00810    -999.25 1727.09700  400.00810    0.02710    2.63020    0.02710    -999.25    -999.25    -999.25 1727.09700
 13100.00000   12.70040   13.07320    9.84260    9.84260    4.79270    0.24150    0.24150    2.24940    0.18000    0.26940  208.65210   42.43970   42.43970    -999.25    -999.25   13.85950    9.91780    9.91780  208.65210  346.27300    -999.25 1079.45390  346.27300    0.07420    2.24940    0.07420    -999.25    -999.25    -999.25 1079.45390
 13150.00000    7.44350    7.17290    6.13920    6.13920    1.68820    0.03740    0.03740    2.35350    0.14270    0.20850  592.35600   54.25500   54.25500    -999.25    -999.25   10.67770    9.31020    9.31020  592.35600  679.85420    -999.25  128.38820  679.85420    0.18140    2.35350    0.18140    -999.25    -999.25    -999.25  128.38820
 13200.00000    8.67710    8.08030    6.23960    6.23960    0.62550    0.24980    0.24980    2.41690    0.11830    0.17140 1598.82140   47.98410   47.98410    -999.25    -999.25   10.51110    6.09240    6.09240 1598.82140 1711.89870    -999.25  500.12390 1711.89870    0.09910    2.41690    0.09910    -999.25    -999.25    -999.25  500.12390
 13250.00000   11.52480    9.78650    7.91150    7.91150    6.95220    0.14350    0.14350    1.86590    0.30000    0.49360  143.83870   52.22700   52.22700    -999.25    -999.25   12.86210   10.20630   10.20630  143.83870   57.45580    -999.25  249.58570   57.45580    0.32990    1.86590    0.32990    -999.25    -999.25    -999.25  249.58570
 13300.00000   11.14330   10.18390    6.41480    6.41480    0.61380    0.23780    0.23780    2.50210    0.08390    0.12150 1629.30730   52.32760   52.32760    -999.25    -999.25    9.16570    5.86790    5.86790 1629.30730  184.24940    -999.25  269.54920  184.24940    0.11310    2.50210    0.11310    -999.25    -999.25    -999.25  269.54920
 13350.00000    6.75180    6.53360    6.13370    6.13370   12.57650    0.20090    0.20090    2.71630   -0.00350   -0.00370   79.51340   46.53790   46.53790    -999.25    -999.25   13.44480   12.73340   12.73340   79.51340  145.34460    -999.25  400.90870  145.34460    0.06210    2.71630    0.06210    -999.25    -999.25    -999.25  400.90870
 13400.00000    6.27220    5.88780    6.08160    6.08160   16.84910    0.13680    0.13680    2.84830   -0.05210   -0.08080   59.35030   49.39910   49.39910    -999.25    -999.25    7.41560    2.93510    2.93510   59.35030  177.76360    -999.25  316.75910  177.76360    0.03120    2.84830    0.03120    -999.25    -999.25    -999.25  316.75910
 13450.00000    6.19510    5.58720    6.20180    6.20180   41.20250    0.16170    0.16170    2.73560   -0.01290   -0.01500   24.27040   47.21160   47.21160    -999.25    -999.25    8.93230    7.51160    7.51160   24.27040   45.13660    -999.25  182.45530   45.13660    0.08630    2.73560    0.08630    -999.25    -999.25    -999.25  182.45530
