~Version ---------------------------------------------------
VERS.      2.0 : CWLS log ASCII Standard -VERSION 2.0
WRAP.       NO : One line per depth step
CREA. 08/02/17 : LAS Creation Date
~Well ------------------------------------------------------
STRT.FT                    300.0 : START DEPTH
STOP.FT                  10400.0 : STOP DEPTH
STEP.FT                 50.00000 : STEP LENGTH
NULL.                    -999.25 : NULL VALUE
COMP.     PHILLIPS PETROLEUM CO. : COMPANY
WELL. PHILLIPS KAYBOB 7-22-64-19 : WELL
FLD .                     KAYBOB : FIELD
LOC .                            : LOCATION
CTRY.                     CANADA : COUNTRY
SRVC.               Schlumberger : SERVICE COMPANY
DATE.                14-Jun-1957 : LOGDATE
PROV.                    Alberta : PROVINCE
UWI .           100072206419W500 : UNIQUE WELL ID
SLAT.WGS84              54.55064 : SURFACE LATITUDE
SLON.WGS84             -116.7821 : SURFACE LONGITUDE
~Curve Information -----------------------------------------
DEPT  .FT    : Depth Curve
CALED .IN    : CALIPER FROM CALIPER LOG
CALWS .IN    : CALIPER [CALED SPL. TO MCALED @ 9798']
CONDWS.MMHO  : CONDUCTIVITY [1000/DRESWS]
DRESWS.OHMM  : DEEP RESISTIVITY [LNED]
GRED  .CPS   : GAMMA RAY FROM RADIOACTIVITY LOG
GRNED .GAPI  : GAMMA RAY FROM GRN LOG
GRWS  .GAPI  : GAMMA RAY [GRED SPL. TO GRNED @ 196.5']
LNED  .OHMM  : LONG NORMAL RESISTIVITY FROM IEL LOG
LT18ED.OHMM  : LATERAL 18' FROM IEL LOG
MCALED.IN    : MLT (MICROLOG) CALIPER FROM MLL-CAL LOG
MLLED .OHMM  : MICRO FOCUSED LATEROLOG RESISTIVITY FROM MLL LOG
NEUTED.NAPI  : NEUTRON FROM GRN LOG
NEUTWS.NAPI  : NEUTRON [NEUTED]
SNED  .OHMM  : SHORT NORMAL RESISTIVITY FROM IEL LOG
SPRED .MV    : SPONTANEOUS POTENTIAL FROM IEL LOG
SPWS  .MV    : SPONTANEOUS POTENTIAL [BASELINE 0 MV, SPRED]
SRESWS.OHMM  : SHALLOW RESISTIVITY [SNED]
~Params ----------------------------------------------------
LMF .                     KB : LOG MEASURED FROM
DMF .                     KB : DRILLING MEASURED FROM
EKB .FT                 2450 : KELLY BUSHING
EGL .FT               2435.4 : GROUND LEVEL
DATE.               06/14/57 : RUN DATE
RUN .                      2 : RUN NUMBER
DD  .FT                10445 : DEPTH DRILLER
DL  .FT                10449 : DEPTH LOGGER
BLI .FT                10448 : BOTTOM LOG INTERVAL
TLI .FT                 9798 : TOP LOG INTERVAL
CBD .FT                 9803 : CASING BOTTOM DRILLER
CBL .FT                 9798 : CASING BOTTOM LOGGER
BS  .IN                    6 : BIT SIZE
BSD .FT                10445 : BIT SIZE AT DEPTH
DFT .                    GEL : DRILLING FLUID TYPE
DFD .                   10.6 : DRILLING FLUID DENSITY
DFV .                     96 : DRILLING FLUID VISCOSITY
DFPH.                    9.5 : DRILLING FLUID PH
DFL .                    4.2 : DRILLING FLUID LOSS
RMS .OHMM                2.3 : RESISTIVITY MUD SAMPLE
MST .DEGF                 62 : MUD SAMPLE TEMPERATURE
RMF .OHMM                2.3 : RESISTIVITY MUD FILTRATE SAMPLE
MFST.DEGF                 62 : MUD FILTRATE SAMPLE TEMPERATURE
RMC .OHMM               0.64 : RESISTIVITY MUD CAKE
MCST.DEGF                219 : MUD CAKE SAMPLE TEMPERATURE
RMB .OHMM               0.66 : RESISTIVITY MUD AT BHT
TCS .HRS                   2 : TIME CIRCULATED STOPPED
LUN .                   1534 : LOGGING UNIT NUMBER
LUL .                    V V : LOGGING UNIT LOCATION
ENGI.               THOMPSON : RECORDING ENGINEER
WITN.                HANKINS : WITNESSED BY
CLNT.                A2DTECH : CLIENT CODE
ORIG.            2" 5" PRINT : ORIGIN OF DATA
UWI .       100072206419W500 : UNIQUE WELL ID
DICO. A2D Technologies, Inc. : DIGITIZING COMPANY
~Other -----------------------------------------------------
~ASCII -----------------------------------------------------
# ...
 2350.00000   11.49940   11.49940  169.66690    5.89390   45.04000   52.93690   52.93690    5.89390    8.59220    -999.25    -999.25  204.90630  204.90630    5.12970  -78.74370   -2.96530    5.12970
 2400.00000   10.46200   10.46200  126.48620    7.90600   41.05350   49.66170   49.66170    7.90600    8.52780    -999.25    -999.25  224.09570  224.09570   11.25470  -84.97550   -9.39160   11.25470
 2450.00000   11.15430   11.15430  205.95200    4.85550   37.69400   59.77790   59.77790    4.85550    6.30620    -999.25    -999.25  186.76900  186.76900    3.41940  -80.76140   -5.37330    3.41940
 2500.00000   10.65100   10.65100  166.15990    6.01830   40.01750   60.88830   60.88830    6.01830    5.97490    -999.25    -999.25  186.73740  186.73740    3.80970  -80.46500   -5.27130    3.80970
 2550.00000   11.16860   11.16860  114.31000    8.74820   30.81300   47.18750   47.18750    8.74820    7.83700    -999.25    -999.25  215.43180  215.43180    6.65780  -82.14120   -7.14200    6.65780
 2600.00000   11.77020   11.77020  198.32610    5.04220   35.30190   58.08000   58.08000    5.04220    6.38330    -999.25    -999.25  201.14020  201.14020    4.06670  -80.97210   -6.16870    4.06670
 2650.00000   11.75590   11.75590  171.28570    5.83820   35.04760   71.33120   71.33120    5.83820    9.15890    -999.25    -999.25  178.46900  178.46900    4.74380  -81.76570   -7.15670    4.74380
 2700.00000   11.48670   11.48670  123.14360    8.12060   40.23940   94.04840   94.04840    8.12060    9.22520   13.39840    1.05640  189.11740  189.11740    6.21300  -85.71060  -11.29740    6.21300
 2750.00000   11.89330   11.89330  124.26060    8.04760   38.52040   81.66340   81.66340    8.04760   11.57940   14.21800    2.05090  180.69330  180.69330    6.18240  -86.36090  -12.14220    6.18240
 2800.00000   11.36490   11.36490  125.27720    7.98230   49.78480   88.37900   88.37900    7.98230    9.17650   12.86480    2.01600  191.29640  191.29640    6.06730  -87.01850  -12.99420    6.06730
 2850.00000   11.59150   11.59150   87.64090   11.41020   49.54950  121.80960  121.80960   11.41020    7.75880   13.57880    3.85890  193.05410  193.05410    9.08400  -84.46140  -10.63290    9.08400
 2900.00000   11.62480   11.62480   77.66510   12.87580   44.14010   97.79220   97.79220   12.87580   16.25090   12.56050    5.10440  206.11590  206.11590   10.22600  -84.68900  -11.05500   10.22600
 2950.00000   11.05650   11.05650  101.06420    9.89470   50.54870  103.20420  103.20420    9.89470   10.09240   12.34820    2.48060  190.46870  190.46870    7.63150  -85.96330  -12.52500    7.63150
 3000.00000   10.68960   10.68960  132.63650    7.53940   43.77750  105.38550  105.38550    7.53940    9.38540   11.97960    1.95210  182.39080  182.39080    6.07370  -86.19620  -12.95240    6.07370
 3050.00000   10.69540   10.69540  118.43050    8.44380   41.06620   97.05880   97.05880    8.44380    9.30040   10.41490    1.54330  182.37680  182.37680    6.92060  -86.32240  -13.27310    6.92060
 3100.00000    9.70830    9.70830   89.86910   11.12730   37.37850   88.60500   88.60500   11.12730    9.61810   11.16070    2.28580  202.64760  202.64760    8.40900  -87.77530  -14.92170    8.40900
 3150.00000   11.05060   11.05060  116.06450    8.61590   37.72370  111.51860  111.51860    8.61590   11.41110   11.59800    2.82910  187.15530  187.15530    7.44430  -86.16160  -13.50250    7.44430
 3200.00000   11.71880   11.71880  127.43720    7.84700   40.66990  105.54230  105.54230    7.84700    9.62410   14.15770    2.65480  196.25560  196.25560    6.63030  -86.46890  -14.00550    6.63030
 3250.00000   11.82520   11.82520  137.45330    7.27520   46.08340  110.54170  110.54170    7.27520    9.87910   15.53760    1.90510  176.18280  176.18280    6.03290  -86.27920  -14.01030    6.03290
 3300.00000   13.04060   13.04060  101.65710    9.83710   36.60710  104.06140  104.06140    9.83710   10.97240   15.55800    0.67410  210.50430  210.50430    7.17650  -86.33780  -14.26340    7.17650
 3350.00000   12.19330   12.19330  117.21410    8.53140   46.10960  102.53430  102.53430    8.53140    9.19090   15.55090    0.75240  188.67330  188.67330    6.37960  -86.07460  -14.19590    6.37960
 3400.00000   12.87070   12.87070   87.08220   11.48340   44.98900  115.88940  115.88940   11.48340   13.48320   15.54320    1.44190  216.80110  216.80110    8.12920  -86.27710  -14.59290    8.12920
 3450.00000   12.25620   12.25620   96.14650   10.40080   43.13510  100.91240  100.91240   10.40080   13.06670   15.53490    0.60280  189.70840  189.70840    7.60670  -86.12360  -14.63520    7.60670
 3500.00000   12.21300   12.21300   92.80740   10.77500   44.07930   97.99680   97.99680   10.77500   10.26580   15.51860    1.05630  214.94070  214.94070    7.75440  -85.85860  -14.56460    7.75440
 3550.00000   11.81030   11.81030   93.42440   10.70390   45.86140  108.24080  108.24080   10.70390    9.37510   15.50810    1.56570  203.75710  203.75710    7.77380  -86.20900  -15.10950    7.77380
 3600.00000   11.95330   11.95330  116.64940    8.57270   39.92920  112.39140  112.39140    8.57270    8.91380   15.45210    1.66860  184.89870  184.89870    6.74160  -84.99590  -14.09220    6.74160
 3650.00000   12.56100   12.56100  117.59450    8.50380   50.04820  120.07710  120.07710    8.50380    9.74860   15.23600    2.82260  190.00660  190.00660    6.90610  -83.15670  -12.44740    6.90610
 3700.00000   12.57100   12.57100   92.93770   10.75990   47.40330  118.67790  118.67790   10.75990    9.56430   14.78650    4.30950  194.25630  194.25630    8.59140  -82.56880  -12.05530    8.59140
 3750.00000   12.12630   12.12630   99.14930   10.08580   53.33980  117.70770  117.70770   10.08580    9.87200   13.98090    3.40030  185.39210  185.39210    8.33260  -82.27300  -11.95400    8.33260
 3800.00000   10.94790   10.94790   81.62590   12.25240   51.97440  131.30540  131.30540   12.25240   11.21070   11.97570    6.40500  195.10500  195.10500   10.74920  -80.95670  -10.83210   10.74920
 3850.00000   10.50570   10.50570   90.35550   11.06740   43.91410  107.47610  107.47610   11.06740   11.04550   11.15720    4.29290  190.90450  190.90450    9.04020  -81.56100  -11.63220    9.04020
 3900.00000   10.22370   10.22370   67.76950   14.75590   48.37880  122.32610  122.32610   14.75590   10.61480   10.58780   33.07510  202.85960  202.85960   13.93300  -80.70940  -10.97510   13.93300
 3950.00000   10.57740   10.57740  111.79800    8.94470   46.49140  142.14420  142.14420    8.94470   14.38900   12.51580    1.83980  195.28810  195.28810   11.48190  -80.60310  -11.06450   11.48190
 4000.00000   10.84440   10.84440  138.39300    7.22580   41.32810   95.12250   95.12250    7.22580    7.33360   11.66800    1.80440  190.95910  190.95910    6.37420  -82.62410  -13.28000    6.37420
 4050.00000   11.13490   11.13490   81.71620   12.23750   50.87510  101.20360  101.20360   12.23750    6.75930   11.96440    7.67540  225.04360  225.04360   11.05890  -87.36660  -18.21700   11.05890
 4100.00000   11.36360   11.36360  108.62360    9.20610   51.22350  105.80460  105.80460    9.20610    8.20720   13.08980    5.51510  203.58350  203.58350    8.25640  -79.46470  -10.51080    8.25640
 4150.00000   11.36980   11.36980  124.58730    8.02650   50.72010  110.80910  110.80910    8.02650    6.77150   12.71910    4.14250  210.44770  210.44770    7.43610  -80.10950  -11.35010    7.43610
 4200.00000   10.89670   10.89670  117.16190    8.53520   52.94590  117.11540  117.11540    8.53520   10.27660   12.28920    3.29120  201.56410  201.56410    7.76290  -79.23080  -10.66720    7.76290
 4250.00000   11.42270   11.42270  194.51090    5.14110   45.43160  108.98910  108.98910    5.14110    5.16350   12.53990    1.69710  198.20820  198.20820    4.60540  -79.03630  -10.66710    4.60540
 4300.00000   11.53900   11.53900  165.94810    6.02620   54.03730  111.76850  111.76850    6.02620    5.73510   12.49620    2.81350  185.65900  185.65900    5.56550  -78.60700  -10.43230    5.56550
 4350.00000   12.44760   12.44760  164.24950    6.08830   56.81430  106.11310  106.11310    6.08830    7.57660   12.97490    2.78110  189.86660  189.86660    5.39300  -77.65590   -9.67690    5.39300
