~Version ---------------------------------------------------
VERS.      2.0 : CWLS log ASCII Standard -VERSION 2.0
WRAP.       NO : One line per depth step
CREA. 05/28/14 : LAS Creation Date
~Well ------------------------------------------------------
STRT.FT                               300.0 : START DEPTH
STOP.FT                              8350.0 : STOP DEPTH
STEP.FT                            50.00000 : STEP LENGTH
NULL.                               -999.25 : NULL VALUE
COMP. CANADA CITIES SERVICE PETROLEUM CORP. : COMPANY
WELL.          CITIES SERVICE KEYSTONE 8-15 : WELL
FLD .                                       : FIELD
LOC .                                       : LOCATION
CTRY.                                CANADA : COUNTRY
SRVC.                               Unknown : SERVICE COMPANY
DATE.                           07-May-1956 : LOGDATE
PROV.                               Alberta : PROVINCE
UWI .                      100081504804W500 : UNIQUE WELL ID
SLAT.WGS84                         53.13956 : SURFACE LATITUDE
SLON.WGS84                         -114.492 : SURFACE LONGITUDE
~Curve Information -----------------------------------------
DEPT  .FT            : DEPTH FEET
CALM  .IN            : CALIPER FROM MICROLATEROLOG
GRN   .UR/HR         : GAMMA RAY FROM McCULLOUGH GRN RADIATION LOG
GRN_1 .UG_RA-EQ/TON  : GAMMA RAY FROM SLB GRN-RADIATION LOG
GRN_2 .GAPI          : GAMMA RAY FROM GRN LOG
LAT9  .OHMM          : LATERAL 9' FROM HLB EL LOG
LN    .OHMM          : LONG NORMAL RESISTIVITY FROM SLB EL LOG
LT16  .OHMM          : 16 INCH LATERAL  FROM HLB EL LOG
LT18  .OHMM          : 18 INCH LATERAL  FROM SLB EL LOG
MCAL  .IN            : CALIPER CONTACT TOOL FROM HLB EL LOG
MLL   .OHMM          : MICRO FOCUSED LATEROLOG RESISTIVITY  FROM MICROLATEROLOG
NEUT  .NAPI          : NEUTRON FROM McCULLOUGH GRN RADIATION LOG
NEUT_1.NAPI          : NEUTRON FROM SLB GRN-RADIATION LOG
NEUT_2.NAPI          : NEUTRON FROM GRN LOG
SN    .OHMM          : SHORT NORMAL RESISTIVITY FROM SLB EL LOG
SN_1  .OHMM          : SHORT NORMAL 18 INCH FROM HLB EL LOG
SPR   .MV            : SPONTANEOUS POTENTIAL FROM SLB EL LOG
SPR_1 .MV            : SPONTANEOUS POTENTIAL FROM HLB EL LOG
~Params ----------------------------------------------------
LMF .                     KB : LOG MEASURED FROM
DMF .                     KB : DRILLING MEASURED FROM
EKB .FT                 2813 : KELLY BUSHING
DATE.               05/07/56 : RUN DATE
RUN .                      1 : RUN NUMBER
DD  .FT                 8499 : DEPTH DRILLER
DL  .FT                 8499 : DEPTH LOGGER
BLI .FT                 8498 : BOTTOM LOG INTERVAL
TLI .FT                  610 : TOP LOG INTERVAL
CBL .FT                  610 : CASING BOTTOM LOGGER
BS  .IN                    9 : BIT SIZE
BSD .FT                 8499 : BIT SIZE AT DEPTH
DFT .              LIME BASE : DRILLING FLUID TYPE
DFD .                   11.1 : DRILLING FLUID DENSITY
DFV .                     98 : DRILLING FLUID VISCOSITY
DFPH.                     13 : DRILLING FLUID PH
DFL .                     48 : DRILLING FLUID LOSS
RMS .OHMM               0.72 : RESISTIVITY MUD SAMPLE
MST .DEGF                 85 : MUD SAMPLE TEMPERATURE
RMB .OHMM               0.39 : RESISTIVITY MUD AT BHT
TCS .HRS                 2.5 : TIME CIRCULATED STOPPED
LUN .                   2786 : LOGGING UNIT NUMBER
LUL .                    EDM : LOGGING UNIT LOCATION
ENGI.                 TAYLOR : RECORDING ENGINEER
WITN.              ARMSTRONG : WITNESSED BY
CLNT.                A2DTECH : CLIENT CODE
ORIG.            2" 5" PRINT : ORIGIN OF DATA
UWI .       100081504804W500 : UNIQUE WELL ID
DICO. A2D Technologies, Inc. : DIGITIZING COMPANY
~Other -----------------------------------------------------
~ASCII -----------------------------------------------------
# ...
 2350.00000    -999.25   10.54180    -999.25   57.60140    4.28230    5.35200    2.51390    5.56150    9.14470    -999.25  482.06170    -999.25  333.00620    4.03400    2.95930  -45.19570  -28.15110
 2400.00000    -999.25   10.76160    -999.25   55.67050    4.38830    4.34600    2.54300    4.73110    8.99540    -999.25  253.89290    -999.25  214.47180    2.81470    1.48990  -43.71840  -23.99190
 2450.00000    -999.25    7.47710    -999.25   33.56850    6.18660    5.76350    5.34660    7.91660    9.01450    -999.25  407.51640    -999.25  374.41710    6.30700    5.23480  -48.14970  -34.44540
 2500.00000    -999.25    7.09190    -999.25   22.74780   31.00740   17.98210   14.46990   17.05980    -999.25    -999.25  483.22840    -999.25  461.74130   17.11880   20.12220  -52.17610  -42.94010
 2550.00000    -999.25    7.59620    -999.25   37.02620   16.04970   18.35060   14.86800   18.06930    -999.25    -999.25  434.26200    -999.25  490.70970   16.38450   19.20320  -56.84640  -35.92820
 2600.00000    -999.25    8.72220    -999.25   40.40030    4.67320    7.61000    5.48670    8.76090    -999.25    -999.25  440.13850    -999.25  389.78270    5.83390    5.94390  -49.23120  -30.33820
 2650.00000    -999.25    8.45650    -999.25   35.50800   10.46240    9.84530    4.16550    7.47420    -999.25    -999.25  341.52510    -999.25  231.46880    6.31480    5.39990  -45.59010  -22.36850
 2700.00000    -999.25    9.63860    -999.25   32.82230    8.14300    7.53920    7.36240   11.49130    -999.25    -999.25  240.20020    -999.25  218.21370    5.65340    4.46980  -43.29090  -25.90380
 2750.00000    -999.25    7.35870    -999.25   30.48280    5.39880    8.67740    5.11840    7.29410    -999.25    -999.25  302.58750    -999.25  318.75720    7.44490    6.06860  -46.83640  -26.71090
 2800.00000    -999.25    7.99540    -999.25   30.36500    7.09940    9.89360    7.27890   11.09480    -999.25    -999.25  252.27680    -999.25  229.10410    6.99130    5.71040  -46.26060  -28.16190
 2850.00000    -999.25    8.77960    -999.25   35.72510   22.39100   10.77960    8.72190   14.23710    -999.25    -999.25  328.69350    -999.25  257.82940    7.30210    5.94980  -46.39980  -25.61420
 2900.00000    -999.25    7.86510    -999.25   32.34050   14.35050   10.35300    6.65800   11.27710    -999.25    -999.25  386.19810    -999.25  187.62320    6.62220    5.16880  -41.48710  -24.92960
 2950.00000    -999.25    6.93560    -999.25   24.05130   18.24810   18.36950   10.02720   13.95130    -999.25    -999.25  394.33500    -999.25  375.70690   14.00290   14.81020  -51.79040  -28.70930
 3000.00000    -999.25    5.84660    -999.25   21.24770    8.14840   13.46990    7.97120   13.04340    -999.25    -999.25  455.92610    -999.25  354.98190   11.12690   10.50940  -49.54620  -30.94580
 3050.00000    -999.25    7.23150    -999.25   28.08960    5.82890   11.19630    4.20970    7.25690    -999.25    -999.25  350.64630    -999.25  307.07540    7.33610    6.31030  -43.26170  -27.98450
 3100.00000    -999.25    9.02680    -999.25   33.67560   15.70660    9.26280    8.60160   13.23400    -999.25    -999.25  274.48640    -999.25  229.26650    6.89090    5.86050  -42.35400  -27.84570
 3150.00000    -999.25    7.77350    -999.25   28.15690   14.29990   10.27690    9.60160   13.53670    -999.25    -999.25  147.29360    -999.25  227.73080    7.12800    5.09840  -41.74170  -33.74510
 3200.00000    -999.25    7.55950    -999.25   25.62380   41.55570    7.89040   44.00330   58.30930    9.13150    -999.25  191.82510    -999.25  259.61510    8.34910    6.29470  -43.13840  -23.56790
 3250.00000    -999.25    7.18150    -999.25   28.81180    3.19710   11.79250    3.13890    5.91560    9.11530    -999.25  353.81480    -999.25  397.93900    9.42100    8.30560  -48.40440  -26.80290
 3300.00000    -999.25    7.21400    -999.25   33.12750   11.51190    9.56750    7.32560   11.35160    9.23490    -999.25  338.95640    -999.25  429.53900    7.45490    6.42600  -46.20090  -30.02690
 3350.00000    -999.25    7.32340    -999.25   23.52050   10.51490   10.49970    8.44910   12.03720    9.32950    -999.25  377.24990    -999.25  460.45070    9.76220    9.88210  -45.25470  -28.47940
 3400.00000    -999.25    9.51010    -999.25   35.51170    6.45800    7.71640    5.37610    8.77290    -999.25    -999.25  159.17860    -999.25  183.47940    5.88270    5.34500  -42.71450  -24.70390
 3450.00000    -999.25   10.24770    -999.25   42.90200    8.14720    9.60160    7.27080   11.09610    -999.25    -999.25  191.97130    -999.25  158.88950    6.42950    5.49020  -40.72530  -27.98240
 3500.00000    -999.25   11.49450    -999.25   55.13690    8.75210    9.15110    6.93290   10.66330    -999.25    -999.25  204.75110    -999.25  175.07360    6.45240    5.52970  -44.45050  -25.45150
 3550.00000    -999.25   11.45150    -999.25   55.14360   10.30340   10.83570    7.91840   11.77570    -999.25    -999.25  178.98040    -999.25  175.52150    7.23150    6.97970  -45.53660  -22.92390
 3600.00000    -999.25   11.06880    -999.25   55.93260   10.97660   10.53190    8.22650   12.58920    -999.25    -999.25  211.40880    -999.25  208.22350    7.41550    7.19550  -43.86510  -23.30960
 3650.00000    -999.25   11.94110    -999.25   47.24140    8.66700    9.52770    6.72680   11.00410    -999.25    -999.25  146.35040    -999.25  109.48510    7.27490    6.57260  -41.76870  -27.34390
 3700.00000    -999.25   12.31290    -999.25   55.87800    9.55670   10.34170    7.28350   11.52540    -999.25    -999.25  128.20780    -999.25  125.65350    7.85030    7.00970  -42.33480  -25.70680
 3750.00000    -999.25   12.75810    -999.25   68.43140   11.13810   11.41560    8.29310   12.37080    -999.25    -999.25  138.63770    -999.25   95.15820    8.52380    8.47390  -40.76430  -25.38750
 3800.00000    -999.25   13.66890    -999.25   78.22110   14.15380   15.69980   10.66450   16.30130    -999.25    -999.25  182.59930    -999.25  131.57630   10.77790   11.05140  -43.34850  -25.08110
 3850.00000    -999.25   16.52960    -999.25   78.81830   15.39990   16.06550   10.22240   16.38470    -999.25    -999.25  179.30980    -999.25   99.25660   11.03310   11.23730  -43.04100  -22.89760
 3900.00000    -999.25   11.69720    -999.25   58.33160   12.04550   12.69520    8.72240   13.41880    -999.25    -999.25  250.50720    -999.25  176.27040    8.83220    8.27150  -41.41250  -21.53080
 3950.00000    -999.25   12.14380    -999.25   55.29170    9.05560   10.49820    6.71450   11.27360    -999.25    -999.25  187.39860    -999.25  136.96410    7.41850    6.56530  -43.11150  -22.71620
 4000.00000    -999.25   11.34240    -999.25   45.24520   10.58430    9.76190    7.57100   11.71560    -999.25    -999.25  112.99480    -999.25   74.07820    6.86390    6.65020  -43.26890  -25.08190
 4050.00000    -999.25   10.70470    -999.25   50.10660   10.51660   12.22820    6.83610   11.43660    -999.25    -999.25  269.95680    -999.25  271.37700    9.31740    8.60110  -46.38070  -24.53490
 4100.00000    -999.25   11.95080    -999.25   55.40890   12.89760   11.64060    7.47670   12.05910    -999.25    -999.25  322.49510    -999.25  127.22300    8.32270    8.13900  -43.22010  -25.05230
 4150.00000    -999.25   10.84820    -999.25   57.47380    9.11590    9.21700    6.94450   11.33870    -999.25    -999.25  451.67830    -999.25  138.48830    6.92560    6.51200  -43.91440  -28.75630
 4200.00000    -999.25   10.17060    -999.25   51.37330    7.41980   11.98600    5.21650    9.50830    -999.25    -999.25  459.53210    -999.25  248.22240    9.02650    8.59010  -43.78810  -29.93080
 4250.00000    -999.25   10.22610    -999.25   59.44160    9.13910   10.39130    7.36130   11.92870   10.98690    -999.25  500.74420    -999.25  194.74480    7.74410    7.25650   -8.04590   -4.65950
 4300.00000    -999.25    7.48300    -999.25   41.64200   33.98160   30.46400   10.57990   22.09260   10.94770    -999.25  582.28670    -999.25  373.42860   18.86500   21.57450  -14.68580   -4.27040
 4350.00000    -999.25   10.81330    -999.25   54.00740   13.32320   12.34850   10.37900   15.76320   11.07660    -999.25  444.26770    -999.25  133.94390    8.09100    8.59520  -11.72430   -8.98300
