~Version ---------------------------------------------------
VERS.      2.0 : CWLS log ASCII Standard -VERSION 2.0
WRAP.       NO : One line per depth step
CREA. 11/20/17 : LAS Creation Date
~Well ------------------------------------------------------
STRT.FT                         1000.0 : START DEPTH
STOP.FT                         9950.0 : STOP DEPTH
STEP.FT                       50.00000 : STEP LENGTH
NULL.                          -999.25 : NULL VALUE
COMP. SOCONY MOBIL OIL OF CANADA, LTD. : COMPANY
WELL.      MOBIL CS MCLEOD 12-29-55-13 : WELL
FLD .                                  : FIELD
LOC .                                  : LOCATION
CTRY.                           CANADA : COUNTRY
SRVC.                     Schlumberger : SERVICE COMPANY
DATE.                      23-Jan-1964 : LOGDATE
PROV.                          Alberta : PROVINCE
UWI .                 100122905513W500 : UNIQUE WELL ID
SLAT.WGS84                    53.78322 : SURFACE LATITUDE
SLON.WGS84                   -115.9046 : SURFACE LONGITUDE
~Curve Information -----------------------------------------
DEPT    .FT    : Depth Curve
CALWS   .IN    : CALIPER [MCALED]
CILDED  .MMHO  : DEEP INDUCTION CONDUCTIVITY FROM RESISTIVITY LOG
CONDWS  .MMHO  : CONDUCTIVITY [1000/DRESWS]
DRESWS  .OHMM  : DEEP RESISTIVITY [1000/CILDED, IF ILDED < 2, ILDED]
DTED    .US/F  : DELTA-TIME (SPAN 3'-1') FROM SONIC LOG
DTWS    .US/F  : COMPRESSIONAL SONIC [DTED]
GRSED   .GAPI  : GAMMA RAY FROM SONIC LOG
GRWS    .GAPI  : GAMMA RAY [GRSED]
ILDED   .OHMM  : DEEP INDUCTION LOG RESISTIVITY FROM RESISTIVITY LOG
MCALED  .IN    : MLT (MICROLOG) CALIPER FROM MICROLOG
SNED    .OHMM  : 16 INCH SHORT NORMAL RESISTIVITY FROM RESISTIVITY LOG
SPHILSED.V/V   : SONIC POROSITY LIMESTONE [DTM=47.6, DTF= 189] FROM SONIC LOG
SPOLSWS .V/V   : SONIC POROSITY LIMESTONE [SPHILSED]
SPRED   .MV    : SPONTANEOUS POTENTIAL FROM RESISTIVITY LOG
SPWS    .MV    : SPONTANEOUS POTENTIAL [BASELINE 0 MV] [SPRED]
SRESWS  .OHMM  : SHALLOW RESISTIVITY [SNED]
~Params ----------------------------------------------------
PD  .                     GL : PERMANENT DATUM
EPD .FT                 2602 : ELEVATION PERMANENT DATUM
LMF .                     KB : LOG MEASURED FROM
DAPD.FT                   13 : FEET ABOVE PERMANENT DATUM
EKB .FT                 2615 : KELLY BUSHING
EGL .FT                 2602 : GROUND LEVEL
DATE.               01/23/64 : RUN DATE
RUN .                      2 : RUN NUMBER
DD  .FT                 9957 : DEPTH DRILLER
DL  .FT                 9957 : DEPTH LOGGER
BLI .FT                 9956 : BOTTOM LOG INTERVAL
TLI .FT                 4000 : TOP LOG INTERVAL
CBD .FT                 1006 : CASING BOTTOM DRILLER
CBL .FT                 1004 : CASING BOTTOM LOGGER
BS  .IN                    9 : BIT SIZE
BSD .FT                 9957 : BIT SIZE AT DEPTH
DFT .              LIME BASE : DRILLING FLUID TYPE
DFD .                   10.3 : DRILLING FLUID DENSITY
DFV .                    189 : DRILLING FLUID VISCOSITY
DFPH.                   13.5 : DRILLING FLUID PH
DFL .                    4.4 : DRILLING FLUID LOSS
RMS .OHMM               0.59 : RESISTIVITY MUD SAMPLE
MST .DEGF                 62 : MUD SAMPLE TEMPERATURE
RMF .OHMM               0.32 : RESISTIVITY MUD FILTRATE SAMPLE
MFST.DEGF                 61 : MUD FILTRATE SAMPLE TEMPERATURE
RMC .OHMM               0.87 : RESISTIVITY MUD CAKE
MCST.DEGF                 66 : MUD CAKE SAMPLE TEMPERATURE
RMB .OHMM               0.24 : RESISTIVITY MUD AT BHT
TCS .HRS                   2 : TIME CIRCULATED STOPPED
LUN .                   1576 : LOGGING UNIT NUMBER
LUL .                     DV : LOGGING UNIT LOCATION
ENGI.          WILLIAMS HALE : RECORDING ENGINEER
WITN.          WHEELER CLARK : WITNESSED BY
CLNT.                A2DTECH : CLIENT CODE
ORIG.            2" 5" PRINT : ORIGIN OF DATA
UWI .       100122905513W500 : UNIQUE WELL ID
DICO. A2D Technologies, Inc. : DIGITIZING COMPANY
~Other -----------------------------------------------------
~ASCII -----------------------------------------------------
# ...
 3150.00000   11.21330  174.72610  171.73570    5.82290   93.85680   93.85680   70.05220   70.05220    5.82290   11.21330    6.47040    -999.25    -999.25  -58.85350   -3.19700    6.47040
 3200.00000   11.17420  224.47460  233.77590    4.27760  109.92070  109.92070   55.00000   55.00000    4.27760   11.17420    6.09310    -999.25    -999.25  -57.04890   -1.42280    6.09310
 3250.00000   11.65260  190.01540  194.00150    5.15460   85.14230   85.14230   55.10460   55.10460    5.15460   11.65260    6.63890    -999.25    -999.25  -59.14110   -3.54520    6.63890
 3300.00000   11.41150  177.74970  169.62280    5.89830   84.01580   84.01580   57.71360   57.71360    5.89830   11.41150    6.29980    -999.25    -999.25  -56.39300   -0.82740    6.29980
 3350.00000   10.44270  131.42540  128.03770    7.81020   84.70550   84.70550   44.92990   44.92990    7.81020   10.44270    8.82650    -999.25    -999.25  -59.83590   -4.30070    8.82650
 3400.00000   10.27280   48.85360   53.39630   18.72790   70.46420   70.46420   35.07150   35.07150   18.72790   10.27280   21.10490    -999.25    -999.25  -63.76220   -8.25720   21.10490
 3450.00000    9.61460  176.38660  175.01180    5.71390   88.15950   88.15950   61.42580   61.42580    5.71390    9.61460    7.59970    -999.25    -999.25  -57.94630   -2.47180    7.59970
 3500.00000   11.02990  253.10780  241.12070    4.14730  123.47250  123.47250   59.71360   59.71360    4.14730   11.02990    7.03480    -999.25    -999.25  -57.10380   -1.65950    7.03480
 3550.00000    9.83210  115.72490  114.39990    8.74380   83.30010   83.30010   50.12570   50.12570    8.74380    9.83210    9.94510    -999.25    -999.25  -65.45620  -10.04210    9.94510
 3600.00000   10.31050  102.44270  106.17060    9.41880   78.52120   78.52120   48.49590   48.49590    9.41880   10.31050   11.26130    -999.25    -999.25  -62.29010   -6.90650   11.26130
 3650.00000   10.76890  164.93500  162.64390    6.14840   91.32180   91.32180   64.29270   64.29270    6.14840   10.76890    7.11990    -999.25    -999.25  -57.47080   -2.11740    7.11990
 3700.00000   12.26220  125.78480  122.28530    8.17760   87.52620   87.52620   75.11880   75.11880    8.17760   12.26220    8.77390    -999.25    -999.25  -56.66070   -1.33770    8.77390
 3750.00000   10.90800  121.63950  118.83540    8.41500   86.65800   86.65800   74.59520   74.59520    8.41500   10.90800    8.93480    -999.25    -999.25  -56.85100   -1.77460    8.93480
 3800.00000   12.19340  112.61860  113.37060    8.82070   87.59490   87.59490   85.59570   85.59570    8.82070   12.19340    9.31040    -999.25    -999.25  -55.11250   -0.35720    9.31040
 3850.00000   12.00690  108.22750  107.66460    9.28810   87.42250   87.42250   88.28770   88.28770    9.28810   12.00690   10.18480    -999.25    -999.25  -58.58380   -4.15180   10.18480
 3900.00000   12.49150  121.51400  119.51140    8.36740   90.94630   90.94630   86.68210   86.68210    8.36740   12.49150    9.69610    -999.25    -999.25  -58.05670   -3.94590    9.69610
 3950.00000   11.79500  116.05530  113.48810    8.81150   92.95080   92.95080   90.48820   90.48820    8.81150   11.79500   10.73900    -999.25    -999.25  -60.16040   -6.37280   10.73900
 4000.00000   11.52550   98.39350   96.78670   10.33200   91.15080   91.15080  104.67040  104.67040   10.33200   11.52550   13.39030    -999.25    -999.25  -61.42990   -7.96350   13.39030
 4050.00000   11.70690  120.03100  117.88000    8.48340   92.32930   92.32930   98.27010   98.27010    8.48340   11.70690   10.00500    -999.25    -999.25  -61.66390   -8.51870   10.00500
 4100.00000   11.21050   96.53540  101.69730    9.83310   85.12820   85.12820   86.87520   86.87520    9.83310   11.21050   10.48000    -999.25    -999.25  -62.64250   -9.82060   10.48000
 4150.00000   10.31500  125.30130  123.52390    8.09560   88.59920   88.59920   75.55450   75.55450    8.09560   10.31500    9.02580    -999.25    -999.25  -61.45690   -8.95610    9.02580
 4200.00000   10.77650  103.56360  105.85150    9.44720   76.51350   76.51350   78.94940   78.94940    9.44720   10.77650   10.38270    -999.25    -999.25  -62.65840  -10.48090   10.38270
 4250.00000   10.79940  117.31250  114.88840    8.70410   84.73200   84.73200   85.67510   85.67510    8.70410   10.79940    9.51220    -999.25    -999.25  -61.21030   -9.35400    9.51220
 4300.00000   10.98190  141.67320  136.22650    7.34110   87.51400   87.51400   87.62060   87.62060    7.34110   10.98190    8.47410    -999.25    -999.25  -61.89660  -10.36140    8.47410
 4350.00000    9.90110  120.75090  116.93580    8.55170   84.56680   84.56680   85.76700   85.76700    8.55170    9.90110    9.71860    -999.25    -999.25  -61.82950  -10.61760    9.71860
 4400.00000   10.48820  159.65970  153.87220    6.49890   89.65020   89.65020   92.24890   92.24890    6.49890   10.48820    7.52900    -999.25    -999.25  -62.08930  -11.19860    7.52900
 4450.00000   11.01790  135.08340  128.87590    7.75940   86.70980   86.70980   91.08360   91.08360    7.75940   11.01790    8.48040    -999.25    -999.25  -60.41660   -9.84920    8.48040
 4500.00000   10.94360  116.65160  113.46620    8.81320   81.66100   81.66100   82.78100   82.78100    8.81320   10.94360    9.59650    -999.25    -999.25  -59.87500   -9.62870    9.59650
 4550.00000   10.48860   57.87350   59.40000   16.85110   75.58690   75.58690   83.63080   83.63080   16.85110   10.48860   15.82950    -999.25    -999.25  -64.46400  -14.53890   15.82950
 4600.00000   10.61010   99.64220   99.72670   10.02740   81.04400   81.04400   92.47960   92.47960   10.02740   10.61010   10.58610    -999.25    -999.25  -61.53760  -11.93580   10.58610
 4650.00000   10.84970   98.47140   99.91910   10.00810   81.21220   81.21220   83.82120   83.82120   10.00810   10.84970   11.10960    -999.25    -999.25  -60.66380  -11.38310   11.10960
 4700.00000   11.00920  100.76570   99.43420   10.05690   83.25800   83.25800  103.40560  103.40560   10.05690   11.00920   10.63000    -999.25    -999.25  -60.26910  -11.31170   10.63000
 4750.00000   11.16600  118.93040  117.53370    8.50820   83.36730   83.36730   87.11920   87.11920    8.50820   11.16600    9.81840    -999.25    -999.25  -60.53320  -11.89700    9.81840
 4800.00000   10.95500  118.68370  117.13700    8.53750   87.35300   87.35300   96.80730   96.80730    8.53750   10.95500   10.33550    -999.25    -999.25  -59.83100  -11.51590   10.33550
 4850.00000   11.03310  114.13410  110.96070    9.01220   93.18800   93.18800  101.38960  101.38960    9.01220   11.03310   11.34820    -999.25    -999.25  -59.77050  -11.77870   11.34820
 4900.00000   10.66120  117.35790  114.73020    8.71610   93.21600   93.21600  102.09560  102.09560    8.71610   10.66120   11.11420    -999.25    -999.25  -59.66070  -11.99010   11.11420
 4950.00000   10.13040  102.02440  101.21870    9.87960   91.96950   91.96950  120.19240  120.19240    9.87960   10.13040   13.12620    -999.25    -999.25  -60.41760  -13.07030   13.12620
 5000.00000   10.25000   94.05290   95.59220   10.46110   91.22830   91.22830  114.93740  114.93740   10.46110   10.25000   14.82000    -999.25    -999.25  -61.44740  -14.42120   14.82000
 5050.00000    9.57630   51.88800   54.06710   18.50030   76.05020   76.05020  103.29430  103.29430   18.50030    9.57630   21.46390    -999.25    -999.25  -62.31760  -15.61260   21.46390
 5100.00000   10.25390  105.55360  105.26650    9.49970   89.93300   89.93300   90.33480   90.33480    9.49970   10.25390   13.12080    -999.25    -999.25  -59.81350  -13.43180   13.12080
 5150.00000   10.87070  139.59890  135.08220    7.40290   87.77430   87.77430   89.23740   89.23740    7.40290   10.87070    9.61910    -999.25    -999.25  -58.17700  -12.11640    9.61910
 5200.00000   10.39440  152.23460  150.51850    6.64370   85.08820   85.08820   82.70080   82.70080    6.64370   10.39440    9.14330    -999.25    -999.25  -57.72880  -11.99150    9.14330
 5250.00000   10.79130  113.72080  111.47030    8.97100   82.06320   82.06320   88.29720   88.29720    8.97100   10.79130   10.11840    -999.25    -999.25  -57.29190  -11.87580   10.11840
