~Version ---------------------------------------------------
VERS.      2.0 : CWLS log ASCII Standard -VERSION 2.0
WRAP.       NO : One line per depth step
CREA. 01/03/18 : LAS Creation Date
~Well ------------------------------------------------------
STRT.FT                             300.0 : START DEPTH
STOP.FT                            8850.0 : STOP DEPTH
STEP.FT                          50.00000 : STEP LENGTH
NULL.                             -999.25 : NULL VALUE
COMP.            HOME OIL COMPANY LIMITED : COMPANY
WELL. HOME FPC ET AL MORSE RIVER 4-2-66-9 : WELL
FLD .                                     : FIELD
LOC .                                     : LOCATION
CTRY.                              CANADA : COUNTRY
SRVC.              Schlumberger of Canada : SERVICE COMPANY
DATE.                         16-Jan-1959 : LOGDATE
PROV.                             Alberta : PROVINCE
UWI .                    100040206609W500 : UNIQUE WELL ID
SLAT.WGS84                       54.67779 : SURFACE LATITUDE
SLON.WGS84                      -115.2573 : SURFACE LONGITUDE
~Curve Information -----------------------------------------
DEPT  .FT     : Depth Curve
CALDED.IN     : CALIPER FROM DENSITY LOG [ADJ TO MCALED]
CALWS .IN     : CALIPER [MCALED]
CILDED.MMHO   : CONDUCTIVITY FROM IE LOG
CONDWS.MMHO   : CONDUCTIVITY [1000/DRESWS]
DENED .KG/M3  : DENSITY FROM DENSITY LOG [ADJ TO MCALED]
DRESWS.OHMM   : DEEP RESISTIVITY [ILDED]
DTED  .US/F   : DELTA TIME FROM SONIC LOG [ADJ TO SPRED]
DTWS  .US/F   : DELTA TIME [DTED]
GRED  .CU     : GAMMA RAY FROM GR LOG
GRWS  .CU     : GAMMA RAY [GRED]
ILDED .OHMM   : INDUCTION LOG DEEP RESISTIVITY FROM IE LOG
LLED  .OHMM   : LATEROLOG RESISTIVITY FROM LATEROLOG
MCALED.IN     : CALIPER MICROLOG
SNED  .OHMM   : 16 INCH SHORT NORMAL RESISTIVITY FROM IE LOG
SPRED .MV     : SPONTANEOUS POTENTIAL FROM IE LOG
SPSED .MV     : SPONTANEOUS POTENTIAL FROM SONIC LOG [ADJ TO SPRED]
SPWS  .MV     : SPONTANEOUS POTENTIAL [BASELINE 0 MV] [SPRED]
SRESWS.OHMM   : SHALLOW RESISTIVITY [SNED]
~Params ----------------------------------------------------
LMF .                     KB : LOG MEASURED FROM
DMF .                     KB : DRILLING MEASURED FROM
EKB .FT                 3358 : KELLY BUSHING
EGL .FT                 3345 : GROUND LEVEL
DATE.               01/16/59 : RUN DATE
RUN .                      2 : RUN NUMBER
DD  .FT                 8880 : DEPTH DRILLER
DL  .FT                 8891 : DEPTH LOGGER
BLI .FT                 8886 : BOTTOM LOG INTERVAL
TLI .FT                 5006 : TOP LOG INTERVAL
BS  .IN                    9 : BIT SIZE
BSD .FT                 8880 : BIT SIZE AT DEPTH
DFT .                    GEL : DRILLING FLUID TYPE
DFD .                   10.3 : DRILLING FLUID DENSITY
DFV .                    109 : DRILLING FLUID VISCOSITY
DFPH.                    9.5 : DRILLING FLUID PH
DFL .                    6.2 : DRILLING FLUID LOSS
RMS .OHMM                3.2 : RESISTIVITY MUD SAMPLE
MST .DEGF                 54 : MUD SAMPLE TEMPERATURE
RMF .OHMM                2.4 : RESISTIVITY MUD FILTRATE SAMPLE
MFST.DEGF                 64 : MUD FILTRATE SAMPLE TEMPERATURE
RMC .OHMM                3.4 : RESISTIVITY MUD CAKE
MCST.DEGF                 56 : MUD CAKE SAMPLE TEMPERATURE
RMB .OHMM                1.1 : RESISTIVITY MUD AT BHT
TCS .HRS                 2.5 : TIME CIRCULATED STOPPED
LUN .                   2765 : LOGGING UNIT NUMBER
LUL .                     SH : LOGGING UNIT LOCATION
ENGI.                  KEYES : RECORDING ENGINEER
WITN.                  BEARD : WITNESSED BY
CLNT.                A2DTECH : CLIENT CODE
ORIG.            2" 5" PRINT : ORIGIN OF DATA
UWI .       100040206609W500 : UNIQUE WELL ID
DICO. A2D Technologies, Inc. : DIGITIZING COMPANY
~Other -----------------------------------------------------
IE-LL-ML-GR-DEN-SONIC LOGS RUN
~ASCII -----------------------------------------------------
  300.00000    -999.25    -999.25    -999.25    -999.25    -999.25    -999.25    -999.25    -999.25   26.51540   26.51540    -999.25    -999.25    -999.25    -999.25    -999.25    -999.25    -999.25    -999.25
  350.00000    -999.25    -999.25    -999.25    -999.25    -999.25    -999.25    -999.25    -999.25   22.80220   22.80220    -999.25    -999.25    -999.25    -999.25    -999.25    -999.25    -999.25    -999.25
  400.00000    -999.25    -999.25    -999.25    -999.25    -999.25    -999.25    -999.25    -999.25   25.09010   25.09010    -999.25    -999.25    -999.25    -999.25    -999.25    -999.25    -999.25    -999.25
  450.00000    -999.25    -999.25    -999.25    -999.25    -999.25    -999.25    -999.25    -999.25   21.64920   21.64920    -999.25    -999.25    -999.25    -999.25    -999.25    -999.25    -999.25    -999.25
  500.00000    -999.25    -999.25    -999.25    -999.25    -999.25    -999.25    -999.25    -999.25   24.61140   24.61140    -999.25    -999.25    -999.25    -999.25    -999.25    -999.25    -999.25    -999.25
  550.00000    -999.25    -999.25    -999.25    -999.25    -999.25    -999.25    -999.25    -999.25   19.68840   19.68840    -999.25    -999.25    -999.25    -999.25    -999.25    -999.25    -999.25    -999.25
  600.00000    -999.25    -999.25    -999.25    -999.25    -999.25    -999.25    -999.25    -999.25   18.36550   18.36550    -999.25    -999.25    -999.25    -999.25    -999.25    -999.25    -999.25    -999.25
  650.00000    -999.25    -999.25  217.86720  227.63610 1908.55000    4.40830    -999.25    -999.25   40.07830   40.07830    4.40830    -999.25    -999.25    4.32310 -111.91750    -999.25   -4.22610    4.32310
  700.00000    -999.25    -999.25  232.92930  247.66580 2045.90000    4.03770    -999.25    -999.25   37.57680   37.57680    4.03770    -999.25    -999.25    4.45990 -110.53940    -999.25   -3.07460    4.45990
  750.00000    -999.25    -999.25  376.73320  376.73320 1892.00000    2.65440    -999.25    -999.25   36.52850   36.52850    1.86120    -999.25    -999.25    2.88500 -109.48130    -999.25   -2.71480    2.88500
  800.00000    -999.25    -999.25  264.99910  264.99910 2005.55000    3.77360    -999.25    -999.25   36.45330   36.45330    2.88530    -999.25    -999.25    3.73600 -107.25730    -999.25   -1.18550    3.73600
  850.00000    -999.25    -999.25  169.03230  164.15510 2073.80000    6.09180    -999.25    -999.25   34.87540   34.87540    6.09180    -999.25    -999.25    6.05280 -109.17780    -999.25   -3.80780    6.05280
  900.00000    -999.25    -999.25  343.29280  343.29280 1675.90000    2.91400    -999.25    -999.25   37.42830   37.42830    2.48980    -999.25    -999.25    3.03460 -105.92490    -999.25   -1.24960    3.03460
  950.00000    -999.25    -999.25  235.24580  235.24580 1891.20000    4.25090    -999.25    -999.25   43.43370   43.43370    3.45200    -999.25    -999.25    3.97250 -106.90870    -999.25   -2.93520    3.97250
 1000.00000    -999.25    -999.25  267.79110  267.79110 1686.30000    3.73430    -999.25    -999.25   40.89480   40.89480    2.93430    -999.25    -999.25    3.97260 -106.89410    -999.25   -3.61880    3.97260
 1050.00000    -999.25    -999.25  283.71950  283.71950 1945.75000    3.52570    -999.25    -999.25   36.40720   36.40720    2.71230    -999.25    -999.25    3.48820 -105.10980    -999.25   -2.52930    3.48820
 1100.00000    -999.25    -999.25  188.03700  205.92230 1944.40000    4.85620    -999.25    -999.25   36.02810   36.02810    4.85620    -999.25    -999.25    5.05010 -105.05790    -999.25   -3.17920    5.05010
 1150.00000    -999.25    -999.25  191.62010  210.49980 2144.20000    4.75120    -999.25    -999.25   30.06810   30.06810    4.75120    -999.25    -999.25    5.14030 -105.34930    -999.25   -3.71150    5.14030
 1200.00000    -999.25    -999.25  223.15740  214.29340 1949.30000    4.66650    -999.25    -999.25   29.93800   29.93800    4.66650    -999.25    -999.25    4.69750 -104.65350    -999.25   -3.24470    4.69750
 1250.00000    -999.25    -999.25  145.16500  156.83320 2001.90000    6.37620    -999.25    -999.25   34.81770   34.81770    6.37620    -999.25    -999.25    6.65940 -106.52520    -999.25   -5.34440    6.65940
 1300.00000    -999.25    -999.25  238.85580  238.85580 2098.50000    4.18670    -999.25    -999.25   35.32740   35.32740    3.93530    -999.25    -999.25    4.18660 -105.04560    -999.25   -4.09150    4.18660
 1350.00000    -999.25    -999.25  244.72460  244.72460 2015.60000    4.08620    -999.25    -999.25   35.93950   35.93950    3.54780    -999.25    -999.25    4.07120 -102.97850    -999.25   -2.25360    4.07120
 1400.00000    -999.25    -999.25  311.45760  311.45760 2057.15000    3.21180    -999.25    -999.25   39.54970   39.54970    2.29000    -999.25    -999.25    3.26040 -104.15750    -999.25   -3.65930    3.26040
 1450.00000    -999.25    -999.25  330.17300  330.17300 2054.70000    3.02870    -999.25    -999.25   29.56780   29.56780    2.17910    -999.25    -999.25    3.15410 -103.94120    -999.25   -3.67210    3.15410
 1500.00000    -999.25    -999.25  241.87710  241.87710 1681.90000    4.13430    -999.25    -999.25   31.47350   31.47350    3.47760    -999.25    -999.25    4.36610 -103.42490    -999.25   -3.38380    4.36610
 1550.00000    -999.25    -999.25  106.35280   99.90200 2199.30000   10.01590    -999.25    -999.25   25.29250   25.29250   10.01590    -999.25    -999.25    9.04290 -122.73200    -999.25  -22.91770    9.04290
 1600.00000    -999.25    -999.25  164.31460  154.03810 1952.00000    6.49190    -999.25    -999.25   31.37380   31.37380    6.49190    -999.25    -999.25    6.09880 -105.06690    -999.25   -5.48170    6.09880
 1650.00000    -999.25    -999.25   37.74210   35.78760 2052.70000   27.96110    -999.25    -999.25   19.68500   19.68500   27.96110    -999.25    -999.25   37.15480 -116.13030    -999.25  -16.77190   37.15480
 1700.00000    -999.25    -999.25  246.85290  246.85290 2098.00000    4.05100    -999.25    -999.25   28.62990   28.62990    3.17450    -999.25    -999.25    3.91600 -102.02040    -999.25   -2.89100    3.91600
 1750.00000    -999.25    -999.25  219.06310  219.06310 1941.20000    4.56490    -999.25    -999.25   34.63400   34.63400    3.94720    -999.25    -999.25    4.46030 -100.62700    -999.25   -1.72560    4.46030
 1800.00000    -999.25    -999.25  188.01310  191.90890 2096.00000    5.21200    -999.25    -999.25   30.07600   30.07600    5.21200    -999.25    -999.25    4.89120 -100.84920    -999.25   -2.17460    4.89120
 1850.00000    -999.25    -999.25  234.91860  234.91860 2056.00000    4.25680    -999.25    -999.25   29.62610   29.62610    3.70760    -999.25    -999.25    4.42260 -101.73510    -999.25   -3.28960    4.42260
 1900.00000    -999.25    -999.25  234.90250  199.44180 2046.65000    5.13730    -999.25    -999.25   32.56450   32.56450    5.13730    -999.25    -999.25    5.63260 -103.75760    -999.25   -5.53890    5.63260
 1950.00000    -999.25    -999.25  268.28830  268.28830 2037.10000    3.72730    -999.25    -999.25   30.03280   30.03280    2.88400    -999.25    -999.25    3.94480 -102.15700    -999.25   -4.16730    3.94480
 2000.00000    -999.25    -999.25  278.89860  278.89860 2042.90000    3.58550    -999.25    -999.25   27.67650   27.67650    2.81980    -999.25    -999.25    3.44730 -102.90700    -999.25   -5.14530    3.44730
 2050.00000    -999.25    -999.25  322.77050  322.77050 2020.40000    3.10030    -999.25    -999.25   30.74540   30.74540    2.18460    -999.25    -999.25    3.11800 -101.12910    -999.25   -3.59410    3.11800
 2100.00000    -999.25    -999.25  221.95410  240.35570 2044.40000    4.16050    -999.25    -999.25   34.41880   34.41880    4.16050    -999.25    -999.25    4.60480 -100.28020    -999.25   -2.97440    4.60480
 2150.00000    -999.25    -999.25  195.63200  210.23600 2164.60000    4.75660    -999.25    -999.25   32.15070   32.15070    4.75660    -999.25    -999.25    4.93640 -101.78060    -999.25   -4.70150    4.93640
 2200.00000    -999.25    -999.25  273.60760  273.60760 2048.40000    3.65490    -999.25    -999.25   33.69450   33.69450    2.93640    -999.25    -999.25    4.28500 -101.69510    -999.25   -4.84510    4.28500
