~Version ---------------------------------------------------
VERS.      2.0 : CWLS log ASCII Standard -VERSION 2.0
WRAP.       NO : One line per depth step
CREA. 10/15/14 : LAS Creation Date
~Well ------------------------------------------------------
STRT.FT                         300.0 : START DEPTH
STOP.FT                       11750.0 : STOP DEPTH
STEP.FT                      50.00000 : STEP LENGTH
NULL.                         -999.25 : NULL VALUE
COMP.            MOBIL OIL CANADA LTD : COMPANY
WELL. MOBIL OIL LESLIEVILLE 4-19-39-5 : WELL
FLD .                                 : FIELD
LOC .                                 : LOCATION
CTRY.                          CANADA : COUNTRY
SRVC.          Schlumberger of Canada : SERVICE COMPANY
DATE.                     02-Feb-1958 : LOGDATE
PROV.                         Alberta : PROVINCE
UWI .                100041903905W500 : UNIQUE WELL ID
SLAT.WGS84                   52.36478 : SURFACE LATITUDE
SLON.WGS84                  -114.7174 : SURFACE LONGITUDE
~Curve Information -----------------------------------------
DEPT .FT    : DEPTH FEET
CALM .IN    : FROM MICRO LATEROLOG
CILD .MMHO  : CONDUCTIVITY INDUCTION LOG FROM IEL LOG
GR   .GAPI  : GAMMA RAY FROM GR CCL LOG
GR_1 .GAPI  : GAMMA RAY FROM GR LOG
GRN  .GAPI  : GAMMA RAY FROM GRN LOG
ILD  .OHMM  : INDUCTION LOG RESISTIVITY FROM IEL LOG
LL7  .OHMM  : LATEROLOG-7 RES. FROM LATEROLOG
MCAL .IN    : MLT [MICROLOG] CALIPER FROM MICROLOG
MLL  .OHMM  : MICRO-LATEROLOG RESISTIVITY FROM MICRO LATEROLOG
NEUT .NAPI  : NEUTRON FROM GRN LOG
SN   .OHMM  : SHORT NORMAL 16" FROM IEL LOG
SPM  .MV    : SPONTAEOUS POTENTIAL FROM MICRO LOG
SPR  .MV    : SPONTAEOUS POTENTIAL FROM IEL LOG
SPR_1.MV    : SPONTAEOUS POTENTIAL FROM MICRO LATEROLOG
TEN  .Kg    : TENSION FROM GR LOG
~Params ----------------------------------------------------
PD  .           GROUND LEVEL : PERMANENT DATUM
EPD .FT                 3169 : ELEVATION PERMANENT DATUM
LMF .                     KB : LOG MEASURED FROM
DMF .                     KB : DRILLING MEASURED FROM
EKB .FT                 3181 : KELLY BUSHING
EGL .FT                 3169 : GROUND LEVEL
DATE.             02/02/1958 : RUN DATE
RUN .                      1 : RUN NUMBER
DD  .FT                11765 : DEPTH DRILLER
DL  .FT                11766 : DEPTH LOGGER
BLI .FT                11762 : BOTTOM LOG INTERVAL
TLI .FT                 6000 : TOP LOG INTERVAL
CBD .FT                  886 : CASING BOTTOM DRILLER
CBL .FT                  885 : CASING BOTTOM LOGGER
BS  .IN                    9 : BIT SIZE
BSD .FT                11766 : BIT SIZE AT DEPTH
DFT .              LIME BASE : DRILLING FLUID TYPE
DFD .                   11.4 : DRILLING FLUID DENSITY
DFV .                    100 : DRILLING FLUID VISCOSITY
DFPH.                   13.0 : DRILLING FLUID PH
DFL .                    4.6 : DRILLING FLUID LOSS
RMS .OHMM                0.5 : RESISTIVITY MUD SAMPLE
MST .DEGF                 47 : MUD SAMPLE TEMPERATURE
RMF .OHMM                0.2 : RESISTIVITY MUD FILTRATE SAMPLE
MFST.DEGF                 70 : MUD FILTRATE SAMPLE TEMPERATURE
RMC .OHMM                0.6 : RESISTIVITY MUD CAKE
MCST.DEGF                 66 : MUD CAKE SAMPLE TEMPERATURE
RMB .OHMM               0.14 : RESISTIVITY MUD AT BHT
MRT .DEGF                212 : MAXIMUM RECORDED TEMPERATURE
LUN .                  1729C : LOGGING UNIT NUMBER
LUL .                     RD : LOGGING UNIT LOCATION
ENGI.                  CHASE : RECORDING ENGINEER
WITN.                 CARSON : WITNESSED BY
CLNT.                A2DTECH : CLIENT CODE
ORIG.           2", 5" PRINT : ORIGIN OF DATA
UWI .       100041903905W500 : UNIQUE WELL ID
DICO. A2D Technologies, Inc. : DIGITIZING COMPANY
~Other -----------------------------------------------------
~ASCII -----------------------------------------------------
# ...
 7200.00000   15.30580  367.89470    -999.25   53.41430   10.18000    3.33250    3.54520    -999.25    2.90020  665.75680    3.68000  -14.07320  -16.25790  -14.87710  720.03580
 7250.00000   10.49710   94.07670    -999.25   68.82390   10.79000   10.89020   16.21610    9.43260   13.22390 1103.06460   12.48470  -18.04670  -20.17730  -23.47340  733.55440
 7300.00000   11.33980  116.08980    -999.25   45.38160    8.50270    8.80010   26.84400   10.25310   13.83930  971.86610   10.00710  -83.64690  -95.42300  -87.05090  735.91620
 7350.00000   11.96500  291.30920    -999.25   63.12280   10.61330    4.10450    4.97690   10.79550    3.29390  740.14700    4.98120  -82.11460  -88.86770  -76.22040  739.48210
 7400.00000   10.46150   44.27050   60.42660   28.14330    7.72050   22.65000   41.85140    9.27180   22.88450 1233.35590   18.80470  -87.77740  -99.06340  -84.12070  739.48410
 7450.00000   10.48110   74.47860   33.87160   50.69900    8.83100   13.39160   20.62920    9.23720   12.80880 1112.53010   15.15480  -89.87770  -93.31120  -88.05170  740.39870
 7500.00000    9.42380   66.08850   54.30390   50.66830    8.32900   15.71190   23.82130    9.14780   11.17500  994.87340   14.95870  -83.34870  -89.40900  -82.93140  743.36660
 7550.00000   10.53850   61.16870   38.14770   50.17690    8.25500   16.04090   15.63130    9.29510    5.42490  608.05480   12.89340  -87.27850  -90.91200  -83.56820  740.20720
 7600.00000   10.67050   68.55020   47.31030   44.37240    7.73880   14.44700   16.98260    9.42270    9.48140  679.84170   14.50350  -88.56850  -88.66940  -81.62960  738.90580
 7650.00000    9.99020   66.35530   71.62050    -999.25    8.77710   15.40010   20.46830    9.37960   51.00380  569.72560   17.51100  -91.98310  -88.97570  -82.70240    -999.25
 7700.00000   10.28550   42.51890   41.85180    -999.25    6.54030   24.00480   47.90720    9.24500   22.31330  927.39310   21.34850  -93.43840 -102.47390  -81.63610    -999.25
 7750.00000   11.08320   23.23070    -999.25    -999.25    5.98040   48.62300  228.46780    9.66600    4.85320 1129.57210   33.87440  -96.24700 -113.52780  -82.33720    -999.25
 7800.00000   10.48770   14.68800    -999.25    -999.25    8.23920   59.49260  101.82010    9.74440   29.91590  721.26460   27.99330  -86.26100  -90.71470  -70.02220    -999.25
 7850.00000   11.87850    7.83520    -999.25    -999.25    8.16830  118.86420  283.18720    9.92920    8.41450  865.14360   61.06300 -108.89130 -191.04450  -90.31570    -999.25
 7900.00000   12.66520   20.24340    -999.25    -999.25   10.11770   47.77300   72.26780    9.32300    8.21940  417.93470   27.48060  -97.82450 -185.67880  -75.71010    -999.25
 7950.00000    9.85560    3.66460    -999.25    -999.25    5.73560  310.58900 1964.95420    9.12260  195.59270 1499.87170   70.87250 -111.19450  -33.86030  -89.56910    -999.25
 8000.00000   13.68940   72.47290    -999.25    -999.25    6.69690   14.35150   34.57670   10.31110    4.73170  173.70020   16.84750 -106.55070   17.64730  -84.33070    -999.25
 8050.00000    9.07480    1.03270    -999.25    -999.25    6.07990  603.22500 8826.80960    9.11960 1139.12100  795.34550  109.56880 -118.82750  -84.63260  -97.11910    -999.25
 8100.00000    9.58480   42.08120    -999.25    -999.25    8.26730   24.03460   45.42860    9.15050   30.94960  391.98600   32.14770 -110.21260  -14.45260  -97.21750    -999.25
 8150.00000    9.93680   40.57310    -999.25    -999.25    5.79750   23.85600   37.89570    9.53600   16.04970  546.36450   24.90530 -110.19040 -187.47600 -104.31270    -999.25
 8200.00000    8.92670  116.97960    -999.25    -999.25    4.94490    9.13050   19.15000    8.49220   19.52240  530.48230   21.23360 -119.26320 -171.00520 -110.63170    -999.25
 8250.00000    9.44530   13.37140    -999.25    -999.25    4.77560   70.40780  157.85690    9.14210  583.03200 1072.69810   53.74650 -115.03190  -68.61230 -107.23300    -999.25
 8300.00000    8.15700   20.77350    -999.25    -999.25    4.08780   49.24740   83.95960    8.59610    7.87360  852.92700   38.81860 -114.21190 -199.15850 -106.45040    -999.25
 8350.00000    9.32490   47.11580    -999.25    -999.25    -999.25   20.02330   40.92670    8.86190   39.56640  674.40180   19.26580 -107.19270 -146.26090  -99.76210    -999.25
 8400.00000    9.72430    0.83890    -999.25    -999.25    5.17980  591.56850  492.79710    9.13560   23.09610 1009.35130   69.60700 -100.35300   21.86780  -90.15330    -999.25
 8450.00000    9.93850    1.40900    -999.25    -999.25    5.19870  420.60490  962.65050    9.49910  307.65730  941.79280   84.58250  -94.07520  -31.77300  -85.52350    -999.25
 8500.00000    9.55900    7.28720    -999.25    -999.25    4.75490  135.63270  308.64910    9.23250  266.14660 1098.18740   62.28770  -97.21010    -999.25  -88.25230    -999.25
 8550.00000    9.48210    -999.25    -999.25    -999.25    4.62330    -999.25  666.57010    -999.25  387.14220 1052.72100    -999.25  -91.07730    -999.25  -82.81500    -999.25
 8600.00000    9.23230    -999.25    -999.25    -999.25    5.52450    -999.25  518.40470    -999.25  500.73520 1024.55510    -999.25  -84.96890    -999.25  -77.26020    -999.25
 8650.00000   10.22880    -999.25    -999.25    -999.25    4.58430    -999.25 1501.98430    -999.25  142.99950  978.51320    -999.25  -88.37970    -999.25  -79.33670    -999.25
 8700.00000   10.03630    -999.25    -999.25    -999.25    4.29650    -999.25 1882.86850    -999.25    8.19680  917.95280    -999.25  -86.47700    -999.25  -79.21490    -999.25
 8750.00000   10.06390    -999.25    -999.25    -999.25    4.26050    -999.25 1862.09830    -999.25   39.17670  935.12800    -999.25  -84.18970    -999.25  -77.45370    -999.25
 8800.00000    9.66920    -999.25    -999.25    -999.25    4.76250    -999.25 4819.50780    -999.25  124.50480 1270.40340    -999.25  -83.69260    -999.25  -78.19920    -999.25
 8850.00000    9.23690    -999.25    -999.25    -999.25    4.50100    -999.25 2924.88620    -999.25  870.07250 1288.35190    -999.25  -79.32680    -999.25  -75.59840    -999.25
 8900.00000    9.17480    -999.25    -999.25    -999.25    5.81910    -999.25 2689.96390    -999.25  881.40200 1042.59700    -999.25  -71.90320    -999.25  -70.24100    -999.25
 8950.00000    9.30110    -999.25    -999.25    -999.25    5.80880    -999.25 1783.53390    -999.25  488.48260 1112.26590    -999.25  -80.57590    -999.25  -77.78900    -999.25
 9000.00000    9.61800    -999.25    -999.25    -999.25    3.31520    -999.25  812.43560    -999.25  122.16040 1355.20970    -999.25  -89.77100    -999.25  -88.49040    -999.25
 9050.00000    9.68760    -999.25    -999.25    -999.25    3.46130    -999.25  411.51960    -999.25  147.74860 1256.91380    -999.25  -80.22420    -999.25  -80.40420    -999.25
 9100.00000    9.36390    -999.25    -999.25    -999.25    3.64380    -999.25 5089.13820    -999.25  754.61780 1299.25960    -999.25  -80.31380    -999.25  -80.36170    -999.25
 9150.00000    9.39710    -999.25    -999.25    -999.25    4.00760    -999.25  172.95790    -999.25   66.66760 1088.63390    -999.25  -80.34450    -999.25  -79.94190    -999.25
 9200.00000    9.43500    -999.25    -999.25    -999.25    2.84020    -999.25  318.99790    -999.25  129.46990 1283.42200    -999.25  -81.86600    -999.25  -80.95910    -999.25
 9250.00000    9.17630    -999.25    -999.25    -999.25    5.38160    -999.25 6884.30270    -999.25 1142.16600  826.04490    -999.25  -78.45430    -999.25  -76.31260    -999.25
 9300.00000    9.12130    -999.25    -999.25    -999.25    2.80380    -999.25 5078.66800    -999.25  845.43990 1073.34800    -999.25  -87.48120    -999.25  -84.10500    -999.25
 9350.00000   11.01330    -999.25    -999.25    -999.25    3.32130    -999.25 1610.42830    -999.25    9.87720  968.97590    -999.25  -83.30970    -999.25  -81.04660    -999.25
 9400.00000    9.32630    -999.25    -999.25    -999.25    3.07860    -999.25  232.08880    -999.25  574.99710 1289.06600    -999.25  -72.65340    -999.25  -69.11980    -999.25
 9450.00000    9.36740    -999.25    -999.25    -999.25    3.20260    -999.25 8283.36430    -999.25   48.21060 1094.71530    -999.25  -75.09530    -999.25  -73.07260    -999.25
