~Version ---------------------------------------------------
VERS.      2.0 : CWLS log ASCII Standard -VERSION 2.0
WRAP.       NO : One line per depth step
CREA. 12/19/17 : LAS Creation Date
~Well ------------------------------------------------------
STRT.FT                    950.0 : START DEPTH
STOP.FT                   9500.0 : STOP DEPTH
STEP.FT                 50.00000 : STEP LENGTH
NULL.                    -999.25 : NULL VALUE
COMP. WESTCOAST PETROLEUM CO LTD : COMPANY
WELL.  WESTCOAST HOPE 2-35-62-13 : WELL
FLD .                            : FIELD
LOC .                            : LOCATION
CTRY.                     CANADA : COUNTRY
SRVC.                    Unknown : SERVICE COMPANY
DATE.                02-Oct-1972 : LOGDATE
PROV.                    Alberta : PROVINCE
UWI .           100023506213W500 : UNIQUE WELL ID
SLAT.WGS84              54.40188 : SURFACE LATITUDE
SLON.WGS84             -115.8339 : SURFACE LONGITUDE
~Curve Information -----------------------------------------
DEPT  .FT    : Depth Curve
CALSED.IN    : CALIPER FROM SONIC LOG [ADJ TO ILDED]
CALWS .IN    : CALIPER [CALSED]
CILDED.MMHO  : CONDUCTIVITY FROM RESISTIVITY LOG
CONDWS.MMHO  : CONDUCTIVITY [1000/DRESWS]
DRESWS.OHMM  : DEEP RESISTIVITY [ILDED] IF ILDED<2;1000/CILDED;ELSE ILDED
DTED  .US/F  : DELTA TIME FROM SONIC LOG [ADJ TO ILDED]
DTWS  .US/F  : DELTA TIME [DTED]
GRSED .GAPI  : GAMMA RAY FROM SONIC LOG [ADJ TO ILDED]
GRWS  .GAPI  : GAMMA RAY [GRSED]
ILDED .OHMM  : INDUCTION LOG DEEP RESISTIVITY
ILMED .OHMM  : INDUCTION LOG MEDIUM RESISTIVITY
LL8ED .OHMM  : 8 INCH LATEROLOG RESISTIVITY
MRESWS.OHMM  : MEDIUM RESISTIVITY [ILMED]
SPRED .MV    : SPONTANEOUS POTENTIAL FROM RESISTIVITY LOG
SPWS  .MV    : SPONTANEOUS POTENTIAL [BASELINE 0 MV] [SPRED]
SRESWS.OHMM  : SHALLOW RESISTIVITY [LL8ED]
~Params ----------------------------------------------------
PD  .                     GL : PERMANENT DATUM
EPD .FT                 3287 : ELEVATION PERMANENT DATUM
LMF .                     KB : LOG MEASURED FROM
DAPD.FT                   14 : FEET ABOVE PERMANENT DATUM
EKB .FT                 3301 : KELLY BUSHING
EGL .FT                 3287 : GROUND LEVEL
DATE.               10/02/72 : RUN DATE
RUN .                      1 : RUN NUMBER
DD  .FT                 9540 : DEPTH DRILLER
DL  .FT                 9542 : DEPTH LOGGER
BLI .FT                 9536 : BOTTOM LOG INTERVAL
TLI .FT                  962 : TOP LOG INTERVAL
CBD .FT                  961 : CASING BOTTOM DRILLER
CBL .FT                  962 : CASING BOTTOM LOGGER
BS  .IN                 8.75 : BIT SIZE
BSD .FT                 9540 : BIT SIZE AT DEPTH
DFT .               GEL CHEM : DRILLING FLUID TYPE
DFD .                    9.5 : DRILLING FLUID DENSITY
DFV .                    140 : DRILLING FLUID VISCOSITY
DFPH.                    9.5 : DRILLING FLUID PH
DFL .                      7 : DRILLING FLUID LOSS
MSS .             CIRCULATED : MUD SAMPLE SOURCE
RMS .OHMM               2.13 : RESISTIVITY MUD SAMPLE
MST .DEGF                 64 : MUD SAMPLE TEMPERATURE
RMF .OHMM               2.04 : RESISTIVITY MUD FILTRATE SAMPLE
MFST.DEGF                 70 : MUD FILTRATE SAMPLE TEMPERATURE
RMB .OHMM              0.812 : RESISTIVITY MUD AT BHT
TCS .HRS                  10 : TIME CIRCULATED STOPPED
LUN .                   5628 : LOGGING UNIT NUMBER
LUL .                    EDM : LOGGING UNIT LOCATION
ENGI.                  IBSEN : RECORDING ENGINEER
WITN.       GRUMBLY CHAUDHRY : WITNESSED BY
CLNT.                A2DTECH : CLIENT CODE
ORIG.            2" 5" PRINT : ORIGIN OF DATA
UWI .       100023506213W500 : UNIQUE WELL ID
DICO. A2D Technologies, Inc. : DIGITIZING COMPANY
~Other -----------------------------------------------------
DIL-SONIC LOGS RUN
DIL DATA ALL CURVES TOP-4590' FROM 2" SCALE
SONIC DATA ALL CURVES TOP-4600' FROM 2" SCALE
~ASCII -----------------------------------------------------
# ...
 7400.00000    8.43770    8.43770    -999.25   75.02830   13.32830   51.17950   51.17950   15.17690   15.17690   13.32830    8.84890   67.95740    8.84890 -180.86230 -118.07390   67.95740
 7450.00000    9.81270    9.81270    -999.25  128.90630    8.00280   60.36020   60.36020   40.80410   40.80410    8.00280    6.72730   16.51320    6.72730 -104.76070  -41.20030   16.51320
 7500.00000    8.92770    8.92770    -999.25   18.49950   54.05560   47.41810   47.41810   17.27420   17.27420   54.05560   27.68020  500.99060   27.68020 -174.37580 -110.05100  500.99060
 7550.00000    9.17000    9.17000    -999.25   18.99620   52.64220   49.81300   49.81300   17.85110   17.85110   52.64220   26.67650  179.32370   26.67650 -159.36180  -94.26880  179.32370
 7600.00000    9.38400    9.38400    -999.25  268.42760    3.72540   59.24210   59.24210   25.64780   25.64780    3.72540    3.27900   21.04430    3.27900 -160.60390  -94.74270   21.04430
 7650.00000    9.44230    9.44230    -999.25   17.09570   58.49410   53.50500   53.50500   26.49560   26.49560   58.49410   54.32080   79.71450   54.32080  -77.75240  -11.12310   79.71450
 7700.00000    9.63140    9.63140    -999.25    9.96080  100.39650   52.71490   52.71490   26.70690   26.70690  100.39650   95.28110  140.99880   95.28110  -75.37110   -7.96970  140.99880
 7750.00000    9.35250    9.35250    -999.25   27.20310   36.76050   56.05300   56.05300   30.57710   30.57710   36.76050   34.67830   45.97610   34.67830  -73.91200   -5.74630   45.97610
 7800.00000   10.07280   10.07280    -999.25   50.01780   19.99290   58.57620   58.57620   37.34890   37.34890   19.99290   18.76940   24.64940   18.76940  -71.58750   -2.65360   24.64940
 7850.00000   11.17870   11.17870    -999.25  107.05840    9.34070   64.40700   64.40700   47.94500   47.94500    9.34070    8.80180   12.12490    8.80180  -71.58370   -2.76470   12.12490
 7900.00000    9.96640    9.96640    -999.25  119.81210    8.34640   65.49700   65.49700   45.11620   45.11620    8.34640    7.84230   10.69420    7.84230  -71.24340   -3.38770   10.69420
 7950.00000    9.29040    9.29040    -999.25  125.63890    7.96060   68.16670   68.16670   51.05330   51.05330    7.96060    7.44130   10.61740    7.44130  -69.83510   -2.94750   10.61740
 8000.00000   13.89690   13.89690    -999.25  183.13340    5.46050   76.38850   76.38850   60.04060   60.04060    5.46050    5.10970    6.64750    5.10970  -83.49410  -17.56500    6.64750
 8050.00000   14.11330   14.11330    -999.25  295.83170    3.38030   88.57440   88.57440   74.41900   74.41900    3.38030    2.96760    4.42900    2.96760  -75.96570  -10.99990    4.42900
 8100.00000    9.26610    9.26610    -999.25   68.72990   14.54970   62.16220   62.16220   54.58210   54.58210   14.54970   12.31140   18.34050   12.31140  -69.09410   -5.09160   18.34050
 8150.00000   12.31040   12.31040    -999.25  260.93990    3.83230   84.67510   84.67510   71.88160   71.88160    3.83230    3.42940    4.30020    3.42940  -78.43490  -15.39570    4.30020
 8200.00000   14.26860   14.26860    -999.25  199.94660    5.00190   78.64100   78.64100   64.75090   64.75090    5.00190    4.68620    5.98120    4.68620  -76.23920  -14.16810    5.98120
 8250.00000   13.17020   13.17020    -999.25  210.73040    4.74540   80.56900   80.56900   72.18460   72.18460    4.74540    4.38440    5.60890    4.38440  -76.70370  -15.59110    5.60890
 8300.00000    9.41820    9.41820    -999.25  115.85470    8.63150   66.64280   66.64280   54.98610   54.98610    8.63150    8.12790   12.98950    8.12790  -66.11810   -5.96880   12.98950
 8350.00000   10.51720   10.51720    -999.25  146.49870    6.82600   71.24030   71.24030   64.50920   64.50920    6.82600    6.43340    9.66640    6.43340  -71.26710  -12.08110    9.66640
 8400.00000    9.91290    9.91290    -999.25  137.74670    7.25970   70.56660   70.56660   68.06440   68.06440    7.25970    6.86420    9.93810    6.86420  -66.33710   -8.11440    9.93810
 8450.00000    9.22180    9.22180    -999.25  155.01590    6.45250   68.87710   68.87710   58.24900   58.24900    6.45250    6.04370   10.93710    6.04370  -67.66400  -10.40950   10.93710
 8500.00000   12.81140   12.81140    -999.25  221.80330    4.50850   79.31630   79.31630   75.40640   75.40640    4.50850    4.24940    5.88140    4.24940  -76.51660  -20.22060    5.88140
 8550.00000   11.32890   11.32890    -999.25  185.49090    5.39110   77.56380   77.56380   82.07790   82.07790    5.39110    5.08120    7.15490    5.08120  -74.69160  -19.35890    7.15490
 8600.00000   11.46370   11.46370    -999.25  206.81240    4.83530   80.83880   80.83880   82.59320   82.59320    4.83530    4.55250    6.27290    4.55250  -72.92760  -18.55820    6.27290
 8650.00000   11.40290   11.40290    -999.25  226.45950    4.41580   78.43850   78.43850   73.04400   73.04400    4.41580    4.15580    6.08190    4.15580  -74.24660  -20.84050    6.08190
 8700.00000    9.49460    9.49460    -999.25  172.98720    5.78080   73.49620   73.49620   76.46260   76.46260    5.78080    5.42400    8.43590    5.42400  -63.49660  -11.05860    8.43590
 8750.00000    9.89210    9.89210    -999.25  221.79340    4.50870   78.99320   78.99320   81.14040   81.14040    4.50870    4.23710    6.28550    4.23710  -69.11620  -17.63670    6.28550
 8800.00000    8.76700    8.76700    -999.25   26.07320   38.35360   55.65160   55.65160   31.88080   31.88080   38.35360   34.53040   61.08280   34.53040  -55.88060   -5.24730   61.08280
 8850.00000    9.44290    9.44290    -999.25  104.12980    9.60340   76.28060   76.28060   74.53800   74.53800    9.60340    8.96800   14.64890    8.96800  -53.40570   -3.08530   14.64890
 8900.00000    9.48120    9.48120    -999.25  193.39740    5.17070   77.20820   77.20820   81.48980   81.48980    5.17070    4.81340    7.35210    4.81340  -67.84710  -17.83950    7.35210
 8950.00000    8.74330    8.74330    -999.25    2.44230  409.62730   48.63490   48.63490    7.58850    7.58850  409.62730  241.70440  858.45350  241.70440 -158.54140 -108.84820  858.45350
 9000.00000    8.64530    8.64530    -999.25   47.72650   20.95270   51.20140   51.20140    8.44850    8.44850   20.95270   12.77570  457.67990   12.77570 -188.70120 -139.31930  457.67990
 9050.00000    8.74990    8.74990    -999.25    2.29350  436.01900   48.94110   48.94110    8.09660    8.09660  436.01900  246.37370 1159.82140  246.37370 -159.45000 -110.38090 1159.82140
 9100.00000    8.75960    8.75960    -999.25    0.59680 1675.68490   50.02460   50.02460    9.57170    9.57170 1675.68490 1493.17240 1575.99060 1493.17240 -112.21210  -63.45590 1575.99060
 9150.00000    8.47910    8.47910    -999.25   82.78900   12.07890   54.06590   54.06590    7.78960    7.78960   12.07890    9.12760   68.85050    9.12760 -173.91370 -125.47030   68.85050
 9200.00000    8.65110    8.65110    -999.25   15.35310   71.79100   50.33430   50.33430    6.03240    6.03240   71.79100   48.82110  210.71490   48.82110 -143.62480  -95.49590  210.71490
 9250.00000    8.67160    8.67160    -999.25    0.71290 1402.78090   50.09980   50.09980    9.85750    9.85750 1402.78090 1584.01830 1144.26720 1584.01830 -103.96170  -56.14400 1144.26720
 9300.00000    8.64260    8.64260    -999.25    0.58320 1714.66490   51.61340   51.61340   12.85190   12.85190 1714.66490 1510.84440 1618.55310 1510.84440  -95.04620  -47.54140 1618.55310
 9350.00000    8.60590    8.60590    -999.25    1.73840  575.22890   50.23570   50.23570   23.63950   23.63950  575.22890 1314.29870 1051.86100 1314.29870 -107.10800  -59.91600 1051.86100
 9400.00000    8.61010    8.61010    -999.25   36.09110   27.70770   58.15950   58.15950  103.17820  103.17820   27.70770   25.14790   56.32750   25.14790  -47.42650   -0.54740   56.32750
 9450.00000    8.10490    8.10490    -999.25   54.02000   18.51280   62.06260   62.06260  113.44790  113.44790   18.51280   17.08270   30.88800   17.08270  -62.95870  -16.14840   30.88800
 9500.00000    8.61460    8.61460    -999.25   73.86780   13.53770   79.89080   79.89080  103.97370  103.97370   13.53770   12.85140   16.63130   12.85140  -60.28760  -13.47730   16.63130
