~Version ---------------------------------------------------
VERS.      2.0 : CWLS log ASCII Standard -VERSION 2.0
WRAP.       NO : One line per depth step
CREA. 08/02/17 : LAS Creation Date
~Well ------------------------------------------------------
STRT.FT                       950.0 : START DEPTH
STOP.FT                     10400.0 : STOP DEPTH
STEP.FT                    50.00000 : STEP LENGTH
NULL.                       -999.25 : NULL VALUE
COMP.    THE CALIFORNIA STANDARD CO : COMPANY
WELL. CALSTAN BA KAYBOB 10-26-64-20 : WELL
FLD .                               : FIELD
LOC .                               : LOCATION
CTRY.                        CANADA : COUNTRY
SRVC.        Schlumberger of Canada : SERVICE COMPANY
DATE.                   15-Dec-1959 : LOGDATE
PROV.                       Alberta : PROVINCE
UWI .              100102606420W500 : UNIQUE WELL ID
SLAT.WGS84                 54.56885 : SURFACE LATITUDE
SLON.WGS84                -116.9082 : SURFACE LONGITUDE
~Curve Information -----------------------------------------
DEPT  .FT         : Depth Curve
CALWS .IN         : CALIPER [MCALED]
CILDED.MMHO       : DEEP INDUCTION CONDUCTIVITY FROM RESISTIVITY LOG
CONDWS.MMHO       : CONDUCTIVITY [1000/DRESWS]
DRESWS.OHMM       : DEEP RESISTIVITY [CALC FROM 1000/CILDED, IF ILDED<1, ILDED]
DTED  .US/F       : DELTA-T (INTERVAL TRANSIT TIME) FROM SONIC LOG
DTWS  .US/F       : COMPRESSIONAL SONIC [DTED]
GRSED .UgRa-Eq/T  : GAMMA RAY FROM SONIC LOG
GRWS  .GAPI       : GAMMA RAY [GRSED*16.5]
ILDED .OHMM       : DEEP INDUCTION FROM RESISTIVITY LOG
MCALED.IN         : MLT (MICROLOG) CALIPER FROM MICROLOG
SNED  .OHMM       : SHORT NORMAL FROM RESISTIVITY LOG
SPRED .MV         : SPONTANEOUS POTENTIAL FROM RESISTIVITY LOG
SPWS  .MV         : SPONTANEOUS POTENTIAL [BASELINE 0 MV, SPRED]
SRESWS.OHMM       : SHALLOW RESISTIVITY [SNED]
~Params ----------------------------------------------------
LMF .                     KB : LOG MEASURED FROM
DMF .                     KB : DRILLING MEASURED FROM
EKB .FT                 2600 : KELLY BUSHING
EGL .FT                 2587 : GROUND LEVEL
DATE.               12/15/59 : RUN DATE
RUN .                      2 : RUN NUMBER
DD  .FT                10482 : DEPTH DRILLER
DL  .FT                10441 : DEPTH LOGGER
BLI .FT                10436 : BOTTOM LOG INTERVAL
TLI .FT                 6426 : TOP LOG INTERVAL
CBD .FT                  998 : CASING BOTTOM DRILLER
CBL .FT                  994 : CASING BOTTOM LOGGER
BS  .IN                    9 : BIT SIZE
BSD .FT                10482 : BIT SIZE AT DEPTH
DFT .                    GEL : DRILLING FLUID TYPE
DFD .                   10.3 : DRILLING FLUID DENSITY
DFV .                    108 : DRILLING FLUID VISCOSITY
DFPH.                   10.5 : DRILLING FLUID PH
DFL .                    5.7 : DRILLING FLUID LOSS
MSS .            CIRCULATION : MUD SAMPLE SOURCE
RMS .OHMM               2.35 : RESISTIVITY MUD SAMPLE
MST .DEGF                 72 : MUD SAMPLE TEMPERATURE
RMF .OHMM               1.55 : RESISTIVITY MUD FILTRATE SAMPLE
MFST.DEGF                 67 : MUD FILTRATE SAMPLE TEMPERATURE
RMC .OHMM               2.81 : RESISTIVITY MUD CAKE
MCST.DEGF                 77 : MUD CAKE SAMPLE TEMPERATURE
RMB .OHMM               0.87 : RESISTIVITY MUD AT BHT
TCS .HRS                 300 : TIME CIRCULATED STOPPED
LUN .                  15730 : LOGGING UNIT NUMBER
LUL .                     WC : LOGGING UNIT LOCATION
ENGI.              HAUSEGGER : RECORDING ENGINEER
WITN.                  CHANT : WITNESSED BY
CLNT.                A2DTECH : CLIENT CODE
ORIG.            2" 5" PRINT : ORIGIN OF DATA
UWI .       100102606420W500 : UNIQUE WELL ID
DICO. A2D Technologies, Inc. : DIGITIZING COMPANY
~Other -----------------------------------------------------
~ASCII -----------------------------------------------------
# ...
 8300.00000    9.93270   21.40290   17.03600   58.69930   50.28260   50.28260    0.89300   14.73370   58.69930    9.93270   94.75420  -92.27930 -115.96170   94.75420
 8350.00000   10.33180   14.30850   11.45320   87.31160   49.06340   49.06340    1.10760   18.27540   87.31160   10.33180   84.11620  -24.51170  -48.88260   84.11620
 8400.00000   12.24880   19.69280   16.66090   60.02090   56.39220   56.39220    1.97130   32.52650   60.02090   12.24880   68.82090  -78.87930 -103.93400   68.82090
 8450.00000   12.89220   63.58000   53.61930   18.65000   66.87700   66.87700    1.99470   32.91250   18.65000   12.89220   29.25610 -133.02370 -158.76690   29.25610
 8500.00000   10.34080   32.57690   29.46960   33.93330   51.06670   51.06670    2.06770   34.11700   33.93330   10.34080   49.69830 -195.09810 -221.52510   49.69830
 8550.00000   10.24430   11.70640    7.63450  130.98360   54.14290   54.14290    1.94530   32.09660  130.98360   10.24430  107.81570 -216.55020 -243.66120  107.81570
 8600.00000   10.60560   20.15780   15.35160   65.14000   55.46980   55.46980    2.29140   37.80810   65.14000   10.60560   70.18530 -180.72000 -208.51940   70.18530
 8650.00000   13.67260   84.68190   79.99360   12.50100   79.93710   79.93710    4.25580   70.22070   12.50100   13.67260   15.15450   16.40640  -12.07690   15.15450
 8700.00000   10.75240   29.72330   25.52860   39.17170   57.66590   57.66590    1.77500   29.28750   39.17170   10.75240   61.83180   -5.85990  -34.66550   61.83180
 8750.00000   10.17980   34.37600   30.69000   32.58390   57.57770   57.57770    2.53480   41.82420   32.58390   10.17980   42.26510  -18.51700  -47.11470   42.26510
 8800.00000   10.23830   42.84710   40.39640   24.75470   59.93510   59.93510    2.53080   41.75740   24.75470   10.23830   34.49510  -36.39740  -64.78720   34.49510
 8850.00000   15.48560  125.27410  121.44470    8.23420   74.23040   74.23040    4.12910   68.13020    8.23420   15.48560   10.35210 -182.30600 -210.48660   10.35210
 8900.00000   10.16090   87.99270   84.71490   11.80430   70.39780   70.39780    3.80370   62.76110   11.80430   10.16090   18.09950 -190.09210 -218.06480   18.09950
 8950.00000    9.55190   79.55280   74.49790   13.42320   62.97150   62.97150    4.33860   71.58690   13.42320    9.55190   20.75330 -179.69540 -207.45880   20.75330
 9000.00000    9.44430   49.65740   44.46100   22.49160   61.21440   61.21440    2.44700   40.37550   22.49160    9.44430   38.54430 -188.97230 -216.52780   38.54430
 9050.00000   14.36460  198.93300  195.08010    5.12610   75.32960   75.32960    4.92340   81.23610    5.12610   14.36460    7.17610 -216.57580 -243.92340    7.17610
 9100.00000   15.86580  269.17860  265.03410    3.77310   79.02230   79.02230    3.34430   55.18100    3.77310   15.86580    4.86840 -243.23670 -270.37500    4.86840
 9150.00000   15.84390  332.46290  322.51820    3.10060   55.46350   55.46350    3.43740   56.71710    3.10060   15.84390    4.08420 -187.85130 -214.78170    4.08420
 9200.00000   15.79830  265.66240  255.07600    3.92040   54.85830   54.85830    3.47190   57.28640    3.92040   15.79830    5.06470 -128.76340 -155.48460    5.06470
 9250.00000   10.83740   60.78390   58.44840   17.10910   48.42170   48.42170    4.05020   66.82830   17.10910   10.83740   22.45440  -13.52020  -40.03340   22.45440
 9300.00000   12.32380   95.81960   93.29840   10.71830   53.08910   53.08910    3.74580   61.80490   10.71830   12.32380   13.50050  -54.37490  -80.68020   13.50050
 9350.00000   11.25530   89.66160   87.03300   11.48990   51.69850   51.69850    4.78520   78.95580   11.48990   11.25530   15.45080 -152.35200 -178.44810   15.45080
 9400.00000   10.79570   98.95340   95.74780   10.44410   52.43010   52.43010    4.79480   79.11420   10.44410   10.79570   14.31680  -97.36470 -123.25290   14.31680
 9450.00000   11.07620  107.51310  105.91650    9.44140   53.17300   53.17300    4.79300   79.08450    9.44140   11.07620   12.57260  -73.66320  -99.34210   12.57260
 9500.00000   15.82650  171.01850  162.68630    6.14680   57.04130   57.04130    5.38850   88.91020    6.14680   15.82650    7.87360 -142.77200 -168.24300    7.87360
 9550.00000   10.84250  130.98210  124.37810    8.04000   50.82810   50.82810    5.20120   85.82060    8.04000   10.84250   11.92220 -135.82940 -161.09250   11.92220
 9600.00000   14.13160  152.68540  143.01450    6.99230   82.20820   82.20820    4.75380   78.43770    6.99230   14.13160    9.44610  -28.00330  -53.05710    9.44610
 9650.00000    9.59560   20.87890   16.25800   61.50800   66.57640   66.57640    5.08290   83.86790   61.50800    9.59560   72.21180   19.76400   -5.08440   72.21180
 9700.00000    9.48790   41.20790   35.98120   27.79230   79.02390   79.02390    5.62630   92.83390   27.79230    9.48790   52.92070  -33.73790  -58.90710   52.92070
 9750.00000    9.64460   22.84240   18.07870   55.31370   55.17150   55.17150    2.44490   40.34090   55.31370    9.64460   61.52460 -217.61820 -243.21220   61.52460
 9800.00000   14.30930  113.03140  109.34460    9.14540   74.65590   74.65590    5.55690   91.68970    9.14540   14.30930   16.36740 -151.05900 -177.07790   16.36740
 9850.00000    9.53820   18.59400   14.91800   67.03290   59.58350   59.58350    2.68210   44.25470   67.03290    9.53820   66.47290 -150.61610 -177.06270   66.47290
 9900.00000   12.97520  139.09450  131.98710    7.57650   73.38290   73.38290    4.43660   73.20390    7.57650   12.97520    9.84580 -195.57490 -222.44640    9.84580
 9950.00000    9.28630   13.61820    9.87080  101.30910   53.42110   53.42110    1.78130   29.39150  101.30910    9.28630   95.90180 -186.63050 -213.92960   95.90180
 10000.00000    9.40560   28.40350   25.56780   39.11170   60.70160   60.70160    2.63190   43.42630   39.11170    9.40560   51.80990  -39.79180  -67.51580   51.80990
 10050.00000    9.32280   13.39970    9.92090  100.79700   49.55080   49.55080    1.90670   31.46050  100.79700    9.32280   92.85780  -11.65700  -39.80590   92.85780
 10100.00000    9.83470    9.98650    6.51690  153.44800   53.04480   53.04480    1.34190   22.14140  153.44800    9.83470  157.67830   -7.92760  -26.47990  157.67830
 10150.00000   10.33140   17.26270   14.72860   67.89490   53.26010   53.26010    1.22030   20.13500   67.89490   10.33140   75.92760 -107.04790 -104.79140   75.92760
 10200.00000    9.23090   39.49390   36.87470   27.11890   69.21090   69.21090    6.92400  114.24600   27.11890    9.23090   37.60510  -43.22680  -20.42340   37.60510
 10250.00000    8.83340   44.61860   42.44930   23.55750   57.59290   57.59290    4.09650   67.59220   23.55750    8.83340   31.20230  -86.10610  -57.65240   31.20230
 10300.00000    8.16420  136.91880  129.88030    7.69940   58.61760   58.61760    7.25860  119.76610    7.69940    8.16420   24.47500 -199.70250 -165.59860   24.47500
 10350.00000    8.21630  421.53210  354.84900    2.81810   65.83280   65.83280    8.90900  146.99850    2.81810    8.21630   14.38300 -237.60180 -197.81040   14.38300
 10400.00000    8.79770   22.49200   16.20380   61.71380   53.27950   53.27950    5.30760   87.57540   61.71380    8.79770   66.32210  -91.00160  -45.55990   66.32210
