~Version ---------------------------------------------------
VERS.      2.0 : CWLS log ASCII Standard -VERSION 2.0
WRAP.       NO : One line per depth step
CREA. 10/19/17 : LAS Creation Date
~Well ------------------------------------------------------
STRT.FT                     1150.0 : START DEPTH
STOP.FT                    11800.0 : STOP DEPTH
STEP.FT                   50.00000 : STEP LENGTH
NULL.                      -999.25 : NULL VALUE
COMP.         PETROFINA CANADA LTD : COMPANY
WELL. PCI AMMIN ECONOMY 11-15-68-2 : WELL
FLD .                              : FIELD
LOC .                              : LOCATION
CTRY.                       CANADA : COUNTRY
SRVC.                      Unknown : SERVICE COMPANY
DATE.                  01-Jan-1900 : LOGDATE
PROV.                      Alberta : PROVINCE
UWI .             100111506802W600 : UNIQUE WELL ID
SLAT.WGS84                54.88852 : SURFACE LATITUDE
SLON.WGS84               -118.2198 : SURFACE LONGITUDE
~Curve Information -----------------------------------------
DEPT    .FT    : Depth Curve
CALDED  .IN    : CALIPER FROM DENSITY LOG [ADJ.TO RESISTIVITY LOG]
CALSED  .IN    : CALIPER FROM SONIC LOG [ADJ.TO RESISTIVITY LOG]
CALWS   .IN    : CALIPER [CALSED]
CONDWS  .MMHO  : CONDUCTIVITY [1000/DRESWS]
DCORWS  .G/C3  : DENSITY CORRECTION [DRHOED]
DENWS   .G/C3  : FORMATION BULK DENSITY [CALC. FROM DPOLSWS, M=2.71, F=1.00]
DPHILSED.V/V   : DENSITY POROSITY LIMESTONE [ASSUMED, M=2.71, F=1.00] FROM DENSITY LOG [ADJ.TO RESISTIVITY LOG]
DPHISSED.V/V   : DENSITY POROSITY SANDSTONE [ASSUMED, M=2.65, F=1.00] FROM DENSITY LOG [ADJ.TO RESISTIVITY LOG]
DPOLSWS .V/V   : DENSITY POROSITY LIMESTONE [DPHISSED CONVERTED TO LIMESTONE MATRIX, M=2.71, F=1.00 SPL.TO DPHILSED @ 6552']
DRESWS  .OHMM  : DEEP RESISTIVITY [ILDED]
DRHOED  .G/C3  : DENSITY CORRECTION FROM DENSITY LOG [ADJ.TO RESISTIVITY LOG]
DTED    .US/F  : DELTA TIME FROM SONIC LOG [ADJ.TO RESISTIVITY LOG]
DTWS    .US/F  : COMPRESSIONAL SONIC [DTED]
GRDED   .GAPI  : GAMMA RAY FROM DENSITY LOG [ADJ.TO RESISTIVITY LOG]
GRSED   .GAPI  : GAMMA RAY FROM SONIC LOG [ADJ.TO RESISTIVITY LOG]
GRWS    .GAPI  : GAMMA RAY [GRSED SPL.TO GRDED @ 11698']
ILDED   .OHMM  : DEEP INDUCTION FROM RESISTIVITY LOG
ILMED   .OHMM  : MEDIUM INDUCTION FROM RESISTIVITY LOG
LL8ED   .OHMM  : LATEROLOG-8 FROM RESISTIVITY LOG
MRESWS  .OHMM  : MEDIUM RESISTIVITY [ILMED]
NPHILSED.V/V   : NEUTRON POROSITY LIMESTONE FROM DENSITY LOG [ADJ.TO RESISTIVITY LOG]
NPHISSED.V/V   : NEUTRON POROSITY SANDSTONE FROM DENSITY LOG [ADJ.TO RESISTIVITY LOG]
NPOLSWS .V/V   : NEUTRON POROSITY LIMESTONE [NPHISSED MATRIX (SLB) CONVERSION FOR LIMESTONE, SPL.TO NPHILSED @ 6552']
RHOBED  .G/C3  : BULK DENSITY FROM DENSITY LOG [ADJ.TO RESISTIVITY LOG]
SPRED   .MV    : SPONTANEOUS POTENTIAL FROM RESISTIVITY LOG
SPWS    .MV    : SPONTANEOUS POTENTIAL [BASELINE 0 MV, SPRED]
SRESWS  .OHMM  : SHALLOW RESISTIVITY [LL8ED]
~Params ----------------------------------------------------
PD  .                     GL : PERMANENT DATUM
EPD .FT               2259.3 : ELEVATION PERMANENT DATUM
LMF .                     KB : LOG MEASURED FROM
DAPD.FT                 13.7 : FEET ABOVE PERMANENT DATUM
EKB .FT                 2273 : KELLY BUSHING
EGL .FT               2259.3 : GROUND LEVEL
DATE.               10/12/76 : RUN DATE
RUN .                      1 : RUN NUMBER
DD  .FT                11825 : DEPTH DRILLER
DL  .FT                11801 : DEPTH LOGGER
BLI .FT                11795 : BOTTOM LOG INTERVAL
TLI .FT                 1228 : TOP LOG INTERVAL
CBD .FT                 1232 : CASING BOTTOM DRILLER
CBL .FT                 1228 : CASING BOTTOM LOGGER
BS  .IN                 8.75 : BIT SIZE
BSD .FT                11825 : BIT SIZE AT DEPTH
DFT .                    GEL : DRILLING FLUID TYPE
DFD .                    8.9 : DRILLING FLUID DENSITY
DFV .                    150 : DRILLING FLUID VISCOSITY
DFPH.                   10.5 : DRILLING FLUID PH
DFL .                    5.8 : DRILLING FLUID LOSS
MSS .               FLOWLINE : MUD SAMPLE SOURCE
RMF .OHMM               0.71 : RESISTIVITY MUD FILTRATE SAMPLE
MFST.DEGF                 76 : MUD FILTRATE SAMPLE TEMPERATURE
RMB .OHMM               0.28 : RESISTIVITY MUD AT BHT
TCS .HRS                 4.5 : TIME CIRCULATED STOPPED
LUN .                   7803 : LOGGING UNIT NUMBER
LUL .                     OC : LOGGING UNIT LOCATION
ENGI.                STADNYK : RECORDING ENGINEER
WITN.                  CLARK : WITNESSED BY
CLNT.                A2DTECH : CLIENT CODE
ORIG.          1" 2.5" PRINT : ORIGIN OF DATA
UWI .       100111506802W600 : UNIQUE WELL ID
DICO. A2D Technologies, Inc. : DIGITIZING COMPANY
~Other -----------------------------------------------------
DI-LL-FDC-CNL-BHC LOG RUN.
~ASCII -----------------------------------------------------
# ...
 7650.00000    9.52940    9.35450    9.35450   36.09160    0.07330    2.81860   -0.06350    -999.25   -0.06350   27.70730    0.07330   50.14810   50.14810   82.10930   70.69000   70.69000   27.70730   43.06310   97.81590   43.06310    0.05540    -999.25    0.05540    2.81270 -108.49610  -14.71860   97.81590
 7700.00000    9.41230    9.39270    9.39270   10.17540    0.02190    2.79960   -0.05240    -999.25   -0.05240   98.27600    0.02190   46.53110   46.53110   41.80950   34.22230   34.22230   98.27600   97.86400 1234.63660   97.86400    0.03010    -999.25    0.03010    2.78700 -101.10430   -9.22360 1234.63660
 7750.00000   10.21520    9.70690    9.70690    2.75430    0.09440    2.92500   -0.12580    -999.25   -0.12580  363.06340    0.09440   48.91960   48.91960   16.36910   14.91670   14.91670  363.06340  323.82320 1428.22800  323.82320    0.00140    -999.25    0.00140    2.90340 -113.27140  -23.27520 1428.22800
 7800.00000    9.53230    9.38250    9.38250   10.74240    0.08780    2.95200   -0.14150    -999.25   -0.14150   93.61530    0.08780   50.18710   50.18710   29.26530   24.79670   24.79670   93.61530  101.69230  722.16570  101.69230   -0.00340    -999.25   -0.00340    2.93760 -121.21490  -33.10320  722.16570
 7850.00000    9.48400    9.42690    9.42690   27.33240    0.06480    2.82830   -0.06920    -999.25   -0.06920   36.58660    0.06480   48.08900   48.08900   46.22480   38.75850   38.75850   36.58660   47.79420  238.06860   47.79420    0.04690    -999.25    0.04690    2.81600 -111.24510  -25.03030  238.06860
 7900.00000    9.42380    9.40750    9.40750   18.87450    0.06160    2.76150   -0.03010    -999.25   -0.03010   53.05040    0.06160   48.01910   48.01910   74.25350   76.27670   76.27670   53.05040   58.07380  882.72840   58.07380    0.06080    -999.25    0.06080    2.75350 -113.27980  -28.94950  882.72840
 7950.00000    9.40630    9.33180    9.33180    3.27470    0.06290    2.84020   -0.07620    -999.25   -0.07620  305.37080    0.06290   46.18870   46.18870   39.75310   38.87500   38.87500  305.37080 2000.78370 1473.37730 2000.78370    0.02240    -999.25    0.02240    2.82360 -143.92260  -61.48910 1473.37730
 8000.00000   13.92420   10.53120   10.53120   10.07670    0.23800    2.31580    0.23050    -999.25    0.23050   99.23930    0.23800   49.93270   49.93270   35.47870   33.79630   33.79630   99.23930   87.99910  180.59600   87.99910    0.07270    -999.25    0.07270    2.31310 -170.14290  -89.59390  180.59600
 8050.00000   11.52270   10.13020   10.13020  133.81180    0.28560    2.49270    0.12710    -999.25    0.12710    7.47400    0.28560   63.93380   63.93380   52.11440   52.09110   52.09110    7.47400    6.87340   35.91380    6.87340    0.16910    -999.25    0.16910    2.46760 -149.24610  -70.58160   35.91380
 8100.00000    9.41140    9.42750    9.42750   37.02830    0.16890    2.66790    0.02460    -999.25    0.02460   27.00640    0.16890   50.33240   50.33240   29.12680   20.75990   20.75990   27.00640   29.28180  139.79580   29.28180    0.03280    -999.25    0.03280    2.66690 -157.58560  -80.81800  139.79580
 8150.00000    9.96370    9.78840    9.78840  128.74110    0.20360    2.50290    0.12110    -999.25    0.12110    7.76810    0.20360   63.68880   63.68880   84.99480   76.34440   76.34440    7.76810    7.12810   30.11900    7.12810    0.14380    -999.25    0.14380    2.50700  -97.83680  -22.95370   30.11900
 8200.00000   13.91180    9.91190    9.91190    5.76920    0.23540    2.23090    0.28020    -999.25    0.28020  173.33320    0.23540   52.86050   52.86050   26.53840   20.21690   20.21690  173.33320  214.67050  616.75640  214.67050    0.02670    -999.25    0.02670    2.22620 -101.44270  -28.45640  616.75640
 8250.00000   11.06870    9.75470    9.75470   15.62790    0.28580    2.56520    0.08470    -999.25    0.08470   63.98800    0.28580   56.57560   56.57560   65.50700   72.49920   72.49920   63.98800   65.29110  932.93120   65.29110    0.05280    -999.25    0.05280    2.60190 -114.52530  -43.42350  932.93120
 8300.00000    9.45800    9.31380    9.31380    8.30310    0.09000    2.72550   -0.00910    -999.25   -0.00910  120.69970    0.09000   49.24020   49.24020   28.53570   27.17970   27.17970  120.69970  177.71170  325.25730  177.71170    0.02170    -999.25    0.02170    2.71120 -117.81560  -48.59830  325.25730
 8350.00000   10.84860    9.72730    9.72730   65.24940    0.23170    2.42990    0.16380    -999.25    0.16380   15.32580    0.23170   61.30920   61.30920   77.12310   83.52240   83.52240   15.32580   11.55170  116.75970   11.55170    0.11120    -999.25    0.11120    2.42280  -74.85960   -7.01600  116.75970
 8400.00000   11.90870    9.96300    9.96300    7.86530    0.27730    2.45870    0.14690    -999.25    0.14690  128.99660    0.27730   53.07590   53.07590   42.14760   33.78380   33.78380  128.99660  149.74970  656.73880  149.74970    0.03000    -999.25    0.03000    2.46160 -113.18350  -44.96710  656.73880
 8450.00000   12.59830    9.80060    9.80060    5.66300    0.27480    2.49900    0.12340    -999.25    0.12340  176.58610    0.27480   52.61650   52.61650   32.09740   27.95660   27.95660  176.58610 2026.51610 1163.85000 2026.51610    0.02930    -999.25    0.02930    2.49680 -111.56560  -42.97390 1163.85000
 8500.00000   10.39480    9.79000    9.79000   19.81760    0.07350    2.65200    0.03390    -999.25    0.03390   50.46010    0.07350   53.63120   53.63120   18.30480   15.15190   15.15190   50.46010   56.07000  242.18350   56.07000    0.02230    -999.25    0.02230    2.64500 -157.68480  -88.72020  242.18350
 8550.00000    9.96550    9.61330    9.61330    9.73100    0.24280    2.74780   -0.02210    -999.25   -0.02210  102.92550    0.24280   52.23160   52.23160   37.39240   33.87290   33.87290  102.92550   98.09320  612.30550   98.09320    0.01920    -999.25    0.01920    2.73460 -105.50360  -36.16620  612.30550
 8600.00000   12.69520   10.26370   10.26370   11.62160    0.27920    2.43380    0.16150    -999.25    0.16150   86.04640    0.27920   52.66320   52.66320   28.91230   26.46950   26.46950   86.04640   71.99760 1119.41090   71.99760    0.03110    -999.25    0.03110    2.43600 -118.87690  -49.16420 1119.41090
 8650.00000    9.69240    9.57080    9.57080    6.24330    0.07140    2.73550   -0.01490    -999.25   -0.01490  160.32020    0.07140   49.82430   49.82430   21.60730   18.01510   18.01510  160.32020  167.47860  553.45940  167.47860    0.00220    -999.25    0.00220    2.72920 -154.81100  -84.72550  553.45940
 8700.00000   10.64440    9.92910    9.92910    4.88700    0.09510    2.70980    0.00010    -999.25    0.00010  204.62470    0.09510   50.92390   50.92390   21.72470   16.44930   16.44930  204.62470  152.36260  699.25870  152.36260   -0.00030    -999.25   -0.00030    2.69740 -160.55890  -90.09810  699.25870
 8750.00000   13.16780   10.40070   10.40070    2.16190    0.28410    2.41110    0.17480    -999.25    0.17480  462.55490    0.28410   51.52140   51.52140   25.94940   21.41090   21.41090  462.55490  538.21180  808.46270  538.21180    0.00390    -999.25    0.00390    2.41420 -150.54510  -79.71150  808.46270
 8800.00000   11.50590   10.09550   10.09550  126.87630    0.27550    2.48860    0.12950    -999.25    0.12950    7.88790    0.27550   65.27840   65.27840  110.22340  112.83810  112.83810    7.88790    8.55960   25.42870    8.55960    0.17320    -999.25    0.17320    2.49010  -93.42970  -22.22320   25.42870
 8850.00000    9.75490    9.55140    9.55140   48.98140    0.07400    2.74010   -0.01760    -999.25   -0.01760   20.41590    0.07400   57.35670   57.35670   79.75450   74.07590   74.07590   20.41590   22.68160   74.84220   22.68160    0.06650    -999.25    0.06650    2.73440  -83.61740  -12.23820   74.84220
 8900.00000   10.34230    9.94740    9.94740   49.46520    0.31430    2.57330    0.07990    -999.25    0.07990   20.21710    0.31430   57.53640   57.53640   81.65890   73.28350   73.28350   20.21710   25.36190   61.31600   25.36190    0.06810    -999.25    0.06810    2.58800  -75.98080   -5.46010   61.31600
