~Version ---------------------------------------------------
VERS. 2.0 : CWLS log ASCII Standard -VERSION 2.0
WRAP.  NO : ONE LINE PER DEPTH STEP
~Well ------------------------------------------------------
STRT.F                         1000.0 : START DEPTH
STOP.F                        10050.0 : STOP DEPTH
STEP.F                       50.00000 : STEP LENGTH
NULL.                         -999.25 : NULL VALUE
COMP.        SKELLY OIL OF CANADA LTD : COMPANY
WELL. SKELLY A2 TWO CREEK 10-20-62-16 : WELL
FLD .                              WC : FIELD
LOC .                                 : LOCATION
CTRY.                          CANADA : COUNTRY
SRVC.                   Dresser Atlas : SERVICE COMPANY
DATE.                     30-Jan-1976 : LOGDATE
PROV.                         Alberta : PROVINCE
UWI .                100102006216W500 : UNIQUE WELL ID
SLAT.WGS84                   54.38094 : SURFACE LATITUDE
SLON.WGS84                  -116.3576 : SURFACE LONGITUDE
~Curve Information -----------------------------------------
DEPT.F                 : 
AC  .US/F              : ACOUSTIC
CALS.IN   60 280 50 00 : CALIPER FROM SONIC LOG
GRS .GAPI 00 000 00 01 : GAMMA RAY FROM SONIC
ILD .OHMM              : DEEP INDUCTION RESISTIVITY
ILM .OHMM              : INDUCTION MEDIUM RESISTIVITY
SPR .MV                : SPONTANEOUS POTENTIAL FROM RESISTIVITY
SFL .OHMM              : SHALLOW FOCUS LOG
MCAL.IN                : MLT [MICROLOG] CALIPER
~Params ----------------------------------------------------
PD  .                     GL : PERMANENT DATUM
EPD .FT               3027.7 : ELEVATION PERMANENT DATUM
LMF .                     KB : LOG MEASURED FROM
DAPD.FT                 13.6 : FEET ABOVE PERMANENT DATUM
DMF .                     KB : DRILLING MEASURED FROM
EKB .FT               3041.3 : KELLY BUSHING
EGL .FT               3027.7 : GROUND LEVEL
DATE.               01/30/76 : RUN DATE
RUN .                      1 : RUN NUMBER
DD  .FT                10050 : DEPTH DRILLER
DL  .FT                10058 : DEPTH LOGGER
BLI .FT                10056 : BOTTOM LOG INTERVAL
TLI .FT                 1050 : TOP LOG INTERVAL
CS  .IN                9.625 : CASING SIZE
CBD .FT                 1062 : CASING BOTTOM DRILLER
CBL .FT                 1050 : CASING BOTTOM LOGGER
BS  .IN                  8.5 : BIT SIZE
BSD .FT                10050 : BIT SIZE AT DEPTH
DFT .           MUD GEL CHEM : DRILLING FLUID TYPE
DFD .                    9.1 : DRILLING FLUID DENSITY
DFV .                    100 : DRILLING FLUID VISCOSITY
DFPH.                     10 : DRILLING FLUID PH
DFL .                    7.8 : DRILLING FLUID LOSS
MSS .                   CIRC : MUD SAMPLE SOURCE
RMS .OHMM                2.2 : RESISTIVITY MUD SAMPLE
MST .DEGF                 62 : MUD SAMPLE TEMPERATURE
RMF .OHMM                1.8 : RESISTIVITY MUD FILTRATE SAMPLE
MFST.DEGF                 62 : MUD FILTRATE SAMPLE TEMPERATURE
RMC .OHMM                2.5 : RESISTIVITY MUD CAKE
MCST.DEGF                 60 : MUD CAKE SAMPLE TEMPERATURE
MFSS.                   MEAS : MUD FILTRATE SAMPLE SOURCE
MCSS.                   MEAS : MUD CAKE SAMPLE SOURCE
RMB .OHMM                0.8 : RESISTIVITY MUD AT BHT
TCS .HRS                   7 : TIME CIRCULATED STOPPED
LUN .                   6155 : LOGGING UNIT NUMBER
LUL .                    EDM : LOGGING UNIT LOCATION
ENGI.           HETHERINGTON : RECORDING ENGINEER
WITN.           BALL SHEDDON : WITNESSED BY
CLNT.                A2DTECH : CLIENT CODE
ORIG.        2" 5" 10" PRINT : ORIGIN OF DATA
UWI .       100102006216W500 : UNIQUE WELL ID
DICO. A2D Technologies, Inc. : DIGITIZING COMPANY
~Other -----------------------------------------------------
~ASCII -----------------------------------------------------
 1000.00000    -999.25    -999.25   58.12740    -999.25    -999.25    -999.25    -999.25    -999.25
 1050.00000    -999.25    -999.25   38.28540    0.29870  188.51600  -69.93990    0.99830    -999.25
 1100.00000  104.00660    8.92400   98.26780    7.30140    6.98280  -74.42470    5.95100    -999.25
 1150.00000  112.61740    9.37470  112.73120    3.68630    4.00390  -72.23080    4.26920    -999.25
 1200.00000  105.75290    9.36530  110.79610    3.48560    3.85640  -68.26540    4.24800    -999.25
 1250.00000  158.80920    9.56210   98.99180    3.37180    3.91270  -66.95420    3.99540    -999.25
 1300.00000  126.48680    9.66390   84.53200    3.92540    4.16390  -72.32480    4.76100    -999.25
 1350.00000  130.32940    9.18120  102.85230    3.95150    4.24980  -72.88070    4.74440    -999.25
 1400.00000  103.15620    9.06170  124.88740    2.73530    3.21690  -72.50840    5.46280    -999.25
 1450.00000  148.98910    9.02170   89.78900    3.16040    3.42790  -72.92000    4.39170    -999.25
 1500.00000  116.91670    9.29670  110.35520    3.15770    3.44390  -73.97560    3.93210    -999.25
 1550.00000  107.26960    9.44440  107.65570    4.38990    4.65940  -73.95910    5.30290    -999.25
 1600.00000  105.82410    9.25280  106.58620    3.61340    3.84550  -74.47830    4.11350    -999.25
 1650.00000  107.46770    9.59180  105.55280    3.58200    3.99060  -75.35300    4.68680    -999.25
 1700.00000  120.80570    8.98280  114.02580    5.66170    6.26690  -75.25420    8.86770    -999.25
 1750.00000  135.12410    9.23910  109.43700    2.74770    3.11160  -75.15410    3.49930    -999.25
 1800.00000  126.56230    9.52170  110.17260    1.91510    2.24450  -74.71590    3.51210    -999.25
 1850.00000  109.36440    9.72250   99.10780    3.52580    3.91780  -75.76400    4.44400    -999.25
 1900.00000   98.02440    9.40210   82.82520    9.26740   10.23390  -80.35050    8.18240    -999.25
 1950.00000  108.09350    9.43190  115.54220    3.13320    3.57690  -77.61370    4.01480    -999.25
 2000.00000  118.58190    9.08220  128.20770    3.83510    4.00250  -77.17340    4.44820    -999.25
 2050.00000   98.68990    8.72310  100.25870   11.14420   12.99170  -84.43470   10.65290    -999.25
 2100.00000   98.54960    8.81800   96.28540    4.37850    4.83950  -76.40390    4.82380    -999.25
 2150.00000   98.59960    8.83260   86.88850    8.46420    9.23870  -86.36090    6.70680    -999.25
 2200.00000  103.55390    8.54450   61.73680   12.36430   13.76310  -96.62510    9.23100    -999.25
 2250.00000  101.71630    9.26060   92.41130    3.89880    4.56810  -87.64480    4.40030    -999.25
 2300.00000  101.69250    8.33300   96.53740    6.48680    7.95420  -83.53850    7.10130    -999.25
 2350.00000  117.83470    9.73310   89.66280    3.41720    3.80070  -82.50980    5.07310    -999.25
 2400.00000   96.17300    9.64300  108.54630    4.77930    5.09800  -83.49860    5.77350    -999.25
 2450.00000   95.83230    9.44460   85.46250    5.68720    6.47150  -83.95730    5.72980    -999.25
 2500.00000   82.55290    8.63790   65.40490   21.54150   25.18940  -86.98770   29.00590    -999.25
 2550.00000  107.99670    9.90010   91.98880    3.51430    3.87150  -83.42060    4.55080    -999.25
 2600.00000  100.71940    9.61650   83.62910    4.81440    5.27210  -84.99560    7.45050    -999.25
 2650.00000  111.76690    9.38060   84.98270    3.24920    3.51990  -83.64150    4.20860    -999.25
 2700.00000   96.81620    8.77450   79.24710   13.13980   14.13710  -95.14550   11.91390    -999.25
 2750.00000  121.75000    9.07160   77.11490    3.66840    4.04510  -85.27620    4.26300    -999.25
 2800.00000   96.22620    8.55290   67.20540   19.90650   22.92720 -107.08320   21.48620    -999.25
 2850.00000  103.64270    9.68690   87.96740    4.62480    5.35390  -89.74510    8.45400    -999.25
 2900.00000  110.10530    9.20560   79.01660    6.42010    7.15770  -89.33010    6.38020    -999.25
 2950.00000   88.52410    9.31160   76.13060    6.23960    6.91490  -90.08130   10.58490    -999.25
 3000.00000   73.89430    8.84810   58.53660   18.25860   23.19680 -109.51980   15.62710    -999.25
 3050.00000   86.38410    8.62240   52.33610   23.14170   31.17930 -118.56100   17.48920    -999.25
 3100.00000   90.53570    8.72270   57.13750   11.99600   14.56840 -112.57870   15.80000    -999.25
 3150.00000  101.43550    8.73030   80.56060    4.14610    4.56630  -90.56700    8.69010    -999.25
 3200.00000   91.43650    8.94350   85.39170    6.38250    7.43070  -91.73260    9.97550    -999.25
 3250.00000   91.12750    9.27110   84.72860    6.37260    6.61040  -91.62620    8.61880    -999.25
 3300.00000   97.28170    9.90220   98.47100    4.67360    5.20110  -92.24470    5.46280    -999.25
 3350.00000   93.11010   11.24250  115.10770    6.10300    7.00680  -96.29420    6.58410    -999.25
 3400.00000   93.95320    9.64720  117.75060    7.87970    9.00040  -98.84130    8.37310    -999.25
 3450.00000   96.06990   11.09340  119.30590    6.01750    6.67910  -97.77960    7.11290    -999.25
 3500.00000  104.96660   10.63260  136.97130    5.56490    6.34590  -98.32510    7.03690    -999.25
 3550.00000   89.95960    9.36940  135.21710   10.12650   11.25640  -83.73420   12.91610    -999.25
 3600.00000   89.11630    9.67880  124.64210    8.28260    9.32100  -82.26630   10.54180    -999.25
 3650.00000   80.59100    9.35010  123.92980    9.53910   11.79070  -84.17900   10.69470    -999.25
 3700.00000   99.84570   10.09760  123.24120    7.49880    7.02600  -84.08790    6.55880    -999.25
 3750.00000   89.93770    9.38090  113.63960    9.93900    9.30280  -84.56210    8.67640    -999.25
 3800.00000   82.04920    9.58300  111.88770    9.76040    9.08700  -85.97950    8.18100    -999.25
 3850.00000   88.94260    9.72870  139.77950    8.75500    8.17100  -79.89020    7.74510    -999.25
 3900.00000   95.59680    9.81630  125.34180    7.36700    6.93540  -82.06490    6.55830    -999.25
 3950.00000   90.75340    9.74050  123.40770    7.82700    7.36720  -82.48610    6.64660    -999.25
 4000.00000   88.60220   10.03250  128.35030    8.84570    8.24950  -79.93230    7.81440    -999.25
 4050.00000   80.37830   10.36900  104.04790    9.88510    8.67840  -82.23960    7.93430    -999.25
 4100.00000   86.87970    9.88370  122.64130    9.74890    9.05880  -80.94660    8.40850    -999.25
 4150.00000   86.00840    9.72090  131.04170    8.72200    8.30220  -80.32590    7.88550    -999.25
 4200.00000   91.65080    9.63820  128.05180    9.35350    8.75120  -80.83210    8.19770    -999.25
 4250.00000   96.02810    9.66840  139.90110    6.90120    7.36660  -79.59500    7.96250    -999.25
 4300.00000   98.10610    9.63610  150.03860    6.76640    7.46280  -76.36380    7.92620    -999.25
 4350.00000   95.18650    9.52510  147.88550    8.25380    8.99590  -76.37210    9.54250    -999.25
 4400.00000   97.08770    9.59150  150.78930    7.99610    8.74360  -75.90970   10.12500    -999.25
 4450.00000   94.77330    9.30090  155.27820    9.95150   10.64230  -74.63800   13.10950    -999.25
 4500.00000   97.20220    9.20550  159.33060   10.35710   11.43260  -75.56570   14.89750    -999.25
 4550.00000   95.64720   10.39430  148.95130    7.19190    7.81690  -74.80570   10.99710    -999.25
 4600.00000   88.16330    9.77530  131.40820    6.71280    7.31310  -75.37260    8.26720    -999.25
 4650.00000   85.38380    9.96360  135.27480    5.97280    6.51240  -71.42820    8.35880    -999.25
 4700.00000   87.91910    9.63090  137.02080    6.67500    7.28390  -70.56180    8.50700    -999.25
 4750.00000   86.84640    9.50240  131.69650    7.12020    7.65960  -70.86840    9.75800    -999.25
 4800.00000   88.25210    9.85300  132.06750    5.48450    5.85580  -69.55010    7.04250    -999.25
 4850.00000   82.39230    9.28280  135.76990    8.29020    9.00570  -70.52410    9.94330    -999.25
 4900.00000   99.38190   11.60210  127.10170    4.86980    4.36150  -70.57240    5.48590    -999.25
 4950.00000  100.49800   10.44290  241.52470    4.18380    3.80020  -68.12290    5.94570    -999.25
