~Version ---------------------------------------------------
VERS.      2.0 : CWLS log ASCII Standard -VERSION 2.0
WRAP.       NO : One line per depth step
CREA. 01/04/18 : LAS Creation Date
~Well ------------------------------------------------------
STRT.FT                               650.0 : START DEPTH
STOP.FT                             10100.0 : STOP DEPTH
STEP.FT                            50.00000 : STEP LENGTH
NULL.                               -999.25 : NULL VALUE
COMP. HUDSONS BAY OIL & GAS COMPANY LIMITED : COMPANY
WELL.        HUDSONS BAY KAYBOB 12-22-63-19 : WELL
FLD .                                       : FIELD
LOC .                                       : LOCATION
CTRY.                                CANADA : COUNTRY
SRVC.                Schlumberger of Canada : SERVICE COMPANY
DATE.                           23-Nov-1959 : LOGDATE
PROV.                               Alberta : PROVINCE
UWI .                      100122206319W500 : UNIQUE WELL ID
SLAT.WGS84                         54.46704 : SURFACE LATITUDE
SLON.WGS84                        -116.7943 : SURFACE LONGITUDE
~Curve Information -----------------------------------------
DEPT  .FT    : Depth Curve
CALWS .IN    : CALIPER [MCALED]
CILED .MMHO  : CONDUCTIVITY FROM RESISTIVITY LOG
CONDWS.MMHO  : CONDUCTIVITY [1000/DRESWS]
DRESWS.OHMM  : DEEP RESISTIVITY [IF ILED<1;1000/CILED;ELSE ILED]
GRED  .GAPI  : GAMMA RAY [DEPTH ADJ. TO ILED]
GRNED .RU    : GAMMA RAY FROM NEUTRON LOG [DEPTH ADJ. TO ILED]
GRWS  .GAPI  : GAMMA RAY [GRNED*2.16]
ILED  .OHMM  : INDUCTION LOG RESISTIVITY
MCALED.IN    : CALIPER MICROLOG
NEUTED.EU    : NEUTRON FROM GRN LOG [DEPTH ADJ. TO ILED]
NEUTWS.EU    : NEUTRON [NEUTED]
SNED  .OHMM  : 16 INCH SHORT NORMAL RESISTIVITY FROM IEL
SPRED .MV    : SPONTANEOUS POTENTIAL FROM RESISTIVITY LOG
SPWS  .MV    : SPONTANEOUS POTENTIAL [BASELINE 0 MV] [SPRED]
SRESWS.OHMM  : SHALLOW RESISTIVITY [SNED]
~Params ----------------------------------------------------
LMF .                     KB : LOG MEASURED FROM
DMF .                     KB : DRILLING MEASURED FROM
EKB .FT                 2583 : KELLY BUSHING
DATE.               11/23/59 : RUN DATE
RUN .                      1 : RUN NUMBER
DD  .FT                10107 : DEPTH DRILLER
DL  .FT                10109 : DEPTH LOGGER
BLI .FT                10104 : BOTTOM LOG INTERVAL
TLI .FT                  619 : TOP LOG INTERVAL
CBD .FT                  619 : CASING BOTTOM DRILLER
CBL .FT                  619 : CASING BOTTOM LOGGER
BS  .IN                 8.75 : BIT SIZE
BSD .FT                10107 : BIT SIZE AT DEPTH
DFT .                    GEL : DRILLING FLUID TYPE
DFD .                   10.4 : DRILLING FLUID DENSITY
DFV .                     97 : DRILLING FLUID VISCOSITY
DFPH.                      9 : DRILLING FLUID PH
DFL .                    5.8 : DRILLING FLUID LOSS
RMS .OHMM                1.6 : RESISTIVITY MUD SAMPLE
MST .DEGF                 62 : MUD SAMPLE TEMPERATURE
RMF .OHMM                1.5 : RESISTIVITY MUD FILTRATE SAMPLE
MFST.DEGF                 76 : MUD FILTRATE SAMPLE TEMPERATURE
RMC .OHMM                2.5 : RESISTIVITY MUD CAKE
MCST.DEGF                 74 : MUD CAKE SAMPLE TEMPERATURE
RMB .OHMM                0.5 : RESISTIVITY MUD AT BHT
TCS .HRS                 3.5 : TIME CIRCULATED STOPPED
LUN .                  15730 : LOGGING UNIT NUMBER
LUL .                     WC : LOGGING UNIT LOCATION
ENGI.              PATTERSON : RECORDING ENGINEER
WITN.                 STUART : WITNESSED BY
CLNT.                A2DTECH : CLIENT CODE
ORIG.            2" 5" PRINT : ORIGIN OF DATA
UWI .       100122206319W500 : UNIQUE WELL ID
DICO. A2D Technologies, Inc. : DIGITIZING COMPANY
~Other -----------------------------------------------------
~ASCII -----------------------------------------------------
  650.00000    -999.25  276.52780  237.37750    4.21270    -999.25    -999.25    -999.25    4.21270    -999.25    -999.25    -999.25    1.24430  -73.96430   -4.97730    1.24430
  700.00000    -999.25   98.91800  101.99710    9.80420    -999.25    -999.25    -999.25    9.80420    -999.25    -999.25    -999.25   16.09440  -81.80660  -12.81960   16.09440
  750.00000    -999.25  288.87680  238.18600    4.19840    -999.25    -999.25    -999.25    4.19840    -999.25    -999.25    -999.25    5.30120  -74.22220   -5.23520    5.30120
  800.00000    -999.25  209.68630  180.39310    5.54350    -999.25    -999.25    -999.25    5.54340    -999.25    -999.25    -999.25    7.08300  -74.62610   -5.63910    7.08310
  850.00000    -999.25  223.78170  189.68490    5.27190    -999.25    -999.25    -999.25    5.27190    -999.25    -999.25    -999.25    7.25590  -71.42680   -2.43980    7.25590
  900.00000    -999.25  328.16860  273.34350    3.65840    -999.25    -999.25    -999.25    3.65840    -999.25    -999.25    -999.25    5.66860  -71.05560   -2.17520    5.66860
  950.00000    -999.25  373.26270  297.11500    3.36570    -999.25    -999.25    -999.25    3.36570    -999.25    -999.25    -999.25    5.26740  -72.21090   -3.47860    5.26740
 1000.00000    -999.25  383.43850  305.79170    3.27020    -999.25    -999.25    -999.25    3.27020    -999.25    -999.25    -999.25    4.54310  -71.96620   -3.38200    4.54310
 1050.00000    -999.25  137.32510  129.81960    7.70300    -999.25    -999.25    -999.25    7.70300    -999.25    -999.25    -999.25   11.01350  -71.11430   -2.67740   11.01350
 1100.00000    -999.25  186.44860  163.04440    6.13330    -999.25    -999.25    -999.25    6.13330    -999.25    -999.25    -999.25    8.21240  -69.22960   -0.94160    8.21240
 1150.00000    -999.25  237.81490  210.21210    4.75710    -999.25    -999.25    -999.25    4.75710    -999.25    -999.25    -999.25    6.37750  -70.17610   -2.03610    6.37750
 1200.00000    -999.25  233.11600  192.90120    5.18400    -999.25    -999.25    -999.25    5.18400    -999.25    -999.25    -999.25    7.26770  -70.63100   -2.63910    7.26770
 1250.00000    -999.25  350.22170  287.67870    3.47610    -999.25    -999.25    -999.25    3.47610    -999.25    -999.25    -999.25    4.63650  -69.89270   -2.04890    4.63650
 1300.00000    -999.25  299.30950  251.20890    3.98070    -999.25    -999.25    -999.25    3.98070    -999.25    -999.25    -999.25    5.22140  -69.81290   -2.11650    5.22140
 1350.00000    -999.25  307.45130  245.43490    4.07440    -999.25    -999.25    -999.25    4.07440    -999.25    -999.25    -999.25    6.19000  -70.24320   -2.69560    6.19000
 1400.00000    -999.25  336.28050  276.36520    3.61840    -999.25    -999.25    -999.25    3.61840    -999.25    -999.25    -999.25    5.05890  -69.16300   -1.76350    5.05890
 1450.00000    -999.25  115.49270  107.62640    9.29140    -999.25    -999.25    -999.25    9.29140    -999.25    -999.25    -999.25   13.53640  -78.64720  -11.39580   13.53640
 1500.00000    -999.25  205.63940  181.87110    5.49840    -999.25    -999.25    -999.25    5.49840    -999.25    -999.25    -999.25    7.70500  -68.76070   -1.58670    7.70500
 1550.00000    -999.25  199.16050  173.94180    5.74910    -999.25    -999.25    -999.25    5.74900    -999.25    -999.25    -999.25    7.70640  -70.46150   -3.30700    7.70640
 1600.00000    -999.25  397.83560  317.34950    3.15110    -999.25    -999.25    -999.25    3.15110    -999.25    -999.25    -999.25    4.31080  -69.34400   -2.20930    4.31080
 1650.00000    -999.25  254.00770  219.28380    4.56030    -999.25    -999.25    -999.25    4.56030    -999.25    -999.25    -999.25    6.57960  -68.79460   -1.67950    6.57960
 1700.00000    -999.25  119.15660  109.34220    9.14560    -999.25    -999.25    -999.25    9.14560    -999.25    -999.25    -999.25   12.84500  -69.39450   -2.29900   12.84500
 1750.00000    -999.25  289.94560  216.40810    4.62090    -999.25    -999.25    -999.25    4.62090    -999.25    -999.25    -999.25    5.91840  -72.22590   -5.15010    5.91840
 1800.00000    -999.25  418.63490  330.96140    3.02150    -999.25    -999.25    -999.25    3.02150    -999.25    -999.25    -999.25    3.96640  -69.52330   -2.46700    3.96640
 1850.00000    -999.25  270.71520  224.97190    4.44500    -999.25    -999.25    -999.25    4.44500    -999.25    -999.25    -999.25    5.87080  -70.72450   -3.68790    5.87080
 1900.00000    -999.25  127.19760  117.36400    8.52050    -999.25    -999.25    -999.25    8.52050    -999.25    -999.25    -999.25    9.91500  -79.19360  -12.17670    9.91500
 1950.00000    -999.25  114.74000  107.29150    9.32040    -999.25    -999.25    -999.25    9.32040    -999.25    -999.25    -999.25   13.44880  -77.77400  -10.77670   13.44880
 2000.00000    -999.25  146.78570  131.07880    7.62900    -999.25    -999.25    -999.25    7.62900    -999.25    -999.25    -999.25   10.25020  -73.46090   -6.48320   10.25020
 2050.00000    -999.25  365.37870  296.32700    3.37460    -999.25    -999.25    -999.25    3.37460    -999.25    -999.25    -999.25    4.99280  -70.74880   -3.79070    4.99280
 2100.00000    -999.25  282.03860  236.17210    4.23420    -999.25    -999.25    -999.25    4.23420    -999.25    -999.25    -999.25    5.49240  -70.73650   -3.79810    5.49240
 2150.00000    -999.25  141.79230  124.15270    8.05460    -999.25    -999.25    -999.25    8.05460    -999.25    -999.25    -999.25   15.75770  -70.03020   -3.11140   15.75770
 2200.00000    -999.25  188.98060  161.63180    6.18690    -999.25    -999.25    -999.25    6.18690    -999.25    -999.25    -999.25    9.27520  -71.93940   -5.04030    9.27520
 2250.00000    -999.25  101.23950   95.13030   10.51190    -999.25    -999.25    -999.25   10.51190    -999.25    -999.25    -999.25   12.66680  -70.12920   -3.24970   12.66680
 2300.00000    -999.25  104.48720   97.75740   10.22940    -999.25    -999.25    -999.25   10.22940    -999.25    -999.25    -999.25   12.43640  -70.45670   -3.59670   12.43630
 2350.00000    -999.25  311.33550  251.49010    3.97630    -999.25    -999.25    -999.25    3.97630    -999.25    -999.25    -999.25    5.24470  -69.81850   -2.97830    5.24470
 2400.00000    -999.25   80.19830   75.76100   13.19940    -999.25    -999.25    -999.25   13.19940    -999.25    -999.25    -999.25   18.33070  -79.01990  -12.19930   18.33070
 2450.00000    -999.25  133.59340   97.98830   10.20530    -999.25    -999.25    -999.25   10.20530    -999.25    -999.25    -999.25   12.85560  -71.16950   -4.36850   12.85560
 2500.00000    -999.25  234.76000  188.54410    5.30380    -999.25    -999.25    -999.25    5.30380    -999.25    -999.25    -999.25    6.86120  -71.03650   -4.25520    6.86120
 2550.00000    -999.25  276.88340  230.85620    4.33170    -999.25    -999.25    -999.25    4.33170    -999.25    -999.25    -999.25    5.79690  -70.06900   -3.30730    5.79690
 2600.00000    -999.25  274.92470  230.02780    4.34730    -999.25    -999.25    -999.25    4.34730    -999.25    -999.25    -999.25    5.88950  -70.29330   -3.55120    5.88950
 2650.00000    -999.25  240.84510  200.56560    4.98590    -999.25    -999.25    -999.25    4.98590    -999.25    -999.25    -999.25    6.52140  -70.06790   -3.34550    6.52140
 2700.00000    -999.25   65.76530   59.22380   16.88510    -999.25    -999.25    -999.25   16.88510    -999.25    -999.25    -999.25   18.90340  -82.55510  -15.85230   18.90340
 2750.00000    -999.25  196.52340  173.66540    5.75820    -999.25    -999.25    -999.25    5.75820    -999.25    -999.25    -999.25    7.36420  -69.89310   -3.20990    7.36420
 2800.00000    -999.25   82.13630   75.65730   13.21750    -999.25    -999.25    -999.25   13.21750    -999.25    -999.25    -999.25   17.75820  -81.53350  -14.86990   17.75820
 2850.00000    -999.25  198.51200  172.67580    5.79120    -999.25    -999.25    -999.25    5.79120    -999.25    -999.25    -999.25    8.00120  -70.48220   -3.83830    8.00120
 2900.00000    -999.25  222.27130  193.71960    5.16210    -999.25    -999.25    -999.25    5.16210    -999.25    -999.25    -999.25    7.29730  -69.90970   -3.28540    7.29730
