~Version ---------------------------------------------------
VERS.      2.0 : CWLS log ASCII Standard -VERSION 2.0
WRAP.       NO : One line per depth step
CREA. 11/13/17 : LAS Creation Date
~Well ------------------------------------------------------
STRT.FT                            1100.0 : START DEPTH
STOP.FT                           11000.0 : STOP DEPTH
STEP.FT                          50.00000 : STEP LENGTH
NULL.                             -999.25 : NULL VALUE
COMP.        PAN AMERICAN PETROLEUM CORP. : COMPANY
WELL. PAN AM A-1 ASPLUND CREEK 4-22-66-23 : WELL
FLD .                                     : FIELD
LOC .                                     : LOCATION
CTRY.                              CANADA : COUNTRY
SRVC.              Schlumberger of Canada : SERVICE COMPANY
DATE.                         29-Mar-1964 : LOGDATE
PROV.                             Alberta : PROVINCE
UWI .                    100042206623W500 : UNIQUE WELL ID
SLAT.WGS84                       54.72149 : SURFACE LATITUDE
SLON.WGS84                      -117.4003 : SURFACE LONGITUDE
~Curve Information -----------------------------------------
DEPT  .FT    : Depth Curve
CALSED.IN    : CALIPER FROM SONIC LOG
CALWS .IN    : CALIPER [CALSED]
CILDED.MMHO  : CONDUCTIVITY FROM RESISTIVITY LOG
CONDWS.MMHO  : CONDUCTIVITY [1000/DRESWS]
DRESWS.OHMM  : DEEP RESISTIVITY [ILDED] IF ILDED<2;1000/CILDED;ELSE ILDED
DTED  .US/F  : DELTA TIME FROM SONIC LOG
DTWS  .US/F  : DELTA TIME [DTED]
GRSED .GAPI  : GAMMA RAY FROM SONIC LOG
GRWS  .GAPI  : GAMMA RAY [GRSED]
ILDED .OHMM  : INDUCTION LOG DEEP RESISTIVITY
SNED  .OHMM  : 16 INCH SHORT NORMAL RESISTIVITY FROM RESISTIVITY LOG
SPRED .MV    : SPONTANEOUS POTENTIAL FROM RESISTIVITY LOG
SPWS  .MV    : SPONTANEOUS POTENTIAL [BASELINE 0 MV] [SPRED]
SRESWS.OHMM  : SHALLOW RESISTIVITY [SNED]
~Params ----------------------------------------------------
PD  .                     GL : PERMANENT DATUM
EPD .FT               2726.1 : ELEVATION PERMANENT DATUM
LMF .                     KB : LOG MEASURED FROM
DAPD.FT                 13.1 : FEET ABOVE PERMANENT DATUM
EKB .FT               2739.2 : KELLY BUSHING
EGL .FT               2726.1 : GROUND LEVEL
DATE.               03/29/64 : RUN DATE
RUN .                      1 : RUN NUMBER
DD  .FT                11007 : DEPTH DRILLER
DL  .FT                11012 : DEPTH LOGGER
BLI .FT                11011 : BOTTOM LOG INTERVAL
TLI .FT                 1140 : TOP LOG INTERVAL
CBD .FT                 1138 : CASING BOTTOM DRILLER
CBL .FT                 1139 : CASING BOTTOM LOGGER
BS  .IN                 8.75 : BIT SIZE
BSD .FT                11007 : BIT SIZE AT DEPTH
DFT .               GEL CHEM : DRILLING FLUID TYPE
DFD .                    9.2 : DRILLING FLUID DENSITY
DFV .                     75 : DRILLING FLUID VISCOSITY
DFPH.                    8.5 : DRILLING FLUID PH
DFL .                   13.4 : DRILLING FLUID LOSS
RMS .OHMM               4.61 : RESISTIVITY MUD SAMPLE
MST .DEGF                 60 : MUD SAMPLE TEMPERATURE
RMF .OHMM                  4 : RESISTIVITY MUD FILTRATE SAMPLE
MFST.DEGF                 66 : MUD FILTRATE SAMPLE TEMPERATURE
RMC .OHMM               3.83 : RESISTIVITY MUD CAKE
MCST.DEGF                 64 : MUD CAKE SAMPLE TEMPERATURE
RMB .OHMM               1.61 : RESISTIVITY MUD AT BHT
TCS .HRS                   5 : TIME CIRCULATED STOPPED
LUN .                   3534 : LOGGING UNIT NUMBER
LUL .                    WCT : LOGGING UNIT LOCATION
ENGI.                 HAMTON : RECORDING ENGINEER
WITN.               FONTEYNE : WITNESSED BY
CLNT.                A2DTECH : CLIENT CODE
ORIG.            2" 5" PRINT : ORIGIN OF DATA
UWI .       100042206623W500 : UNIQUE WELL ID
DICO. A2D Technologies, Inc. : DIGITIZING COMPANY
~Other -----------------------------------------------------
~ASCII -----------------------------------------------------
 1100.00000    -999.25    -999.25    -999.25    -999.25    -999.25    -999.25    -999.25   30.38950   30.38950    -999.25    -999.25    -999.25    -999.25    -999.25
 1150.00000   10.96180   10.96180  316.49960  256.97690    3.89140  116.12510  116.12510   48.60410   48.60410    3.89140    4.76190  -42.95720   -4.71860    4.76190
 1200.00000   11.61310   11.61310  199.36280  168.66540    5.92890  151.21060  151.21060   59.54590   59.54590    5.92890    6.52460  -46.46500   -8.22640    6.52460
 1250.00000   10.97940   10.97940  395.77980  302.29750    3.30800  124.97940  124.97940   50.57800   50.57800    3.30800    3.67330  -44.76190   -6.52330    3.67330
 1300.00000   11.09090   11.09090  143.46700  134.75270    7.42100  101.79010  101.79010   59.06220   59.06220    7.42100    6.52000  -42.89540   -4.65680    6.52000
 1350.00000   10.33750   10.33750  517.12360  379.30510    2.63640  136.37000  136.37000   80.33070   80.33070    2.63640    3.25440  -39.93020   -1.70990    3.25440
 1400.00000   13.28020   13.28020  281.24320  254.21360    3.93370  135.54370  135.54370   59.44320   59.44320    3.93370    4.62160  -40.33800   -2.17970    4.62160
 1450.00000   12.31900   12.31900  252.21110  259.77400    3.84950  113.51620  113.51620   56.25850   56.25850    3.84950    4.39990  -41.56330   -3.46730    4.39990
 1500.00000   10.85380   10.85380  270.95010  234.97340    4.25580  131.98850  131.98850   81.15520   81.15520    4.25580    4.85480  -40.98670   -2.95260    4.85480
 1550.00000    8.79310    8.79310  128.91790  117.31990    8.52370  106.12420  106.12420   50.72250   50.72250    8.52370    7.38350  -50.97380  -13.00170    7.38350
 1600.00000   10.60490   10.60490  310.15910  261.78010    3.82000  122.26690  122.26690   55.54200   55.54200    3.82000    3.93370  -41.02750   -3.11770    3.93370
 1650.00000   13.99430   13.99430  298.46130  229.31050    4.36090  150.33330  150.33330   48.71760   48.71760    4.36090    4.14590  -41.80140   -3.95360    4.14590
 1700.00000   12.41150   12.41150  260.24040  209.77110    4.76710  105.72260  105.72260   50.74460   50.74460    4.76710    4.00590  -39.79650   -2.01100    4.00590
 1750.00000    9.10150    9.10150  214.71280  205.03990    4.87710  109.64590  109.64590   52.05110   52.05110    4.87710    5.47750  -42.52500   -4.80140    5.47750
 1800.00000   10.56530   10.56530  227.12160  189.92630    5.26520  113.14650  113.14650   53.73310   53.73310    5.26520    4.56930  -41.16080   -3.49920    4.56930
 1850.00000    9.68840    9.68840  191.63740  176.74710    5.65780  106.78980  106.78980   61.52930   61.52930    5.65780    5.92140  -42.53730   -4.93800    5.92140
 1900.00000   10.14190   10.14190  225.70500  228.94300    4.36790  107.20170  107.20170   54.20510   54.20510    4.36790    4.87030  -41.52880   -3.99140    4.87030
 1950.00000   13.07490   13.07490  485.83480  347.74140    2.87570  143.06670  143.06670   52.79870   52.79870    2.87570    3.37780  -40.36190   -2.88690    3.37780
 2000.00000    8.35420    8.35420   65.14740   59.77750   16.72870  110.96720  110.96720   32.39810   32.39810   16.72870   19.53880  -59.50290  -22.08980   19.53880
 2050.00000   13.63060   13.63060  300.80370  242.36550    4.12600  125.40260  125.40260   54.00230   54.00230    4.12600    3.75210  -40.08570   -2.73460    3.75210
 2100.00000   11.96760   11.96760  215.13890  199.96000    5.00100  121.61200  121.61200   49.35780   49.35780    5.00100    4.91700  -40.23720   -2.94840    4.91700
 2150.00000   12.00240   12.00240  299.75410  251.83210    3.97090  107.99520  107.99520   45.06720   45.06720    3.97090    4.76390  -41.04100   -3.81410    4.76390
 2200.00000   12.23430   12.23430  180.12550  158.25040    6.31910  106.21120  106.21120   44.84370   44.84370    6.31910    6.72370  -42.36430   -5.19980    6.72370
 2250.00000    9.91910    9.91910   55.93950   46.46020   21.52380   80.08200   80.08200   38.53610   38.53610   21.52380   20.31270  -52.09380  -14.99120   20.31270
 2300.00000   10.38540   10.38540  300.88550  258.22440    3.87260  120.89450  120.89450   46.48790   46.48790    3.87260    4.81030  -40.13000   -3.08930    4.81030
 2350.00000   10.80370   10.80370  268.97420  226.77790    4.40960   99.80360   99.80360   48.09040   48.09040    4.40960    4.84510  -40.13850   -3.16020    4.84510
 2400.00000   11.23140   11.23140  237.43360  211.39410    4.73050  131.44160  131.44160   43.30910   43.30910    4.73050    5.39110  -42.14950   -5.23310    5.39110
 2450.00000   12.74690   12.74690  265.36280  233.91270    4.27510  134.53150  134.53150   44.42610   44.42610    4.27510    4.66610  -38.48660   -1.63260    4.66610
 2500.00000   13.31850   13.31850  219.05160  197.11040    5.07330   97.65000   97.65000   44.66620   44.66620    5.07330    5.91060  -39.56830   -2.77620    5.91060
 2550.00000    9.13930    9.13930   74.16260   69.98780   14.28820   80.40670   80.40670   29.47080   29.47080   14.28820   21.77720  -57.47810  -20.74790   21.77720
 2600.00000   10.83400   10.83400  195.78460  192.68940    5.18970   83.05640   83.05640   44.61300   44.61300    5.18970    5.59240  -40.43970   -3.77190    5.59240
 2650.00000    8.55420    8.55420   86.57130   80.28710   12.45530   91.84110   91.84110   37.48150   37.48150   12.45530   14.33280  -57.59960  -20.99370   14.33280
 2700.00000    8.76410    8.76410   70.60660   62.87920   15.90350   78.88110   78.88110   50.90210   50.90210   15.90350   13.62130  -49.39980  -12.85630   13.62130
 2750.00000    9.96220    9.96220  167.51930  161.39440    6.19600   93.39790   93.39790   48.51650   48.51650    6.19600    6.79830  -41.88030   -5.39870    6.79830
 2800.00000   12.14570   12.14570  205.43630  197.65970    5.05920  100.30250  100.30250   54.96400   54.96400    5.05920    5.73940  -38.56950   -2.14980    5.73940
 2850.00000   10.97050   10.97050  177.46530  163.04170    6.13340  102.38370  102.38370   47.71180   47.71180    6.13340    6.73860  -39.42970   -3.07240    6.73860
 2900.00000   12.17400   12.17400  147.52610  139.48360    7.16930   88.88640   88.88640   67.25150   67.25150    7.16930    8.09490  -40.87470   -4.57930    8.09490
 2950.00000   12.10680   12.10680  149.70300  134.24260    7.44920   94.70520   94.70520   74.41510   74.41510    7.44920    8.13960  -39.58000   -3.34690    8.13960
 3000.00000   12.06020   12.06020  134.89370  123.12090    8.12210  104.29000  104.29000   82.83490   82.83490    8.12210    9.58160  -39.57940   -3.40830    9.58160
 3050.00000   12.85540   12.85540  130.61380  119.31040    8.38150   99.14280   99.14280   80.84710   80.84710    8.38150    9.92030  -38.73290   -2.62370    9.92030
 3100.00000   13.16190   13.16190  142.15160  131.66900    7.59480   99.10810   99.10810   74.88170   74.88170    7.59480    8.94010  -39.48670   -3.43990    8.94010
 3150.00000   12.56080   12.56080  167.17110  153.51080    6.51420  104.90820  104.90820   75.24770   75.24770    6.51420    7.13590  -40.17570   -4.19080    7.13590
 3200.00000   13.63370   13.63370   94.57940   88.14530   11.34490   74.83970   74.83970   64.16800   64.16800   11.34490   10.72760  -42.99700   -7.07440   10.72760
 3250.00000    9.56390    9.56390   70.10410   65.23280   15.32970   85.47020   85.47020   51.25360   51.25360   15.32970   20.50630  -79.43150  -43.57090   20.50630
 3300.00000   12.41100   12.41100  123.40720  114.81580    8.70960   86.41540   86.41540   77.43740   77.43740    8.70960    9.29580  -40.52620   -4.72750    9.29580
 3350.00000   11.72510   11.72510  134.25660  125.50200    7.96800   97.99870   97.99870   75.79360   75.79360    7.96800    8.53710  -40.79270   -5.05630    8.53710
 3400.00000   10.41640   10.41640  169.43280  154.75560    6.46180  107.12940  107.12940   87.02640   87.02640    6.46180    6.89220  -40.44590   -4.77150    6.89220
 3450.00000   10.26350   10.26350  131.38630  123.44160    8.10100  103.82130  103.82130   88.82640   88.82640    8.10100    8.56170  -40.31860   -4.70650    8.56170
 3500.00000   12.05670   12.05670   92.37850   84.63890   11.81490   82.34990   82.34990   73.07060   73.07060   11.81490   12.16280  -40.57200   -5.02190   12.16280
