~Version ---------------------------------------------------
VERS.      2.0 : CWLS log ASCII Standard -VERSION 2.0
WRAP.       NO : One line per depth step
CREA. 11/20/17 : LAS Creation Date
~Well ------------------------------------------------------
STRT.FT                          1100.0 : START DEPTH
STOP.FT                         10200.0 : STOP DEPTH
STEP.FT                        50.00000 : STEP LENGTH
NULL.                           -999.25 : NULL VALUE
COMP.          CHEVRON STANDARD LIMITED : COMPANY
WELL. CHEVRON GULF E KAYBOB 12-25-62-18 : WELL
FLD .                                   : FIELD
LOC .                                   : LOCATION
CTRY.                            CANADA : COUNTRY
SRVC.                      Schlumberger : SERVICE COMPANY
DATE.                       18-Aug-1973 : LOGDATE
PROV.                           Alberta : PROVINCE
UWI .                  100122506218W500 : UNIQUE WELL ID
SLAT.WGS84                     54.39495 : SURFACE LATITUDE
SLON.WGS84                    -116.5696 : SURFACE LONGITUDE
~Curve Information -----------------------------------------
DEPT  .FT    : Depth Curve
CALSED.IN    : CALIPER FROM SONIC LOG [ADJ. TO RESISTIVITY LOG]
CALWS .IN    : CALIPER [CALSED]
CONDWS.MMHO  : CONDUCTIVITY [1000/DRESWS]
DRESWS.OHMM  : DEEP RESISTIVITY [ILDED]
DTED  .US/F  : DELTA TIME FROM SONIC LOG [ADJ. TO RESISTIVITY LOG]
DTWS  .US/F  : COMPRESSIONAL SONIC [DTED]
GRSED .GAPI  : GAMMA RAY FROM SONIC LOG ADJ. TO RESISTIVITY LOG]
GRWS  .GAPI  : GAMMA RAY [GRSED]
ILDED .OHMM  : DEEP INDUCTION LOG RESISTIVITY FROM RESISTIVITY LOG
ILMED .OHMM  : MEDIUM INDUCTION LOG MEDIUM RESISTIVITY FROM RESISTIVITY LOG
LL8ED .OHMM  : 8 INCH LATEROLOG RESISTIVITY FROM RESISTIVITY LOG
MRESWS.OHMM  : MEDIUM RESISTIVITY [ILMED]
SPRED .MV    : SPONTANEOUS POTENTIAL FROM RESISTIVITY LOG
SPWS  .MV    : SPONTANEOUS POTENTIAL [BASELINE 0 MV SPRED]
SRESWS.OHMM  : SHALLOW RESISTIVITY [LL8ED]
~Params ----------------------------------------------------
PD  .                     GL : PERMANENT DATUM
EPD .FT               2847.5 : ELEVATION PERMANENT DATUM
LMF .                     KB : LOG MEASURED FROM
DAPD.FT                   14 : FEET ABOVE PERMANENT DATUM
EKB .FT               2861.5 : KELLY BUSHING
EGL .FT               2847.5 : GROUND LEVEL
DATE.               08/18/73 : RUN DATE
RUN .                      1 : RUN NUMBER
DD  .FT                10235 : DEPTH DRILLER
DL  .FT                10238 : DEPTH LOGGER
BLI .FT                10232 : BOTTOM LOG INTERVAL
TLI .FT                 1119 : TOP LOG INTERVAL
CBD .FT                 1119 : CASING BOTTOM DRILLER
CBL .FT                 1119 : CASING BOTTOM LOGGER
BS  .IN                 8.75 : BIT SIZE
BSD .FT                10235 : BIT SIZE AT DEPTH
DFT .              BENEX GEL : DRILLING FLUID TYPE
DFD .                    9.3 : DRILLING FLUID DENSITY
DFV .                    100 : DRILLING FLUID VISCOSITY
DFPH.                      9 : DRILLING FLUID PH
DFL .                    8.4 : DRILLING FLUID LOSS
MSS .                   CIRC : MUD SAMPLE SOURCE
RMS .OHMM               2.62 : RESISTIVITY MUD SAMPLE
MST .DEGF                 46 : MUD SAMPLE TEMPERATURE
RMF .OHMM                2.1 : RESISTIVITY MUD FILTRATE SAMPLE
MFST.DEGF                 56 : MUD FILTRATE SAMPLE TEMPERATURE
RMC .OHMM               1.99 : RESISTIVITY MUD CAKE
MCST.DEGF                 64 : MUD CAKE SAMPLE TEMPERATURE
RMB .OHMM               0.65 : RESISTIVITY MUD AT BHT
TCS .HRS                   3 : TIME CIRCULATED STOPPED
LUN .                   7636 : LOGGING UNIT NUMBER
LUL .                    EDM : LOGGING UNIT LOCATION
ENGI.                  IBSEN : RECORDING ENGINEER
WITN.                   GOLL : WITNESSED BY
CLNT.                A2DTECH : CLIENT CODE
ORIG.            2" 5" PRINT : ORIGIN OF DATA
UWI .       100122506218W500 : UNIQUE WELL ID
DICO. A2D Technologies, Inc. : DIGITIZING COMPANY
~Other -----------------------------------------------------
DIL-BHC LOG RUN
~ASCII -----------------------------------------------------
 1100.00000    -999.25    -999.25    -999.25    -999.25    -999.25    -999.25   59.45420   59.45420    -999.25    -999.25    -999.25    -999.25    -999.25    -999.25    -999.25
 1150.00000   10.14230   10.14230  217.82220    4.59090  115.27510  115.27510   73.31890   73.31890    4.59090    4.37210    4.27460    4.37210 -112.56890   -2.65430    4.27460
 1200.00000   10.41170   10.41170  231.68530    4.31620  110.42020  110.42020   80.80650   80.80650    4.31620    4.21670    4.87530    4.21670 -113.35580   -2.89880    4.87530
 1250.00000   11.09350   11.09350  212.87920    4.69750  149.04710  149.04710   67.54540   67.54540    4.69750    4.33310    5.77220    4.33310 -114.11770   -3.11830    5.77220
 1300.00000   14.44360   14.44360  347.12610    2.88080  132.97240  132.97240   63.90410   63.90410    2.88080    3.07160    3.24550    3.07160 -116.33190   -4.79280    3.24550
 1350.00000   10.39580   10.39580  468.97720    2.13230  128.76010  128.76010  125.57430  125.57430    2.13230    2.37160    2.58140    2.37160 -115.31130   -3.22710    2.58140
 1400.00000   10.74470   10.74470  279.02560    3.58390  137.36110  137.36110   71.32370   71.32370    3.58390    3.42190    3.10540    3.42190 -115.57410   -2.94750    3.10540
 1450.00000   10.29740   10.29740  145.67920    6.86440  111.17960  111.17960   58.95710   58.95710    6.86440    6.05450    5.36540    6.05450 -115.85740   -3.23010    5.36540
 1500.00000    9.90050    9.90050   80.15200   12.47630   89.43360   89.43360   59.08700   59.08700   12.47630   13.45630   14.37000   13.45630 -115.87480   -3.38240   14.37000
 1550.00000   10.02040   10.02040  375.45690    2.67270  106.67220  106.67220   85.62040   85.62040    2.67270    2.86810    3.83820    2.86810 -115.79430   -3.43600    3.83820
 1600.00000   10.53450   10.53450  246.63350    4.05460  123.31570  123.31570   70.53430   70.53430    4.05460    4.41090    5.54660    4.41090 -113.97860   -1.75580    5.54660
 1650.00000   11.16630   11.16630  315.27840    3.17180  130.29230  130.29230   75.85030   75.85030    3.17180    3.37230    3.60060    3.37230 -114.26980   -2.18190    3.60060
 1700.00000   12.01660   12.01660  311.06130    3.21480  124.80360  124.80360   75.44920   75.44920    3.21480    3.33320    3.68400    3.33320 -114.90470   -2.95160    3.68400
 1750.00000   11.69380   11.69380  146.66630    6.81820  111.48200  111.48200   85.80720   85.80720    6.81820    7.19440    7.20560    7.19440 -113.47550   -1.65720    7.20560
 1800.00000   11.25480   11.25480  362.46400    2.75940  111.21630  111.21630  100.73770  100.73770    2.75940    2.86330    3.31090    2.86330 -113.42900   -1.74490    3.31090
 1850.00000   11.59230   11.59230  261.61570    3.82240  102.02920  102.02920   88.23400   88.23400    3.82240    4.01350    4.18210    4.01350 -114.34730   -2.79870    4.18210
 1900.00000   10.93520   10.93520  203.71580    4.90880   99.81970   99.81970   78.62380   78.62380    4.90880    3.75440    5.34690    3.75440 -112.40350   -0.98970    5.34690
 1950.00000    9.66730    9.66730  324.39100    3.08270  112.11120  112.11120   95.29760   95.29760    3.08270    3.29670    3.51490    3.29670 -112.88560   -1.46200    3.51490
 2000.00000   10.71030   10.71030  284.05060    3.52050  103.15230  103.15230   74.54250   74.54250    3.52050    3.64740    3.72470    3.64740 -113.36590   -1.56040    3.72470
 2050.00000   10.12250   10.12250  290.17380    3.45770  104.15950  104.15950   83.67310   83.67310    3.45770    3.70720    3.86220    3.70720 -114.01390   -2.07440    3.86220
 2100.00000   10.07120   10.07120  287.76980    3.47500  101.76520  101.76520   72.14880   72.14880    3.47500    3.46640    3.58490    3.46640 -115.59360   -3.62080    3.58490
 2150.00000   10.09070   10.09070  208.11650    4.80500   99.51460   99.51460   74.07910   74.07910    4.80500    4.93190    5.54500    4.93190 -113.76240   -1.75650    5.54500
 2200.00000   10.06520   10.06520  469.39540    2.13040  107.40270  107.40270  113.73980  113.73980    2.13040    2.25780    2.72440    2.25780 -113.58300   -1.54400    2.72440
 2250.00000   10.22500   10.22500  150.83180    6.62990  101.78540  101.78540   76.04720   76.04720    6.62990    7.04620    7.13620    7.04620 -116.16900   -4.15200    7.13620
 2300.00000   10.61140   10.61140  346.20780    2.88940  116.31480  116.31480   86.27080   86.27080    2.88940    3.07480    2.75370    3.07480 -113.15470   -1.16500    2.75370
 2350.00000   10.16930   10.16930  220.86760    4.52760  104.11370  104.11370   74.78720   74.78720    4.52760    4.90380    5.18000    4.90380 -112.74900   -1.26970    5.18000
 2400.00000   10.42990   10.42990  172.26530    5.80500   98.41660   98.41660   57.68010   57.68010    5.80500    6.53750    6.78190    6.53750 -114.21000   -2.73240    6.78190
 2450.00000   10.17960   10.17960  244.33150    4.09280   97.18770   97.18770   72.42820   72.42820    4.09280    4.31560    5.02200    4.31560 -114.15800   -1.55780    5.02200
 2500.00000   10.40370   10.40370  292.48320    3.41900  149.04250  149.04250   56.89390   56.89390    3.41900    3.59690    3.26090    3.59690 -114.80260   -1.81170    3.26090
 2550.00000    9.99930    9.99930  117.47090    8.51290   91.97040   91.97040   50.42760   50.42760    8.51290    9.11810    8.80540    9.11810 -115.68950   -2.31640    8.80540
 2600.00000   10.09330   10.09330   94.88480   10.53910   90.03780   90.03780   46.14120   46.14120   10.53910    9.99090    9.31800    9.99090 -116.84580   -3.08710    9.31800
 2650.00000    8.80830    8.80830   88.05060   11.35710   82.53300   82.53300   54.25270   54.25270   11.35710   12.98110   16.05180   12.98110 -116.62080   -3.20300   16.05180
 2700.00000   10.27360   10.27360  234.03310    4.27290  102.15320  102.15320   68.50840   68.50840    4.27290    4.50710    4.67880    4.50710 -114.71540   -1.93180    4.67880
 2750.00000   10.12590   10.12590  255.16710    3.91900  101.15760  101.15760   65.14520   65.14520    3.91900    4.42970    4.53320    4.42970 -113.66160   -1.51210    4.53320
 2800.00000    9.33720    9.33720   87.81330   11.39420   92.25440   92.25440   47.96870   47.96870   11.39420   12.24400   10.88070   12.24400 -116.17510   -4.15320   10.88070
 2850.00000    9.77630    9.77630   82.00620   12.19420   99.43530   99.43530   43.36480   43.36480   12.19420   11.53580    8.09420   11.53580 -118.31820   -6.02200    8.09420
 2900.00000   12.23660   12.23660  223.86890    4.46690   95.77990   95.77990   62.53150   62.53150    4.46690    4.79370    5.14370    4.79370 -114.01820   -1.45210    5.14370
 2950.00000    9.50650    9.50650   32.97820   30.32310   83.33820   83.33820   35.75470   35.75470   30.32310   28.15280   30.03530   28.15280 -131.33670  -18.55750   30.03530
 3000.00000    9.69210    9.69210  145.37210    6.87890   86.20160   86.20160   65.53570   65.53570    6.87890    7.78440   12.72710    7.78440 -114.39130   -1.39900   12.72710
 3050.00000    8.49920    8.49920   76.46520   13.08660   92.26510   92.26510   47.34540   47.34540   13.08660   13.86490   12.22580   13.86490 -131.50670  -18.76660   12.22580
 3100.00000    9.67780    9.67780  160.23590    6.24080   92.77350   92.77350   58.51660   58.51660    6.24080    6.72790    6.79150    6.72790 -115.49640   -3.12160    6.79150
 3150.00000   10.62760   10.62760  245.54340    4.07260   95.08460   95.08460   67.55460   67.55460    4.07260    4.39800    4.65970    4.39800 -114.03840   -2.02720    4.65970
 3200.00000   10.92800   10.92800  246.74910    4.05270   99.64160   99.64160   80.47540   80.47540    4.05270    4.38710    4.88950    4.38710 -112.83960   -1.13920    4.88950
 3250.00000   10.74780   10.74780  169.38240    5.90380   90.74070   90.74070   77.88990   77.88990    5.90380    6.38470    7.18920    6.38470 -113.35260   -1.77590    7.18920
 3300.00000   11.91690   11.91690  170.84130    5.85340   97.33820   97.33820   87.28140   87.28140    5.85340    6.15000    6.50690    6.15000 -116.51380   -5.06010    6.50690
 3350.00000   11.17770   11.17770  147.90710    6.76100   88.90290   88.90290   85.38070   85.38070    6.76100    7.14680    7.58080    7.14680 -115.90730   -4.57790    7.58080
