~Version ---------------------------------------------------
VERS.      2.0 : CWLS log ASCII Standard -VERSION 2.0
WRAP.       NO : One line per depth step
CREA. 01/05/18 : LAS Creation Date
~Well ------------------------------------------------------
STRT.FT                   300.0 : START DEPTH
STOP.FT                 11550.0 : STOP DEPTH
STEP.FT                50.00000 : STEP LENGTH
NULL.                   -999.25 : NULL VALUE
COMP.      MOBIL OIL CANADA LTD : COMPANY
WELL. MOBIL PINEDALE 6-29-54-16 : WELL
FLD .                           : FIELD
LOC .                           : LOCATION
CTRY.                    CANADA : COUNTRY
SRVC.    Schlumberger of Canada : SERVICE COMPANY
DATE.               02-Oct-1968 : LOGDATE
PROV.                   Alberta : PROVINCE
UWI .          100062905416W500 : UNIQUE WELL ID
SLAT.WGS84             53.69074 : SURFACE LATITUDE
SLON.WGS84            -116.3264 : SURFACE LONGITUDE
~Curve Information -----------------------------------------
DEPT    .FT    : Depth Curve
CALDED  .IN    : CALIPER FROM DENSITY LOG [ADJ. TO RESISTIVITY LOG]
CALNED  .IN    : CALIPER FROM NEUTRON LOG [ADJ. TO RESISTIVITY LOG]
CALSED  .IN    : CALIPER FROM SONIC LOG [ADJ. TO RESISTIVITY LOG]
CALWS   .IN    : CALIPER [CALSED]
CILDED  .MMHO  : DEEP INDUCTION CONDUCTIVITY FROM RESISTIVITY LOG
CONDWS  .MMHO  : CONDUCTIVITY [1000/DRESWS]
DCORED  .G/C3  : DENSITY CORRECTION FROM DENSITY LOG [ADJ. TO RESISTIVITY LOG]
DCORWS  .G/C3  : DENSITY CORRECTION [DCORED]
DENWS   .G/C3  : FORMATION BULK DENSITY [RHOBED]
DPHILSED.V/V   : DENSITY POROSITY LIMESTONE [M=2.71,F=1.0] FROM DENSITY LOG [ADJ. TO RESISTIVITY LOG]
DPOLSWS .V/V   : DENSITY POROSITY LIMESTONE [CALC. FROM DENWS M=2.71,F=1.0]
DRESWS  .OHMM  : DEEP RESISTIVITY [1000/CILDED IF ILDED <5, ILDED]
DTED    .US/F  : DELTA-T FROM SONIC LOG [ADJ. TO RESISTIVITY LOG]
DTWS    .US/F  : COMPRESSIONAL SONIC [DTED]
GRDED   .GAPI  : GAMMA RAY FROM DENSITY LOG [ADJ. TO RESISTIVITY LOG]
GRNED   .GAPI  : GAMMA RAY FROM NEUTRON LOG [ADJ. TO RESISTIVITY LOG]
GRSED   .GAPI  : GAMMA RAY FROM SONIC LOG [ADJ. TO RESISTIVITY LOG]
GRWS    .GAPI  : GAMMA RAY [GRSED SPL. TO GRDED @ 11555']
ILDED   .OHMM  : DEEP INDUCTION FROM RESISTIVITY LOG
NPOLSWS .V/V   : NEUTRON POROSITY LIMESTONE [SNPLSED]
RHOBED  .G/C3  : BULK DENSITY FROM DENSITY LOG [ADJ. TO RESISTIVITY LOG]
SNED    .OHMM  : SHORT NORMAL FROM RESISTIVITY LOG
SNPLSED .V/V   : SIDEWALL NEUTRON POROSITY LIMESTONE FROM NEUTRON LOG [ADJ. TO RESISTIVITY LOG]
SPRED   .MV    : SPONTANEOUS POTENTIAL FROM RESISTIVITY LOG
SPWS    .MV    : SPONTANEOUS POTENTIAL [BASELINE 0 MV, SPRED]
SRESWS  .OHMM  : SHALLOW RESISTIVITY [SNED]
~Params ----------------------------------------------------
DATE.               10/02/68 : RUN DATE
RUN .                      1 : RUN NUMBER
CLNT.                A2DTECH : CLIENT CODE
ORIG.               5" PRINT : ORIGIN OF DATA
UWI .       100062905416W500 : UNIQUE WELL ID
DICO. A2D Technologies, Inc. : DIGITIZING COMPANY
~Other -----------------------------------------------------
IEL & SNP & FDC & BHC SONIC LOG RAN
SPRED,SNED,ILDED & CILDED VERIFY FROM SMALL SECTION FROM TOP - 6470'
~ASCII -----------------------------------------------------
# ...
 3000.00000    -999.25    -999.25   12.50000   12.50000  142.13250  126.55990    -999.25    -999.25    -999.25    -999.25    -999.25    7.90140   83.15800   83.15800    -999.25    -999.25   61.62730   61.62730    7.90140    -999.25    -999.25    6.29000    -999.25 -135.37050   -5.29270    6.29000
 3050.00000    -999.25    -999.25   12.29930   12.29930  144.79150  138.05290    -999.25    -999.25    -999.25    -999.25    -999.25    7.24360   85.53490   85.53490    -999.25    -999.25   65.30890   65.30890    7.24360    -999.25    -999.25    6.51390    -999.25 -133.57000   -6.36580    6.51390
 3100.00000    -999.25    -999.25   10.44870   10.44870   68.54160   60.03590    -999.25    -999.25    -999.25    -999.25    -999.25   16.65670   74.25120   74.25120    -999.25    -999.25   81.91670   81.91670   16.65670    -999.25    -999.25   13.31940    -999.25 -129.72520   -5.41360   13.31940
 3150.00000    -999.25    -999.25   12.26660   12.26660  192.82840  167.01180    -999.25    -999.25    -999.25    -999.25    -999.25    5.98760  102.17420  102.17420    -999.25    -999.25   64.08790   64.08790    5.98760    -999.25    -999.25    5.68400    -999.25 -120.74800   -3.02840    5.68400
 3200.00000    -999.25    -999.25   10.72070   10.72070  361.60340  361.60340    -999.25    -999.25    -999.25    -999.25    -999.25    2.79440   93.03460   93.03460    -999.25    -999.25   87.21030   87.21030    3.49380    -999.25    -999.25    3.99140    -999.25 -114.21010   -3.79330    3.99140
 3250.00000    -999.25    -999.25   10.65590   10.65590  145.65500  136.42940    -999.25    -999.25    -999.25    -999.25    -999.25    7.32980   99.21570   99.21570    -999.25    -999.25   74.40950   74.40950    7.32980    -999.25    -999.25    7.66660    -999.25 -108.35740   -3.05750    7.66660
 3300.00000    -999.25    -999.25   10.35000   10.35000   44.59050   37.33610    -999.25    -999.25    -999.25    -999.25    -999.25   26.78370   72.34160   72.34160    -999.25    -999.25   61.34760   61.34760   26.78370    -999.25    -999.25   18.60090    -999.25 -106.77440   -5.51180   18.60090
 3350.00000    -999.25    -999.25   11.53200   11.53200  203.12280  182.65840    -999.25    -999.25    -999.25    -999.25    -999.25    5.47470   90.99470   90.99470    -999.25    -999.25   70.33230   70.33230    5.47470    -999.25    -999.25    5.10050    -999.25  -97.19710   -4.60390    5.10050
 3400.00000    -999.25    -999.25   10.73010   10.73010  127.01080  103.58940    -999.25    -999.25    -999.25    -999.25    -999.25    9.65350   85.72040   85.72040    -999.25    -999.25   53.24560   53.24560    9.65350    -999.25    -999.25    8.82410    -999.25  -90.34330   -7.01160    8.82410
 3450.00000    -999.25    -999.25   14.55810   14.55810  460.60900  460.60900    -999.25    -999.25    -999.25    -999.25    -999.25    2.17140  107.59520  107.59520    -999.25    -999.25   73.64430   73.64430    3.54390    -999.25    -999.25    2.88350    -999.25  -92.37470   -8.72240    2.88350
 3500.00000    -999.25    -999.25   10.83460   10.83460  104.69380   94.61900    -999.25    -999.25    -999.25    -999.25    -999.25   10.56870   81.64990   81.64990    -999.25    -999.25   50.46670   50.46670   10.56870    -999.25    -999.25    9.53250    -999.25 -118.68880  -30.59950    9.53250
 3550.00000    -999.25    -999.25   11.40760   11.40760  220.77590  184.88390    -999.25    -999.25    -999.25    -999.25    -999.25    5.40880   94.42050   94.42050    -999.25    -999.25   64.77610   64.77610    5.40880    -999.25    -999.25    4.92320    -999.25  -94.89450   -7.34740    4.92320
 3600.00000    -999.25    -999.25   12.97610   12.97610  186.58570  160.91140    -999.25    -999.25    -999.25    -999.25    -999.25    6.21460  108.94940  108.94940    -999.25    -999.25   56.56100   56.56100    6.21460    -999.25    -999.25    6.02640    -999.25  -98.18600   -5.27200    6.02640
 3650.00000    -999.25    -999.25   12.80960   12.80960  152.48130  135.57670    -999.25    -999.25    -999.25    -999.25    -999.25    7.37590   84.90680   84.90680    -999.25    -999.25   54.71110   54.71110    7.37590    -999.25    -999.25    6.85920    -999.25  -91.63010   -8.30520    6.85920
 3700.00000    -999.25    -999.25   11.79670   11.79670   65.77040   63.26390    -999.25    -999.25    -999.25    -999.25    -999.25   15.89730   82.24240   82.24240    -999.25    -999.25   35.67210   35.67210   15.89730    -999.25    -999.25   12.60410    -999.25 -101.61800  -20.34650   12.60410
 3750.00000    -999.25    -999.25   12.50940   12.50940  130.71260  119.38300    -999.25    -999.25    -999.25    -999.25    -999.25    8.37640   84.42510   84.42510    -999.25    -999.25   55.11540   55.11540    8.37640    -999.25    -999.25    7.91230    -999.25  -84.15380   -4.92220    7.91230
 3800.00000    -999.25    -999.25   10.22630   10.22630   40.30950   36.28040    -999.25    -999.25    -999.25    -999.25    -999.25   27.56310   81.67310   81.67310    -999.25    -999.25   33.39770   33.39770   27.56310    -999.25    -999.25   22.83490    -999.25  -94.55790  -12.47780   22.83490
 3850.00000    -999.25    -999.25   11.40160   11.40160  146.11740  124.04020    -999.25    -999.25    -999.25    -999.25    -999.25    8.06190   78.91510   78.91510    -999.25    -999.25   54.14880   54.14880    8.06190    -999.25    -999.25    6.42750    -999.25  -93.30920   -7.97800    6.42750
 3900.00000    -999.25    -999.25   11.09180   11.09180   32.57800   23.86180    -999.25    -999.25    -999.25    -999.25    -999.25   41.90790   78.23300   78.23300    -999.25    -999.25   33.93140   33.93140   41.90790    -999.25    -999.25   28.23020    -999.25 -101.40120  -12.84020   28.23020
 3950.00000    -999.25    -999.25   10.39880   10.39880   47.39520   40.62430    -999.25    -999.25    -999.25    -999.25    -999.25   24.61890   79.26000   79.26000    -999.25    -999.25   33.69980   33.69980   24.61890    -999.25    -999.25   18.96490    -999.25 -111.32060  -19.50850   18.96490
 4000.00000    -999.25    -999.25   11.05710   11.05710   90.11590   78.85130    -999.25    -999.25    -999.25    -999.25    -999.25   12.68210   81.48270   81.48270    -999.25    -999.25   47.05980   47.05980   12.68210    -999.25    -999.25   11.10800    -999.25  -98.15140   -3.18220   11.10800
 4050.00000    -999.25    -999.25   11.82200   11.82200  208.86770  177.95180    -999.25    -999.25    -999.25    -999.25    -999.25    5.61950   93.76000   93.76000    -999.25    -999.25   53.91750   53.91750    5.61950    -999.25    -999.25    5.37120    -999.25 -103.29970   -8.78520    5.37120
 4100.00000    -999.25    -999.25   11.13130   11.13130  137.21300  127.24750    -999.25    -999.25    -999.25    -999.25    -999.25    7.85870   85.04340   85.04340    -999.25    -999.25   55.63330   55.63330    7.85870    -999.25    -999.25    6.79590    -999.25 -103.58960   -9.53280    6.79590
 4150.00000    -999.25    -999.25   11.30820   11.30820  170.32420  143.41030    -999.25    -999.25    -999.25    -999.25    -999.25    6.97300   93.36050   93.36050    -999.25    -999.25   47.20500   47.20500    6.97300    -999.25    -999.25    6.92330    -999.25 -102.63090   -9.02880    6.92330
 4200.00000    -999.25    -999.25   10.20750   10.20750   98.04270   90.36540    -999.25    -999.25    -999.25    -999.25    -999.25   11.06860   76.88660   76.88660    -999.25    -999.25   53.69550   53.69550   11.06860    -999.25    -999.25    9.54490    -999.25  -95.69460   -5.21070    9.54490
 4250.00000    -999.25    -999.25   10.04340   10.04340  143.67180  118.66620    -999.25    -999.25    -999.25    -999.25    -999.25    8.42700   80.34640   80.34640    -999.25    -999.25   56.44000   56.44000    8.42700    -999.25    -999.25    8.20090    -999.25  -89.80790   -2.88940    8.20090
 4300.00000    -999.25    -999.25   10.36920   10.36920  113.79000  101.19310    -999.25    -999.25    -999.25    -999.25    -999.25    9.88210   83.85120   83.85120    -999.25    -999.25   53.74780   53.74780    9.88210    -999.25    -999.25    9.42900    -999.25  -93.24280   -7.46970    9.42900
