~Version ---------------------------------------------------
VERS.      2.0 : CWLS log ASCII Standard -VERSION 2.0
WRAP.       NO : One line per depth step
CREA. 10/26/17 : LAS Creation Date
~Well ------------------------------------------------------
STRT.FT                     1150.0 : START DEPTH
STOP.FT                    11150.0 : STOP DEPTH
STEP.FT                   50.00000 : STEP LENGTH
NULL.                      -999.25 : NULL VALUE
COMP.            TRIAD OIL CO. LTD : COMPANY
WELL. TRIAD PAN AM ANTE 2-27-66-25 : WELL
FLD .                              : FIELD
LOC .                              : LOCATION
CTRY.                       CANADA : COUNTRY
SRVC.                   Lane Wells : SERVICE COMPANY
DATE.                  15-Aug-1967 : LOGDATE
PROV.                      Alberta : PROVINCE
UWI .             100022706625W500 : UNIQUE WELL ID
SLAT.WGS84                54.73614 : SURFACE LATITUDE
SLON.WGS84                 -117.69 : SURFACE LONGITUDE
~Curve Information -----------------------------------------
DEPT  .FT    : Depth Curve
CALSED.IN    : CALIPER FROM SONIC LOG
CALWS .IN    : CALIPER [CALSED]
CONDWS.MMHO  : CONDUCTIVITY [1000/DRESWS]
DRESWS.OHMM  : DEEP RESISTIVITY [ILDED]
DTED  .US/F  : DELTA TIME FROM SONIC LOG
DTWS  .US/F  : DELTA TIME [DTED]
GRSED .GAPI  : GAMMA RAY FROM SONIC LOG
GRWS  .GAPI  : GAMMA RAY [GRSED]
ILDED .OHMM  : INDUCTION LOG DEEP RESISTIVITY
SNED  .OHMM  : 16 INCH SHORT NORMAL RESISTIVITY FROM IEL
SPRED .MV    : SPONTANEOUS POTENTIAL FROM RESISTIVITY LOG
SPWS  .MV    : SPONTANEOUS POTENTIAL [BASELINE 0 MV] [SPRED]
SRESWS.OHMM  : SHALLOW RESISTIVITY [SNED]
~Params ----------------------------------------------------
PD  .                     GL : PERMANENT DATUM
EPD .FT               2399.7 : ELEVATION PERMANENT DATUM
LMF .                     KB : LOG MEASURED FROM
DAPD.FT                   15 : FEET ABOVE PERMANENT DATUM
DMF .                     KB : DRILLING MEASURED FROM
EKB .FT               2414.7 : KELLY BUSHING
EGL .FT               2399.7 : GROUND LEVEL
DATE.               08/15/67 : RUN DATE
RUN .                      1 : RUN NUMBER
DD  .FT                11172 : DEPTH DRILLER
DL  .FT                11160 : DEPTH LOGGER
BLI .FT                11156 : BOTTOM LOG INTERVAL
TLI .FT                 1144 : TOP LOG INTERVAL
CS  .IN                9.625 : CASING SIZE
CBD .FT                 1145 : CASING BOTTOM DRILLER
CBL .FT                 1144 : CASING BOTTOM LOGGER
BS  .IN                7.625 : BIT SIZE
BSD .FT                11172 : BIT SIZE AT DEPTH
DFT .                MUD GEL : DRILLING FLUID TYPE
DFD .                    9.9 : DRILLING FLUID DENSITY
DFV .                     89 : DRILLING FLUID VISCOSITY
DFPH.                      9 : DRILLING FLUID PH
DFL .                    7.2 : DRILLING FLUID LOSS
MSS .                   CIRC : MUD SAMPLE SOURCE
RMS .OHMM                3.0 : RESISTIVITY MUD SAMPLE
MST .DEGF                 86 : MUD SAMPLE TEMPERATURE
RMF .OHMM                2.4 : RESISTIVITY MUD FILTRATE SAMPLE
MFST.DEGF                 86 : MUD FILTRATE SAMPLE TEMPERATURE
RMC .OHMM                3.2 : RESISTIVITY MUD CAKE
MCST.DEGF                 86 : MUD CAKE SAMPLE TEMPERATURE
MFSS.                   MEAS : MUD FILTRATE SAMPLE SOURCE
MCSS.                   MEAS : MUD CAKE SAMPLE SOURCE
RMB .OHMM                1.2 : RESISTIVITY MUD AT BHT
TCS .HRS                   6 : TIME CIRCULATED STOPPED
LUN .                   1256 : LOGGING UNIT NUMBER
LUL .                    EDM : LOGGING UNIT LOCATION
ENGI.      KOWALCHUK DOMSTAD : RECORDING ENGINEER
WITN.            DANIELEWICZ : WITNESSED BY
CLNT.                A2DTECH : CLIENT CODE
ORIG.            2" 5" PRINT : ORIGIN OF DATA
UWI .       100022706625W500 : UNIQUE WELL ID
DICO. A2D Technologies, Inc. : DIGITIZING COMPANY
~Other -----------------------------------------------------
~ASCII -----------------------------------------------------
# ...
 6350.00000   15.98690   15.98690  191.91250    5.21400  141.57620  141.57620   93.61300   93.78820    5.23080    5.97940  -64.90250  -18.68430    6.00510
 6400.00000    9.14700    9.14700   10.27560   97.31800   89.45000   89.45000  107.80700  107.80700   97.31800  168.93400  -77.18900  -32.13130  168.93400
 6450.00000    8.84790    8.84790   29.78350   34.10570  104.30560  104.30560  207.44050  206.05720   34.33220   72.40480  -85.83250  -41.94690   71.87550
 6500.00000    9.97200    9.97200   52.69460   18.97780   70.31110   70.31110  109.21450  109.08630   19.06700   34.04900  -75.74110  -33.02190   34.01360
 6550.00000    9.88610    9.88610   78.79290   12.69150   64.50970   64.50970   98.10250   98.10250   12.69150   22.60800  -72.80400  -31.24530   22.60800
 6600.00000    9.41620    9.41620  140.16570    7.13580   66.11120   66.11120   96.83090   96.80760    7.13610   23.58430 -105.02140  -64.63480   23.38900
 6650.00000    9.46510    9.46510  115.66580    8.64560   78.44020   78.44020  105.91460  105.91460    8.64560   15.64930  -76.75800  -37.53200   15.64930
 6700.00000    9.07440    9.07440   56.52060   17.70030   64.15300   64.15300   94.63950   94.41580   17.58580   37.24030  -53.71790  -15.66410   37.41490
 6750.00000    9.33600    9.33600   48.30360   20.70400   76.00110   76.00110   94.32570   94.85180   20.70580   37.46970  -58.55530  -21.66790   37.46860
 6800.00000    9.24970    9.24970   56.92560   17.56680   83.96210   83.96210  105.28120  105.28120   17.56680   30.41900  -60.81820  -25.09120   30.41900
 6850.00000    9.76350    9.76350   54.41990   18.37570   74.31400   74.31400  108.13440  107.80200   18.37600   33.43220  -51.88910  -17.33430   33.44550
 6900.00000   10.06760   10.06760   40.88240   24.46040   77.22370   77.22370  109.14130  109.14130   24.46040   44.31220  -36.76370   -3.27530   44.31220
 6950.00000    8.39680    8.39680   87.11300   11.47940   75.47300   75.47300   31.49470   31.61270   11.48030   73.12210 -170.06730 -137.02340   73.09630
 7000.00000    9.28800    9.28800   78.77010   12.69570   65.42530   65.42530   64.40800   64.24170   12.71700   24.91300  -84.68860  -52.08710   24.91340
 7050.00000   11.03590   11.03590   47.53240   21.03830   61.42120   61.42120   52.42290   52.42290   21.03830   40.13340  -76.69010  -44.52860   40.13340
 7100.00000    8.95700    8.95700    8.34580  119.84620   53.76170   53.76170   34.49690   34.72290  120.33150  174.02400  -64.80540  -33.08850  173.78370
 7150.00000    8.85720    8.85720   13.29530   75.21440   56.48370   56.48370   46.32600   46.32600   75.21440  140.54610  -45.35310  -14.07630  140.54610
 7200.00000    9.03010    9.03010   27.18110   36.91310   60.52750   60.52750   46.89430   46.22810   36.77840   71.04850  -99.91630  -69.08410   71.05090
 7250.00000    9.13600    9.13600  263.00350    3.80230   79.07920   79.07920   45.77000   46.25720    3.80200   28.29300 -160.14340 -129.75340   28.28870
 7300.00000    9.16590    9.16590  136.30660    7.33640   66.82020   66.82020   46.27920   46.27920    7.33640   28.45570 -108.62370  -78.67380   28.45570
 7350.00000    8.31720    8.31720  120.23290    8.31840   71.02170   71.02170   40.79500   40.71650    8.24230   46.92100 -156.21740 -126.71200   49.21870
 7400.00000    9.68110    9.68110   30.02290   33.30790   49.58990   49.58990   30.68080   30.68080   33.30790  138.21390  -83.37180  -54.30660  138.21390
 7450.00000    7.91950    7.91950  237.97780    4.21470   68.91060   68.91060   46.59810   45.38380    4.22810   54.30610 -179.70400 -151.08330   55.10000
 7500.00000    8.84800    8.84800  112.33400    9.09740   66.80060   66.80060   50.78300   50.40330    8.82500   24.48200  -84.98970  -56.81130   24.37440
 7550.00000    9.13190    9.13190   14.68320   68.10490   62.84980   62.84980   31.64400   31.64400   68.10490  121.38840  -98.93350  -71.13380  121.38840
 7600.00000    9.75560    9.75560   12.86180   78.08940   55.43850   55.43850   40.60070   40.59790   77.82800   97.29320  -55.75130  -28.26750   97.27690
 7650.00000    9.58000    9.58000  155.78750    6.41900   71.19800   71.19800   46.35200   46.35200    6.41900   19.29100  -84.81100  -57.64000   19.29100
 7700.00000   10.13930   10.13930   52.51770   19.04350   52.33700   52.33700   26.75580   27.17800   19.05570   65.16200 -119.98820  -93.13320   65.02250
 7750.00000    9.31500    9.31500   57.77530   17.33750   67.49930   67.49930   42.04280   42.08310   17.34830   75.74080  -71.35590  -44.81510   75.74140
 7800.00000    9.08760    9.08760   49.06800   20.37990   68.23950   68.23950   53.18200   53.18200   20.37990   47.65490  -58.78020  -32.55220   47.65490
 7850.00000   10.34090   10.34090    9.91400  100.89240   52.22940   52.22940   23.66230   23.76010   99.84580  290.38950 -100.16660  -74.25460  289.27860
 7900.00000    8.67900    8.67900   58.94490   16.96500   66.31700   66.31700   28.86000   28.86000   16.96500  115.49400 -147.08000 -121.48070  115.49400
 7950.00000    9.60440    9.60440   11.56400   86.53660   62.18030   62.18030   22.48730   22.47270   86.39030  135.51180 -136.97800 -111.69460  135.78870
 8000.00000    9.29800    9.29800   11.76970   84.96380   54.37550   54.37550   25.08060   25.45530   82.33600  118.19800  -85.85040  -60.88140  117.05620
 8050.00000    9.15470    9.15470  167.75430    5.96110   61.00310   61.00310   64.48680   64.48680    5.96110    9.96500  -68.56080  -43.90460    9.96500
 8100.00000    9.43630    9.43630   84.72820   11.80550   68.52920   68.52920   80.77510   80.43070   11.80580   23.62040  -45.77130  -21.43100   23.63320
 8150.00000    9.71250    9.71250   65.95480   15.16190   66.93300   66.93300   63.18990   63.18990   15.16190   20.68000  -40.65780  -16.63030   20.68000
 8200.00000   10.36630   10.36630   56.13370   18.11380   67.58260   67.58260   59.98990   60.27710   18.26980   40.62360  -42.44270  -18.73110   40.56700
 8250.00000    9.67500    9.67500   60.97520   16.42980   71.54190   71.54190   60.19000   60.30550   16.42900   30.92600  -39.47000  -16.07270   30.90760
 8300.00000    8.63220    8.63220   13.56310   73.72940   62.50850   62.50850   48.59300   48.59300   73.72940  102.40080  -46.83810  -23.75360  102.40080
 8350.00000    8.44000    8.44000   36.15930   27.65650   62.47330   62.47330   67.43220   67.69360   27.62050   45.62810  -39.39720  -16.62870   45.68140
 8400.00000    8.42950    8.42950   15.30500   65.33810   55.13720   55.13720   45.97480   45.97480   65.33810   94.73810  -41.48070  -19.02490   94.73810
 8450.00000    9.53720    9.53720   62.59700   15.97550   71.77010   71.77010   81.64490   83.40980   16.00860   23.74310  -48.42060  -26.28080   23.74170
 8500.00000    8.64900    8.64900   39.32050   25.43400   70.72090   70.72090   70.58100   71.66230   25.49000   39.77200  -42.65610  -20.83050   39.80800
 8550.00000    8.27040    8.27040   12.03950   83.05960   68.96850   68.96850   45.37620   45.37620   83.05960   99.01570  -52.45160  -30.93880   99.01570
 8600.00000    8.42490    8.42490   27.32360   36.62250   60.48510   60.48510   59.29600   60.73940   36.62300   73.39280  -32.20570  -11.00880   73.39020
 8650.00000   10.72990   10.72990   14.69940   68.03010   70.26840   70.26840   36.37290   36.37290   68.03010  133.87490  -62.41820  -41.53410  133.87490
 8700.00000    8.65300    8.65300    7.74810  129.10380   53.34020   53.34020   31.56100   34.82180  128.79990  298.61580  -75.17120  -54.61100  298.67850
 8750.00000    9.24500    9.24500    4.51550  221.46310   48.79530   48.79530   21.84200   22.49380  221.10500  248.87600  -69.60430  -49.38140  248.87310
 8800.00000    9.57650    9.57650    4.47280  223.57250   48.93290   48.93290   22.51150   22.51150  223.57250  265.83270  -60.59320  -40.70610  265.83270
 8850.00000    9.73580    9.73580    2.79160  358.26320   55.52860   55.52860   25.73550   25.73530  358.27430  232.58860  -86.79230  -67.24430  232.58780
 8900.00000   11.61400   11.61400    3.04330  328.58700   46.27400   46.27400   20.77200   20.77200  328.58700  231.53400  -77.54900  -58.33660  231.53400
