~Version ---------------------------------------------------
VERS.      2.0 : CWLS log ASCII Standard -VERSION 2.0
WRAP.      YES : MULTIPLE LINES PER DEPTH STEP
CREA. 03/19/14 : LAS CREATION DATE
~Well ------------------------------------------------------
STRT.M                          450.0 : START DEPTH
STOP.M                         3150.0 : STOP DEPTH
STEP.M                       50.00000 : STEP LENGTH
NULL.                          -999.0 : NULL VALUE
COMP.          DOME PETROLEUM LIMITED : COMPANY
WELL. DOME UNION FOX CREEK 5-36-61-18 : WELL
FLD .                                 : FIELD
LOC .                                 : LOCATION
CTRY.                          CANADA : COUNTRY
SRVC.                    Schlumberger : SERVICE COMPANY
DATE.                     02-Mar-1983 : LOGDATE
PROV.                         Alberta : PROVINCE
UWI .                100053606118W500 : UNIQUE WELL ID
SLAT.WGS84                    54.3159 : SURFACE LATITUDE
SLON.WGS84                  -116.5694 : SURFACE LONGITUDE
~Curve Information -----------------------------------------
DEPT    .M      : DEPTH METERS
CALDED  .MM     : CALIPER FROM DENSITY LOG
CALSED  .MM     : CALIPER FROM SONIC LOG
CALWS   .MM     : CALIPER [CALSED]
CONDWS  .MMHO   : CONDUCTIVITY [1000/DRESWS]
DCORWS  .KG/M3  : DENSITY CORRECTION [DRHOED]
DENWS   .KG/M3  : BULK DENSITY [M=2650/2710 AT 2025.2 F=1000] [CALCULATED FROM DPHISSED/DPHILSED]
DPHILSED.V/V    : DENSITY POROSITY [M=2710 F=1000] FROM DENSITY LOG
DPHISSED.V/V    : DENSITY POROSITY [M=2650 F=1000] FROM DENSITY LOG
DPOLSWS .V/V    : DENSITY POROSITY LIMESTONE [M=2710 F=1000] [CALCULATED FROM DENWS]
DRESWS  .OHMM   : DEEP RESISTIVITY [ILDED]
DRHOED  .KG/M3  : DENSITY CORRECTION FROM DENSITY LOG
DTED    .US/M   : DELTA TIME FROM SONIC LOG
DTWS    .US/M   : DELTA TIME [DTED]
GRDED   .GAPI   : GAMMA RAY FROM DENSITY LOG
GRSED   .GAPI   : GAMMA RAY FROM SONIC LOG
GRWS    .GAPI   : GAMMA RAY [GRSED] BULK SHIFTED +30API IN CASED HOLE @436m
ILDED   .OHMM   : INDUCTION LOG DEEP RESISTIVITY
ILMED   .OHMM   : INDUCTION LOG MEDIUM RESISTIVITY
MRESWS  .OHMM   : MEDIUM RESISTIVITY [ILMED]
NPHILSED.V/V    : NEUTRON POROSITY LIMESTONE FROM DENSITY LOG
NPHISSED.V/V    : NEUTRON POROSITY SANDSTONE FROM DENSITY LOG
NPOLSWS .V/V    : NEUTRON POROSITY LIMESTONE [NPHISSED CONVERTED TO LIMESTONE IN POWER LOG FROM TOP TO 2025.2, THEN, NPHILSED TO BOTTOM]
RHOBED  .KG/M3  : BULK DENSITY FROM DENSITY LOG
SFLUED  .OHMM   : SPHERICALLY FOCUSED LOG RESISTIVITY
SPRED   .MV     : SPONTANEOUS POTENTIAL FROM RESISTIVITY LOG
SPWS    .MV     : SPONTANEOUS POTENTIAL [SHIFTED/BASELINE 0 MV] [SPRED]
SRESWS  .OHMM   : SHALLOW RESISTIVITY [SFLUED]
TENDED  .KG     : TENSION FROM DENSITY LOG
TENRED  .LBF    : TENSION FROM RESISTIVITY LOG
~Params ----------------------------------------------------
PD  .                         GL : PERMANENT DATUM
EPD .M                     862.2 : ELEVATION PERMANENT DATUM
LMF .                         KB : LOG MEASURED FROM
DAPD.M                       6.8 : FEET ABOVE PERMANENT DATUM
DMF .                         KB : DRILLING MEASURED FROM
EKB .M                       869 : KELLY BUSHING
EGL .M                     862.2 : GROUND LEVEL
DATE.                 03/02/1983 : RUN DATE
RUN .                          1 : RUN NUMBER
DD  .M                      3170 : DEPTH DRILLER
DL  .M                    3169.5 : DEPTH LOGGER
BLI .M                    3168.6 : BOTTOM LOG INTERVAL
TLI .M                       436 : TOP LOG INTERVAL
CS  .MM                    244.5 : CASING SIZE
CBD .M                       436 : CASING BOTTOM DRILLER
CBL .M                       436 : CASING BOTTOM LOGGER
BS  .MM                    222.2 : BIT SIZE
BSD .M                      3170 : BIT SIZE AT DEPTH
DFT .                   GEL CHEM : DRILLING FLUID TYPE
DFD .                       1120 : DRILLING FLUID DENSITY
DFV .                         70 : DRILLING FLUID VISCOSITY
DFPH.                         10 : DRILLING FLUID PH
DFL .                         11 : DRILLING FLUID LOSS
MSS .                   FLOWLINE : MUD SAMPLE SOURCE
RMS .OHMM                   1.77 : RESISTIVITY MUD SAMPLE
MST .DEGC                   8.33 : MUD SAMPLE TEMPERATURE
RMF .OHMM                   1.45 : RESISTIVITY MUD FILTRATE SAMPLE
MFST.DEGC                   12.7 : MUD FILTRATE SAMPLE TEMPERATURE
MFSS.                      PRESS : MUD FILTRATE SAMPLE SOURCE
RMB .OHMM                  0.457 : RESISTIVITY MUD AT BHT
TCS .HRS                    1100 : TIME CIRCULATED STOPPED
TLAB.HRS                     200 : TIME LOGGER AT BOTTOM
LUN .                       8211 : LOGGING UNIT NUMBER
LUL .                        EDM : LOGGING UNIT LOCATION
ENGI.                    GAGGINO : RECORDING ENGINEER
WITN.                     FRASER : WITNESSED BY
CLNT.                    A2DTECH : CLIENT CODE
ORIG. 6.5"/100M 16.5"/100M PRINT : ORIGIN OF DATA
UWI .           100053606118W500 : UNIQUE WELL ID
DICO.     A2D Technologies, Inc. : DIGITIZING COMPANY
~Other -----------------------------------------------------
~ASCII -----------------------------------------------------
# ...
 1700.00000  249.60460  249.46500  249.46500   72.85970   -3.45500 2529.87990     -999.0    0.07280    0.10530   13.72500   -3.45500  238.77290  238.77290   76.34280   69.54640   69.54640   13.72500   14.31200   14.31200     -999.0    0.24590    0.20200 2531.89040   15.67460  -22.52870  -16.93970   15.67460 1123.79520 2718.81080
 1750.00000  276.78270  277.56180  277.56180   86.91950    6.20870 2524.92990     -999.0    0.07580    0.10820   11.50490    6.20870  237.80680  237.80680   50.05180   46.43010   46.43010   11.50490   10.91740   10.91740     -999.0    0.18980    0.14650 2522.69040   11.62460   -7.65990  -35.80930   11.62460 1154.71910 2829.69650
 1800.00000  270.15350  239.26490  239.26490  112.39620   14.70460 2460.41500     -999.0    0.11490    0.14600    8.89710   14.70460  244.42660  244.42660   58.15210   55.11130   55.11130    8.89710    9.99460    9.99460     -999.0    0.21400    0.17040 2461.22630   12.68820  -30.45860 -122.30380   12.68820 1165.81910 2876.32540
 1850.00000  277.73450  260.79360  260.79360  106.06820   32.96120 2638.61500     -999.0    0.00690    0.04170    9.42790   32.96120  244.88630  244.88630   79.42470   73.12330   73.12330    9.42790   10.95630   10.95630     -999.0    0.24660    0.20270 2632.96220   12.81650   79.75130  -33.20230   12.81650 1187.17860 2919.06880
 1900.00000  275.49440  267.26140  267.26140   95.72580   32.52170 2532.52000     -999.0    0.07120    0.10380   10.44650   32.52170  235.52510  235.52510   49.57080   62.01550   62.01550   10.44650   11.32390   11.32390     -999.0    0.21920    0.17550 2533.90530   15.51510   29.47590  -45.00190   15.51510 1214.81160 2938.46360
 1950.00000  293.01480  287.45850  287.45850  268.23320  186.41320 2326.43510     -999.0    0.19610    0.22430    3.72810  186.41320  289.14250  289.14250   95.56000   89.42440   89.42440    3.72810    3.57450    3.57450     -999.0    0.44870    0.40700 2331.36820    4.41430  -34.68300 -111.82940    4.41430 1224.64500 2977.38160
 2000.00000  241.68260  246.99070  246.99070    3.13130    1.88870 2371.64500     -999.0    0.16870    0.19790  319.35250    1.88870  243.51150  243.51150  227.86800  222.20650  222.20650  319.35250 1808.07410 1808.07410     -999.0    0.24980    0.20590 2373.29200 1832.52270  -18.11800 -106.35770 1832.52270 1257.72710 3061.29170
 2050.00000  241.54900  243.84080  243.84080   81.51950   71.05600 2720.77290   -0.00630   -0.06890   -0.00630   12.26700   71.05600  177.40320  177.40320   32.15870   22.74440   22.74440   12.26700   13.89990   13.89990    0.09610    0.13890    0.09610 2721.20360   22.58000   30.49670  -60.24600   22.58000 1275.57460 3097.41160
 2100.00000  243.78360  265.08510  265.08510  206.67560   13.50670 2727.78390   -0.01040     -999.0   -0.01040    4.83850   13.50670  188.43720  188.43720   50.51200   45.62210   45.62210    4.83850    5.81060    5.81060    0.09410     -999.0    0.09410 2721.97750   13.96330   37.81650  -50.34080   13.96330 1291.85180 3149.67210
 2150.00000  252.59960  253.32000  253.32000   29.54710   41.87000 2682.98190    0.01580     -999.0    0.01580   33.84430   41.87000  176.69940  176.69940   15.77910   15.74660   15.74660   33.84430   45.13590   45.13590    0.01580     -999.0    0.01580 2669.08130  144.02970  -43.00070 -124.91850  144.02970 1318.88680 3162.07320
 2200.00000  290.00700  287.08920  287.08920  330.30550   43.79580 2704.18600    0.00340     -999.0    0.00340    3.02750   43.79580  206.04080  206.04080   38.76490   40.11600   40.11600    3.02750    3.39860    3.39860    0.06940     -999.0    0.06940 2695.38550    9.89290 -116.48710 -182.08260    9.89290 1351.39140 3273.82860
 2250.00000  235.95420  240.01100  240.01100   31.72890    1.86420 2710.85500   -0.00050     -999.0   -0.00050   31.51700    1.86420  181.15280  181.15280   37.31020   37.14950   37.14950   31.51700   33.86080   33.86080    0.03260     -999.0    0.03260 2704.52120   47.27300  -42.39950  -85.28640   47.27300 1365.18050 3301.46780
 2300.00000  229.43020  237.46950  237.46950    9.10570   17.06980 2713.76200   -0.00220     -999.0   -0.00220  109.82160   17.06980  174.33990  174.33990   31.84360   24.34810   24.34810  109.82160  128.72980  128.72980    0.01240     -999.0    0.01240 2711.50120  180.99590  -66.35840  -80.64170  180.99590 1399.12780 3324.63310
 2350.00000  240.52500  247.60430  247.60430    4.32950   12.35520 2668.44700    0.02430     -999.0    0.02430  230.97230   12.35520  180.71800  180.71800  162.93470  136.66660  136.66660  230.97230  599.20340  599.20340    0.03820     -999.0    0.03820 2658.84520  746.10490  -41.42910  -27.10880  746.10490 1413.50870 3409.52120
 2400.00000  304.50200  242.34760  242.34760    0.91110  208.65360 2623.81590    0.05040     -999.0    0.05040 1097.58740  208.65360  164.77280  164.77280   10.77630   12.81920   12.81920 1097.58740  628.12370  628.12370    0.01310     -999.0    0.01310 2623.49930  727.80330 -112.87010 -142.40820  727.80330 1442.67990 3463.09350
 2450.00000  203.88850  222.07630  222.07630   27.82300   86.37890 2580.21090    0.07590     -999.0    0.07590   35.94150   86.37890  176.31340  176.31340    9.48050   11.80490   11.80490   35.94150   49.05160   49.05160    0.05520     -999.0    0.05520 2568.28860  108.40630 -117.46340 -194.03680  108.40630 1453.91760 3525.80740
 2500.00000  269.65900  244.98010  244.98010    4.17020  249.58730 2679.90410    0.01760     -999.0    0.01760  239.79430  249.58730  161.87430  161.87430   15.93580   11.50880   11.50880  239.79430  215.61520  215.61520    0.00700     -999.0    0.00700 2649.75560  212.60760  -34.31520 -142.30060  212.60760 1495.44180 3581.93970
 2550.00000  253.36090  230.17510  230.17510    7.46340  168.07920 2718.89210   -0.00520     -999.0   -0.00520  133.98720  168.07920  164.10560  164.10560   14.53890   12.07730   12.07730  133.98720  267.60620  267.60620    0.01140     -999.0    0.01140 2730.32100  216.14910  -10.47100 -116.36220  216.14910 1515.23780 3626.79590
 2600.00000  286.69710  246.26700  246.26700   12.77030  250.61670 2326.27610    0.22440     -999.0    0.22440   78.30690  250.61670  168.63100  168.63100   25.04320   20.61940   20.61940   78.30690  202.09250  202.09250    0.06070     -999.0    0.06070 2353.07500  371.66270  -82.36180 -143.38030  371.66270 1585.78940 3638.99730
 2650.00000  238.22470  246.33930  246.33930   10.95960    0.63600 2697.68800    0.00720     -999.0    0.00720   91.24400    0.63600  170.56370  170.56370   34.44300   30.43850   30.43850   91.24400  111.52990  111.52990    0.01300     -999.0    0.01300 2699.28640  155.63710 -139.43260 -102.30810  155.63710 1569.14890 3742.53440
 2700.00000  233.42660  251.09150  251.09150   12.01340   15.29280 2752.23710   -0.02470     -999.0   -0.02470   83.24050   15.29280  171.96600  171.96600   25.66830   26.03040   26.03040   83.24050   99.91160   99.91160    0.01570     -999.0    0.01570 2751.53490  113.60530 -190.12580 -113.55120  113.60530 1597.03760 3775.98440
 2750.00000  267.38150  276.09360  276.09360  136.81200   23.65190 2642.11300    0.03970     -999.0    0.03970    7.30930   23.65190  225.00090  225.00090   68.28490   64.26840   64.26840    7.30930    7.69850    7.69850    0.16060     -999.0    0.16060 2639.27340    9.49830 -109.14860  -10.16640    9.49830 1621.79390 3835.53760
 2800.00000  266.25110  265.07650  265.07650  110.29620  148.35170 2603.80910    0.06210     -999.0    0.06210    9.06650  148.35170  237.37250  237.37250   91.47540   85.79930   85.79930    9.06650    9.46420    9.46420    0.21530     -999.0    0.21530 2608.74390   11.43410 -124.19560  -25.21340   11.43410 1645.11580 3869.31200
 2850.00000  268.70340  268.60620  268.60620   74.22200  242.45330 2676.48390    0.01960     -999.0    0.01960   13.47310  242.45330  207.33700  207.33700   64.35540   56.93570   56.93570   13.47310   14.07580   14.07580    0.15830     -999.0    0.15830 2722.40230   17.30790 -119.89150  -20.90930   17.30790 1657.23140 3948.36210
 2900.00000  249.66770  256.48160  256.48160   75.39660  169.85870 2731.71700   -0.01270     -999.0   -0.01270   13.26320  169.85870  216.91890  216.91890   85.45170   74.70020   74.70020   13.26320   14.35480   14.35480    0.16770     -999.0    0.16770 2718.01390   20.09720 -115.91880  -16.93660   20.09720 1678.33180 3963.57100
