~Version ---------------------------------------------------
VERS.      2.0 : CWLS log ASCII Standard -VERSION 2.0
WRAP.       NO : One line per depth step
CREA. 12/14/17 : LAS Creation Date
~Well ------------------------------------------------------
STRT.FT                                        800.0 : START DEPTH
STOP.FT                                       7700.0 : STOP DEPTH
STEP.FT                                     50.00000 : STEP LENGTH
NULL.                                        -999.25 : NULL VALUE
COMP. GREAT PLAINS DEVELOPMENT COMPANY OF CANADA LTD : COMPANY
WELL.                   GRT PLNS THUNDER LK 2-6-59-4 : WELL
FLD .                                                : FIELD
LOC .                                                : LOCATION
CTRY.                                         CANADA : COUNTRY
SRVC.                                   Schlumberger : SERVICE COMPANY
DATE.                                    23-Jun-1962 : LOGDATE
PROV.                                        Alberta : PROVINCE
UWI .                               100020605904W500 : UNIQUE WELL ID
SLAT.WGS84                                  54.06654 : SURFACE LATITUDE
SLON.WGS84                                 -114.5851 : SURFACE LONGITUDE
~Curve Information -----------------------------------------
DEPT  .FT    : Depth Curve
CALSED.IN    : CALIPER FROM SONIC LOG [ADJ TO ILDED]
CALWS .IN    : CALIPER [CALSED]
CILDED.MMHO  : CONDUCTIVITY FROM IE LOG
CONDWS.MMHO  : CONDUCTIVITY [1000/DRESWS]
DRESWS.OHMM  : DEEP RESISTIVITY [ILDED]
DT1ED .US/F  : DELTA TIME SPACING 3' PICKUP SPAN 1' FROM SONIC LOG [ADJ TO ILDED]
DT2ED .US/F  : DELTA TIME SPACING 3' PICKUP SPAN 3' FROM SONIC LOG [ADJ TO ILDED]
DT3ED .US/F  : DELTA TIME SPACING 3' PICKUP SPAN 1' FROM SONIC LOG [ADJ TO ILDED]
DTED  .US/F  : DELTA TIME SPACING 3' PICKUP SPAN 3' FROM SONIC LOG [ADJ TO ILDED]
DTWS  .US/F  : DELTA TIME [DTED]
GRSED .GAPI  : GAMMA RAY FROM SONIC LOG [ADJ TO ILDED]
GRWS  .GAPI  : GAMMA RAY [GRSED]
ILDED .OHMM  : INDUCTION LOG DEEP RESISTIVITY FROM IE LOG
SNED  .OHMM  : 16 INCH SHORT NORMAL RESISTIVITY FROM IE LOG
SPRED .MV    : SPONTANEOUS POTENTIAL FROM IE LOG
SPWS  .MV    : SPONTANEOUS POTENTIAL [BASELINE 0 MV] [SPRED]
SRESWS.OHMM  : SHALLOW RESISTIVITY [SNED]
~Params ----------------------------------------------------
PD  .                 GROUND : PERMANENT DATUM
EPD .FT                 2131 : ELEVATION PERMANENT DATUM
LMF .                     KB : LOG MEASURED FROM
DAPD.FT                 12.3 : FEET ABOVE PERMANENT DATUM
EKB .FT               2143.3 : KELLY BUSHING
EGL .FT                 2131 : GROUND LEVEL
DATE.             06/23/1962 : RUN DATE
RUN .                      2 : RUN NUMBER
CBD .FT                  804 : CASING BOTTOM DRILLER
BS  .IN                 8.75 : BIT SIZE
DFT .              SALT& GEL : DRILLING FLUID TYPE
DFD .                   10.6 : DRILLING FLUID DENSITY
DFV .                     70 : DRILLING FLUID VISCOSITY
DFPH.                      7 : DRILLING FLUID PH
DFL .                    6.6 : DRILLING FLUID LOSS
RMF .OHMM               1.02 : RESISTIVITY MUD FILTRATE SAMPLE
MFST.DEGF                 69 : MUD FILTRATE SAMPLE TEMPERATURE
RMC .OHMM               1.85 : RESISTIVITY MUD CAKE
MCST.DEGF                 69 : MUD CAKE SAMPLE TEMPERATURE
ENGI.             ARMBRUSTER : RECORDING ENGINEER
WITN.                GOODMAN : WITNESSED BY
CLNT.                A2DTECH : CLIENT CODE
ORIG.           2", 5" PRINT : ORIGIN OF DATA
UWI .       100020605904W500 : UNIQUE WELL ID
DICO. A2D Technologies, Inc. : DIGITIZING COMPANY
~Other -----------------------------------------------------
IE-SONIC LOGS RUN
IE LOG ALL CURVES DATA TOP-2650' FROM 2" SECTION
~ASCII -----------------------------------------------------
  800.00000    -999.25    -999.25    -999.25    -999.25    -999.25    -999.25    -999.25    -999.25    -999.25    -999.25   44.16230   44.16230    -999.25    -999.25    -999.25    -999.25    -999.25
  850.00000    9.36520    9.36520  108.63620  114.25830    8.75210    -999.25    -999.25    -999.25  102.36830  102.36830   69.56960   69.56960    8.75210    9.22970  -52.07000   -1.09720    9.22970
  900.00000   13.25650   13.25650  124.79020  118.79650    8.42700    -999.25    -999.25    -999.25  140.72770  140.72770   62.66130   62.66130    8.42700    8.94420  -60.28010   -9.44670    8.94420
  950.00000    9.59160    9.59160  109.62590  110.45210    9.05370    -999.25    -999.25    -999.25  118.33580  118.33580   56.33250   56.33250    9.05370   10.15930  -64.02110  -13.32860   10.15930
 1000.00000   14.51010   14.51010  194.97230  188.20340    5.31340    -999.25    -999.25    -999.25    -999.25    -999.25   61.29370   61.29370    5.31340    5.84010  -55.45360   -4.90120    5.84010
 1050.00000   14.72210   14.72210  177.87340  174.88830    5.71850    -999.25    -999.25    -999.25  115.46810  115.46810   61.66400   61.66400    5.71850    6.24400  -53.36830   -2.95530    6.24400
 1100.00000    9.49630    9.49630  217.32080  220.93590    4.52620    -999.25    -999.25    -999.25  120.89250  120.89250   58.59640   58.59640    4.52620    4.88420  -51.28940   -1.01730    4.88420
 1150.00000   10.54450   10.54450  205.10720  203.68380    4.91240    -999.25    -999.25    -999.25  138.06840  138.06840   61.06230   61.06230    4.91240    5.68140  -52.23270   -2.10000    5.68140
 1200.00000   14.98530   14.98530  192.83070  201.39360    4.96540    -999.25    -999.25    -999.25  139.96210  139.96210   59.16040   59.16040    4.96540    5.51740  -52.47830   -2.48640    5.51740
 1250.00000   11.73580   11.73580  171.84700  169.35950    5.90460    -999.25    -999.25    -999.25  107.61660  107.61660   58.48360   58.48360    5.90460    6.24450  -52.45950   -2.60780    6.24450
 1300.00000   10.35640   10.35640  179.84840  171.86860    5.81840    -999.25    -999.25    -999.25  119.14410  119.14410   61.18200   61.18200    5.81840    6.12960  -51.74220   -2.02980    6.12960
 1350.00000    9.45600    9.45600  172.20540  166.19300    6.01710    -999.25    -999.25    -999.25  126.49610  126.49610   54.07490   54.07490    6.01710    6.53210  -53.18360   -3.61210    6.53210
 1400.00000   10.65590   10.65590  156.79670  160.17900    6.24320    -999.25    -999.25    -999.25  129.13640  129.13640   52.45910   52.45910    6.24320    6.83150  -53.56220   -4.13020    6.83150
 1450.00000    9.49560    9.49560  238.89310  231.07500    4.32760    -999.25    -999.25    -999.25  140.10210  140.10210   61.99060   61.99060    4.32760    5.29630  -54.79020   -5.08590    5.29630
 1500.00000   10.10290   10.10290  190.37550  183.41560    5.45210    -999.25    -999.25    -999.25  105.86170  105.86170   53.96060   53.96060    5.45210    6.61760  -55.69830   -5.54400    6.61760
 1550.00000    9.56030    9.56030  184.03500  178.39150    5.60580    -999.25    -999.25    -999.25   98.53780   98.53780   54.65790   54.65790    5.60580    6.33920  -54.98920   -4.38720    6.33920
 1600.00000   12.40270   12.40270  213.19970  202.30630    4.94300    -999.25    -999.25    -999.25  110.32690  110.32690   65.44230   65.44230    4.94300    5.87870  -54.04190   -2.98770    5.87870
 1650.00000   13.19810   13.19810  178.86400  173.77650    5.75530    -999.25    -999.25    -999.25  111.55630  111.55630   78.62270   78.62270    5.75530    6.43700  -53.71200   -2.21000    6.43700
 1700.00000   12.37230   12.37230  106.94750  107.03890    9.34240    -999.25    -999.25    -999.25  103.83870  103.83870   80.79450   80.79450    9.34240   10.35890  -55.37690   -3.42270   10.35890
 1750.00000   10.70730   10.70730  131.52630  131.75060    7.59010    -999.25    -999.25    -999.25  107.54830  107.54830   78.34530   78.34530    7.59010    8.33610  -57.44560   -5.04140    8.33610
 1800.00000    9.84880    9.84880  115.20910  117.12000    8.53820    -999.25    -999.25    -999.25   97.41190   97.41190   84.68710   84.68710    8.53820    9.22170  -59.81580   -6.96390    9.22170
 1850.00000   12.15590   12.15590  120.15240  119.94000    8.33750    -999.25    -999.25    -999.25  108.09830  108.09830   90.12700   90.12700    8.33750    8.72690  -57.46390   -4.15980    8.72690
 1900.00000    9.43290    9.43290  145.94200  144.40550    6.92510    -999.25    -999.25    -999.25  111.30730  111.30730   97.83620   97.83620    6.92510    8.22700  -64.07040   -4.98800    8.22700
 1950.00000   10.00740   10.00740  142.21010  138.06050    7.24320    -999.25    -999.25    -999.25  116.95100  116.95100   98.19750   98.19750    7.24320    8.94990  -70.16740   -4.66290    8.94990
 2000.00000   10.19820   10.19820  125.63480  123.33190    8.10820    -999.25    -999.25    -999.25  108.55420  108.55420  108.04670  108.04670    8.10820   10.64600  -65.40470   -2.69600   10.64600
 2050.00000   10.68930   10.68930  143.55700  140.00240    7.14280    -999.25    -999.25    -999.25  108.20950  108.20950   90.51590   90.51590    7.14280    8.69580  -69.04540   -6.98990    8.69580
 2100.00000   10.07400   10.07400  173.56760  167.28280    5.97790    -999.25    -999.25    -999.25  107.64680  107.64680  106.25200  106.25200    5.97790    7.34030  -67.54580   -6.15020    7.34030
 2150.00000   10.72730   10.72730  131.67340  130.01490    7.69150    -999.25    -999.25    -999.25  107.99950  107.99950   93.62610   93.62610    7.69150    9.25070  -67.11090   -6.36850    9.25070
 2200.00000   11.07650   11.07650   97.80560   97.97770   10.20640    -999.25    -999.25    -999.25   94.47620   94.47620   80.41440   80.41440   10.20640   11.34500  -69.33490   -9.25230   11.34500
 2250.00000   10.36310   10.36310  119.10270  116.00790    8.62010    -999.25    -999.25    -999.25  100.09630  100.09630   98.03710   98.03710    8.62010    9.10450  -69.24220   -9.81620    9.10450
 2300.00000   10.43910   10.43910  128.26980  125.44210    7.97180    -999.25    -999.25    -999.25   97.23000   97.23000   93.33720   93.33720    7.97180    8.90080  -68.43950   -9.66670    8.90080
 2350.00000    9.74200    9.74200  135.43010  133.67910    7.48060    -999.25    -999.25    -999.25   99.52900   99.52900   95.04310   95.04310    7.48060    8.09450  -64.03010   -5.91720    8.09450
 2400.00000   10.40360   10.40360   94.81470   96.30820   10.38330    -999.25    -999.25    -999.25   93.97530   93.97530   83.62980   83.62980   10.38330   10.59290  -64.05630   -6.59670   10.59290
 2450.00000   10.02640   10.02640  119.14580  117.13990    8.53680    -999.25    -999.25    -999.25   93.96880   93.96880   97.54830   97.54830    8.53680    9.34890  -64.08210   -7.28220    9.34890
 2500.00000    9.61370    9.61370  118.30590  116.78290    8.56290    -999.25    -999.25    -999.25   94.20230   94.20230   97.98710   97.98710    8.56290    9.77420  -62.87880   -6.73550    9.77420
 2550.00000   10.41440   10.41440  146.37380  144.04720    6.94220    -999.25    -999.25    -999.25  103.96050  103.96050   97.93880   97.93880    6.94220    8.35390  -58.30610   -2.81600    8.35390
 2600.00000    9.60640    9.60640  122.92400  123.14360    8.12060    -999.25    -999.25    -999.25  106.96130  106.96130  112.45070  112.45070    8.12060   10.56980  -57.69270   -2.86250   10.56980
 2650.00000    9.71590    9.71590  111.61860  111.43510    8.97380    -999.25    -999.25    -999.25   95.92200   95.92200  103.79040  103.79040    8.97380   11.42860  -58.80070   -4.62370   11.42860
 2700.00000    9.71710    9.71710  118.57810  117.84950    8.48540    -999.25    -999.25    -999.25  109.40890  109.40890  108.32070  108.32070    8.48540   13.10210  -56.63190   -3.11470   13.10210
 2750.00000    9.48490    9.48490   99.25680   99.20630   10.08000    -999.25    -999.25    -999.25   90.66070   90.66070  104.29310  104.29310   10.08000   13.65480  -56.74580   -3.94090   13.65480
 2800.00000    9.74590    9.74590  108.11770  107.67520    9.28910    -999.25    -999.25    -999.25   83.34800   83.34800   95.02080   95.02080    9.28910   11.21700  -58.01660   -6.00030   11.21700
