~Version ---------------------------------------------------
VERS.      2.0 : CWLS log ASCII Standard -VERSION 2.0
WRAP.       NO : One line per depth step
CREA. 12/11/17 : LAS Creation Date
~Well ------------------------------------------------------
STRT.FT                        300.0 : START DEPTH
STOP.FT                      10150.0 : STOP DEPTH
STEP.FT                     50.00000 : STEP LENGTH
NULL.                        -999.25 : NULL VALUE
COMP.           PETROFINA CANADA LTD : COMPANY
WELL. FINA AMOCO HB PASSCK 7-2-62-17 : WELL
FLD .                                : FIELD
LOC .                                : LOCATION
CTRY.                         CANADA : COUNTRY
SRVC.                   Schlumberger : SERVICE COMPANY
DATE.                    14-Mar-1978 : LOGDATE
PROV.                        Alberta : PROVINCE
UWI .               100070206217W500 : UNIQUE WELL ID
SLAT.WGS84                  54.33347 : SURFACE LATITUDE
SLON.WGS84                 -116.4328 : SURFACE LONGITUDE
~Curve Information -----------------------------------------
DEPT    .FT    : Depth Curve
CALDED  .IN    : CALIPER FROM DENSITY LOG [ADJ. TO RESISTIVITY LOG]
CALSED  .IN    : CALIPER FROM SONIC LOG
CALWS   .IN    : CALIPER [CALDED SPL. TO CALSED FROM 1027'-2457']
CILDED  .MMHO  : CONDUCTIVITY FROM RESISTIVITY LOG
CONDWS  .MMHO  : CONDUCTIVITY [1000/DRESWS]
DCORWS  .G/C3  : DENSITY CORRECTION [DRHOED]
DENWS   .G/C3  : FORMATION BULK DENSITY [CALC. FROM DPOLSWS, M=2.71, F=1.00]
DPHILSED.V/V   : DENSITY POROSITY LIMESTONE [M=2.71, F=1.00] FROM DENSITY LOG [ADJ. TO RESISTIVITY LOG]
DPHISSED.V/V   : DENSITY POROSITY SANDSTONE [M=2.65, F=1.00] FROM DENSITY LOG [ADJ. TO RESISTIVITY LOG]
DPOLSWS .V/V   : DENSITY POROSITY LIMESTONE [DPHISSED CONVERTED TO LIMESTONE MATRIX, M=2.71, F=1.00 SPL.TO DPHILSED @ 6300']
DRESWS  .OHMM  : DEEP RESISTIVITY [ILDED]
DRHOED  .G/C3  : DENSITY CORRECTION FROM DENSITY LOG [ADJ. TO RESISTIVITY LOG]
DTED    .US/F  : DELTA TIME FROM SONIC LOG
DTWS    .US/F  : COMPRESSIONAL SONIC [DTED]
GRDED   .GAPI  : GAMMA RAY FROM DENSITY LOG [ADJ. TO RESISTIVITY LOG]
GRSED   .GAPI  : GAMMA RAY FROM SONIC LOG
GRWS    .GAPI  : GAMM RAY [GRDED SPL. TO GRSED @ 35'] GRWS IN CSG. (+25 GAPI) FROM (994'-1027')
ILDED   .OHMM  : DEEP INDUCTION LOG RESISTIVITY FROM RESISTIVITY LOG
ILMED   .OHMM  : MEDIUM INDUCTION LOG RESISTIVITY FROM RESISTIVITY LOG
LL8ED   .OHMM  : 8 INCH LATEROLOG RESISTIVITY FROM RESISTIVITY LOG
MRESWS  .OHMM  : MEDIUM RESISTIVITY [ILMED]
NPHILSED.V/V   : NEUTRON POROSITY LIMESTONE FROM DENSITY LOG [ADJ. TO RESISTIVITY LOG]
NPHISSED.V/V   : NEUTRON POROSITY SANDSTONE FROM DENSITY LOG [ADJ. TO RESISTIVITY LOG]
NPOLSWS .V/V   : NEUTRON POROSITY LIMESTONE [NPHISSED MATRIX (SLB) CONVERSION FOR LIMESTONE, SPL.TO NPHILSED @ 6300']
RHOBED  .G/C3  : BULK DENSITY FROM DENSITY LOG [ADJ. TO RESISTIVITY LOG]
SPRED   .MV    : SPONTANEOUS POTENTIAL FROM RESISTIVITY LOG
SPWS    .MV    : SPONTANEOUS POTENTIAL [BASELINE 0 MV, SPRED]
SRESWS  .OHMM  : SHALLOW RESISTIVITY [LL8ED]
~Params ----------------------------------------------------
PD  .                     GL : PERMANENT DATUM
EPD .FT               2914.3 : ELEVATION PERMANENT DATUM
LMF .                     KB : LOG MEASURED FROM
DAPD.FT                 17.6 : FEET ABOVE PERMANENT DATUM
EKB .FT               2931.9 : KELLY BUSHING
EGL .FT               2914.3 : GROUND LEVEL
DATE.               03/14/78 : RUN DATE
RUN .                      2 : RUN NUMBER
DD  .FT                10155 : DEPTH DRILLER
DL  .FT                10163 : DEPTH LOGGER
BLI .FT                10157 : BOTTOM LOG INTERVAL
TLI .FT                 1027 : TOP LOG INTERVAL
CBD .FT                 1028 : CASING BOTTOM DRILLER
CBL .FT                 1027 : CASING BOTTOM LOGGER
BS  .IN                 8.75 : BIT SIZE
BSD .FT                10155 : BIT SIZE AT DEPTH
DFT .               GEL CHEM : DRILLING FLUID TYPE
DFD .                    9.3 : DRILLING FLUID DENSITY
DFV .                     90 : DRILLING FLUID VISCOSITY
DFPH.                     11 : DRILLING FLUID PH
DFL .                    9.0 : DRILLING FLUID LOSS
MSS .               FLOWLINE : MUD SAMPLE SOURCE
RMS .OHMM               1.87 : RESISTIVITY MUD SAMPLE
MST .DEGF                 74 : MUD SAMPLE TEMPERATURE
RMF .OHMM               1.52 : RESISTIVITY MUD FILTRATE SAMPLE
MFST.DEGF                 72 : MUD FILTRATE SAMPLE TEMPERATURE
RMB .OHMM               0.62 : RESISTIVITY MUD AT BHT
TCS .HRS                 3.5 : TIME CIRCULATED STOPPED
LUN .                   7730 : LOGGING UNIT NUMBER
LUL .                    EDM : LOGGING UNIT LOCATION
ENGI.               ACKERMAN : RECORDING ENGINEER
WITN.                 DAVIES : WITNESSED BY
CLNT.                A2DTECH : CLIENT CODE
ORIG.            2" 5" PRINT : ORIGIN OF DATA
UWI .       100070206217W500 : UNIQUE WELL ID
DICO. A2D Technologies, Inc. : DIGITIZING COMPANY
~Other -----------------------------------------------------
DIL-CNFD-BHC TOOLS RUN
DIL AND BHC TOOL CURVES FROM 1024' TO 2452' FROM 2" SCALE SECTION
~ASCII -----------------------------------------------------
# ...
 1550.00000    -999.25    8.66100    8.66100  129.77290  132.50820    -999.25    -999.25    -999.25    -999.25    -999.25    7.54670    -999.25   95.81710   95.81710    -999.25   64.42290   64.42290    7.54670    -999.25    6.45030    -999.25    -999.25    -999.25    -999.25    -999.25  -85.67040   -5.48130    6.45030
 1600.00000    -999.25    9.08340    9.08340  109.78690  100.98460    -999.25    -999.25    -999.25    -999.25    -999.25    9.90250    -999.25   98.92700   98.92700    -999.25   68.01500   68.01500    9.90250    -999.25    7.96240    -999.25    -999.25    -999.25    -999.25    -999.25  -83.78190   -5.70630    7.96240
 1650.00000    -999.25    9.44000    9.44000  196.60630  177.48120    -999.25    -999.25    -999.25    -999.25    -999.25    5.63440    -999.25  108.48170  108.48170    -999.25   76.40410   76.40410    5.63440    -999.25    4.17350    -999.25    -999.25    -999.25    -999.25    -999.25  -81.09690   -5.12100    4.17350
 1700.00000    -999.25    9.43190    9.43190  224.09560  197.44480    -999.25    -999.25    -999.25    -999.25    -999.25    5.06520    -999.25   98.76890   98.76890    -999.25   96.71510   96.71510    5.06520    -999.25    3.89970    -999.25    -999.25    -999.25    -999.25    -999.25  -78.69340   -4.83100    3.89970
 1750.00000    -999.25    9.87560    9.87560  159.14850  164.98380    -999.25    -999.25    -999.25    -999.25    -999.25    6.06120    -999.25  105.55040  105.55040    -999.25  111.99340  111.99340    6.06120    -999.25    8.30040    -999.25    -999.25    -999.25    -999.25    -999.25  -74.97050   -3.54860    8.30040
 1800.00000    -999.25   10.01970   10.01970  309.54890  391.80350    -999.25    -999.25    -999.25    -999.25    -999.25    2.55230    -999.25  113.99530  113.99530    -999.25  101.84230  101.84230    2.55230    -999.25    4.19030    -999.25    -999.25    -999.25    -999.25    -999.25  -71.24030   -4.79530    4.19030
 1850.00000    -999.25    9.33020    9.33020  277.41560  340.83160    -999.25    -999.25    -999.25    -999.25    -999.25    2.93400    -999.25  101.42740  101.42740    -999.25  108.91660  108.91660    2.93400    -999.25    4.58740    -999.25    -999.25    -999.25    -999.25    -999.25  -66.13580   -4.70040    4.58740
 1900.00000    -999.25   10.46000   10.46000  211.25930  216.04340    -999.25    -999.25    -999.25    -999.25    -999.25    4.62870    -999.25  116.30470  116.30470    -999.25  156.75290  156.75290    4.62870    -999.25    6.12840    -999.25    -999.25    -999.25    -999.25    -999.25  -54.59640   -5.15390    6.12840
 1950.00000    -999.25   10.22820   10.22820  218.42860  202.44810    -999.25    -999.25    -999.25    -999.25    -999.25    4.93960    -999.25   97.40410   97.40410    -999.25  103.24280  103.24280    4.93960    -999.25    3.72330    -999.25    -999.25    -999.25    -999.25    -999.25  -49.07300   -7.88280    3.72330
 2000.00000    -999.25    9.76780    9.76780  247.37610  203.74900    -999.25    -999.25    -999.25    -999.25    -999.25    4.90800    -999.25   96.53830   96.53830    -999.25  103.83260  103.83260    4.90800    -999.25    3.60710    -999.25    -999.25    -999.25    -999.25    -999.25  -52.65220   -1.91180    3.60710
 2050.00000    -999.25    9.51300    9.51300  102.01280   91.20680    -999.25    -999.25    -999.25    -999.25    -999.25   10.96410    -999.25   84.09750   84.09750    -999.25   82.30360   82.30360   10.96410    -999.25    8.76050    -999.25    -999.25    -999.25    -999.25    -999.25  -53.20940   -2.46900    8.76050
 2100.00000    -999.25    9.42580    9.42580  103.54560   92.85220    -999.25    -999.25    -999.25    -999.25    -999.25   10.76980    -999.25   92.29920   92.29920    -999.25  109.67840  109.67840   10.76980    -999.25    9.80270    -999.25    -999.25    -999.25    -999.25    -999.25  -55.46860   -4.72820    9.80270
 2150.00000    -999.25    8.97770    8.97770  165.88260  157.71130    -999.25    -999.25    -999.25    -999.25    -999.25    6.34070    -999.25   95.38060   95.38060    -999.25   78.21430   78.21430    6.34070    -999.25    5.17480    -999.25    -999.25    -999.25    -999.25    -999.25  -53.26810   -2.52770    5.17480
 2200.00000    -999.25    8.85730    8.85730  100.06220   99.65770    -999.25    -999.25    -999.25    -999.25    -999.25   10.03430    -999.25   97.66400   97.66400    -999.25   76.93380   76.93380   10.03430    -999.25    8.55140    -999.25    -999.25    -999.25    -999.25    -999.25  -66.35920  -15.61880    8.55140
 2250.00000    -999.25    9.59970    9.59970  280.03840  223.47370    -999.25    -999.25    -999.25    -999.25    -999.25    4.47480    -999.25  101.27250  101.27250    -999.25  101.86530  101.86530    4.47480    -999.25    2.97250    -999.25    -999.25    -999.25    -999.25    -999.25  -54.29780   -3.55740    2.97250
 2300.00000    -999.25   11.52880   11.52880  279.87270  240.88260    -999.25    -999.25    -999.25    -999.25    -999.25    4.15140    -999.25  100.65680  100.65680    -999.25   81.97920   81.97920    4.15140    -999.25    2.95460    -999.25    -999.25    -999.25    -999.25    -999.25  -54.89230   -4.15190    2.95460
 2350.00000    -999.25    9.87130    9.87130   93.65660   84.78020    -999.25    -999.25    -999.25    -999.25    -999.25   11.79520    -999.25   92.81530   92.81530    -999.25   97.34370   97.34370   11.79520    -999.25    8.51490    -999.25    -999.25    -999.25    -999.25    -999.25  -55.67310   -4.93270    8.51490
 2400.00000    -999.25   11.11190   11.11190  273.16080  244.81600    -999.25    -999.25    -999.25    -999.25    -999.25    4.08470    -999.25   90.96010   90.96010    -999.25   97.74000   97.74000    4.08470    -999.25    3.12070    -999.25    -999.25    -999.25    -999.25    -999.25  -54.17140   -3.43100    3.12070
 2450.00000    -999.25   10.97840   10.97840  150.97360  210.20890    -999.25    -999.25    -999.25    -999.25    -999.25    4.75780    -999.25  106.70430  106.70430    -999.25   69.99360   69.99360    4.75780    5.05860    6.28470    5.05860    -999.25    -999.25    -999.25    -999.25  -55.63290   -4.89250    6.28470
 2500.00000    9.54580    9.31410    9.54580    -999.25  137.07270    0.04820    2.48190    -999.25    0.10190    0.13340    7.29540    0.04820   85.99740   85.99740   70.70700   66.34390   66.34390    7.29540    6.92410    6.60840    6.92410    -999.25    0.33210    0.28830    2.48520  -54.90090   -4.16050    6.60840
 2550.00000   10.61460    9.13960   10.61460    -999.25  195.76750    0.21960    2.20490    -999.25    0.26970    0.29540    5.10810    0.21960  111.82120  111.82120   74.79800   82.48770   82.48770    5.10810    4.83600    4.60480    4.83600    -999.25    0.48070    0.44010    2.21150  -55.00200   -4.26160    4.60480
 2600.00000    8.10410    8.74120    8.10410    -999.25  138.76360    0.09750    2.23160    -999.25    0.25360    0.27980    7.20650    0.09750   91.67460   91.67460   51.07620   60.94920   60.94920    7.20650    6.39690    8.44970    6.39690    -999.25    0.38940    0.34630    2.26790  -58.15830   -7.41790    8.44970
 2650.00000    8.89930    9.11280    8.89930    -999.25  217.65630    0.21990    2.25710    -999.25    0.23810    0.26480    4.59440    0.21990   95.61730   95.61730   72.58770   74.39820   74.39820    4.59440    4.42990    5.05620    4.42990    -999.25    0.41400    0.37140    2.28130  -54.99090   -4.25050    5.05620
 2700.00000    9.08380    8.77460    9.08380    -999.25  114.98770    0.15260    2.33850    -999.25    0.18880    0.21730    8.72110    0.15260   94.07080   94.07080   59.74870   60.84960   60.84960    8.72110    7.27260    7.74310    7.27260    -999.25    0.41610    0.37360    2.34830  -55.32850   -4.58810    7.74310
 2750.00000   10.76690    9.74220   10.76690    -999.25  235.51580    0.13120    2.34540    -999.25    0.18460    0.21320    4.24600    0.13120   98.86170   98.86170   78.12490   80.48050   80.48050    4.24600    4.44000    4.92120    4.44000    -999.25    0.42450    0.38220    2.33890  -54.56570   -3.76050    4.92120
