~Version ---------------------------------------------------
VERS.      2.0 : CWLS log ASCII Standard -VERSION 2.0
WRAP.       NO : One line per depth step
CREA. 10/22/14 : LAS Creation Date
~Well ------------------------------------------------------
STRT.m                           300.0 : START DEPTH
STOP.m                          1850.0 : STOP DEPTH
STEP.m                        50.00000 : STEP LENGTH
NULL.                          -999.25 : NULL VALUE
COMP.         NORTHROCK RESOURCES LTD. : COMPANY
WELL. NORTHROCK ET AL RICINW 4-4-36-10 : WELL
FLD .                                  : FIELD
LOC .                                  : LOCATION
CTRY.                           CANADA : COUNTRY
SRVC.                       Computalog : SERVICE COMPANY
DATE.                      27-Jul-1998 : LOGDATE
PROV.                          Alberta : PROVINCE
UWI .                 100040403610W500 : UNIQUE WELL ID
SLAT.WGS84                    52.06009 : SURFACE LATITUDE
SLON.WGS84                   -115.3761 : SURFACE LONGITUDE
~Curve Information -----------------------------------------
DEPT    .m      : Depth Curve
CALWS   .MM     : CALIPER [CALXDED]
CALXDED .MM     : CALIPER X FROM DENSITY LOG
CALYDED .MM     : CALIPER FROM DENSITY LOG
CALYSED .MM     : CALIPER FROM SONIC LOG
CONDWS  .MMHO   : CONDUCTIVITY [1000/DRESWS]
DCORWS  .KG/M3  : DENSITY CORRECTION [DRHOED]
DENWS   .KG/M3  : FORMATION BULK DENSITY [CALC. FROM DPOLSWS, M=2710, F=1000]
DPHIDMED.V/V    : DENSITY POROSITY DOLOMITE [M=2850 F=1000] FROM DENSITY LOG
DPHILSED.V/V    : DENSITY POROSITY LIMESTONE [M=2710, F=1000]  FROM DENSITY LOG
DPHISSED.V/V    : DENSITY POROSITY SANDSTONE  [M=2650 F=1000] FROM DENSITY LOG
DPOLSWS .V/V    : DENSITY POROSITY LIMESTONE [DPHILSED]
DRESWS  .OHMM   : DEEP RESISTIVITY [STIDED]
DRHOED  .KG/M3  : DENSITY CORRECTION FROM DENSITY LOG
DTED    .US/M   : INTERVAL TRANSIT TIME FROM SONIC LOG [ADJ. TO RESISTIVITY LOG]
DTWS    .US/M   : COMPRESSIONAL SONIC [DTED]
GRDED   .GAPI   : GAMMA RAY FROM DENSITY LOG
GRED    .GAPI   : GAMMA RAY FROM GAMMA LOG [CASEDHOLE] [ADJ. TO GRDED]
GRSED   .GAPI   : GAMMA RAY FROM SONIC LOG  [ADJ. TO GRDED]
GRWS    .GAPI   : GAMMA RAY [GRED SPL. TO GRSED @281.33]
MRESWS  .OHMM   : MEDIUM RESISTIVITY [STIMED]
NPHIDMED.V/V    : NEUTRON POROSITY DOLOMITE  FROM DENSITY LOG
NPHILSED.V/V    : NEUTRON POROSITY LIMESTONE  FROM DENSITY LOG
NPHISSED.V/V    : NEUTRON POROSITY SANDSTONE FROM DENSITY LOG
NPOLSWS .V/V    : NEUTRON POROSITY LIMESTONE [NPHILSED]
PEFED   .B/E    : PHOTOELECTRIC FACTOR  FROM DENSITY LOG
PEFWS   .B/E    : PHOTOELECTRIC FACTOR [PEFED]
RHOBED  .KG/M3  : BULK DENSITY FROM DENSITY LOG
SFLED   .OHMM   : SHALLOW FOCUSED RESISTIVITY LOG FROM RESISTIVITY LOG
SPRED   .MV     : SPONTANEOUS POTENTIAL FROM RESISTIVITY LOG
SPWS    .MV     : SPONTANEOUS POTENTIAL [BASELINE 0 MV, SPRED]
SRESWS  .OHMM   : SHALLOW RESISTIVITY [SFLED]
STIDED  .OHMM   : DEEP INDUCTION  RESISTIVITY FROM RESISTIVITY LOG
STIMED  .OHMM   : MEDIUM INDUCTION RESITIVITY FROM RESISTIVITY LOG
TENDED  .N      : TENSION [KG*9.80665002864] FROM DENSITY LOG
~Params ----------------------------------------------------
PD  .            GROUND LEVEL : PERMANENT DATUM
EPD .M                 1529.7 : ELEVATION PERMANENT DATUM
LMF .                      KB : LOG MEASURED FROM
DAPD.M                    4.9 : FEET ABOVE PERMANENT DATUM
EKB .M                 1534.6 : KELLY BUSHING
EGL .M                 1529.7 : GROUND LEVEL
DATE.              07/27/1998 : RUN DATE
RUN .                       1 : RUN NUMBER
DD  .M                   1885 : DEPTH DRILLER
DL  .M                 1884.9 : DEPTH LOGGER
BLI .M                 1882.8 : BOTTOM LOG INTERVAL
TLI .M                  288.6 : TOP LOG INTERVAL
CS  .MM                 244.5 : CASING SIZE
CBD .M                    289 : CASING BOTTOM DRILLER
CBL .M                  288.6 : CASING BOTTOM LOGGER
BS  .MM                   222 : BIT SIZE
BSD .M                   1885 : BIT SIZE AT DEPTH
DFT .             GEL POLYMER : DRILLING FLUID TYPE
DFD .                    1080 : DRILLING FLUID DENSITY
DFV .                      82 : DRILLING FLUID VISCOSITY
DFPH.                      11 : DRILLING FLUID PH
DFL .                     5.0 : DRILLING FLUID LOSS
MSS .                FLOWLINE : MUD SAMPLE SOURCE
RMS .OHMM                 2.0 : RESISTIVITY MUD SAMPLE
MST .DEGC                  25 : MUD SAMPLE TEMPERATURE
RMF .OHMM                 1.4 : RESISTIVITY MUD FILTRATE SAMPLE
MFST.DEGC                  24 : MUD FILTRATE SAMPLE TEMPERATURE
RMC .OHMM                 1.4 : RESISTIVITY MUD CAKE
MCST.DEGC                  25 : MUD CAKE SAMPLE TEMPERATURE
RMB .OHMM                 1.5 : RESISTIVITY MUD AT BHT
MRT .DEGC                  42 : MAXIMUM RECORDED TEMPERATURE
LUN .                     353 : LOGGING UNIT NUMBER
LUL .                EDMONTON : LOGGING UNIT LOCATION
ENGI.              WASYLYSHYN : RECORDING ENGINEER
WITN.                 MACLEOD : WITNESSED BY
CLNT.                 A2DTECH : CLIENT CODE
ORIG. 40'/100M 24'/100M PRINT : ORIGIN OF DATA
UWI .        100040403610W500 : UNIQUE WELL ID
DICO.  A2D Technologies, Inc. : DIGITIZING COMPANY
~Other -----------------------------------------------------
~ASCII -----------------------------------------------------
  300.00000  261.82500  261.82500  258.04600  255.00000    1.47420   70.10000 2738.21500    0.06870   -0.01650   -0.05670   -0.01650  678.31260   70.10000  171.94000  171.94000   19.99500   27.67810   24.75000   24.75000  512.18860    0.03270    0.08600    0.13700    0.08600    2.96500    2.96500 2736.39990  787.46250    9.97000  -23.62790  787.46250  678.31260  512.18860 15119.82630
  350.00000  233.52500  233.52500  264.14180  248.65000    3.27620  110.05000 2726.07400    0.07640   -0.00940   -0.04480   -0.00940  305.23190  110.05000  202.36000  202.36000   12.45000    -999.25   11.08500   11.08500  268.05870    0.04700    0.10680    0.16330    0.10680    2.94500    2.94500 2725.10010  258.36280    7.54000  -26.05790  258.36280  305.23190  268.05870 15778.65960
  400.00000  241.75000  241.75000  325.63610  326.35000   12.27360   52.50000 2503.09000    0.19630    0.12100    0.08870    0.12100   81.47600   52.50000  267.92000  267.92000   42.58500    -999.25   50.16000   50.16000   64.65910    0.17080    0.24410    0.31070    0.24410    3.80500    3.80500 2497.50000   71.94990   -6.59000  -40.18790   71.94990   81.47600   64.65910 16303.33210
  450.00000  254.62500  254.62500  246.98380  252.60000    1.50860   78.50000 2675.11600    0.10410    0.02040   -0.01610    0.02040  662.87240   78.50000  173.32000  173.32000    6.75000    -999.25   10.33500   10.33500  541.28990    0.00550    0.03340    0.07660    0.03340    4.61900    4.61900 2674.50000  452.72020    6.38500  -27.21290  452.72020  662.87240  541.28990 16135.56380
  500.00000  243.77500  243.77500  239.55150  239.40000    4.01580   45.45000 2820.97900    0.02840   -0.06490   -0.09920   -0.06490  249.01750   45.45000  182.08000  182.08000   58.78500    -999.25   54.40500   54.40500  288.82180    0.02710    0.07440    0.13220    0.07440    3.50500    3.50500 2811.05000  916.70560   18.02500  -15.57290  916.70560  249.01750  288.82180 17092.22120
  550.00000  245.35000  245.35000  230.07830  232.02500    1.42620   50.65000 2711.71000    0.08590   -0.00100   -0.03880   -0.00100  701.18070   50.65000  173.76000  173.76000   83.13000    -999.25   94.14000   94.14000 1655.88400   -0.00090    0.01540    0.05450    0.01540    4.60900    4.60900 2713.34990  794.01720    8.63500  -24.96290  794.01720  701.18070 1655.88400 17743.84370
  600.00000  246.55000  246.55000  246.92650  247.00000    6.99150   49.90000 2743.00300    0.06790   -0.01930   -0.05690   -0.01930  143.03090   49.90000  187.46000  187.46000   37.27500    -999.25   36.51000   36.51000  144.35440    0.01470    0.05420    0.10430    0.05420    3.61700    3.61700 2743.50000  186.13580   27.19000   -6.40790  186.13580  143.03090  144.35440 18164.59500
  650.00000  230.57500  230.57500  229.44440  228.45000    1.79710   54.40000 2715.81400    0.08240   -0.00340   -0.03770   -0.00340  556.45480   54.40000  173.20000  173.20000   20.32500    -999.25   21.54000   21.54000  656.79510    0.00110    0.01720    0.05600    0.01720    4.09700    4.09700 2713.89990 1675.83000   19.49500  -13.88740 1675.83000  556.45480  656.79510 18741.21720
  700.00000  245.05000  245.05000  257.55240  253.35000    1.82210   57.25000 2785.41100    0.04380   -0.04410   -0.07580   -0.04410  548.82000   57.25000  160.94000  160.94000   16.96500    -999.25   19.56000   19.56000  342.47580   -0.00170    0.01310    0.04780    0.01310    4.27900    4.27900 2772.60010 1746.74690   18.01000  -14.34780 1746.74690  548.82000  342.47580 18502.77830
  750.00000  258.45000  258.45000  257.59660  248.37500    1.37580   28.55000 2940.85000   -0.03790   -0.13500   -0.17500   -0.13500  726.82510   28.55000  155.52000  155.52000   13.44000    -999.25   10.05000   10.05000  550.84560    0.00080    0.02060    0.06050    0.02060    3.26000    3.26000 2939.30000 1922.33900   26.26000   -4.07220 1922.33900  726.82510  550.84560 19487.54940
  800.00000  244.90000  244.90000  230.26840  222.05000    0.57140   34.60000 2958.46300   -0.04640   -0.14530   -0.17690   -0.14530 1749.96700   34.60000  150.84000  150.84000   11.31000    -999.25    9.58500    9.58500 1899.45900    0.00060    0.01720    0.05750    0.01720    3.79500    3.79500 2939.80000 1904.71500    5.21500  -23.09160 1904.71500 1749.96700 1899.45900 20191.33740
  850.00000  253.67500  253.67500  234.03440  228.55000    0.82830   54.40000 2779.42600    0.04690   -0.04060   -0.07910   -0.04060 1207.34090   54.40000  161.94000  161.94000    9.66000    -999.25    7.50000    7.50000  846.89570    0.03050    0.08420    0.13700    0.08420    2.91600    2.91600 2777.60010 1492.21000   -2.01500  -28.29600 1492.21000 1207.34090  846.89570 20756.57400
  900.00000  257.07500  257.07500  243.69280  240.02500    0.54320   25.65000 2843.55100    0.01390   -0.07810   -0.11590   -0.07810 1840.89900   25.65000  149.24000  149.24000    9.46500    -999.25    9.97500    9.97500 1897.71000    0.02260    0.06900    0.12160    0.06900    3.03600    3.03600 2837.39990 1909.98500   18.25000   -6.00540 1909.98500 1840.89900 1897.71000 20650.50430
  950.00000  245.27500  245.27500  229.93030  238.60000    0.51500   82.35000 2962.73800   -0.05330   -0.14780   -0.19200   -0.14780 1941.91390   82.35000  166.40000  166.40000    9.18000    -999.25    6.69000    6.69000 1863.07300   -0.00630   -0.00530    0.01620   -0.00530    4.78000    4.78000 3008.00000 1899.45900   -3.86000  -26.08970 1899.45900 1941.91390 1863.07300 21766.42260
 1000.00000  227.50000  227.50000  224.86920  222.55000    0.52310   28.70000 2852.95600    0.00920   -0.08360   -0.12350   -0.08360 1911.74500   28.70000  150.38000  150.38000    8.82000    -999.25    7.90500    7.90500 1869.95000    0.00720    0.04220    0.08710    0.04220    3.10200    3.10200 2863.90000 1906.47000  -47.33000  -67.53410 1906.47000 1911.74500 1869.95000 21385.36370
 1050.00000  223.35000  223.35000  226.08060  226.90000    1.41310   59.40000 2727.61300    0.07670   -0.01030   -0.03990   -0.01030  707.66860   59.40000  161.38000  161.38000   14.02500    -999.25   16.05000   16.05000  783.12290   -0.00280    0.00720    0.04400    0.00720    4.69900    4.69900 2725.69990 1901.20900  -16.55000  -34.72850 1901.20900  707.66860  783.12290 22473.20560
 1100.00000  231.20000  231.20000  230.09810  229.55000    7.45710   34.35000 2746.59400    0.06480   -0.02140   -0.05450   -0.02140  134.10040   34.35000  186.26000  186.26000   56.76000   59.78670   52.20000   52.20000  140.42030    0.02830    0.07910    0.13490    0.07910    3.99800    3.99800 2742.50000  162.41640   -8.72000  -24.87290  162.41640  134.10040  140.42030 23377.27280
 1150.00000  240.47500  240.47500  225.82860  231.60000   17.93780   27.15000 2759.41900    0.05950   -0.02890   -0.06460   -0.02890   55.74810   27.15000  221.22000  221.22000  105.82500    -999.25  100.15500  100.15500   56.78450    0.10350    0.17580    0.23810    0.17580    3.93100    3.93100 2760.30000   64.65910    0.52000  -13.60730   64.65910   55.74810   56.78450 23708.67970
 1200.00000  242.77500  242.77500  222.63390  228.65000   16.48050   79.55000 2748.30400    0.06470   -0.02240   -0.05890   -0.02240   60.67780   79.55000  211.02000  211.02000   80.97000    -999.25   83.28000   83.28000   57.30990    0.07480    0.14440    0.20420    0.14440    4.18700    4.18700 2750.00000   70.18270    1.30000  -12.15480   70.18270   60.67780   57.30990 24503.53320
 1250.00000  229.90000  229.90000  224.39370  226.05000    6.42940   69.05000 2745.73900    0.06710   -0.02090   -0.05570   -0.02090  155.53560   69.05000  188.22000  188.22000   54.09000    -999.25   54.90000   54.90000  172.11940    0.02600    0.07290    0.12560    0.07290    4.26700    4.26700 2745.50000  274.80830   -1.32500  -14.77980  274.80830  155.53560  172.11940 24873.86660
 1300.00000  221.05000  221.05000  222.83380  223.77500    0.77160   53.90000 2545.32700    0.17310    0.09630    0.06350    0.09630 1296.07400   53.90000  222.72000  222.72000  150.18000    -999.25  145.84500  145.84500  991.35660    0.04260    0.10000    0.16090    0.10000    2.79600    2.79600 2547.70000 1918.80100  -28.98500  -42.43980 1918.80100 1296.07400  991.35660 24934.83750
