~Version ---------------------------------------------------
VERS.      2.0 : CWLS log ASCII Standard -VERSION 2.0
WRAP.       NO : One line per depth step
CREA. 10/24/17 : LAS Creation Date
~Well ------------------------------------------------------
STRT.FT                        1200.0 : START DEPTH
STOP.FT                       11700.0 : STOP DEPTH
STEP.FT                      50.00000 : STEP LENGTH
NULL.                         -999.25 : NULL VALUE
COMP.            MOBIL OIL CANADA LTD : COMPANY
WELL. MOBIL ICG MARSH HEAD 11-3-60-20 : WELL
FLD .                                 : FIELD
LOC .                                 : LOCATION
CTRY.                          CANADA : COUNTRY
SRVC.                    Schlumberger : SERVICE COMPANY
DATE.                     05-Jan-1976 : LOGDATE
PROV.                         Alberta : PROVINCE
UWI .                100110306020W500 : UNIQUE WELL ID
SLAT.WGS84                   54.15991 : SURFACE LATITUDE
SLON.WGS84                  -116.9171 : SURFACE LONGITUDE
~Curve Information -----------------------------------------
DEPT    .FT    : Depth Curve
CALDED  .IN    : CALIPER FROM DENSITY LOG [ADJ. TO RESISTIVITY LOG]
CALSED  .IN    : CALIPER FROM SONIC LOG [ADJ. TO RESISTIVITY LOG]
CALWS   .IN    : CALIPER [CALDED SPL. TO CALSED FROM 2516'-2535']
CONDWS  .MMHO  : CONDUCTIVITY [1000/DRESWS]
DCORWS  .G/C3  : DENSITY CORRECTION [DRHOED]
DENWS   .G/C3  : FORMATION BULK DENSITY [RHOBED]
DPHILSED.V/V   : DENSITY POROSITY LIMESTONE  FROM DENSITY LOG [ADJ. TO RESISTIVITY LOG]
DPOLSWS .V/V   : DENSITY POROSITY LIMESTONE [CALC FROM DENWS,M=2.71, F=1.00]
DRESWS  .OHMM  : DEEP RESISTIVITY [ILDED]
DRHOED  .G/C3  : DENSITY CORRECTION FROM DENSITY LOG [ADJ. TO RESISTIVITY LOG]
DTED    .US/F  : DELTA TIME FROM SONIC LOG [ADJ. TO RESISTIVITY LOG]
DTWS    .US/F  : COMPRESSIONAL SONIC [DTED]
GRDED   .GAPI  : GAMMA RAY FROM DENSITY LOG [ADJ. TO RESISTIVITY LOG]
GRSED   .GAPI  : GAMMA RAY FROM SONIC LOG [ADJ. TO RESISTIVITY LOG]
GRWS    .GAPI  : GAMMA RAY [GRDED SPL. TO GRSED FROM 2507'-2550']
ILDED   .OHMM  : DEEP INDUCTION RESISTIVITY FROM RESISTIVITY LOG
ILMED   .OHMM  : MEDIUM INDUCTION RESISTIVITY FROM RESISTIVITY LOG
LL8ED   .OHMM  : 8 INCH LATEROLOG RESISTIVITY FROM RESISTIVITY LOG
MRESWS  .OHMM  : MEDIUM RESISTIVITY [ILMED]
NPHILSED.V/V   : NEUTRON POROSITY LIMESTONE FROM DENSITY LOG [ADJ. TO RESISTIVITY LOG]
NPOLSWS .V/V   : NEUTRON POROSITY LIMESTONE [NPHILSED]
RHOBED  .G/C3  : BULK DENSITY FROM DENSITY LOG [ADJ. TO RESISTIVITY LOG]
SPRED   .MV    : SPONTANEOUS POTENTIAL FROM RESISTIVITY LOG
SPWS    .MV    : SPONTANEOUS POTENTIAL [BASELINE 0 MV, SPRED]
SRESWS  .OHMM  : SHALLOW RESISTIVITY [LL8ED]
~Params ----------------------------------------------------
PD  .                     GL : PERMANENT DATUM
EPD .FT               3132.5 : ELEVATION PERMANENT DATUM
LMF .                     KB : LOG MEASURED FROM
DAPD.FT                 14.5 : FEET ABOVE PERMANENT DATUM
EKB .FT                 3147 : KELLY BUSHING
EGL .FT               3132.5 : GROUND LEVEL
DATE.               01/05/76 : RUN DATE
RUN .                      1 : RUN NUMBER
DD  .FT                11725 : DEPTH DRILLER
DL  .FT                11730 : DEPTH LOGGER
BLI .FT                11724 : BOTTOM LOG INTERVAL
TLI .FT                 1203 : TOP LOG INTERVAL
CBD .FT                 1203 : CASING BOTTOM DRILLER
CBL .FT                 1203 : CASING BOTTOM LOGGER
BS  .IN                 8.75 : BIT SIZE
BSD .FT                11725 : BIT SIZE AT DEPTH
DFT .                    GEL : DRILLING FLUID TYPE
DFD .                    9.6 : DRILLING FLUID DENSITY
DFV .                    110 : DRILLING FLUID VISCOSITY
DFPH.                   10.5 : DRILLING FLUID PH
DFL .                    9.8 : DRILLING FLUID LOSS
MSS .               FLOWLINE : MUD SAMPLE SOURCE
RMS .OHMM               2.42 : RESISTIVITY MUD SAMPLE
MST .DEGF                 74 : MUD SAMPLE TEMPERATURE
RMF .OHMM               1.63 : RESISTIVITY MUD FILTRATE SAMPLE
MFST.DEGF                 74 : MUD FILTRATE SAMPLE TEMPERATURE
RMB .OHMM               0.67 : RESISTIVITY MUD AT BHT
TCS .HRS                   3 : TIME CIRCULATED STOPPED
LUN .                   7658 : LOGGING UNIT NUMBER
LUL .                     RD : LOGGING UNIT LOCATION
ENGI.              DODSWORTH : RECORDING ENGINEER
WITN.   OLINYK LINDENSCHMIDT : WITNESSED BY
CLNT.                A2DTECH : CLIENT CODE
ORIG.            2" 5" PRINT : ORIGIN OF DATA
UWI .       100110306020W500 : UNIQUE WELL ID
DICO. A2D Technologies, Inc. : DIGITIZING COMPANY
~Other -----------------------------------------------------
DIL-LL-CNFD-BHC LOG RUN
CNFD DATA MISSING AROUND 25256' (MAY BE DUE TO LOG SPLICING)
~ASCII -----------------------------------------------------
# ...
 4000.00000   13.67280   10.32150   13.67280  178.07220    0.05190    2.26760    0.25930    0.25870    5.61570    0.05190  108.00270  108.00270   66.68960   63.23330   66.68960    5.61570    4.50140    5.03290    4.50140    0.33130    0.33130    2.26760 -128.23620   -5.69200    5.03290
 4050.00000   12.92700   10.09250   12.92700  143.12370    0.06660    2.28310    0.24970    0.24960    6.98790    0.06660   90.14300   90.14300   69.12430   71.16190   69.12430    6.98790    6.30180    7.37280    6.30180    0.27450    0.27450    2.28310 -126.17410   -2.99850    7.37280
 4100.00000   11.75760    9.88180   11.75760  261.48580    0.16230    2.12450    0.34770    0.34240    3.82430    0.16230   98.66820   98.66820   66.77020   72.78720   66.77020    3.82430    3.10290    3.82510    3.10290    0.33920    0.33920    2.12450 -128.04110   -4.22780    3.82510
 4150.00000    9.70000    9.28180    9.70000   18.46360    0.06960    2.39210    0.18650    0.18590   54.16060    0.06960   70.12070   70.12070   32.67440   36.37920   32.67440   54.16060   47.73310   67.55690   47.73310    0.16780    0.16780    2.39210 -145.25250  -20.80470   67.55690
 4200.00000   10.25030    9.64390   10.25030  110.17100    0.01880    2.23500    0.28450    0.27780    9.07680    0.01880   92.94210   92.94210   58.23350   56.38670   58.23350    9.07680    7.09430    9.33860    7.09430    0.30370    0.30370    2.23500 -132.54650   -7.46420    9.33860
 4250.00000   10.93370    9.59310   10.93370   82.00220    0.01660    2.48530    0.13280    0.13140   12.19480    0.01660   79.76580   79.76580   55.57200   59.14390   55.57200   12.19480   10.10860   10.61890   10.10860    0.22830    0.22830    2.48530 -134.09290   -8.37610   10.61890
 4300.00000   10.72640    9.75520   10.72640   93.01310    0.01460    2.49250    0.12900    0.12720   10.75160    0.01460   82.87670   82.87670   71.22540   66.34990   71.22540   10.75160    8.81350   10.02880    8.81350    0.22900    0.22900    2.49250 -130.03690   -3.68880   10.02880
 4350.00000   12.14470   10.13900   12.14470  137.19300    0.01670    2.45610    0.15150    0.14850    7.28900    0.01670   83.34220   83.34220   73.22070   69.10330   73.22070    7.28900    6.68760    8.22670    6.68760    0.24760    0.24760    2.45610 -129.24120   -2.25530    8.22670
 4400.00000   13.38550   10.04870   13.38550   95.68830    0.03950    2.46180    0.14590    0.14510   10.45060    0.03950   81.70830   81.70830   88.16420   80.38390   88.16420   10.45060    8.79760    9.95880    8.79760    0.20320    0.20320    2.46180 -130.13900   -3.14980    9.95880
 4450.00000   13.12890    9.91770   13.12890  109.56980    0.03100    2.48600    0.13280    0.13100    9.12660    0.03100   83.08100   83.08100   91.52880   93.73050   91.52880    9.12660    8.17720    9.55970    8.17720    0.22880    0.22880    2.48600 -130.98400   -4.17990    9.55970
 4500.00000   13.20170    9.50870   13.20170  106.00290    0.01770    2.42000    0.17320    0.16960    9.43370    0.01770   81.67600   81.67600   96.38380   94.89260   96.38380    9.43370    8.40570   10.16160    8.40570    0.20940    0.20940    2.42000 -131.35250   -4.73360   10.16160
 4550.00000   12.40620    9.53060   12.40620  116.10690    0.15980    2.13020    0.33970    0.33910    8.61280    0.15980   87.02500   87.02500  109.32610   99.45060  109.32610    8.61280    7.77440    9.94400    7.77440    0.29280    0.29280    2.13020 -130.07460   -3.63990    9.94400
 4600.00000   11.30550    9.60820   11.30550   90.56990    0.01080    2.25140    0.27690    0.26820   11.04120    0.01080   88.85510   88.85510  127.81950  116.16580  127.81950   11.04120    9.94560   13.82560    9.94560    0.28770    0.28770    2.25140 -129.10900   -2.86040   13.82560
 4650.00000   11.57090    9.83680   11.57090   73.66100    0.23230    2.29200    0.24760    0.24440   13.57570    0.23230   81.76730   81.76730   95.48820   96.47540   95.48820   13.57570   12.39870   16.28160   12.39870    0.23670    0.23670    2.29200 -129.33360   -3.27020   16.28160
 4700.00000   11.98470    9.52460   11.98470   78.30910    0.18190    2.17300    0.31890    0.31400   12.76990    0.18190   78.85440   78.85440   90.96970   93.50330   90.96970   12.76990   11.51550   15.10050   11.51550    0.23240    0.23240    2.17300 -131.62270   -5.66480   15.10050
 4750.00000   12.27920    9.97870   12.27920   92.08270    0.17970    2.04130    0.39690    0.39110   10.85980    0.17970   82.74580   82.74580   98.91280   95.12500   98.91280   10.85980    9.75250   11.88220    9.75250    0.25070    0.25070    2.04130 -129.91060   -3.95270   11.88220
 4800.00000   12.37660    9.52180   12.37660  127.35570    0.14560    1.94740    0.44940    0.44600    7.85210    0.14560   85.76640   85.76640   99.70180   89.47610   99.70180    7.85210    7.21890    8.43340    7.21890    0.27940    0.27940    1.94740 -129.01890   -3.06100    8.43340
 4850.00000   11.61570    9.48760   11.61570  105.81230    0.07420    2.01760    0.41890    0.40490    9.45070    0.07420   77.87880   77.87880   90.20870   85.77950   90.20870    9.45070    8.44820   11.19550    8.44820    0.22320    0.22320    2.01760 -127.83890   -1.88100   11.19550
 4900.00000   11.59140    9.66260   11.59140  103.75600    0.16490    2.08760    0.36620    0.36400    9.63800    0.16490   81.91410   81.91410   97.82180   93.57480   97.82180    9.63800    8.52080   10.14580    8.52080    0.23460    0.23460    2.08760 -128.21330   -2.25530   10.14580
 4950.00000   12.51750    9.52770   12.51750  114.58820    0.21700    2.14220    0.34340    0.33200    8.72690    0.21700   80.28150   80.28150  101.48260  100.14860  101.48260    8.72690    8.11510    9.15810    8.11510    0.24080    0.24080    2.14220 -129.56050   -3.80970    9.15810
 5000.00000   12.51260    9.91530   12.51260  108.82460    0.18010    2.10890    0.35780    0.35150    9.18910    0.18010   80.56710   80.56710  105.77190   97.30300  105.77190    9.18910    8.25630    9.67500    8.25630    0.23150    0.23150    2.10890 -127.24640   -2.26280    9.67500
 5050.00000   12.12860    9.94740   12.12860  120.29760    0.13340    2.05810    0.38470    0.38120    8.31280    0.13340   81.14530   81.14530   93.30270   93.31050   93.30270    8.31280    7.77810    8.92580    7.77810    0.27050    0.27050    2.05810 -126.59400   -2.37390    8.92580
 5100.00000   12.16530   10.11920   12.16530  112.81970    0.16370    2.04340    0.39390    0.38980    8.86370    0.16370   82.50300   82.50300   99.36340   98.71850   99.36340    8.86370    8.15100    9.85260    8.15100    0.24970    0.24970    2.04340 -125.85810   -2.40900    9.85260
 5150.00000   11.37910    9.45920   11.37910   97.13550    0.17110    2.07830    0.37560    0.36940   10.29490    0.17110   79.19040   79.19040   94.38110   98.23690   94.38110   10.29490    9.19560   10.51890    9.19560    0.22680    0.22680    2.07830 -126.11380   -3.43190   10.51890
 5200.00000   10.85440    9.47190   10.85440   66.13320    0.16990    2.29790    0.24900    0.24100   15.12100    0.16990   76.47100   76.47100   75.32940   68.80910   75.32940   15.12100   12.75250   16.21380   12.75250    0.15410    0.15410    2.29790 -138.58590  -16.58450   16.21380
 5250.00000   10.66160    9.48830   10.66160   78.16710    0.20100    2.31450    0.23200    0.23130   12.79310    0.20100   76.87700   76.87700   97.65150   92.31290   97.65150   12.79310   11.75650   13.25960   11.75650    0.19550    0.19550    2.31450 -124.17940   -2.81770   13.25960
 5300.00000   11.63060    9.47890   11.63060   65.34930    0.20530    2.25240    0.27180    0.26760   15.30290    0.20530   75.07360   75.07360   81.81770   91.33600   81.81770   15.30290   13.87340   16.10280   13.87340    0.14960    0.14960    2.25240 -124.27440   -3.54920   16.10280
 5350.00000   12.40130    9.88570   12.40130   79.72380    0.19060    2.04560    0.39180    0.38860   12.54330    0.19060   77.03450   77.03450   99.27000   90.04730   99.27000   12.54330   11.34220   13.54710   11.34220    0.21410    0.21410    2.04560 -123.55190   -3.46970   13.54710
