~Version ---------------------------------------------------
VERS.      2.0 : CWLS log ASCII Standard -VERSION 2.0
WRAP.       NO : One line per depth step
CREA. 08/31/17 : LAS Creation Date
~Well ------------------------------------------------------
STRT.FT                             1100.0 : START DEPTH
STOP.FT                            11500.0 : STOP DEPTH
STEP.FT                           50.00000 : STEP LENGTH
NULL.                              -999.25 : NULL VALUE
COMP.              MURPHY OIL COMPANY LTD. : COMPANY
WELL. MURPHY ASHLAND WOLF CREEK 11-5-53-15 : WELL
FLD .                                      : FIELD
LOC .                                      : LOCATION
CTRY.                               CANADA : COUNTRY
SRVC.               Schlumberger of Canada : SERVICE COMPANY
DATE.                          08-Dec-1976 : LOGDATE
PROV.                              Alberta : PROVINCE
UWI .                     100110505315W500 : UNIQUE WELL ID
SLAT.WGS84                        53.55101 : SURFACE LATITUDE
SLON.WGS84                        -116.179 : SURFACE LONGITUDE
~Curve Information -----------------------------------------
DEPT    .FT    : Depth Curve
CALDED  .IN    : CALIPER FROM CNL-FDC LOG [ADJ. TO GRSED]
CALSED  .IN    : CALIPER FROM SONIC LOG
CALWS   .IN    : CALIPER [CALDED]
CILDED  .MMHO  : DEEP INDUCTION CONDUCTIVITY FROM RESISTIVITY LOG
CONDWS  .MMHO  : CONDUCTIVITY [1000/DRESWS]
DCORWS  .G/C3  : DENSITY CORRECTION [DRHOED]
DENWS   .G/C3  : FORMATION BULK DENSITY [RHOBED]
DPHILSED.V/V   : DENSITY POROSITY LIME [M=2.71, F=1.00] FROM CNL-FDC LOG [ADJ. TO GRSED]
DPHISSED.V/V   : DENSITY POROSITY SAND [M=2.65, F=1.00] FROM CNL-FDC LOG [ADJ. TO GRSED]
DPOLSWS .V/V   : DENSITY POROSITY LIME [CALCULATED FROM DENWS, M=2.71, F=1.00]
DRESWS  .OHMM  : DEEP RESISTIVITY [ILDED]
DRHOED  .G/C3  : BULK DENSITY CORRECTION FROM DENSITY LOG [ADJ. TO DPHISSED/DPHILSED/GRSED]
DTED    .US/F  : DELTA-T (INTERVAL TRANSIT TIME) FROM SONIC LOG
DTWS    .US/F  : COMPRESSIONAL SONIC [DTED]
GRDED   .GAPI  : GAMMA RAY FROM DENSITY LOG [ADJ. TO GRSED]
GRSED   .GAPI  : GAMMA RAY FROM SONIC LOG
GRWS    .GAPI  : GAMMA RAY [GRSED]
ILDED   .OHMM  : DEEP INDUCTION FROM RESISTIVITY LOG
ILMED   .OHMM  : MEDIUM INDUCTION FROM RESISTIVITY LOG
LL8ED   .OHMM  : LATEROLOG 8 FROM RESISTIVITY LOG
MRESWS  .OHMM  : MEDIUM RESISTIVITY [ILMED]
NPHILSED.V/V   : NEUTRON POROSITY LIME FROM CNL-FDC LOG [ADJ. TO GRSED]
NPHISSED.V/V   : NEUTRON POROSITY SAND FROM CNL-FDC LOG [ADJ. TO GRSED]
NPOLSWS .V/V   : NEUTRON POROSITY LIME [NPHISSED MATRIX CONVERTED TO LIMESTONE & SPL. TO NPHILSED @ 8000']
RHOBED  .G/C3  : BULK DENSITY FROM DENSITY LOG [ADJ. TO DPHISSED/DPHILSED/GRSED]
SPRED   .MV    : SPONTANEOUS POTENTIAL FROM RESISTIVITY LOG
SPWS    .MV    : SPONTANEOUS POTENTIAL [BASELINE 0 MV, SPRED]
SRESWS  .OHMM  : SHALLOW RESISTIVITY [LL8ED]
~Params ----------------------------------------------------
PD  .                     GL : PERMANENT DATUM
EPD .FT               2966.3 : ELEVATION PERMANENT DATUM
LMF .                     KB : LOG MEASURED FROM
DAPD.FT                 15.4 : FEET ABOVE PERMANENT DATUM
EKB .FT               2981.7 : KELLY BUSHING
EGL .FT               2966.3 : GROUND LEVEL
DATE.               12/08/76 : RUN DATE
RUN .                      1 : RUN NUMBER
DD  .FT                11560 : DEPTH DRILLER
DL  .FT                11554 : DEPTH LOGGER
BLI .FT                11548 : BOTTOM LOG INTERVAL
TLI .FT                 1160 : TOP LOG INTERVAL
CBD .FT                 1160 : CASING BOTTOM DRILLER
CBL .FT                 1160 : CASING BOTTOM LOGGER
BS  .IN                 8.75 : BIT SIZE
BSD .FT                11560 : BIT SIZE AT DEPTH
DFT .               GEL CHEM : DRILLING FLUID TYPE
DFD .                    9.1 : DRILLING FLUID DENSITY
DFV .                    290 : DRILLING FLUID VISCOSITY
DFPH.                     11 : DRILLING FLUID PH
DFL .                    5.8 : DRILLING FLUID LOSS
MSS .               FLOWLINE : MUD SAMPLE SOURCE
RMS .OHMM               1.67 : RESISTIVITY MUD SAMPLE
MST .DEGF                 37 : MUD SAMPLE TEMPERATURE
RMF .OHMM                1.3 : RESISTIVITY MUD FILTRATE SAMPLE
MFST.DEGF                 55 : MUD FILTRATE SAMPLE TEMPERATURE
TCS .HRS                 2.5 : TIME CIRCULATED STOPPED
LUN .                   7730 : LOGGING UNIT NUMBER
LUL .                    EDM : LOGGING UNIT LOCATION
ENGI.        MCDONALD KARAKI : RECORDING ENGINEER
WITN.            ABEL WORKUM : WITNESSED BY
CLNT.                A2DTECH : CLIENT CODE
ORIG.            2" 5" PRINT : ORIGIN OF DATA
UWI .       100110505315W500 : UNIQUE WELL ID
DICO. A2D Technologies, Inc. : DIGITIZING COMPANY
~Other -----------------------------------------------------
~ASCII -----------------------------------------------------
# ...
 8600.00000    9.01740    8.82140    9.01740    -999.25   32.79000    0.10210    2.71970   -0.00330    -999.25   -0.00570   30.49710    0.10210   55.90410   55.90410   40.15720   42.11730   42.11730   30.49710   31.49590   49.95680   31.49590    0.05520    -999.25    0.05520    2.71970   33.66530   -0.04670   49.95680
 8650.00000    8.87750    8.84440    8.87750    -999.25    5.81820    0.00860    2.68580    0.01190    -999.25    0.01410  171.88260    0.00860   52.22590   52.22590   31.29440   31.10000   31.10000  171.88260  198.35790  329.70480  198.35790    0.02290    -999.25    0.02290    2.68580   24.64580   -9.88850  329.70480
 8700.00000    8.89760    8.90720    8.89760    -999.25   11.80950    0.03140    2.72890   -0.00970    -999.25   -0.01110   84.67770    0.03140   53.58950   53.58950   35.10300   40.68240   40.68240   84.67770   88.81680  107.45540   88.81680    0.03130    -999.25    0.03130    2.72890   19.86000  -14.84740  107.45540
 8750.00000    8.99480    8.76370    8.99480    -999.25   23.26710    0.01740    2.68430    0.01640    -999.25    0.01510   42.97920    0.01740   55.20550   55.20550   43.02150   41.94770   41.94770   42.97920   44.91980   68.65450   44.91980    0.03900    -999.25    0.03900    2.68430   24.59560  -10.28390   68.65450
 8800.00000    8.93760    8.78600    8.93760    -999.25   11.04920    0.00980    2.66520    0.02690    -999.25    0.02620   90.70450    0.00980   56.46590   56.46590   51.44790   54.44800   54.44800   90.70450   95.97790  167.99300   95.97790    0.04010    -999.25    0.04010    2.66520   27.98970   -7.28470  167.99300
 8850.00000    8.93800    8.75850    8.93800    -999.25    9.15460    0.00810    2.62500    0.05490    -999.25    0.04970  109.23480    0.00810   63.29200   63.29200  106.46870  118.16980  118.16980  109.23480  146.78080  201.76100  146.78080    0.09930    -999.25    0.09930    2.62500    9.88850  -23.92720  201.76100
 8900.00000    9.98680    9.02230    9.98680    -999.25    3.29560    0.25110    2.60230    0.06360    -999.25    0.06300  304.45550    0.25110   50.38230   50.38230   24.46290   24.99260   24.99260  304.45550 1505.00670  958.56040 1505.00670    0.00790    -999.25    0.00790    2.60230   -6.90000  -39.27150  958.56040
 8950.00000    9.99920    9.04560    9.99920    -999.25    3.05040    0.21460    2.57770    0.08150    -999.25    0.07740  327.82220    0.21460   49.32010   49.32010   15.12400   17.62750   17.62750  327.82220 1531.50590 1011.71580 1531.50590    0.00440    -999.25    0.00440    2.57770  -38.20350  -69.11640 1011.71580
 9000.00000    9.55870    8.96670    9.55870    -999.25    7.37700    0.24900    2.66050    0.03160    -999.25    0.02890  135.55570    0.24900   49.10240   49.10240   23.11600   26.59250   26.59250  135.55570 1026.69400  401.26430 1026.69400    0.00490    -999.25    0.00490    2.66050  -36.87100  -66.33250  401.26430
 9050.00000   11.08630    9.13950   11.08630    -999.25    4.78160    0.24230    2.45480    0.15500    -999.25    0.14920  209.44590    0.24230   49.76670   49.76670   14.10340   12.94730   12.94730  209.44590  676.62300  319.33310  676.62300    0.00780    -999.25    0.00780    2.45480  -53.72660  -81.74390  319.33310
 9100.00000   12.78310    9.11480   12.78310    -999.25    8.29310    0.16540    2.38550    0.19710    -999.25    0.18980  120.58260    0.16540   49.30780   49.30780   16.06530   13.66490   13.66490  120.58260 1543.44570  290.67000 1543.44570    0.01800    -999.25    0.01800    2.38550  -53.59910  -80.15780  290.67000
 9150.00000   13.18260    9.13830   13.18260    -999.25   10.65390    0.18010    2.26860    0.26190    -999.25    0.25820   93.98470    0.18010   59.36700   59.36700   14.29710   15.92810   15.92810   93.98470 1423.49760  185.28340 1423.49760    0.01930    -999.25    0.01930    2.26860  -54.76800  -79.88250  185.28340
 9200.00000   10.66210    9.05090   10.66210    -999.25    7.99850    0.15000    2.51090    0.12390    -999.25    0.11640  125.02380    0.15000   52.78180   52.78180   12.46120   12.23390   12.23390  125.02380  284.82170  147.42740  284.82170    0.00760    -999.25    0.00760    2.51090  -58.97340  -82.62920  147.42740
 9250.00000   11.70300    9.16830   11.70300    -999.25    7.94120    0.21790    2.46280    0.14250    -999.25    0.14460  125.92630    0.21790   49.19540   49.19540   13.27810   13.65060   13.65060  125.92630  803.53530  316.25500  803.53530    0.02120    -999.25    0.02120    2.46280  -60.38890  -82.59330  316.25500
 9300.00000   13.01040    9.07840   13.01040    -999.25    9.25510    0.25060    2.31440    0.23360    -999.25    0.23130  108.96100    0.25060   50.12650   50.12650   15.44580   16.92160   16.92160  108.96100 1038.78580  317.75290 1038.78580    0.00740    -999.25    0.00740    2.31440  -57.96660  -78.72690  317.75290
 9350.00000   13.18570    9.08250   13.18570    -999.25    4.48340    0.22220    2.34130    0.21970    -999.25    0.21560  223.04720    0.22220   49.80530   49.80530   15.66250   15.19510   15.19510  223.04720 1531.72280  713.80880 1531.72280    0.01220    -999.25    0.01220    2.34130  -59.72000  -79.02160  713.80880
 9400.00000   13.84440    9.11400   13.84440    -999.25    4.99030    0.18100    2.11730    0.34880    -999.25    0.34660  202.28840    0.18100   51.57910   51.57910   17.16040   19.64150   19.64150  202.28840  387.14050  243.03240  387.14050    0.03170    -999.25    0.03170    2.11730  -62.72920  -80.58660  243.03240
 9450.00000   12.70320    9.13070   12.70320    -999.25    5.25230    0.24510    2.23100    0.29370    -999.25    0.28010  190.39350    0.24510   49.81420   49.81420   20.40450   22.94040   22.94040  190.39350 1567.66200  754.81990 1567.66200    0.01150    -999.25    0.01150    2.23100  -58.82380  -75.22260  754.81990
 9500.00000   10.62070    9.16690   10.62070    -999.25   18.00600    0.24990    2.44730    0.16660    -999.25    0.15360   55.53710    0.24990   49.29250   49.29250   13.56930   13.13800   13.13800   55.53710  193.91160  135.88050  193.91160    0.03230    -999.25    0.03230    2.44730  -54.85870  -69.80600  135.88050
 9550.00000    8.74350    8.72090    8.74350    -999.25   81.56130    0.12010    2.78160   -0.04160    -999.25   -0.04190   12.41760    0.12010   51.94460   51.94460   14.66120   15.71750   15.71750   12.41760    9.90180   86.91780    9.90180    0.08340    -999.25    0.08340    2.78160  -96.28570 -109.78890   86.91780
 9600.00000    9.12930    8.86710    9.12930    -999.25    4.93010    0.12960    2.83180   -0.06620    -999.25   -0.07120  202.83630    0.12960   46.73410   46.73410   18.82790   14.59480   14.59480  202.83630  865.74140  639.73380  865.74140    0.01780    -999.25    0.01780    2.83180  -56.23680  -68.28130  639.73380
 9650.00000    8.86070    8.79100    8.86070    -999.25   19.03840    0.02970    2.76460   -0.02780    -999.25   -0.03190   52.68820    0.02970   51.39640   51.39640   27.01130   21.82460   21.82460   52.68820   67.79500   73.57980   67.79500    0.06380    -999.25    0.06380    2.76460  -66.97630  -78.72020   73.57980
 9700.00000   10.81710    8.90360   10.81710    -999.25    7.70860    0.24980    2.32500    0.22110    -999.25    0.22510  129.72460    0.24980   47.74220   47.74220   20.53920   20.70730   20.70730  129.72460  308.53810  247.94970  308.53810    0.06050    -999.25    0.06050    2.32500  -55.91180  -71.93880  247.94970
 9750.00000    9.72980    8.71440    9.72980    -999.25    8.86900    0.15490    2.60100    0.06880    -999.25    0.06370  112.75190    0.15490   48.98980   48.98980   22.27830   19.34550   19.34550  112.75190  752.24070  246.23000  752.24070    0.08800    -999.25    0.08800    2.60100  -67.31530  -87.60420  246.23000
 9800.00000   10.03520    8.89680   10.03520    -999.25   16.62720    0.24450    2.59930    0.07030    -999.25    0.06480   60.15950    0.24450   51.61400   51.61400   30.52900   32.82740   32.82740   60.15950   81.02430   90.24390   81.02430    0.07470    -999.25    0.07470    2.59930  -23.11730  -47.64670   90.24390
