~Version ---------------------------------------------------
VERS.      2.0 : CWLS log ASCII Standard -VERSION 2.0
WRAP.       NO : One line per depth step
CREA. 07/24/13 : LAS Creation Date
~Well ------------------------------------------------------
STRT.FT                        300.0 : START DEPTH
STOP.FT                      12850.0 : STOP DEPTH
STEP.FT                     50.00000 : STEP LENGTH
NULL.                        -999.25 : NULL VALUE
COMP.  WESTERN DECALTA PETROLEUM LTD : COMPANY
WELL. DECALTA ET AL BRAZR 6-31-47-13 : WELL
FLD .                  BRAZEAU RIVER : FIELD
LOC .                                : LOCATION
CTRY.                         CANADA : COUNTRY
SRVC.                   Schlumberger : SERVICE COMPANY
DATE.                    15-Mar-1978 : LOGDATE
PROV.                        Alberta : PROVINCE
UWI .               100063104713W500 : UNIQUE WELL ID
SLAT.WGS84                  53.09535 : SURFACE LATITUDE
SLON.WGS84                 -115.8946 : SURFACE LONGITUDE
~Curve Information -----------------------------------------
DEPT   .FT    : DEPTH FEET
CALD   .IN    : CALIPER FROM DENSITY LOG
CALS   .IN    : DENSITY POROSITY LIMESTONE [M=2.71, F=1.0] FROM DENSITY LOG
DPHI_LS.DEC   : DENSITY POROSITY LIMESTONE [M=2.71, F=1.0] FROM DENSITY LOG
DPHI_SS.DEC   : DENSITY POROSITY SANDSTONE [M=2.65, F=1.0] FROM DENSITY LOG
DRHO   .G/C3  : DENSITY CORRECTION FROM DENSITY LOG
DT     .US/F  : DELTA TIME FROM SONIC LOG
GRD    .GAPI  : GAMMA RAY FROM DENSITY LOG
GRS    .GAPI  : GAMMA RAY FROM SONIC LOG
ILD    .OHMM  : DEEP INDUCTION RESISTIVITY FROM RESISTIVITY LOG
ILM    .OHMM  : MEDIUM INDUCTION RESISTIVITY FROM RESISTIVITY LOG
LL8    .OHMM  : 8 INCH LATEROLOG RESISTIVITY FROM RESISTIVITY LOG
NPHI_LS.DEC   : NEUTRON POROSITY LIMESTONE FROM DENSITY LOG
NPHI_SS.DEC   : NEUTRON POROSITY SANDSTONE FROM DENSITY LOG
RHOB   .G/C3  : BULK DENSITY FROM DENSITY LOG
SPR    .MV    : SPONTANEOUS POTENTIAL FROM RESISTIVITY LOG
~Params ----------------------------------------------------
PD  .                     GL : PERMANENT DATUM
EPD .FT                 3420 : ELEVATION PERMANENT DATUM
LMF .                     KB : LOG MEASURED FROM
DAPD.FT                   27 : FEET ABOVE PERMANENT DATUM
DMF .                     KB : DRILLING MEASURED FROM
EGL .FT                 3420 : GROUND LEVEL
DATE.               03/15/78 : RUN DATE
RUN .                      2 : RUN NUMBER
DD  .FT                12857 : DEPTH DRILLER
DL  .FT                12856 : DEPTH LOGGER
BLI .FT                12850 : BOTTOM LOG INTERVAL
TLI .FT                10390 : TOP LOG INTERVAL
CS  .IN                9.625 : CASING SIZE
CBD .FT                10395 : CASING BOTTOM DRILLER
CBL .FT                10390 : CASING BOTTOM LOGGER
BS  .IN                6.125 : BIT SIZE
BSD .FT                12857 : BIT SIZE AT DEPTH
DFT .                    GEL : DRILLING FLUID TYPE
DFD .                   10.3 : DRILLING FLUID DENSITY
DFV .                     44 : DRILLING FLUID VISCOSITY
DFPH.                   11.5 : DRILLING FLUID PH
DFL .                    8.8 : DRILLING FLUID LOSS
MSS .               FLOWLINE : MUD SAMPLE SOURCE
RMS .OHMM               0.89 : RESISTIVITY MUD SAMPLE
MST .DEGF                 62 : MUD SAMPLE TEMPERATURE
TCS .HRS                 2.5 : TIME CIRCULATED STOPPED
LUN .                   7687 : LOGGING UNIT NUMBER
LUL .                    EDA : LOGGING UNIT LOCATION
ENGI.               BERNISKY : RECORDING ENGINEER
WITN.                  COWAN : WITNESSED BY
CLNT.                A2DTECH : CLIENT CODE
ORIG.            2" 5" PRINT : ORIGIN OF DATA
UWI .       100063104713W500 : UNIQUE WELL ID
DICO. A2D Technologies, Inc. : DIGITIZING COMPANY
~Other -----------------------------------------------------
~ASCII -----------------------------------------------------
# ...
 2600.00000   14.28050    9.87810    -999.25    -999.25    0.11520  122.26300   95.04500  101.35770    2.63590    2.85490    2.51350    -999.25    0.54790    -999.25  -69.95880
 2650.00000   12.45120    9.37950    -999.25    0.41210    0.04120  109.47310  106.83830  112.38760    2.67790    3.05650    2.48630    -999.25    0.48670    1.99970  -70.19500
 2700.00000   11.03200    9.88470    -999.25    0.16190    0.09230   86.74580   87.08460   82.73890    6.00060    7.22280    6.81070    -999.25    0.33090    2.39320  -72.82640
 2750.00000   10.57820   10.50560    -999.25    0.40030    0.13670   95.62290  100.92280   78.53740    5.23050    5.96620    7.32350    -999.25    0.49430    2.37600  -67.68200
 2800.00000   10.00170    9.87390    -999.25    0.05960    0.11070   71.98250   49.33560   49.96700   15.59910   16.21750   16.91210    -999.25    0.20710    2.55030  -77.02560
 2850.00000   11.47270   12.44320    -999.25    0.45000    0.04200  157.93230   81.05410   70.59240    4.86640    4.76960   11.87350    -999.25    0.64750    -999.25  -63.98280
 2900.00000   11.26770    9.85110    -999.25    0.13250    0.06990   94.56910  100.00370   90.80720    6.46510    7.36910    5.83270    -999.25    0.35140    2.43410  -71.12160
 2950.00000   11.31480   10.78440    -999.25    0.07710    0.12870   77.76320   86.78540   73.25770    7.67850    9.36730    8.39680    -999.25    0.24390    2.47480  -70.89310
 3000.00000   10.98260   10.64590    -999.25    0.14500    0.09060   89.96320  111.17940   94.18570    5.21510    6.02100    4.40970    -999.25    0.34540    2.33760  -71.55500
 3050.00000   10.73330   10.29190    -999.25    0.07270    0.16550   76.59220   87.23060   78.87670    9.13160   10.08620    8.92980    -999.25    0.24970    2.50070  -73.11480
 3100.00000   10.23500   10.32330    -999.25    0.07090    0.04400   74.08170   75.22550   76.03790   12.43130   14.04390   13.16660    -999.25    0.24190    2.50560  -72.57210
 3150.00000    9.75390    9.94620    -999.25    0.23750    0.16600   89.36930   91.21700   88.80750    5.85210    7.41970    6.12770    -999.25    0.33610    2.36140  -69.90080
 3200.00000    9.81430   10.07560    -999.25    0.09120    0.20450   76.26270   78.59790   72.03110   10.24070   11.33810   10.70100    -999.25    0.27560    2.49930  -71.69850
 3250.00000   10.95440   10.23580    -999.25    0.17020    0.21580   76.99100   84.25700   85.15070    7.98640    8.81560    7.91440    -999.25    0.28810    2.43710  -68.86700
 3300.00000   11.54190   10.71400    -999.25    0.21360    0.20670   85.14280   90.97110   91.32040    5.97660    6.26390    5.71510    -999.25    0.34970    2.29180  -69.11820
 3350.00000    9.33730    9.65020    -999.25    0.08790    0.15850   71.73110   67.77820   68.31010   15.42440   16.08430   17.24570    -999.25    0.23950    2.53380  -73.23310
 3400.00000    9.70290    9.10770    -999.25    0.11080    0.20990   74.00410   77.39790   58.48060    8.72920   11.03830    9.58950    -999.25    0.26660    2.38730  -66.41770
 3450.00000   10.88190    9.15300    -999.25    0.25280    0.18690   87.98830   93.98710   88.36090    5.97900    6.38880    6.12510    -999.25    0.38410    2.24310  -68.83260
 3500.00000    9.95260    9.74780    -999.25    0.17120    0.22050   79.75780   85.58840   79.98740    7.29500    7.81380    7.09440    -999.25    0.30220    2.30530  -68.57920
 3550.00000    9.42650    9.30380    -999.25    0.07100    0.18760   88.55090   96.98310   80.37690    6.21490    8.05930    6.63680    -999.25    0.34670    2.35610  -67.38030
 3600.00000   10.48540    9.36370    -999.25    0.12990    0.22530   80.64400   82.85760   79.18030    6.76330    7.28700    6.99310    -999.25    0.29300    2.50980  -67.49240
 3650.00000   10.02900    9.18780    -999.25    0.13080    0.04760   85.18150   99.75760   88.55200    4.69180    5.42440    4.86680    -999.25    0.35070    2.38760  -67.38060
 3700.00000   10.26630    9.02890    -999.25    0.20680    0.06810   88.97120   96.24410   89.76890    2.90860    3.42570    3.06140    -999.25    0.34860    2.29060  -64.88770
 3750.00000   10.03810    9.15230    -999.25    0.07490    0.10210   73.18860   69.09080   56.23960   13.47210   10.37350   11.92040    -999.25    0.21680    2.44410  -66.74550
 3800.00000    9.46730    9.00780    -999.25    0.13960    0.01800   92.17810   97.25850   88.08020    4.62020    5.26900    4.86150    -999.25    0.37170    2.38000  -62.74560
 3850.00000    9.38790    9.39280    -999.25    0.06340    0.03010   85.89200   90.12240   89.56280    6.21390    7.02380    6.66350    -999.25    0.38340    2.50820  -60.60230
 3900.00000    8.63010    8.79240    -999.25    0.07050    0.07430   77.62040   50.32100   65.70750   12.61320   13.77640   12.90040    -999.25    0.29150    2.51090  -65.35310
 3950.00000    8.67730    9.20830    -999.25    0.07100    0.01090   76.75640   84.36990   66.50970   11.17360   13.62290   12.24980    -999.25    0.30670    2.51970  -63.66420
 4000.00000    8.69930    9.05790    -999.25    0.06350   -0.00070   68.45740   55.79050   57.93940   15.76710   16.12430   17.96450    -999.25    0.21310    2.54510  -62.67980
 4050.00000    8.67110    9.25110    -999.25    0.06840    0.01180   79.86880   92.29570   86.09430    7.07120    7.56640    7.28160    -999.25    0.33110    2.53750  -62.70690
 4100.00000    8.58400    9.01370    -999.25    0.10270    0.01220   86.59370  110.16950  111.46730    8.15950    9.06680    8.44850    -999.25    0.37690    2.47300  -61.88860
 4150.00000    8.73570    8.87450    -999.25    0.03010    0.01470   63.55530   52.05650   51.03130   38.05520   35.23050   38.90490    -999.25    0.14390    2.58950  -72.27140
 4200.00000    8.85620    8.73430    -999.25   -0.00130    0.00210   61.28740   50.44810   37.57500   48.76630   46.55960   65.31650    -999.25    0.15650    2.63030  -71.05070
 4250.00000    9.27260    9.06220    -999.25    0.05010    0.20250   69.49050   65.18010   63.67850   17.63830   16.27360   20.28170    -999.25    0.21370    2.58620  -60.74250
 4300.00000    8.81050    9.14340    -999.25    0.08000    0.03990   70.78720  102.96030   91.12620    8.28050    8.92530    9.50590    -999.25    0.24440    2.54890  -59.81560
 4350.00000    8.91340    9.35960    -999.25    0.09130    0.01890   80.02440  121.40060  114.86010    5.93400    6.43560    6.25350    -999.25    0.32890    2.51550  -59.36890
 4400.00000    8.91890    9.53490    -999.25    0.06160   -0.00050   81.69700  108.58350   94.65210    7.55490    6.84780    7.23390    -999.25    0.33180    2.53520  -61.89630
 4450.00000   10.22040    8.93080    -999.25    0.25630    0.08530   95.83180  153.46370  147.38980    2.38950    2.33770    2.56190    -999.25    0.39140    2.23090  -60.33000
 4500.00000   10.58010    9.43130    -999.25    0.11570    0.09770   80.93750  100.45480  103.41610   11.71450   13.39980   12.22120    -999.25    0.28820    2.44950  -59.03960
 4550.00000   11.07270    9.34110    -999.25    0.13520    0.17500   83.02640   94.39120   93.75750    6.88200    7.40160    7.27350    -999.25    0.29400    2.41170  -59.45870
 4600.00000    9.91420    9.30920    -999.25    0.16200    0.13310   83.06990   82.23320   87.99740    6.14500    6.71540    6.39990    -999.25    0.30280    2.42730  -56.93250
 4650.00000    9.96880    9.41330    -999.25    0.08110    0.14130   69.30250   56.28210   47.10400   17.04310   16.14190   17.85230    -999.25    0.18380    2.53690  -57.05900
 4700.00000   10.03030    9.42670    -999.25    0.14490    0.08650   79.81380   95.86030   91.87040    6.25890    7.08580    6.68770    -999.25    0.26660    2.43910  -56.63100
 4750.00000   10.30290    9.36310    -999.25    0.17220    0.14450   88.17940  107.16940   98.94830    4.97990    5.21600    5.88420    -999.25    0.33130    2.38490  -58.69900
 4800.00000    9.97250    9.42680    -999.25    0.10330    0.26370   71.03770   76.82890   76.06950   13.41040   12.03050   11.61330    -999.25    0.22400    2.43240  -54.61750
 4850.00000    8.85240    8.91510    -999.25    0.05210    0.10140   71.74440   47.31840   44.53300   25.98330   27.94770   26.84420    -999.25    0.22930    2.53760  -59.99350
