~Version ---------------------------------------------------
VERS.      2.0 : CWLS log ASCII Standard -VERSION 2.0
WRAP.       NO : One line per depth step
CREA. 12/08/14 : LAS Creation Date
~Well ------------------------------------------------------
STRT.M                             300.0 : START DEPTH
STOP.M                            2750.0 : STOP DEPTH
STEP.M                          50.00000 : STEP LENGTH
NULL.                            -999.25 : NULL VALUE
COMP.                  INNOVA ENERGY LTD : COMPANY
WELL. INNOVA ET AL SNIPE LAKE 9-29-69-17 : WELL
FLD .                                    : FIELD
LOC .                                    : Location
CTRY.                             CANADA : COUNTRY
SRVC.                       Schlumberger : SERVICE COMPANY
DATE.                        15-Oct-2003 : LOGDATE
LOC1.                                    : Location 1
SECT.                                    : Section
TOWN.                                    : Township
RNGE.                                    : Range
PDAT.                                    : Perm Datum
EPD .                             828.55 : Elevation
LMF .                                 KB : Log Measured From
DMF .                                 KB : Drill Measured From
APD .                                    : Above Perm Datum
EKB .                             833.55 : Elev-Kelly Bushing.
EDF .                             833.25 : Elev-Drill Floor
EGL .                             828.55 : Elev-Ground Level
PROV.                            Alberta : PROVINCE
UWI .                   100092906917W500 : UNIQUE WELL ID
SLAT.WGS84                       55.0044 : SURFACE LATITUDE
SLON.WGS84                     -116.5483 : SURFACE LONGITUDE
~Curve Information -----------------------------------------
DEPT    .M      : Depth METERS
AHT20ED .OHMM   : 20 INCH RESISTIVITY TWO FOOT RESOLUTION FROM PEX- AIT LOG
AHT30ED .OHMM   : 30 INCH RESISTIVITY TWO FOOT RESOLUTION FROM PEX-AIT LOG
AHT90ED .OHMM   : 90 INCH RESISTIVITY TWO FOOT RESOLUTION FROM PEX-AIT LOG
CAL2DED .MM     : LONG AXIS CALIPER FROM DENSITY LOG
CALWS   .MM     : CALIPER [HCALDED]
CONDWS  .MMHO   : CONDUCTIVITY [1000/DRESWS]
DCORWS  .KG/M3  : DENSITY CORRECTION [HDRAED]
DENWS   .KG/M3  : FORMATION BULK DENSITY [CALC. FROM DPOLSWS, M=2710, F=1000]
DPHILSED.V/V    : DENSITY POROSITY LIMESTONE [M=2710 F=1000] FROM DENSITY LOG
DPHISSED.V/V    : DENSITY POROSITY  SANDSTONE [M=2650 F=1000] FROM DENSITY LOG
DPOLSWS .V/V    : DENSITY POROSITY LIMESTONE [DPHISSED CONVERTED TO LIMESTONE MATRIX, M=2710 F=1000 ]
DRESWS  .OHMM   : DEEP RESISTIVITY [AHT90ED]
DTED    .US/M   : DELTA-TIME FROM SONIC LOG [ADJ. TO PEX-AIT LOG]
DTWS    .US/M   : COMPRESSIONAL SONIC [DTED]
GRDED   .GAPI   : GAMMA RAY FROM DENSITY LOG
GRED    .GAPI   : GAMMA RAY FROM GAMMA LOG  [ADJ. TO PEX-AIT LOG]
GRRED   .GAPI   : GAMMA RAY FROM PEX-AIT LOG
GRSED   .GAPI   : GAMMA RAY FROM SONIC LOG  [ADJ. TO PEX-AIT LOG]
GRWS    .GAPI   : GAMMA RAY [GRED SPL. TO GRRED @ 210 M TO GRSED @ 2753.7 M]
HCALDED .MM     : HRCC CALIPER CALIBRATED FROM DENSITY LOG
HDRAED  .KG/M3  : HRDD SPINE AND RIBS DENSITY CORRECTION FROM DENSITY LOG
MRESWS  .OHMM   : MEDIUM RESISTIVITY [AHT30ED]
NPOLSWS .V/V    : NEUTRON POROSITY LIMESTONE [NPORSSED MATRIX (TNPH) CONVERSION FOR LIMESTONE ]
NPORLSED.V/V    : NEUTRON POROSITY LIMESTONE FROM DENSITY LOG
NPORSSED.V/V    : ENHANCED THERMAL NEUTRON POROSITY SANDSTONE FROM DENSITY LOG
PEFWS   .B/E    : PHOTOELECTRIC FACTOR [PEFZED]
PEFZED  .B/E    : HRDD STANDARD RESOLUTION FORMATION PHOTOELECTRIC FACTOR FROM DENSITY LOG
RHOZED  .KG/M3  : HRDD STANDARD RESOLUTION FORMATION DENSITY FROM DENSITY LOG [ADJ TO DPHISSED]
RXOZED  .OHMM   : STANDARD RESOLUTION INVADED ZONE RESISTIVITY FROM PEX-AIT LOG
SPRED   .MV     : SPONTANEOUS POTENTIAL FROM PEX-AIT LOG
SPWS    .MV     : SPONTANEOUS POTENTIAL [BASELINE 0 MV, SPRED]
SRESWS  .OHMM   : SHALLOW RESISTIVITY [AHT20ED]
TENDED  .N      : TENSION FROM DENSITY LOG
TENRED  .N      : TENSION FROM PEX-AIT LOG
TENSED  .N      : TENSION FROM SONIC LOG
~Params ----------------------------------------------------
RUN .          1 : Run #
DATE.            : Date log was run
TDD .       2765 : Depth - Driller
TDL .       2765 : Depth - Logger
BLI .     2762.5 : Bottom Log Interval
TLI .      416.0 : Top Log Interval
CBD .      416.6 : Casing - Driller
CBL .        416 : Casing - Logger
BS  .        200 : Bit Size
DFT .   GEL CHEM : Type of Fluid In Hole
DFD .       1175 : Drilling Fluid Density
DFV .         90 : Drilling Fluid Viscosity
DFPH.        9.5 : Drilling Fluid pH
DFL .        6.5 : Drilling Fluid Loss
MSS .   FLOWLINE : Source of Sample
RMS .       0.68 : Mud Resitivity
RMFS.      0.926 : Mud Filtrate Resistivity
RMCS.      0.625 : Mud Cake Resitivity
MFSS. CALCULATED : Source of Rmf
MCSS. CALCULATED : Source of Rmc
RMBH.            : Rm at BHT
MRT .         78 : Max Recorded Temperature
CLNT.    A2DTECH : CLIENT CODE
~Other -----------------------------------------------------
~ASCII -----------------------------------------------------
# ...
 1350.00000    2.58250    2.63190    2.70850  272.11550  248.01020  369.20800  108.31240 2415.53500    -999.25    0.14210    0.17220    2.70850  311.20500  311.20500   95.18270    -999.25   94.89680   88.00420   94.89680  248.01020  108.31240    2.63190    0.34040    -999.25    0.38660    3.14230    3.14230 2415.87280    2.47130   20.51880  -10.14410    2.58250 14729.64550 14810.46390 11561.33200
 1400.00000    7.53190    7.83180    8.23850  222.63560  267.12340  121.38130  210.65030 2309.27500    -999.25    0.20650    0.23430    8.23850  258.82510  258.82510   97.12680    -999.25   96.64300  104.71680   96.64300  267.12340  210.65030    7.83180    0.25010    -999.25    0.30150    2.07190    2.07190 2301.25930    2.98510   16.78490  -14.82480    7.53190 14770.47270 14707.52930 11864.58980
 1450.00000  240.06400  192.59490  164.73920  203.47000  205.09960    6.07020    3.84760 2602.15000    0.06300    0.02900    0.06310  164.73920  221.58970  221.58970  102.62480    -999.25  100.75360   86.32880  100.75360  205.09960    3.84760  192.59490    0.11030    0.11120    0.15730    4.39430    4.39430 2612.00150  211.52700    4.78340  -28.46430  240.06400 15160.25590 14982.46880 11981.52830
 1500.00000    4.14100    3.09890    2.05580  200.80200  202.15960  486.42860   18.99440 2472.29500    0.13830    0.10770    0.13900    2.05580  210.43510  210.43510   19.35620    -999.25   19.34030   16.91400   19.34030  202.15960   18.99440    3.09890    0.22020    0.22090    0.27260    2.96730    2.96730 2469.74070   22.24370  -78.06290 -113.96840    4.14100 14964.59770 14880.79880 12050.10160
 1550.00000    6.61810    6.05270    5.68390  218.57870  239.61270  175.93550   -7.34030 2690.75500    0.01000   -0.02470    0.01130    5.68390  189.84450  189.84450   39.98820    -999.25   40.07030   34.46640   40.07030  239.61270   -7.34030    6.05270    0.17660    0.15610    0.22880    4.18930    4.18930 2688.35470   21.40400  -42.08020  -80.64350    6.61810 15645.68650 15702.08790 12294.32030
 1600.00000    2.98870    2.87840    2.68830  229.69170  253.23410  371.98230    7.68410 2646.37000    0.03770    0.00220    0.03720    2.68830  219.86270  219.86270   56.20020    -999.25   56.53830   54.20100   56.53830  253.23410    7.68410    2.87840    0.19980    0.19300    0.25250    3.78950    3.78950 2641.24510    6.41610  -21.49510  -62.71610    2.98870 16676.24220 16513.36910 13214.62010
 1650.00000   53.96370   36.24020   26.18810  216.53750  219.03400   38.18530   -0.93170 2642.08000    0.03840    0.00480    0.03970   26.18810  178.56870  178.56870   31.05090    -999.25   31.08720   31.80140   31.08720  219.03400   -0.93170   36.24020    0.05770    0.05260    0.09460    4.71000    4.71000 2640.07230   51.69920  -45.50510  -89.38390   53.96370 16675.57420 16626.56840 12996.58110
 1700.00000   70.95090   73.63170   51.87160  221.08890  234.19340   19.27840   21.02710 2702.63500    0.00450   -0.03190    0.00430   51.87160  170.89490  170.89490   14.37520    -999.25   15.17920   13.92240   15.17920  234.19340   21.02710   73.63170    0.03070    0.02620    0.06130    5.30740    5.30740 2704.69210  301.53120  -33.26550  -79.80210   70.95090 16627.79880 16580.33200 13471.56930
 1750.00000   11.96570   11.14640   10.35090  220.64130  224.90840   96.61000   15.04810 2701.31500    0.00400   -0.03110    0.00510   10.35090  204.80270  204.80270   54.63810    -999.25   53.53150   56.43620   53.53150  224.90840   15.04810   11.14640    0.06870    0.06620    0.10800    4.30240    4.30240 2704.40670   20.31710   24.30020  -24.89420   11.96570 17258.48440 17338.04880 14046.44340
 1800.00000   32.51300   31.46940   29.84100  202.19610  202.96260   33.51090    3.54510 2667.49000    0.02560   -0.01060    0.02490   29.84100  178.96160  178.96160   27.89800    -999.25   27.75180   31.29590   27.75180  202.96260    3.54510   31.46940    0.03910    0.03710    0.07180    4.57530    4.57530 2663.77200   54.67250    8.09470  -43.75740   32.51300 17963.48630 17970.01370 14325.87700
 1850.00000   45.27700   42.86500   40.94540  200.88260  199.80230   24.42280    6.73970 2695.21000    0.00810   -0.02740    0.00860   40.94540  177.64190  177.64190   26.70360    -999.25   27.06980   25.91730   27.06980  199.80230    6.73970   42.86500    0.03260    0.02930    0.06370    4.72140    4.72140 2689.83540   63.84660   19.21490  -35.29500   45.27700 18700.87300 18709.26760 14867.22660
 1900.00000   49.77880   51.96970   39.70990  200.76530  202.56090   25.18260   -3.57410 2710.55500   -0.00100   -0.03670   -0.00030   39.70990  174.84780  174.84780   33.22980    -999.25   33.19430   32.54520   33.19430  202.56090   -3.57410   51.96970    0.03140    0.02770    0.06220    5.00250    5.00250 2711.93160   85.12960   35.80230  -21.29280   49.77880 18377.21290 18479.19340 15189.44240
 1950.00000  322.58070  252.46280  209.98820  201.29460  208.82590    4.76220   17.95030 2723.42500   -0.00850   -0.04450   -0.00790  209.98820  164.44180  164.44180   22.56660    -999.25   22.49670   19.57970   22.49670  208.82590   17.95030  252.46280    0.00750    0.00260    0.03210    5.17300    5.17300 2732.69560  291.29580  -10.95930  -70.17010  322.58070 19071.34570 19118.28320 15595.09470
 2000.00000  144.99570  116.00670  106.14670  200.02070  208.39180    9.42090  131.92760 2726.39500   -0.00900   -0.04630   -0.00960  106.14670  165.98580  165.98580   18.36300    -999.25   17.96290   20.26520   17.96290  208.39180  131.92760  116.00670    0.01130    0.00790    0.03690    5.14990    5.14990 2729.96730  185.47790  -57.69990 -119.02640  144.99570 19288.43750 19409.00590 15860.91600
 2050.00000   51.87070   47.04270   38.92290  199.89160  202.28590   25.69180   21.52010 2677.06000    0.01930   -0.01640    0.01930   38.92290  168.78840  168.78840   13.96530  144.52830   13.61430    9.29730   13.61430  202.28590   21.52010   47.04270    0.02680    0.02310    0.05640    5.06250    5.06250 2680.00950  341.77200  -28.85100  -92.29330   51.87070 19311.16990 19257.54690 16418.43160
 2100.00000 1646.35380 2010.14840  409.07800  202.59870  213.25520    2.44450   52.70390 2731.01500   -0.01180   -0.04910   -0.01230  409.07800  161.84800  161.84800   13.87240  149.90220   13.73330   14.05180   13.73330  213.25520   52.70390 2010.14840    0.00110   -0.00210    0.02400    5.10770    5.10770 2730.11720  227.95700  -58.55430 -124.11230 1646.35380 20244.68950 20288.03320 16414.56050
 2150.00000  235.45440  187.86680  155.00080  203.85040  209.03200    6.45160   18.61390 2749.33000   -0.02230   -0.06020   -0.02300  155.00080  160.93790  160.93790   18.66830  151.43080   18.56280   14.83550   18.56280  209.03200   18.61390  187.86680    0.00270   -0.00070    0.02600    5.12860    5.12860 2752.07810  249.41340  -26.19730  -93.87100  235.45440 20323.86910 20040.63280 16698.35940
 2200.00000   20.39550   16.72250   12.28410  207.11020  197.24100   81.40600   36.00000 2716.33000   -0.00360   -0.04020   -0.00370   12.28410  170.43370  170.43370   28.13850  166.95910   27.45610   23.21470   27.45610  197.24100   36.00000   16.72250    0.11540    0.11800    0.16300    3.28930    3.28930 2707.86770   79.37670  -47.24360 -117.03300   20.39550 20360.61520 20501.17970 17218.82230
 2250.00000  557.08700  397.28660  319.53380  200.08400  202.62620    3.12960    3.84170 2722.10500   -0.00720   -0.04370   -0.00710  319.53380  167.38490  167.38490   14.90730    -999.25   14.21930   19.28140   14.21930  202.62620    3.84170  397.28660    0.01470    0.01030    0.04120    4.96560    4.96560 2726.22360  489.27440   18.50160  -47.99440  557.08700 21504.77340 21520.27340 17733.50590
 2300.00000    3.49180    3.41200    3.36380  227.78290  234.82280  297.28280  204.13100 2473.12000    0.13730    0.10720    0.13850    3.36380  271.67180  271.67180  122.40160    -999.25  121.96210  123.00660  121.96210  234.82280  204.13100    3.41200    0.27930    0.27240    0.32940    3.38000    3.38000 2478.53200    1.73230   21.32780  -33.32250    3.49180 22092.31050 22035.03320 17872.10550
