~Version ---------------------------------------------------
VERS. 2.0 : CWLS log ASCII Standard -VERSION 2.0
WRAP.  NO : ONE LINE PER DEPTH STEP
~Well ------------------------------------------------------
STRT.F                          900.0 : START DEPTH
STOP.F                         8350.0 : STOP DEPTH
STEP.F                       50.00000 : STEP LENGTH
NULL.                         -999.25 : NULL VALUE
COMP.         QUINTANA EXPLORATION CO : COMPANY
WELL. QUINTANA ET AL SNIPE 6-23-72-18 : WELL
FLD .                                 : FIELD
LOC .                                 : LOCATION
CTRY.                          CANADA : COUNTRY
SRVC.          Schlumberger of Canada : SERVICE COMPANY
DATE.                     22-Mar-1977 : LOGDATE
PROV.                         Alberta : PROVINCE
UWI .                100062307218W500 : UNIQUE WELL ID
SLAT.WGS84                   55.24794 : SURFACE LATITUDE
SLON.WGS84                  -116.6597 : SURFACE LONGITUDE
~Curve Information -----------------------------------------
DEPT   .F    0   1   0  0 : 1 MEASURED DEPTH
LL8    .OHMM 07 220 08 00 : LATEROLOG 8
SPR    .MV   07 010 01 00 : SPONTANEOUS POTENTIAL FROM RESISTIVITY LOG
ILD    .OHMM 07 120 46 00 : INDUCTION DEEP RESISTIVITY
ILM    .OHMM 07 120 44 00 : INDUCTION MEDIUM RESISTIVITY
GRS    .GAPI 60 310 01 00 : GAMMA RAY FROM SONIC LOG
DT     .US/F 60 500 00 00 : DELTA-T (INTERVAL TRANSIT TIME)
CALS   .IN   60 280 50 00 : CALIPER FROM SONIC LOG
GRD    .GAPI 45 310 01 00 : GAMMA RAY FROM DENSITY LOG
NPHI_SS.DEC  42 890 03 00 : NEUTRON POROSITY SANDSTONE
CALD   .IN   45 280 60 00 : CALIPER FROM DENSITY LOG
DPHI_SS.DEC  45 890 12 00 : DENSITY POROSITY SANDSTONE
NPHI_LS.DEC  42 890 01 00 : NEUTRON POROSITY LIMESTONE
DPHI_LS.DEC  45 890 10 00 : DENSITY POROSITY LIMESTONE
DRHO   .G/C3 45 356 01 00 : BULK DENSITY CORRECTION
RHOB   .G/C3 45 350 01 00 : BULK DENSITY
~Params ----------------------------------------------------
PD  .                     GL : PERMANENT DATUM
EPD .FT                 2330 : ELEVATION PERMANENT DATUM
LMF .                     KB : LOG MEASURED FROM
DAPD.FT                    7 : FEET ABOVE PERMANENT DATUM
EKB .FT                 2347 : KELLY BUSHING
EGL .FT                 2330 : GROUND LEVEL
DATE.               03/22/77 : RUN DATE
RUN .                      1 : RUN NUMBER
DD  .FT                 8390 : DEPTH DRILLER
DL  .FT                 8389 : DEPTH LOGGER
BLI .FT                 8383 : BOTTOM LOG INTERVAL
TLI .FT                  615 : TOP LOG INTERVAL
CBD .FT                  918 : CASING BOTTOM DRILLER
CBL .FT                  916 : CASING BOTTOM LOGGER
BS  .IN                 8.75 : BIT SIZE
BSD .FT                 8390 : BIT SIZE AT DEPTH
DFT .               GEL CHEM : DRILLING FLUID TYPE
DFD .                    9.3 : DRILLING FLUID DENSITY
DFV .                     76 : DRILLING FLUID VISCOSITY
DFPH.                    9.0 : DRILLING FLUID PH
DFL .                    6.0 : DRILLING FLUID LOSS
MSS .               FLOWLINE : MUD SAMPLE SOURCE
RMS .OHMM               3.18 : RESISTIVITY MUD SAMPLE
MST .DEGF                 68 : MUD SAMPLE TEMPERATURE
RMF .OHMM               2.96 : RESISTIVITY MUD FILTRATE SAMPLE
MFST.DEGF                 70 : MUD FILTRATE SAMPLE TEMPERATURE
RMB .OHMM               1.48 : RESISTIVITY MUD AT BHT
TCS .HRS                 1.5 : TIME CIRCULATED STOPPED
LUN .                   7802 : LOGGING UNIT NUMBER
LUL .                    EDM : LOGGING UNIT LOCATION
ENGI.              CERANTOLA : RECORDING ENGINEER
WITN.                  SKOKO : WITNESSED BY
CLNT.                A2DTECH : CLIENT CODE
ORIG.            2" 5" PRINT : ORIGIN OF DATA
UWI .       100062307218W500 : UNIQUE WELL ID
DICO. A2D Technologies, Inc. : DIGITIZING COMPANY
~Other -----------------------------------------------------
~ASCII -----------------------------------------------------
  900.00000    -999.25    -999.25    -999.25    -999.25   49.80080    -999.25    -999.25    -999.25    -999.25    -999.25    -999.25    -999.25    -999.25    -999.25    -999.25
  950.00000    5.84400  -39.55380    4.40410    4.86810   70.98950  132.57940   10.31370   88.66460    0.48350   11.65050    0.27260    -999.25    -999.25    0.18640    2.18950
 1000.00000    5.92600  -43.39880    4.07500    4.18370   78.34330  153.67460   10.49500   82.59270    0.51600   13.76810    0.41460    -999.25    -999.25    0.10460    2.03300
 1050.00000    6.22680  -47.05130    4.95810    5.30290  114.80980  133.17520   12.54490  110.82330    0.54370   14.96470    0.44450    -999.25    -999.25    0.19840    1.87950
 1100.00000    6.69880  -49.22890    5.85100    6.06350  121.07310  124.95700    8.64870  105.80330    0.55880    -999.25    0.41220    -999.25    -999.25    0.13610    1.97740
 1150.00000    6.47390  -51.14930    5.31600    5.50270  129.92550  135.20660    8.81950  142.12640    0.53160    -999.25    0.47780    -999.25    -999.25    0.17880    1.83490
 1200.00000    6.54380  -46.69560    4.96570    5.26490  144.20490  135.61260    8.86000  146.71760    0.52180    -999.25    0.44700    -999.25    -999.25    0.18600    1.89820
 1250.00000    6.87570  -42.76050    4.86390    5.12970  223.59520  133.54170    9.59750  226.60400    0.58750    -999.25    0.37610    -999.25    -999.25    0.16280    2.01670
 1300.00000    7.14360  -50.96370    6.06680    6.30580  125.01090  116.28360    9.17620  121.26270    0.53170    -999.25    0.49950    -999.25    -999.25    0.09860    1.77890
 1350.00000    6.86110  -51.13110    6.24180    5.89270  113.71020  146.72980   14.28350   89.87500    0.66600    -999.25    0.57900    -999.25    -999.25    0.10370    1.64040
 1400.00000    6.58510  -53.89710    6.06340    5.71870  119.41920  138.63040   14.24060  118.19560    0.55480    -999.25    0.55890    -999.25    -999.25    0.05920    1.70220
 1450.00000    7.08630  -53.75440    6.48080    6.12100  129.27390  129.68090   11.64220  130.31450    0.60160   14.72490    0.51170    -999.25    -999.25    0.12340    1.75510
 1500.00000    6.45630  -54.81860    4.94050    5.65680  123.02700  118.43420   14.60000  125.98520    0.56840    -999.25    0.56210    -999.25    -999.25    0.14220    1.70960
 1550.00000    6.94720  -60.22130    6.60290    6.25190  100.49720  162.55330   14.78070  111.10840    0.58120   15.00360    0.45910    -999.25    -999.25    0.14840    1.82190
 1600.00000    7.12510  -61.44950    6.43860    6.69960  103.24940  122.52270   13.81180  103.46260    0.65360    -999.25    0.59970    -999.25    -999.25    0.09460    1.59220
 1650.00000    7.00340  -60.50780    6.24570    5.73140  127.57240  131.71950   14.57040  108.58150    0.60840    -999.25    0.56250    -999.25    -999.25    0.09900    1.69570
 1700.00000    6.71890  -59.12860    5.18420    4.85500  149.05970  127.19290   13.80070  129.76040    0.56100    -999.25    0.42540    -999.25    -999.25    0.13410    1.94070
 1750.00000    6.89460  -57.88360    5.21160    4.95150  137.05380  128.33140   10.37060  151.14960    0.58750   14.49170    0.42850    -999.25    -999.25    0.14500    1.92220
 1800.00000    6.86100  -57.46460    4.90510    4.69620  147.49100  133.37640   11.20650  147.91040    0.58920   14.14270    0.39920    -999.25    -999.25    0.15420    1.93670
 1850.00000    8.07380  -54.38420    5.16350    5.51930  238.07560  128.11130   10.98750  197.57100    0.57160   11.55330    0.30860    -999.25    -999.25    0.21080    2.10950
 1900.00000    5.98470  -57.19780    5.46070    4.61710  114.74750  113.70630   11.06680  119.20290    0.52160   12.09210    0.38620    -999.25    -999.25    0.18220    2.00560
 1950.00000   49.69510  -61.89610   11.33000   20.69140  108.41120   84.72630    9.64710  106.10940    0.28700    9.71830    0.13120    -999.25    -999.25    0.07480    2.40780
 2000.00000    5.49180  -52.69520    4.59820    4.76350  132.89830  116.60430   10.13660  143.87770    0.47020   11.67660    0.38370    -999.25    -999.25    0.19670    2.04140
 2050.00000    4.72430  -52.24500    3.86610    3.56490  140.96360  119.79100   10.17240  145.85220    0.52660   13.53970    0.37670    -999.25    -999.25    0.18510    2.00720
 2100.00000    4.84280  -50.57090    4.21180    3.98810  140.50760  111.58440    9.33550  131.10180    0.46720   14.09780    0.38760    -999.25    -999.25    0.16210    1.99690
 2150.00000    5.19390  -51.69540    4.76420    4.50380  129.12590  107.72130    9.61320  133.09760    0.46690    -999.25    0.40640    -999.25    -999.25    0.18600    1.95580
 2200.00000    4.86960  -54.72090    4.48450    4.30200  146.52030  110.43480    9.64490  142.48880    0.46810   15.01810    0.47750    -999.25    -999.25    0.12230    1.87010
 2250.00000    5.07970  -50.35890    4.07190    4.12130  136.13840  111.59640    9.57080  136.63200    0.48160    -999.25    0.49210    -999.25    -999.25    0.16980    1.81400
 2300.00000    5.55210  -53.15200    4.83180    5.30740  143.45860  115.55400   10.63450  129.57200    0.51360   10.66740    0.48450    -999.25    -999.25    0.12310    1.83280
 2350.00000    3.85100  -45.05580    2.57770    2.86250  172.71690  126.25380   10.72480  167.32520    0.48590   14.31900    0.45230    -999.25    -999.25    0.15040    1.92300
 2400.00000    2.83130  -46.63450    1.74810    1.66790  144.06620  157.62370   11.73560  135.97930    0.59190   13.12310    0.45910    -999.25    -999.25    0.12600    1.87630
 2450.00000    3.87970  -47.57690    2.94360    2.75350  118.31140  111.56870   11.20230  131.86780    0.50170   12.84850    0.35380    -999.25    -999.25    0.17330    2.03810
 2500.00000    3.92940  -47.92740    3.07750    2.89220  111.00610  111.43670   12.87400  129.98810    0.55820   14.95080    0.44080    -999.25    -999.25    0.13890    1.90400
 2550.00000    3.73710  -47.39420    2.97820    2.70090  104.99460  109.65530   10.28870  152.60490    0.52570   10.85920    0.32800    -999.25    -999.25    0.17140    2.09400
 2600.00000   12.73050  -77.44490    4.61630    7.38220   86.61400   89.51680    8.69980   64.82460    0.29630    8.60550    0.18380    -999.25    -999.25    0.11850    2.35040
 2650.00000    4.01140  -46.24450    2.76500    2.63640  107.66060  119.81750    9.97420  118.32560    0.49970   12.22790    0.44400    -999.25    -999.25    0.19150    1.92350
 2700.00000    5.02740  -73.39500    3.42500    3.79460   97.88730  105.50670    9.35120  129.62780    0.38520    9.23770    0.18690    -999.25    -999.25    0.09360    2.34980
 2750.00000   15.33770 -115.12390    3.65350    5.95840   64.42760   98.42930    8.72540   75.59760    0.38320    8.99500    0.26830    -999.25    -999.25    0.09050    2.19960
 2800.00000    4.46780  -54.92210    3.27480    3.42540  110.59160  103.26780    9.28070  128.99550    0.41050    9.40440    0.16170    -999.25    -999.25    0.09740    2.41130
 2850.00000   12.66140 -120.35870    4.09070    6.67360   69.93440  106.09350    8.56770   83.31590    0.38280    8.67880    0.24750    -999.25    -999.25    0.09420    2.22500
 2900.00000   13.69790 -107.49570    4.83140    7.43000   72.24940   97.86910    8.77520   72.60070    0.36300    8.95350    0.25460    -999.25    -999.25    0.09200    2.24120
 2950.00000    6.70040  -87.42700    3.12520    3.86750   80.79730  107.04780    9.20000   93.57850    0.37050    9.56430    0.23030    -999.25    -999.25    0.11760    2.27650
 3000.00000    7.46780  -82.90910    3.36510    4.50050   91.52920   81.73510    8.96720   88.64370    0.36270    9.19610    0.19750    -999.25    -999.25    0.10970    2.29370
 3050.00000    5.44660  -56.66920    3.46990    3.56370  106.25500  101.41580    9.14770  115.19990    0.38690    9.28010    0.19170    -999.25    -999.25    0.07920    2.34160
 3100.00000    4.31850  -78.94390    2.53570    2.87350   96.96900  104.38210    9.71110  101.75300    0.40560    9.53960    0.21840    -999.25    -999.25    0.09200    2.30710
 3150.00000   12.03120 -100.77630    4.65650    6.26040   72.63770   94.27650    9.14100   94.19900    0.36690    9.21810    0.19500    -999.25    -999.25    0.13790    2.34240
