~Version ---------------------------------------------------
VERS. 2.0 : CWLS log ASCII Standard -VERSION 2.0
WRAP.  NO : ONE LINE PER DEPTH STEP
~Well ------------------------------------------------------
STRT.F                      557.7428 : START DEPTH
STOP.F                    10838.7428 : STOP DEPTH
STEP.F                       0.50000 : STEP LENGTH
NULL.                        -999.25 : NULL VALUE
COMP.           PETROFINA CANADA LTD : COMPANY
WELL. FINA AMOCO HB FOXCK 6-35-60-18 : WELL
FLD .                                : FIELD
LOC .                                : LOCATION
CTRY.                         CANADA : COUNTRY
SRVC.         Schlumberger of Canada : SERVICE COMPANY
DATE.                    29-Aug-1976 : LOGDATE
PROV.                        Alberta : PROVINCE
UWI .               100063506018W500 : UNIQUE WELL ID
SLAT.WGS84                  54.22952 : SURFACE LATITUDE
SLON.WGS84                 -116.5928 : SURFACE LONGITUDE
~Curve Information -----------------------------------------
DEPT   .F                 : 
SPR    .MV                : SPONTANEOUS POTENTIAL FROM RESISTIVITY
ILD    .OHMM              : DEEP INDUCTION RESISTIVITY
ILM    .OHMM              : INDUCTION MEDIUM RESISTIVITY
LL8    .OHMM              : LATEROLOG-8 RESISTIVITY
CALD   .IN   70 280 01 00 : CALIPER
DCOR   .G/C3 45 356 01 00 : DENSITY CORRECTION
GRD    .GAPI 45 310 01 00 : GAMMA RAY FROM DENSITY LOG
RHOB   .G/C3 45 350 01 00 : BULK DENSITY
DPOR_SS.DEC               : DENSITY POROSITY SANDSTONE
NPOR_S .DEC               : ENCHANCED THERMAL NEUTRON POROSITY IN SELECTED LITHOLOGY SANDSTONE
DPOR_LS.DEC               : DENSITY POROSITY LIMESTONE
NPOR_LS.DEC               : ENCHANCED THERMAL NEUTRON POROSITY IN SELECTED LITHOLOGY SANDSTONE
DT     .US/F 60 520 00 00 : ACOUSTIC TRANSIT TIME SLOWNESS, DELTA T
CALS   .IN                : 
GRS    .GAPI              : GAMMA RAY FROM SONIC LOG
GR     .GAPI              : GAMMA RAY
~Params ----------------------------------------------------
PD  .                     GL : PERMANENT DATUM
EPD .FT                 3085 : ELEVATION PERMANENT DATUM
LMF .                     KB : LOG MEASURED FROM
DAPD.FT                 15.7 : FEET ABOVE PERMANENT DATUM
EKB .FT               3100.9 : KELLY BUSHING
EDF .FT               3085.2 : DRILLING FLOOR
EGL .FT               3085.5 : GROUND LEVEL
DATE.               08/29/76 : RUN DATE
RUN .                      1 : RUN NUMBER
DD  .FT                10843 : DEPTH DRILLER
DL  .FT                10840 : DEPTH LOGGER
BLI .FT                10834 : BOTTOM LOG INTERVAL
TLI .FT                 1119 : TOP LOG INTERVAL
CBD .FT                 1119 : CASING BOTTOM DRILLER
CBL .FT                 1119 : CASING BOTTOM LOGGER
BS  .IN                 8.75 : BIT SIZE
BSD .FT                10843 : BIT SIZE AT DEPTH
DFT .               GEL CHEM : DRILLING FLUID TYPE
DFD .                    9.3 : DRILLING FLUID DENSITY
DFV .                    150 : DRILLING FLUID VISCOSITY
DFPH.                   10.5 : DRILLING FLUID PH
DFL .                    7.0 : DRILLING FLUID LOSS
MSS .            CIRCULATION : MUD SAMPLE SOURCE
RMS .OHMM               2.43 : RESISTIVITY MUD SAMPLE
MST .DEGF                 76 : MUD SAMPLE TEMPERATURE
RMF .OHMM               2.33 : RESISTIVITY MUD FILTRATE SAMPLE
MFST.DEGF                 73 : MUD FILTRATE SAMPLE TEMPERATURE
RMC .OHMM               2.22 : RESISTIVITY MUD CAKE
MCST.DEGF                 67 : MUD CAKE SAMPLE TEMPERATURE
RMB .OHMM               0.86 : RESISTIVITY MUD AT BHT
TCS .HRS                   3 : TIME CIRCULATED STOPPED
LUN .                   7691 : LOGGING UNIT NUMBER
LUL .                    WCT : LOGGING UNIT LOCATION
ENGI.              CROCKFORD : RECORDING ENGINEER
WITN.                 HALKOW : WITNESSED BY
CLNT.                A2DTECH : CLIENT CODE
ORIG.            2" 5" PRINT : ORIGIN OF DATA
UWI .       100063506018W500 : UNIQUE WELL ID
DICO. A2D Technologies, Inc. : DIGITIZING COMPANY
~Other -----------------------------------------------------
~ASCII -----------------------------------------------------
# ...
 8276.24280 -129.09410 1451.69060 1382.65560 1457.72280   10.15690    0.24430   15.89900    2.67600    -999.25    -999.25    0.01250   -0.00350   49.08720    9.02650   15.57480    -999.25
 8276.74280 -128.84440 1448.18420 1376.37720 1476.67710   10.09750    0.23420   15.82400    2.66120    -999.25    -999.25    0.01240   -0.00340   49.20650    9.02630   15.54250    -999.25
 8277.24280 -128.68260 1440.39270 1366.51590 1434.16670   10.15410    0.22640   15.71370    2.67400    -999.25    -999.25    0.02480   -0.00330   49.22870    9.02660   15.56830    -999.25
 8277.74280 -128.62490 1428.68430 1351.39170 1305.83630   10.23410    0.20720   15.74450    2.67530    -999.25    -999.25    0.02680   -0.00320   49.21590    9.02690   15.58060    -999.25
 8278.24280 -128.56420 1396.35510 1320.78080 1137.78480   10.20860    0.18070   15.75700    2.66470    -999.25    -999.25    0.02030   -0.00310   49.32480    9.02720   15.45420    -999.25
 8278.74280 -128.42870 1313.17360 1254.37060 1026.88160   10.19320    0.18320   15.63380    2.67240    -999.25    -999.25    0.02140   -0.00310   49.45780    9.02590   15.27650    -999.25
 8279.24280 -128.29040 1174.12550 1164.48190  984.75770   10.20800    0.20470   15.57060    2.68110    -999.25    -999.25    0.02220   -0.00290   49.51760    9.02140   15.22730    -999.25
 8279.74280 -128.17660 1030.79060 1072.49630  916.15210   10.26890    0.20110   15.93070    2.67940    -999.25    -999.25    0.01630   -0.00280   49.53130    9.01530   15.44100    -999.25
 8280.24280 -128.07120  933.75110  975.96370  800.77940   10.41140    0.17630   16.60680    2.65980    -999.25    -999.25    0.01710   -0.00270   49.49660    9.00920   15.86810    -999.25
 8280.74280 -128.03120  879.38100  881.31540  738.75700   10.48910    0.15710   16.87510    2.65390    -999.25    -999.25    0.02630   -0.00260   49.38340    9.00310   16.29430    -999.25
 8281.24280 -127.96310  843.53000  793.62620  754.73940   10.46470    0.15810   16.68200    2.66060    -999.25    -999.25    0.03460   -0.00250   49.24990    8.99690   16.54740    -999.25
 8281.74280 -127.74270  814.68680  745.51590  771.75560   10.44770    0.18040   16.47410    2.66720    -999.25    -999.25    0.03050   -0.00240   49.19720    8.99080   16.64580    -999.25
 8282.24280 -127.35650  795.21890  748.46260  769.91130   10.43600    0.20710   16.26610    2.68040    -999.25    -999.25    0.02600   -0.00230   49.23350    8.98470   16.38660    -999.25
 8282.74280 -126.90560  782.28330  778.66160  761.07100   10.36900    0.22270   16.07260    2.68660    -999.25    -999.25    0.02200   -0.00220   49.29140    8.97860   15.83690    -999.25
 8283.24280 -126.53260  769.55810  823.12300  746.51090   10.25520    0.22760   16.17840    2.69450    -999.25    -999.25    0.01450   -0.00210   49.30330    8.97250   15.35750    -999.25
 8283.74280 -126.08180  757.50850  870.12480  731.24280   10.14010    0.22030   16.48620    2.70350    -999.25    -999.25    0.01140   -0.00200   49.32680    8.96790   15.16140    -999.25
 8284.24280 -125.54950  748.57540  919.89870  716.28700   10.02860    0.21200   16.56160    2.70460    -999.25    -999.25    0.00510   -0.00190   49.38230    8.96670   15.25550    -999.25
 8284.74280 -125.00180  740.33020  972.53300  701.63710    9.94920    0.20630   16.30060    2.69740    -999.25    -999.25    0.00060   -0.00180   49.33100    8.96730   15.38800    -999.25
 8285.24280 -124.39320  726.12520 1005.94350  687.28670    9.89070    0.19630   16.21580    2.69040    -999.25    -999.25    0.00530   -0.00170   49.25580    8.96780   15.51120    -999.25
 8285.74280 -123.89980  700.96440  997.72750  668.75670    9.83650    0.18950   16.79300    2.68670    -999.25    -999.25    0.01010   -0.00150   49.25670    8.96840   15.77370    -999.25
 8286.24280 -123.57960  672.35730  963.99820  639.12190    9.76790    0.18290   17.22500    2.68050    -999.25    -999.25    0.01100   -0.00140   49.26400    8.96900   16.39860    -999.25
 8286.74280 -123.43560  666.65150  926.06120  603.57220    9.72120    0.17550   16.99920    2.67970    -999.25    -999.25    0.01670   -0.00130   49.26510    8.96960   17.20250    -999.25
 8287.24280 -123.43620  711.46000  892.77220  578.03820    9.85690    0.21040   16.55200    2.69770    -999.25    -999.25    0.01890   -0.00120   49.26770    8.97020   17.87730    -999.25
 8287.74280 -123.43690  797.86950  879.08530  599.16550   10.04610    0.25020   16.12190    2.69260    -999.25    -999.25    0.00740   -0.00110   49.30120    8.97070   18.21050    -999.25
 8288.24280 -123.43620  902.99150  918.54300  714.35600   10.10850    0.23630   15.89920    2.65880    -999.25    -999.25    0.00700   -0.00100   49.23460    8.97130   18.05700    -999.25
 8288.74280 -123.43340 1014.81700 1027.49650  905.35930   10.10010    0.22050   16.29710    2.65380    -999.25    -999.25    0.02840   -0.00090   49.09030    8.97190   17.77940    -999.25
 8289.24280 -123.42990 1082.94540 1179.10050 1079.20590   10.03400    0.23480   17.25300    2.66440    -999.25    -999.25    0.03450   -0.00080   49.09260    8.97250   17.79470    -999.25
 8289.74280 -123.42370 1079.35780 1307.38050 1159.90370    9.95140    0.24510   18.32630    2.66540    -999.25    -999.25    0.02710   -0.00070   49.12600    8.97310   18.23100    -999.25
 8290.24280 -123.40460 1020.74300 1360.80600 1125.03750    9.87740    0.23210   19.08560    2.66940    -999.25    -999.25    0.02490   -0.00060   49.08260    8.97360   18.01750    -999.25
 8290.74280 -123.24310  939.11960 1368.50670  987.96200    9.83440    0.21840   19.26610    2.67850    -999.25    -999.25    0.02510   -0.00050   49.02530    8.97420   16.94150    -999.25
 8291.24280 -123.05700  867.20370 1367.16750  821.78610    9.81660    0.21060   18.83430    2.68970    -999.25    -999.25    0.02200   -0.00040   48.96130    8.97480   16.27390    -999.25
 8291.74280 -123.09290  830.99580 1361.49210  718.32580    9.83410    0.22130   18.08010    2.70190    -999.25    -999.25    0.01520   -0.00020   48.95650    8.97540   15.97430    -999.25
 8292.24280 -123.27100  832.82680 1355.83790  689.90370    9.87540    0.23200   17.30030    2.71450    -999.25    -999.25    0.00870   -0.00010   49.05930    8.97600   15.85160    -999.25
 8292.74280 -123.41250  859.31420 1353.46950  698.25450    9.90150    0.23470   16.42320    2.72440    -999.25    -999.25    0.00240    0.00000   49.13050    8.97650   15.89610    -999.25
 8293.24280 -123.57290  909.93380 1355.70570  726.64350    9.96210    0.23390   15.77460    2.71820    -999.25    -999.25   -0.00660    0.00010   49.11850    8.97710   15.98570    -999.25
 8293.74280 -123.74300  965.39010 1359.14600  838.96150   10.08010    0.21610   16.03730    2.69850    -999.25    -999.25   -0.00710    0.00020   49.12600    8.97770   16.34780    -999.25
 8294.24280 -123.81950  994.58030 1362.37440 1053.36360   10.03590    0.20640   16.81780    2.69980    -999.25    -999.25    0.00550    0.00030   49.13240    8.97830   16.65920    -999.25
 8294.74280 -123.91720  963.38260 1364.07300 1216.04030    9.85640    0.20910   17.19810    2.71330    -999.25    -999.25    0.00950    0.00040   49.09030    8.97890   16.88740    -999.25
 8295.24280 -123.90600  898.01290 1357.58540 1205.32920    9.78500    0.19960   17.26630    2.71580    -999.25    -999.25    0.00000    0.00050   49.06330    8.97940   17.23980    -999.25
 8295.74280 -123.78900  837.07850 1333.37380 1089.20840    9.83760    0.18690   17.36790    2.72000    -999.25    -999.25   -0.00230    0.00060   49.06350    8.98000   17.35470    -999.25
 8296.24280 -123.78080  786.93270 1270.28910  920.80130    9.88700    0.18840   17.23110    2.71740    -999.25    -999.25   -0.00160    0.00080   49.06140    8.98060   17.19280    -999.25
 8296.74280 -123.87710  768.48970 1155.47070  723.49400    9.81650    0.18900   16.84000    2.69270    -999.25    -999.25   -0.00580    0.00090   49.05790    8.98120   16.82910    -999.25
 8297.24280 -123.87810  779.52170 1024.57450  609.78620    9.85300    0.18280   16.52510    2.66590    -999.25    -999.25    0.00370    0.00100   49.04840    8.98180   16.49200    -999.25
