~Version ---------------------------------------------------
VERS.      2.0 : CWLS log ASCII Standard -VERSION 2.0
WRAP.       NO : One line per depth step
CREA. 01/02/18 : LAS Creation Date
~Well ------------------------------------------------------
STRT.FT                          1500.0 : START DEPTH
STOP.FT                         13000.0 : STOP DEPTH
STEP.FT                        50.00000 : STEP LENGTH
NULL.                           -999.25 : NULL VALUE
COMP.  AMOCO CANADA PETROLEUM CO., LTD. : COMPANY
WELL. AMOCO ET AL BERLAND D-1 6-7-60-22 : WELL
FLD .                                   : FIELD
LOC .                                   : LOCATION
CTRY.                            CANADA : COUNTRY
SRVC.                      Schlumberger : SERVICE COMPANY
DATE.                       10-Dec-1976 : LOGDATE
PROV.                           Alberta : PROVINCE
UWI .                  100060706022W500 : UNIQUE WELL ID
SLAT.WGS84                     54.17117 : SURFACE LATITUDE
SLON.WGS84                    -117.2921 : SURFACE LONGITUDE
~Curve Information -----------------------------------------
DEPT    .FT    : Depth Curve
CALDED  .IN    : CALIPER FROM DENSITY LOG
CALSED  .IN    : CALIPER FROM SONIC LOG
CALWS   .IN    : CALIPER [CALDED]
CONDWS  .MMHO  : CONDUCTIVITY [1000/DRESWS]
DCORED  .G/C3  : DENSITY CORRECTION FROM DENSITY LOG
DCORWS  .G/C3  : DENSITY CORRECTION [DCORED]
DENWS   .G/C3  : BULK DENSITY [M=2.71 F=1.00] [TOP RHOBED 2287.5 M CALC. DPHISSED 7505' DPHILSED]
DPHILSED.V/V   : DENSITY POROSITY [M=2.71 F=1.00] FROM DENSITY LOG
DPHISSED.V/V   : DENSITY POROSITY [M=2.65 F=1.00] FROM DENSITY LOG
DPOLSWS .V/V   : DENSITY POROSITY [M=2.71 F=1.00] [CALC. FROM DENWS]
DRESWS  .OHMM  : DEEP RESISTIVITY [ILDED]
DTED    .US/F  : DELTA TIME FROM SONIC LOG [DEPTH ADJ TO LL8]
DTWS    .US/F  : DELTA TIME [DTED]
GRDED   .GAPI  : GAMMA RAY FROM DENSITY LOG
GRSED   .GAPI  : GAMMA RAY FROM SONIC LOG
GRWS    .GAPI  : GAMMA RAY [GRSED]
ILDED   .OHMM  : INDUCTION LOG DEEP RESISTIVITY
ILMED   .OHMM  : INDUCTION LOG MEDIUM RESISTIVITY
LL8ED   .OHMM  : 8 INCH LATEROLOG RESISTIVITY
MRESWS  .OHMM  : MEDIUM RESISTIVITY [ILMED]
NPHILSED.V/V   : NEUTRON POROSITY LIMESTONE FROM DENSITY LOG
NPHISSED.V/V   : NEUTRON POROSITY SANDSTONE FROM DENSITY LOG
NPOLSWS .V/V   : NEUTRON POROSITY LIMESTONE [TOP NPHISSED CONVERTED TO LIME FROM POWER LOG, 8750' NPHILSED]
RHOBED  .G/C3  : BULK DENSITY FROM DENSITY LOG [DEPTH ADJ TO LL8]
SPRED   .MV    : SPONTANEOUS POTENTIAL FROM RESISTIVITY LOG
SPWS    .MV    : SPONTANEOUS POTENTIAL [BASELINE 0 MV] [SPRED]
SRESWS  .OHMM  : SHALLOW RESISTIVITY [LL8ED]
~Params ----------------------------------------------------
PD  .                     GL : PERMANENT DATUM
EPD .M                  3639 : ELEVATION PERMANENT DATUM
LMF .                     KB : LOG MEASURED FROM
DAPD.M                    16 : FEET ABOVE PERMANENT DATUM
EKB .M                  3655 : KELLY BUSHING
EGL .M                  3639 : GROUND LEVEL
DATE.             12/10/1976 : RUN DATE
RUN .                      2 : RUN NUMBER
DD  .M                 12990 : DEPTH DRILLER
DL  .M                 13000 : DEPTH LOGGER
BLI .M                 12994 : BOTTOM LOG INTERVAL
TLI .M                  7504 : TOP LOG INTERVAL
CBD .M                  7499 : CASING BOTTOM DRILLER
CBL .M                  7504 : CASING BOTTOM LOGGER
BS  .MM                  8.5 : BIT SIZE
BSD .M                 13000 : BIT SIZE AT DEPTH
DFT .             GEL BARITE : DRILLING FLUID TYPE
DFD .                    9.1 : DRILLING FLUID DENSITY
DFV .                     73 : DRILLING FLUID VISCOSITY
DFPH.                    9.5 : DRILLING FLUID PH
DFL .                    8.9 : DRILLING FLUID LOSS
MSS .               FLOWLINE : MUD SAMPLE SOURCE
RMS .OHMM               1.44 : RESISTIVITY MUD SAMPLE
MST .DEGC                 60 : MUD SAMPLE TEMPERATURE
RMF .OHMM               1.12 : RESISTIVITY MUD FILTRATE SAMPLE
MFST.DEGC                 55 : MUD FILTRATE SAMPLE TEMPERATURE
RMB .OHMM               0.26 : RESISTIVITY MUD AT BHT
TCS .HRS                 6.5 : TIME CIRCULATED STOPPED
LUN .                   7635 : LOGGING UNIT NUMBER
LUL .                    EDM : LOGGING UNIT LOCATION
ENGI.                 MACKAY : RECORDING ENGINEER
WITN.                SHIRLEY : WITNESSED BY
CLNT.                A2DTECH : CLIENT CODE
ORIG.            2" 5" PRINT : ORIGIN OF DATA
UWI .       100060706022W500 : UNIQUE WELL ID
DICO. A2D Technologies, Inc. : DIGITIZING COMPANY
~Other -----------------------------------------------------
SPRED INTERFERENCE CAUSING RANDOM DRIFTING OF THE BASE LINE ABOVE 7218'
~ASCII -----------------------------------------------------
# ...
 10600.00000    8.25470    9.15300    8.25470    2.77090    0.14340    0.14340    2.52980    0.10540    -999.25    0.10540  360.88890   50.01390   50.01390   17.84270   15.51170   15.51170  360.88890  422.40640 1369.95360  422.40640    0.00340    -999.25    0.00340    2.53350   -8.53130  -64.91940 1369.95360
 10650.00000   10.98750    9.41000   10.98750    1.12560    0.17530    0.17530    2.53470    0.10250    -999.25    0.10250  888.41580   50.55380   50.55380   12.42910    9.95450    9.95450  888.41580  432.01940 1374.50600  432.01940   -0.00410    -999.25   -0.00410    2.51380  -39.75780  -96.40610 1374.50600
 10700.00000    9.19390    8.99400    9.19390    8.24920    0.15120    0.15120    2.55290    0.09190    -999.25    0.09190  121.22370   50.77770   50.77770   11.19810   11.04460   11.04460  121.22370  112.46970  346.61240  112.46970    0.01360    -999.25    0.01360    2.54500  -33.07980  -89.98840  346.61240
 10750.00000    9.17940    9.12700    9.17940    3.96760    0.22690    0.22690    2.71100   -0.00060    -999.25   -0.00060  252.04330   49.57540   49.57540   16.39640   11.73030   11.73030  252.04330  203.80880  489.91200  203.80880    0.00300    -999.25    0.00300    2.71260   -5.97230  -63.14120  489.91200
 10800.00000    9.64980    9.38800    9.64980    1.94930    0.22890    0.22890    2.59990    0.06440    -999.25    0.06440  513.00790   49.12400   49.12400   20.09150   19.63200   19.63200  513.00790  417.47710 1392.68660  417.47710    0.00090    -999.25    0.00090    2.59500   26.14770  -31.28150 1392.68660
 10850.00000    9.71100    9.48400    9.71100    4.95620    0.23740    0.23740    2.57270    0.08030    -999.25    0.08030  201.76690   49.78370   49.78370   15.57110   12.37830   12.37830  201.76690  158.97190  353.76910  158.97190   -0.00310    -999.25   -0.00310    2.57470   26.83970  -30.84970  353.76910
 10900.00000    7.80270    9.60400    7.80270    2.51360    0.00780    0.00780    2.69510    0.00870    -999.25    0.00870  397.82850   50.01860   50.01860   12.81050   14.45950   14.45950  397.82850  212.00820 1371.40520  212.00820    0.00500    -999.25    0.00500    2.68940   46.48990  -11.45980 1371.40520
 10950.00000    7.82190    9.65300    7.82190    2.31650   -0.00080   -0.00080    2.69040    0.01150    -999.25    0.01150  431.68630   49.80390   49.80390   15.06800   14.12210   14.12210  431.68630  296.79410 1355.85530  296.79410    0.00090    -999.25    0.00090    2.69860   48.36470   -9.84530 1355.85530
 11000.00000    7.78630    9.74500    7.78630    4.67490   -0.00850   -0.00850    2.68080    0.01710    -999.25    0.01710  213.90880   50.17250   50.17250   13.98990   12.68340   12.68340  213.90880  180.56710  765.77160  180.56710    0.00610    -999.25    0.00610    2.68420   23.78400  -34.68620  765.77160
 11050.00000    7.90670    9.35800    7.90670   16.85690   -0.00080   -0.00080    2.68890    0.01230    -999.25    0.01230   59.32300   49.93130   49.93130   14.35580   12.69980   12.69980   59.32300   65.24230  131.22180   65.24230    0.00220    -999.25    0.00220    2.68960   -7.61140  -66.34190  131.22180
 11100.00000    7.95200    9.60100    7.95200    5.20810   -0.00430   -0.00430    2.70210    0.00460    -999.25    0.00460  192.00750   49.51790   49.51790   17.96590   16.53350   16.53350  192.00750  231.12390  456.82060  231.12390   -0.00100    -999.25   -0.00100    2.70420   -2.10900  -61.09980  456.82060
 11150.00000    8.11750    9.12300    8.11750   80.71290   -0.00250   -0.00250    2.64170    0.03990    -999.25    0.03990   12.38960   52.96750   52.96750   18.72720   18.08470   18.08470   12.38960   15.47340   61.52090   15.47340    0.02990    -999.25    0.02990    2.64600  -23.11440  -82.36550   61.52090
 11200.00000    7.92910    9.07400    7.92910    6.56140   -0.00050   -0.00050    2.82920   -0.06970    -999.25   -0.06970  152.40650   49.56320   49.56320   38.32410   35.27130   35.27130  152.40650  296.39290 1098.25050  296.39290    0.02380    -999.25    0.02380    2.83090   12.40840  -47.10290 1098.25050
 11250.00000   11.11930    9.13600   11.11930   25.71510    0.22460    0.22460    2.38480    0.19020    -999.25    0.19020   38.88760   55.21420   55.21420   20.50110   22.46150   22.46150   38.88760   47.26760   50.56140   47.26760    0.10620    -999.25    0.10620    2.39550  -31.63070  -91.40230   50.56140
 11300.00000    9.25260    9.55700    9.25260   14.11630    0.24850    0.24850    2.48860    0.12950    -999.25    0.12950   70.84020   50.39150   50.39150   30.68960   30.66160   30.66160   70.84020   75.16960  125.85950   75.16960    0.04880    -999.25    0.04880    2.48660    5.84490  -54.18700  125.85950
 11350.00000    7.93100    9.04200    7.93100    2.69910   -0.00890   -0.00890    2.67850    0.01840    -999.25    0.01840  370.49880   51.35300   51.35300   46.02040   44.90280   44.90280  370.49880  487.21460 1320.96730  487.21460    0.01590    -999.25    0.01590    2.68310   48.53100  -11.76120 1320.96730
 11400.00000    8.51750    9.24350    8.51750    2.21060    0.15060    0.15060    2.64860    0.03590    -999.25    0.03590  452.37240   50.94480   50.94480   32.87120   33.00250   33.00250  452.37240  530.31950 1378.99020  530.31950    0.01410    -999.25    0.01410    2.65060   49.78790  -10.76450 1378.99020
 11450.00000    7.85050    9.01550    7.85050    2.18600    0.00150    0.00150    2.71100   -0.00060    -999.25   -0.00060  457.46380   50.23310   50.23310   29.58750   29.18930   29.18930  457.46380  521.37620 1379.07730  521.37620    0.00200    -999.25    0.00200    2.70880   55.23280   -5.57990 1379.07730
 11500.00000    8.11990    8.94500    8.11990    3.96920    0.00310    0.00310    2.72860   -0.01090    -999.25   -0.01090  251.94150   51.75910   51.75910   41.88130   39.33530   39.33530  251.94150  304.65080 1261.55550  304.65080    0.01580    -999.25    0.01580    2.73130   57.78190   -3.29110 1261.55550
 11550.00000    8.90110    9.16800    8.90110   70.47960    0.03520    0.03520    2.71120   -0.00070    -999.25   -0.00070   14.18850   66.21390   66.21390  136.07470  125.73970  125.73970   14.18850   16.01470   24.10740   16.01470    0.16170    -999.25    0.16170    2.70980   57.43830   -3.27680   24.10740
 11600.00000    8.11730    8.77700    8.11730   20.53780   -0.00120   -0.00120    2.74390   -0.01980    -999.25   -0.01980   48.69060   51.65990   51.65990   48.35160   46.20460   46.20460   48.69060   65.84490   86.20090   65.84490    0.05690    -999.25    0.05690    2.74830   26.55440  -30.55740   86.20090
 11650.00000    7.95730    8.72900    7.95730   37.12390    0.02530    0.02530    2.84700   -0.08010    -999.25   -0.08010   26.93680   51.82760   51.82760   63.76340   64.99200   64.99200   26.93680   29.32980   38.72570   29.32980    0.08280    -999.25    0.08280    2.82070    0.52320  -52.98540   38.72570
 11700.00000    7.76820    8.43700    7.76820   18.01030    0.05070    0.05070    2.70130    0.00510    -999.25    0.00510   55.52390   50.06850   50.06850   11.61150   13.14960   13.14960   55.52390   62.96990  109.80610   62.96990    0.10900    -999.25    0.10900    2.70640  -52.86630 -102.77170  109.80610
 11750.00000    7.79030    8.83000    7.79030   10.72930    0.06110    0.06110    2.70710    0.00170    -999.25    0.00170   93.20300   48.42390   48.42390   15.04900   16.50110   16.50110   93.20300  121.85390  257.55820  121.85390    0.09130    -999.25    0.09130    2.70420  -26.24200  -72.54410  257.55820
 11800.00000    7.79100    8.35600    7.79100   24.84140    0.09220    0.09220    2.70730    0.00160    -999.25    0.00160   40.25540   53.96760   53.96760   18.24060   20.27510   20.27510   40.25540   59.87670  218.69150   59.87670    0.16870    -999.25    0.16870    2.70480  -46.26940  -88.96830  218.69150
 11850.00000    7.76840    8.59300    7.76840   26.10790    0.08970    0.08970    2.71900   -0.00520    -999.25   -0.00520   38.30260   51.54080   51.54080   12.69330   12.33370   12.33370   38.30260   49.95910  303.31610   49.95910    0.11190    -999.25    0.11190    2.71380  -60.37590  -99.47160  303.31610
