~Version ---------------------------------------------------
VERS.      2.0 : CWLS log ASCII Standard -VERSION 2.0
WRAP.       NO : One line per depth step
CREA. 07/26/17 : LAS Creation Date
~Well ------------------------------------------------------
STRT.FT                     1250.0 : START DEPTH
STOP.FT                    11900.0 : STOP DEPTH
STEP.FT                   50.00000 : STEP LENGTH
NULL.                      -999.25 : NULL VALUE
COMP.         TALISMAN ENERGY INC. : COMPANY
WELL. BP ETHYL BASELINE 11-4-66-26 : WELL
FLD .                              : FIELD
LOC .                              : LOCATION
CTRY.                       CANADA : COUNTRY
SRVC.                      Unknown : SERVICE COMPANY
DATE.                  19-Feb-1971 : LOGDATE
PROV.                      Alberta : PROVINCE
UWI .             100110406626W500 : UNIQUE WELL ID
SLAT.WGS84                54.68586 : SURFACE LATITUDE
SLON.WGS84               -117.8738 : SURFACE LONGITUDE
~Curve Information -----------------------------------------
DEPT  .FT    : Depth Curve
CALSED.IN    : CALIPER FROM SONIC LOG
CALWS .IN    : CALIPER [CALSED]
CILDED.MMHO  : CONDUCTIVITY FROM RESISTIVITY LOG
CONDWS.MMHO  : CONDUCTIVITY [1000/DRESWS]
DRESWS.OHMM  : DEEP RESISTIVITY [1000/CILDED, IF ILDED < 5. ILDED]
DTED  .US/F  : DELTA-T FROM SONIC LOG
DTWS  .US/F  : COMPRESSIONAL SONIC [DTED]
GRSED .GAPI  : GAMMA RAY FROM SONIC LOG
GRWS  .GAPI  : GAMMA RAY [GRSED]
ILDED .OHMM  : INDUCTION DEEP RESISTIVITY
SNED  .OHMM  : SHORT NORMAL FROM  RESISTIVITY LOG
SPRED .MV    : SPONTANEOUS POTENTIAL FROM RESISTIVITY LOG
SPWS  .MV    : SPONTANEOUS POTENTIAL [BASELINE 0 MV, SPRED]
SRESWS.OHMM  : SHALLOW RESISITIVITY [SNED]
~Params ----------------------------------------------------
PD  .                     GL : PERMANENT DATUM
EPD .FT                 2594 : ELEVATION PERMANENT DATUM
LMF .                     KB : LOG MEASURED FROM
DAPD.FT                   14 : FEET ABOVE PERMANENT DATUM
EKB .FT                 2608 : KELLY BUSHING
EGL .FT                 2594 : GROUND LEVEL
DATE.               02/19/71 : RUN DATE
RUN .                      1 : RUN NUMBER
DD  .FT                11931 : DEPTH DRILLER
DL  .FT                11931 : DEPTH LOGGER
BLI .FT                11930 : BOTTOM LOG INTERVAL
TLI .FT                 1238 : TOP LOG INTERVAL
CBD .FT                 1238 : CASING BOTTOM DRILLER
CBL .FT                 1238 : CASING BOTTOM LOGGER
BS  .IN                7.875 : BIT SIZE
BSD .FT                11931 : BIT SIZE AT DEPTH
DFT .                    GEL : DRILLING FLUID TYPE
DFD .                    9.5 : DRILLING FLUID DENSITY
DFV .                     80 : DRILLING FLUID VISCOSITY
DFPH.                     10 : DRILLING FLUID PH
DFL .                    7.8 : DRILLING FLUID LOSS
RMS .OHMM               0.97 : RESISTIVITY MUD SAMPLE
MST .DEGF                 72 : MUD SAMPLE TEMPERATURE
RMF .OHMM               0.67 : RESISTIVITY MUD FILTRATE SAMPLE
MFST.DEGF                 74 : MUD FILTRATE SAMPLE TEMPERATURE
TCS .HRS                   4 : TIME CIRCULATED STOPPED
LUN .                   7002 : LOGGING UNIT NUMBER
LUL .                     RD : LOGGING UNIT LOCATION
ENGI.                 TALBOT : RECORDING ENGINEER
WITN.    KERKEGI DANIELEWICZ : WITNESSED BY
CLNT.                A2DTECH : CLIENT CODE
ORIG.            2" 5" PRINT : ORIGIN OF DATA
UWI .       100110406626W500 : UNIQUE WELL ID
DICO. A2D Technologies, Inc. : DIGITIZING COMPANY
~Other -----------------------------------------------------
~ASCII -----------------------------------------------------
 1250.00000    8.44740    8.44740   99.75960   86.12520   11.61100   99.78090   99.78090   47.88770   47.88770   11.61100    8.98040    -999.25    -999.25    8.98040
 1300.00000    8.43720    8.43720  125.63740  125.46510    7.99520   94.80040   94.80040   41.81260   41.81260    7.99520    6.70530  -98.71150   -1.56220    6.70530
 1350.00000    7.60900    7.60900  142.05540  135.29240    7.39140    -999.25    -999.25    -999.25    -999.25    7.39140    7.72010 -107.17560   -2.20110    7.72010
 1400.00000    -999.25    -999.25  132.63460  136.46480    7.32920    -999.25    -999.25    -999.25    -999.25    7.32920    9.30830  -98.94610   -2.54060    9.30830
 1450.00000    -999.25    -999.25  217.55520  217.55520    4.59650    -999.25    -999.25    -999.25    -999.25    4.59980    5.03160  -86.80870   -2.88000    5.03160
 1500.00000    -999.25    -999.25  211.88190  211.88190    4.71960    -999.25    -999.25    -999.25    -999.25    4.55020    5.07740  -76.58720   -2.52230    5.07740
 1550.00000    -999.25    -999.25   86.46760  111.17580    9.03790    -999.25    -999.25    -999.25    -999.25    9.03790    8.83440  -68.56460   -3.65680    8.83440
 1600.00000    -999.25    -999.25  201.15180  201.15180    4.97140    -999.25    -999.25    -999.25    -999.25    4.87140    4.75260  -60.50990   -1.20570    4.75260
 1650.00000    -999.25    -999.25  485.20760  485.20760    2.06280    -999.25    -999.25    -999.25    -999.25    1.91460    3.30200  -55.99400   -1.71400    3.30200
 1700.00000    -999.25    -999.25  323.27950  323.27950    3.09330    -999.25    -999.25    -999.25    -999.25    2.82000    3.86440  -52.50520   -1.15070    3.86440
 1750.00000    -999.25    -999.25  220.35490  220.35490    4.53810    -999.25    -999.25    -999.25    -999.25    4.11360    5.09160  -49.60960   -1.16140    5.09160
 1800.00000    -999.25    -999.25  127.47510  129.80160    7.70710    -999.25    -999.25    -999.25    -999.25    7.70710    6.62760  -47.71190   -1.94900    6.62760
 1850.00000    -999.25    -999.25  275.90310  275.90310    3.62450    -999.25    -999.25    -999.25    -999.25    3.26490    3.53690  -45.53770   -2.20300    3.53690
 1900.00000    -999.25    -999.25  227.44790  227.44790    4.39680    -999.25    -999.25    -999.25    -999.25    4.35960    4.05220  -42.73700   -1.00520    4.05220
 1950.00000    -999.25    -999.25  124.08000  124.25450    8.04800    -999.25    -999.25    -999.25    -999.25    8.04800    7.52050  -43.80190   -2.95840    7.52050
 2000.00000    -999.25    -999.25  217.65930  217.65930    4.59430    -999.25    -999.25    -999.25    -999.25    4.05900    4.58580  -42.45590   -2.59790    4.58580
 2050.00000    -999.25    -999.25   69.21050   71.38300   14.02330    -999.25    -999.25    -999.25    -999.25   14.02330   11.66160  -43.77510   -4.90260   11.66160
 2100.00000    -999.25    -999.25  180.11380  192.82680    5.18600    -999.25    -999.25    -999.25    -999.25    5.18600    5.92950  -43.49230   -5.49560    5.92950
 2150.00000    -999.25    -999.25  235.66070  235.66070    4.25000    -999.25    -999.25    -999.25    -999.25    3.93920    4.27450  -39.50910   -1.92870    4.27450
 2200.00000    -999.25    -999.25  279.67940  279.67940    3.57550    -999.25    -999.25    -999.25    -999.25    3.58270    4.24340  -41.39010   -4.22850    4.24340
 2250.00000    -999.25    -999.25  164.73230  175.94480    5.68360    -999.25    -999.25    -999.25    -999.25    5.68360    5.99790  -39.16060   -2.41510    5.99790
 2300.00000    -999.25    -999.25  211.42190  211.42190    4.73040    -999.25    -999.25    -999.25    -999.25    4.72540    4.50870  -38.93770   -2.60840    4.50870
 2350.00000    -999.25    -999.25  199.11540  199.08420    5.02300    -999.25    -999.25    -999.25    -999.25    5.02300    4.36270  -36.90350   -0.99300    4.36270
 2400.00000    -999.25    -999.25  215.68870  215.68870    4.63630    -999.25    -999.25    -999.25    -999.25    4.91030    4.40060  -39.41840   -2.83530    4.40060
 2450.00000    -999.25    -999.25  188.95700  188.95700    5.29220    -999.25    -999.25    -999.25    -999.25    4.64030    5.14070  -38.10850   -0.79530    5.14070
 2500.00000    -999.25    -999.25  136.65980  128.99560    7.75220    -999.25    -999.25    -999.25    -999.25    7.75220    7.39270  -40.41740   -3.22700    7.39270
 2550.00000    -999.25    -999.25  156.90710  184.41520    5.42640    -999.25    -999.25    -999.25    -999.25    5.42640    5.77870  -40.99020   -3.96970    5.77870
 2600.00000    -999.25    -999.25  176.39250  190.82510    5.24040    -999.25    -999.25    -999.25    -999.25    5.24040    5.43760  -40.29850   -3.44900    5.43760
 2650.00000    -999.25    -999.25  162.15810  170.42850    5.86940    -999.25    -999.25    -999.25    -999.25    5.86940    5.88070  -40.36790   -3.68830    5.88070
 2700.00000    -999.25    -999.25  124.65350  137.10090    7.29390    -999.25    -999.25    -999.25    -999.25    7.29390    7.26680  -43.01670   -2.17800    7.26680
 2750.00000    -999.25    -999.25  185.78320  195.19430    5.12310    -999.25    -999.25    -999.25    -999.25    5.12310    5.65550  -46.36780   -2.83570    5.65550
 2800.00000    -999.25    -999.25   74.06440   74.05130   13.50780    -999.25    -999.25    -999.25    -999.25   13.50780   11.59170  -50.30830   -6.81580   11.59170
 2850.00000    -999.25    -999.25   57.45080   63.65410   15.70990    -999.25    -999.25    -999.25    -999.25   15.70990   13.01300  -50.24720   -7.45690   13.01300
 2900.00000    -999.25    -999.25  142.37630  142.67040    7.01070    -999.25    -999.25    -999.25    -999.25    7.01070    8.02750  -48.83760   -7.03180    8.02750
 2950.00000    -999.25    -999.25  136.54230  141.96880    7.04380    -999.25    -999.25    -999.25    -999.25    7.04380    7.60530  -47.09800   -6.28320    7.60530
 3000.00000    -999.25    -999.25  196.05340  197.28920    5.06870    -999.25    -999.25    -999.25    -999.25    5.06870    5.64950  -45.70220   -5.87190    5.64950
 3050.00000    -999.25    -999.25   82.12260   82.15210   12.17670    -999.25    -999.25    -999.25    -999.25   12.17670   10.43310  -44.33340   -5.48760   10.43310
 3100.00000    -999.25    -999.25  112.44530  112.74080    8.86990    -999.25    -999.25    -999.25    -999.25    8.86990    8.01490  -39.25700   -1.58760    8.01490
 3150.00000    -999.25    -999.25  119.76140  125.78210    7.95030    -999.25    -999.25    -999.25    -999.25    7.95030    8.30130  -41.60950   -3.14750    8.30130
 3200.00000    -999.25    -999.25   91.55970   93.26360   10.72230    -999.25    -999.25    -999.25    -999.25   10.72230   11.24090  -43.15170   -3.33030   11.24090
 3250.00000    -999.25    -999.25  100.24120  100.44300    9.95590    -999.25    -999.25    -999.25    -999.25    9.95590   10.98820  -44.28550   -3.11360   10.98820
 3300.00000    -999.25    -999.25   92.14970   95.20390   10.50400    -999.25    -999.25    -999.25    -999.25   10.50400   10.78360  -43.65520   -2.63440   10.78360
 3350.00000    -999.25    -999.25  114.40360  120.01630    8.33220    -999.25    -999.25    -999.25    -999.25    8.33220    8.80470  -42.88110   -3.08240    8.80470
 3400.00000    -999.25    -999.25  133.60350  137.80520    7.25660    -999.25    -999.25    -999.25    -999.25    7.25660    7.52470  -40.25230   -1.66760    7.52470
 3450.00000    -999.25    -999.25  132.00860  138.33940    7.22860    -999.25    -999.25    -999.25    -999.25    7.22860    7.83850  -40.03570   -2.24890    7.83850
 3500.00000    -999.25    -999.25  106.51560  109.80680    9.10690    -999.25    -999.25    -999.25    -999.25    9.10690    8.72110  -39.00790   -1.59620    8.72110
 3550.00000    -999.25    -999.25  109.70370  109.75840    9.11360    -999.25    -999.25    -999.25    -999.25    9.11360    8.84750  -42.86260   -4.96880    8.84750
 3600.00000    -999.25    -999.25   95.59010   95.58860   10.46150    -999.25    -999.25    -999.25    -999.25   10.46150   10.16780  -43.43810   -5.05900   10.16780
 3650.00000    -999.25    -999.25  124.68690  124.61080    8.02500    -999.25    -999.25    -999.25    -999.25    8.02500    7.77100  -42.40420   -3.54300    7.77100
