~Version ---------------------------------------------------
VERS.      2.0 : CWLS log ASCII Standard -VERSION 2.0
WRAP.       NO : One line per depth step
CREA. 08/02/17 : LAS Creation Date
~Well ------------------------------------------------------
STRT.FT                  1250.0 : START DEPTH
STOP.FT                 11600.0 : STOP DEPTH
STEP.FT                50.00000 : STEP LENGTH
NULL.                   -999.25 : NULL VALUE
COMP.           SUN OIL COMPANY : COMPANY
WELL. SUN PAN AM TONY 6-5-63-22 : WELL
FLD .                        WC : FIELD
LOC .                           : LOCATION
CTRY.                    CANADA : COUNTRY
SRVC.              Schlumberger : SERVICE COMPANY
DATE.               27-Jan-1962 : LOGDATE
PROV.                   Alberta : PROVINCE
UWI .          100060506322W500 : UNIQUE WELL ID
SLAT.WGS84             54.41969 : SURFACE LATITUDE
SLON.WGS84            -117.2926 : SURFACE LONGITUDE
~Curve Information -----------------------------------------
DEPT  .FT    : Depth Curve
CALSED.IN    : CALIPER FROM SL-GR-CAL LOG
CALWS .IN    : CALIPER [CALSED]
CILDED.MMHO  : DEEP INDUCTION CONDUCTIVITY FROM IEL LOG
CONDWS.MMHO  : CONDUCTIVITY [CILDED]
DRESWS.OHMM  : DEEP RESISTIVITY [CALCULATED FROM 1000/CILDED, IF ILDED<1, ILDED]
DTED  .US/F  : DELTA-T (INTERVAL TRANSIT TIME) FROM SL-GR-CAL LOG
DTWS  .US/F  : COMPRESSIONAL  SONIC [DTED]
GRNED .GAPI  : GAMMA RAY FROM GRN LOG [ADJ. TO GRSED]
GRSED .GAPI  : GAMMA RAY FROM SL-GR-CAL LOG
GRWS  .GAPI  : GAMMA RAY [GRSED, GRWS+14 FOR DEPTH 7054'TO 7101']
ILDED .OHMM  : DEEP INDUCTION FROM IEL LOG
MCALED.IN    : MLT (MICROLOG) CALIPER FROM ML-CAL LOG [ADJ. TO CALSED]
NEUTED.NAPI  : NEUTRON FROM GRN LOG [ADJ. TO GRSED]
NEUTWS.NAPI  : NEUTRON [NEUTED]
SNED  .OHMM  : SHORT NORMAL INDUCTION FROM IEL LOG
SPRED .MV    : SPONTANEOUS POTENTIAL FROM IEL LOG
SPWS  .MV    : SPONTANEOUS POTENTIAL [BASELINE 0 MV, SPRED]
SRESWS.OHMM  : SHALLOW RESISTIVITY [SNED]
~Params ----------------------------------------------------
PD  .                     GL : PERMANENT DATUM
EPD .FT                 2875 : ELEVATION PERMANENT DATUM
LMF .                     KB : LOG MEASURED FROM
DAPD.FT                   15 : FEET ABOVE PERMANENT DATUM
EKB .FT                 2890 : KELLY BUSHING
EGL .FT                 2875 : GROUND LEVEL
DATE.               03/09/62 : RUN DATE
RUN .                      2 : RUN NUMBER
DD  .FT                11625 : DEPTH DRILLER
DL  .FT                11622 : DEPTH LOGGER
BLI .FT                11621 : BOTTOM LOG INTERVAL
TLI .FT                 7100 : TOP LOG INTERVAL
BS  .IN                 8.75 : BIT SIZE
BSD .FT                11625 : BIT SIZE AT DEPTH
DFT .               EMUL GEL : DRILLING FLUID TYPE
DFD .                    9.8 : DRILLING FLUID DENSITY
DFV .                    120 : DRILLING FLUID VISCOSITY
DFPH.                      9 : DRILLING FLUID PH
DFL .                      8 : DRILLING FLUID LOSS
RMS .OHMM               2.62 : RESISTIVITY MUD SAMPLE
MST .DEGF                 88 : MUD SAMPLE TEMPERATURE
RMF .OHMM               2.52 : RESISTIVITY MUD FILTRATE SAMPLE
MFST.DEGF                 72 : MUD FILTRATE SAMPLE TEMPERATURE
RMC .OHMM               2.97 : RESISTIVITY MUD CAKE
MCST.DEGF                 76 : MUD CAKE SAMPLE TEMPERATURE
RMB .OHMM               1.13 : RESISTIVITY MUD AT BHT
TCS .HRS                   5 : TIME CIRCULATED STOPPED
LUN .                   3534 : LOGGING UNIT NUMBER
LUL .                    WCT : LOGGING UNIT LOCATION
ENGI.                   GRAY : RECORDING ENGINEER
WITN.                SANFORD : WITNESSED BY
CLNT.                A2DTECH : CLIENT CODE
ORIG.            2" 5" PRINT : ORIGIN OF DATA
UWI .       100060506322W500 : UNIQUE WELL ID
DICO. A2D Technologies, Inc. : DIGITIZING COMPANY
~Other -----------------------------------------------------
~ASCII -----------------------------------------------------
# ...
 3200.00000    9.86200    9.86200  177.80470  177.80470    5.76790   86.32440   86.32440    -999.25   75.70170   75.70170    5.76790    -999.25    -999.25    -999.25    6.48730 -134.82720   -4.20060    6.48730
 3250.00000    8.81680    8.81680  109.83900  109.83900    9.57170   97.53430   97.53430    -999.25   71.62760   71.62760    9.57170    -999.25    -999.25    -999.25   10.04730 -133.95730   -3.68760   10.04730
 3300.00000    8.73700    8.73700   45.48010   45.48010   22.03110   58.71730   58.71730    -999.25   46.57390   46.57390   22.03110    -999.25    -999.25    -999.25   33.32900 -137.10130   -7.18840   33.32900
 3350.00000   10.35890   10.35890  120.69910  120.69910    8.53310   70.69270   70.69270    -999.25   69.84800   69.84800    8.53310    -999.25    -999.25    -999.25    9.11160 -133.22120   -3.66750    9.11160
 3400.00000    8.32860    8.32860   47.86290   47.86290   22.79710   87.77360   87.77360    -999.25   48.85520   48.85520   22.79710    -999.25    -999.25    -999.25   21.80080 -143.08360  -13.88670   21.80080
 3450.00000    8.08370    8.08370   25.41910   25.41910   39.22320   86.74600   86.74600    -999.25   42.32750   42.32750   39.22320    -999.25    -999.25    -999.25   56.74300 -165.84940  -37.01170   56.74300
 3500.00000    8.76350    8.76350   70.98880   70.98880   13.59650   81.60140   81.60140    -999.25   63.45260   63.45260   13.59650    -999.25    -999.25    -999.25   14.52830 -133.83770   -5.35690   14.52830
 3550.00000    9.61730    9.61730   76.99170   76.99170   18.02670  175.06040  175.06040    -999.25   49.67090   49.67090   18.02670    -999.25    -999.25    -999.25   27.68630 -145.67560  -17.55160   27.68630
 3600.00000    9.37330    9.37330  162.04340  162.04340    6.15720   61.04560   61.04560    -999.25   73.17440   73.17440    6.15720    -999.25    -999.25    -999.25    7.17830 -132.27760   -4.51280    7.17830
 3650.00000    9.31840    9.31840  117.88650  117.88650    8.12920   80.15870   80.15870    -999.25   53.48720   53.48720    8.12920    -999.25    -999.25    -999.25   10.40710 -132.52580   -5.11790   10.40710
 3700.00000    9.40020    9.40020  133.40270  133.40270    7.58040   93.40720   93.40720    -999.25   76.28220   76.28220    7.58040    -999.25    -999.25    -999.25    8.52630 -132.31830   -5.26950    8.52630
 3750.00000    9.86120    9.86120  130.82290  130.82290    7.65140   79.27510   79.27510    -999.25   67.37550   67.37550    7.65140    -999.25    -999.25    -999.25    8.90700 -130.49460   -3.80270    8.90700
 3800.00000   10.11680   10.11680  151.25430  151.25430    6.56380  101.55160  101.55160    -999.25   79.94700   79.94700    6.56380    -999.25    -999.25    -999.25    7.43850 -131.38760   -5.05250    7.43850
 3850.00000   10.66240   10.66240   99.59620   99.59620   10.34640   84.81820   84.81820    -999.25  101.60010  101.60010   10.34640    -999.25    -999.25    -999.25   11.31980 -133.89410   -7.91820   11.31980
 3900.00000   10.56730   10.56730  103.19290  103.19290    9.97490   89.40470   89.40470    -999.25  102.75420  102.75420    9.97490    -999.25    -999.25    -999.25   11.22010 -134.15150   -8.53250   11.22010
 3950.00000   10.68350   10.68350   92.48940   92.48940   10.91850   89.61280   89.61280    -999.25  113.03070  113.03070   10.91850    -999.25    -999.25    -999.25   13.03660 -132.12560   -6.86580   13.03660
 4000.00000   10.43800   10.43800   65.64690   65.64690   15.20850   94.95030   94.95030    -999.25  106.93130  106.93130   15.20850    -999.25    -999.25    -999.25   19.53730 -131.66800   -6.76500   19.53730
 4050.00000   10.35150   10.35150   77.69810   77.69810   13.13490   88.77880   88.77880    -999.25  105.99500  105.99500   13.13490    -999.25    -999.25    -999.25   16.63170 -131.15200   -6.60580   16.63170
 4100.00000   10.26250   10.26250   84.41950   84.41950   11.57910   88.51220   88.51220    -999.25  103.42900  103.42900   11.57910    -999.25    -999.25    -999.25   14.26570 -131.26860   -7.08160   14.26570
 4150.00000   10.93880   10.93880  124.39160  124.39160    7.85060   89.44610   89.44610    -999.25  101.74230  101.74230    7.85060    -999.25    -999.25    -999.25    9.50640 -131.14890   -7.31880    9.50640
 4200.00000   11.63210   11.63210  109.30760  109.30760    9.15650   83.35740   83.35740    -999.25   98.89870   98.89870    9.15650    -999.25    -999.25    -999.25   10.80580 -131.57590   -8.10500   10.80580
 4250.00000   11.20730   11.20730   86.55730   86.55730   11.67200   87.20250   87.20250    -999.25   94.38790   94.38790   11.67200    -999.25    -999.25    -999.25   12.88900 -131.07010   -7.95600   12.88900
 4300.00000   10.72240   10.72240   69.19460   69.19460   14.66500   73.96710   73.96710    -999.25   90.48320   90.48320   14.66500    -999.25    -999.25    -999.25   16.10720 -130.38240   -7.62520   16.10720
 4350.00000   10.33280   10.33280  100.48960  100.48960    9.67560   87.68380   87.68380    -999.25   91.42810   91.42810    9.67560    -999.25    -999.25    -999.25   11.91240 -129.84480   -7.44670   11.91240
 4400.00000   11.00410   11.00410  113.50540  113.50540    9.20980   97.87690   97.87690    -999.25  112.62260  112.62260    9.20980   12.76220    -999.25    -999.25   11.55220 -129.14110   -7.09990   11.55220
 4450.00000   10.57870   10.57870  126.22140  126.22140    8.09930  100.54220  100.54220   40.01150   98.94790   98.94790    8.09930   11.76200  580.25830  580.25830   10.06280 -129.02450   -7.34250   10.06280
 4500.00000    9.75290    9.75290   98.79110   98.79110   10.74820   84.87780   84.87780   34.48600  108.27360  108.27360   10.74820   11.75250  549.09610  549.09610   12.87390 -128.65090   -7.32570   12.87390
 4550.00000    9.22690    9.22690   61.12380   61.12380   18.02430   76.04070   76.04070   34.09480   90.17050   90.17050   18.02430   10.16070  534.67260  534.67260   21.71070 -131.04470  -10.07640   21.71070
 4600.00000    9.84310    9.84310   97.09870   97.09870   10.95630   87.16830   87.16830   32.21630  109.74300  109.74300   10.95630   11.82090  538.86760  538.86760   13.82950 -127.62840   -7.01930   13.82950
 4650.00000    9.52310    9.52310   70.40990   70.40990   15.50910   84.10700   84.10700   26.31380  100.11000  100.11000   15.50910   10.93290  570.36970  570.36970   19.27800 -126.39770   -6.14540   19.27800
 4700.00000    9.43250    9.43250   87.09280   87.09280   12.36080   79.73440   79.73440   34.84110  100.72990  100.72990   12.36080   10.60660  531.48440  531.48440   14.78570 -126.34010   -6.44700   14.78570
 4750.00000    9.63320    9.63320   94.40910   94.40910   11.28570   82.30300   82.30300   36.50550  101.61740  101.61740   11.28570   11.36380  600.54310  600.54310   14.06550 -126.14160   -6.60530   14.06550
 4800.00000    9.29540    9.29540  117.25780  117.25780    8.88320   87.01930   87.01930   41.13710  109.03850  109.03850    8.88320   11.00820  592.04710  592.04710   11.49090 -125.30270   -6.12330   11.49090
 4850.00000    9.50600    9.50600  112.87100  112.87100    9.19620   87.35850   87.35850   39.87290  116.07700  116.07700    9.19620   11.06950  592.03290  592.03290   12.58510 -124.22030   -5.40010   12.58510
 4900.00000    9.82530    9.82530  112.82710  112.82710    9.28910  100.19190  100.19190   41.25720  110.24470  110.24470    9.28910   11.11600  619.95590  619.95590   12.78590 -123.74700   -5.28360   12.78590
 4950.00000    9.26170    9.26170   97.39700   97.39700   10.81300   89.23510   89.23510   41.06210  112.94690  112.94690   10.81300   11.48860  587.24680  587.24680   15.09940 -123.42130   -5.31710   15.09940
 5000.00000    9.22530    9.22530   99.76950   99.76950   10.60490   85.73030   85.73030   38.09750  121.94930  121.94930   10.60490   10.78950  619.21230  619.21230   14.88030 -122.58000   -4.83260   14.88030
 5050.00000    9.07490    9.07490   67.10480   67.10480   16.57050   89.68460   89.68460   32.56780  107.55200  107.55200   16.57050   10.50950  701.54370  701.54370   22.40260 -120.97300   -3.58250   22.40260
 5100.00000    9.85070    9.85070  105.66980  105.66980    9.92610   88.70520   88.70520   42.75220  106.00110  106.00110    9.92610   10.85240  543.40650  543.40650   14.12150 -122.18300   -5.15170   14.12150
