~Version ---------------------------------------------------
VERS.      2.0 : CWLS log ASCII Standard -VERSION 2.0
WRAP.       NO : One line per depth step
CREA. 09/25/17 : LAS Creation Date
~Well ------------------------------------------------------
STRT.FT                          1050.0 : START DEPTH
STOP.FT                         10150.0 : STOP DEPTH
STEP.FT                        50.00000 : STEP LENGTH
NULL.                           -999.25 : NULL VALUE
COMP.           CANADA FINA OIL LIMITED : COMPANY
WELL. FINA ET AL HEAVYSOUND 10-26-62-17 : WELL
FLD .                                   : FIELD
LOC .                                   : LOCATION
CTRY.                            CANADA : COUNTRY
SRVC.                      Schlumberger : SERVICE COMPANY
DATE.                       01-Mar-1964 : LOGDATE
PROV.                           Alberta : PROVINCE
UWI .                  100102606217W500 : UNIQUE WELL ID
SLAT.WGS84                     54.39382 : SURFACE LATITUDE
SLON.WGS84                    -116.4347 : SURFACE LONGITUDE
~Curve Information -----------------------------------------
DEPT  .FT    : Depth Curve
CALWS .IN    : CALIPER [MCALED]
CILDED.MMHO  : CONDUCTIVITY FROM RESISTIVITY LOG
CONDWS.MMHO  : CONDUCTIVITY [1000/DRESWS]
DRESWS.OHMM  : DEEP RESISTIVITY [1000/CILDED IF ILDED<5, ILDED]
DTED  .US/F  : DELTA TIME FROM SONIC LOG
DTWS  .US/F  : COMPRESSIONAL  SONIC [DTED]
GRSED .GAPI  : GAMMA RAY FROM SONIC LOG
GRWS  .GAPI  : GAMMA RAY [GRSED]
ILDED .OHMM  : DEEP INDUCTION RESISTIVITY FROM RESISTIVITY LOG
MCALED.IN    : CALIPER FROM MICROLOG
SNED  .OHMM  : 16 INCH SHORT NORMAL RESISTIVITY FROM RESISTIVITY LOG
SPRED .MV    : SPONTANEOUS POTENTIAL FROM RESISTIVITY LOG
SPWS  .MV    : SPONTANEOUS POTENTIAL [BASELINE 0 MV, SPRED]
SRESWS.OHMM  : SHALLOW RESISTIVITY [SNED]
~Params ----------------------------------------------------
PD  .                     GL : PERMANENT DATUM
EPD .FT                 3042 : ELEVATION PERMANENT DATUM
LMF .                     KB : LOG MEASURED FROM
DAPD.FT                16.75 : FEET ABOVE PERMANENT DATUM
DMF .                     KB : DRILLING MEASURED FROM
EKB .FT              3058.75 : KELLY BUSHING
EGL .FT                 3042 : GROUND LEVEL
DATE.               03/01/64 : RUN DATE
RUN .                      1 : RUN NUMBER
DD  .FT                10173 : DEPTH DRILLER
DL  .FT                10174 : DEPTH LOGGER
BLI .FT                10173 : BOTTOM LOG INTERVAL
TLI .FT                 1030 : TOP LOG INTERVAL
CBD .FT                 1030 : CASING BOTTOM DRILLER
CBL .FT                 1030 : CASING BOTTOM LOGGER
BS  .IN                    9 : BIT SIZE
BSD .FT                10173 : BIT SIZE AT DEPTH
DFT .               CHEMICAL : DRILLING FLUID TYPE
DFD .                    9.8 : DRILLING FLUID DENSITY
DFV .                     84 : DRILLING FLUID VISCOSITY
DFPH.                     10 : DRILLING FLUID PH
DFL .                    8.6 : DRILLING FLUID LOSS
MSS .             CIRCULATED : MUD SAMPLE SOURCE
RMS .OHMM               1.69 : RESISTIVITY MUD SAMPLE
MST .DEGF                 64 : MUD SAMPLE TEMPERATURE
RMF .OHMM               1.11 : RESISTIVITY MUD FILTRATE SAMPLE
MFST.DEGF                 74 : MUD FILTRATE SAMPLE TEMPERATURE
RMC .OHMM               2.58 : RESISTIVITY MUD CAKE
MCST.DEGF                 72 : MUD CAKE SAMPLE TEMPERATURE
RMB .OHMM               0.67 : RESISTIVITY MUD AT BHT
TCS .HRS                 300 : TIME CIRCULATED STOPPED
LUN .                   2597 : LOGGING UNIT NUMBER
LUL .                    WCT : LOGGING UNIT LOCATION
ENGI.                  MOORE : RECORDING ENGINEER
WITN.        WENDEBORN ANKLE : WITNESSED BY
CLNT.                A2DTECH : CLIENT CODE
ORIG.            2" 5" PRINT : ORIGIN OF DATA
UWI .       100102606217W500 : UNIQUE WELL ID
DICO. A2D Technologies, Inc. : DIGITIZING COMPANY
~Other -----------------------------------------------------
~ASCII -----------------------------------------------------
# ...
 3500.00000   12.42850  149.15660  153.59100    6.51080   98.02970   98.02970   81.22850   81.22850    6.51080   12.42850    5.90180  -88.03950   -4.80960    5.90180
 3550.00000   12.30280  150.00590  149.50590    6.68870  103.87980  103.87980   97.10840   97.10840    6.68870   12.30280    6.50930  -87.36100   -3.52050    6.50930
 3600.00000   11.49120   93.61280   96.85230   10.32500   88.51810   88.51810   79.86460   79.86460   10.32500   11.49120   11.58760  -88.53580   -4.08060   11.58760
 3650.00000   11.99250  114.49020  119.96310    8.33590   96.12360   96.12360   75.99130   75.99130    8.33590   11.99250    8.65650  -87.20620   -2.14040    8.65650
 3700.00000   12.86960  122.78700  125.01410    7.99910   84.91860   84.91860   72.68350   72.68350    7.99910   12.86960    7.64380  -87.82290   -2.31410    7.64380
 3750.00000   13.86800  146.58950  151.91570    6.58260   94.36140   94.36140   83.96030   83.96030    6.58260   13.86800    6.20120  -90.97040   -5.66630    6.20120
 3800.00000   13.48890  102.29020  104.86150    9.53690   90.35440   90.35440   75.18700   75.18700    9.53690   13.48890    8.31050  -91.25800   -6.15860    8.31050
 3850.00000   14.44890  120.61370  124.75050    8.01600   94.41740   94.41740   75.39700   75.39700    8.01600   14.44890    7.20660  -90.72180   -5.82850    7.20660
 3900.00000   12.84560  139.81130  145.05160    6.89410   96.28270   96.28270   82.18140   82.18140    6.89410   12.84560    6.52130  -90.21920   -5.53060    6.52130
 3950.00000   12.51770  164.66260  171.03080    5.84690  102.88470  102.88470   84.35280   84.35280    5.84690   12.51770    5.47350  -89.41120   -4.92870    5.47350
 4000.00000   12.82570  127.19290  132.46960    7.54890   95.19700   95.19700   86.40070   86.40070    7.54890   12.82570    6.47660  -89.30390   -5.02610    6.47660
 4050.00000   12.88820  141.72180  146.82900    6.81060   91.94620   91.94620   83.03480   83.03480    6.81060   12.88820    6.45300  -89.03160   -4.95850    6.45300
 4100.00000   13.16290  143.15390  146.01520    6.84860   86.86340   86.86340   80.82050   80.82050    6.84860   13.16290    6.15130  -89.19240   -5.32530    6.15130
 4150.00000   12.12400  104.14080  106.58140    9.38250   91.33020   91.33020   71.03040   71.03040    9.38250   12.12400    8.02740  -88.23930   -4.57690    8.02740
 4200.00000   11.33490  120.25980  121.88580    8.20440   91.84400   91.84400   81.01440   81.01440    8.20440   11.33490    7.74470  -87.83780   -4.38150    7.74470
 4250.00000   11.68330  126.32700  131.48900    7.60520   84.57210   84.57210   84.42710   84.42710    7.60520   11.68330    7.23150  -87.42740   -4.17580    7.23150
 4300.00000   13.37820  152.83210  150.48140    6.64620   97.78430   97.78430   90.07510   90.07510    6.64620   13.37820    6.26600  -87.14480   -4.09790    6.26600
 4350.00000   12.72310  146.99300  151.77500    6.58870   97.40490   97.40490   90.17590   90.17590    6.58870   12.72310    7.37170  -85.81170   -2.97090    7.37170
 4400.00000   10.74300  128.01860  131.46310    7.60670   97.35560   97.35560   94.64800   94.64800    7.60670   10.74300    8.43280  -85.10380   -2.41350    8.43280
 4450.00000   12.03520  125.34690  128.69020    7.77060   98.12780   98.12780   95.27020   95.27020    7.77060   12.03520    8.99030  -84.80950   -2.22020    8.99030
 4500.00000   10.60330  114.49040  117.07550    8.54150  100.69110  100.69110  120.25760  120.25760    8.54150   10.60330   11.08150  -85.06670   -2.57780   11.08150
 4550.00000    9.90550   97.20030  101.00870    9.90240   96.79650   96.79650  112.76680  112.76680    9.90240    9.90550   13.54330  -85.40480   -3.01630   13.54330
 4600.00000   11.52820  140.64900  145.04100    6.89460   96.49700   96.49700   88.18830   88.18830    6.89460   11.52820    9.10740  -85.73420   -3.44670    9.10740
 4650.00000   12.06390  125.24030  130.82840    7.64360  103.74230  103.74230  107.72540  107.72540    7.64360   12.06390    9.49280  -85.44110   -3.25400    9.49280
 4700.00000   11.03330  113.43830  116.65070    8.57260   87.81100   87.81100   81.09400   81.09400    8.57260   11.03330    9.37590  -90.81400   -8.72800    9.37590
 4750.00000   11.02380  116.03900  119.23210    8.38700   85.03230   85.03230   81.31800   81.31800    8.38700   11.02380    9.19470  -90.12220   -8.13650    9.19470
 4800.00000   11.89270  160.47740  162.64410    6.14840   92.46910   92.46910  102.65350  102.65350    6.14840   11.89270    6.77910  -86.23770   -4.35240    6.77910
 4850.00000   11.31790  148.45810  153.39540    6.51910   84.46560   84.46560   83.56970   83.56970    6.51910   11.31790    6.99430  -85.65170   -3.86750    6.99430
 4900.00000   11.27380  141.29550  146.07710    6.84570   82.15020   82.15020   90.29200   90.29200    6.84570   11.27380    7.65140  -85.61960   -3.93570    7.65140
 4950.00000   13.66880  196.06890  196.06890    5.10020   95.16070   95.16070   94.95540   94.95540    4.83390   13.66880    5.26620  -85.35770   -3.77490    5.26620
 5000.00000   14.19300  199.71310  199.71310    5.00720  100.36970  100.36970   89.04560   89.04560    4.95860   14.19300    5.29580  -84.10770   -2.62530    5.29580
 5050.00000   14.27020  312.56510  312.56510    3.19930  113.06390  113.06390  113.92310  113.92310    3.20030   14.27020    3.53190  -83.69170   -2.30970    3.53190
 5100.00000   14.15430  382.21680  382.21680    2.61630  105.48930  105.48930   85.37980   85.37980    2.31160   14.15430    2.64370  -83.73690   -2.72280    2.64370
 5150.00000   14.22290  213.51330  213.51330    4.68350   89.84470   89.84470   84.56730   84.56730    4.51370   14.22290    4.05160  -85.23740   -4.79530    4.05160
 5200.00000   13.06270  239.72310  239.72310    4.17150   95.83650   95.83650   90.89540   90.89540    4.11000   13.06270    4.40630  -85.30570   -5.43940    4.40630
 5250.00000    9.87330   68.28690   71.23320   14.03840   78.88400   78.88400   57.95780   57.95780   14.03840    9.87330   17.23780  -98.74710  -19.45280   17.23780
 5300.00000   13.75280  364.28670  364.28670    2.74830   84.47280   84.47280   67.78530   67.78530    2.60280   13.75280    2.88270  -84.54460   -5.82240    2.88270
 5350.00000   10.66100   81.36950   84.17860   11.87950   77.74190   77.74190   71.53090   71.53090   11.87950   10.66100   12.95290  -87.75220   -9.60580   12.95290
 5400.00000   10.91910  125.63590  130.30000    7.67460   82.65150   82.65150   55.46880   55.46880    7.67460   10.91910    9.72040  -93.36700  -15.79260    9.72040
 5450.00000   12.27580  144.53550  152.02190    6.57800   87.67970   87.67970   80.27070   80.27070    6.57800   12.27580    9.35000  -90.69210  -13.69350    9.35000
 5500.00000   12.48620  116.23390  120.74820    8.28170  106.33160  106.33160   87.67000   87.67000    8.28170   12.48620   12.80840  -83.42480   -6.99830   12.80840
 5550.00000   10.53020   87.48690   88.31060   11.33630   78.97600   78.97600   87.00270   87.00270   11.33630   10.53020   14.10120  -77.12860   -1.27410   14.10120
 5600.00000   11.06610   72.37980   74.44350   13.43300   88.92890   88.92890   79.92120   79.92120   13.43300   11.06610   14.99100  -79.61240   -4.90790   14.99100
 5650.00000   11.64570   81.17870   82.86310   12.06810   78.43110   78.43110   58.48660   58.48660   12.06810   11.64570   19.47820 -105.70060  -32.31400   19.47820
 5700.00000   10.93090   77.39560   79.63750   12.55690   77.19410   77.19410   63.60990   63.60990   12.55690   10.93090   19.28370  -90.03360  -17.97370   19.28370
 5750.00000   11.22560  123.39930  126.70100    7.89260   76.07060   76.07060   50.18720   50.18720    7.89260   11.22560   11.44100  -89.05820  -18.31620   11.44100
 5800.00000    9.27140  208.45470  208.45470    4.79760   78.44550   78.44550   47.35050   47.35050    4.56260    9.27140   11.07390 -105.40980  -35.98580   11.07390
 5850.00000   11.19690   80.28470   82.82530   12.07360   72.62200   72.62200   51.41680   51.41680   12.07360   11.19690   14.05500  -77.25620   -9.15880   14.05500
 5900.00000   11.18690   96.82250   97.24220   10.28360   77.53280   77.53280   85.91210   85.91210   10.28360   11.18690   11.71030  -70.51780   -3.73840   11.71030
