~Version ---------------------------------------------------
VERS.      2.0 : CWLS log ASCII Standard -VERSION 2.0
WRAP.       NO : One line per depth step
CREA. 10/19/17 : LAS Creation Date
~Well ------------------------------------------------------
STRT.FT                          300.0 : START DEPTH
STOP.FT                        10200.0 : STOP DEPTH
STEP.FT                       50.00000 : STEP LENGTH
NULL.                          -999.25 : NULL VALUE
COMP.             IMPERIAL OIL LIMITED : COMPANY
WELL.   IMPERIAL CYNTHIA NO. 9-6-52-11 : WELL
FLD .                                  : FIELD
LOC .                                  : LOCATION
CTRY.                           CANADA : COUNTRY
SRVC. Schlumberger Well Surveying Corp : SERVICE COMPANY
DATE.                      06-Sep-1954 : LOGDATE
PROV.                          Alberta : PROVINCE
UWI .                 100090605211W500 : UNIQUE WELL ID
SLAT.WGS84               53.4630190179 : SURFACE LATITUDE
SLON.WGS84             -115.6015677109 : SURFACE LONGITUDE
~Curve Information -----------------------------------------
DEPT  .FT         : Depth Curve
CALIED.IN         : CALIPER FROM CALIPER LOG
CALWS .IN         : CALIPER [CALIED]
CONDWS.MMHO       : CONDUCTIVITY [1000/DRESWS]
DRESWS.OHMM       : DEEP RESISTIVITY [LNED]
GRNED .UgRa-Eq/T  : GAMMA RAY FROM NEUTRON LOG
GRWS  .GAPI       : GAMMA RAY [GRNED*16.50, CONVERTED TO API UNIT]
LNED  .OHMM       : LONG NORMAL FROM RESISTIVITY LOG
LT18ED.OHMM       : LATERAL 18' 8" FROM RESISTIVITY LOG
NEUTED.NAPI       : NEUTRON FROM NEUTRON LOG
NEUTWS.NAPI       : NEUTRON [NEUTED]
SNED  .OHMM       : SHORT NORMAL 16" FROM RESISTIVITY LOG
SPRED .MV         : SPONTANEOUS POTENTIAL FROM RESISTIVITY LOG
SPWS  .MV         : SPONTANEOUS POTENTIAL [BASELINE 0 MV,SPRED]
SRESWS.OHMM       : SHALLOW RESISTIVITY [SNED]
~Params ----------------------------------------------------
LMF .                     KB : LOG MEASURED FROM
DMF .                     KB : DRILLING MEASURED FROM
EKB .FT                 3086 : KELLY BUSHING
DATE.               09/06/54 : RUN DATE
RUN .                      4 : RUN NUMBER
DD  .FT                10217 : DEPTH DRILLER
DL  .FT                10217 : DEPTH LOGGER
BLI .FT                10217 : BOTTOM LOG INTERVAL
TLI .FT                 8589 : TOP LOG INTERVAL
CBD .FT                 5691 : CASING BOTTOM DRILLER
CBL .FT                 5690 : CASING BOTTOM LOGGER
BS  .IN                8.625 : BIT SIZE
BSD .FT                10217 : BIT SIZE AT DEPTH
DFT .              LIME BASE : DRILLING FLUID TYPE
DFD .                   10.1 : DRILLING FLUID DENSITY
DFV .                    240 : DRILLING FLUID VISCOSITY
DFPH.                   10.5 : DRILLING FLUID PH
DFL .                    7.8 : DRILLING FLUID LOSS
MSS .               FLOWLINE : MUD SAMPLE SOURCE
RMS .OHMM                1.4 : RESISTIVITY MUD SAMPLE
MST .DEGF                 70 : MUD SAMPLE TEMPERATURE
RMB .OHMM                0.5 : RESISTIVITY MUD AT BHT
TCS .HRS                 2.5 : TIME CIRCULATED STOPPED
LUN .                   1772 : LOGGING UNIT NUMBER
LUL .                    GDM : LOGGING UNIT LOCATION
ENGI.                BUCKLEY : RECORDING ENGINEER
WITN.                  BLAND : WITNESSED BY
CLNT.                A2DTECH : CLIENT CODE
ORIG.            2" 5" PRINT : ORIGIN OF DATA
UWI .       100090605211W500 : UNIQUE WELL ID
DICO. A2D Technologies, Inc. : DIGITIZING COMPANY
~Other -----------------------------------------------------
EL,GRN,CALIPER LOG RUN
SPRED MECHANICAL SHIFT @ 4901',5698'
ALL RESISTIVITY CURVES FROM LINEAR SCALE OF 5" LOG. RESISTIVITY DATA VERIFIED @700-3300', 5700-6300' FROM SMALL SCALE LOG
GRN DATA @700'-3300', 5500-6200', 6400-7400' FROM SMALL SCALE LOG
~ASCII -----------------------------------------------------
# ...
 2750.00000    7.43150    7.43150  231.40110    4.32150    4.60710   76.01630    4.32150   26.37260  144.32320  144.32320    7.33320  -50.30410   -7.86970    7.33320
 2800.00000    7.45630    7.45630  126.09390    7.93060    3.81600   62.96400    7.93060    4.37970  159.86650  159.86650    7.01720  -47.80520   -5.29900    7.01720
 2850.00000    6.23300    6.23300  107.85020    9.28710    3.02510   49.91410    9.28710   13.83660  160.49140  159.27040   10.50840  -50.35970   -7.78120   10.50840
 2900.00000    7.61900    7.61900  125.91290    7.94200    3.49000   57.58500    7.94200    5.45360  155.57940  153.31220    6.37520  -46.57080   -3.92060    6.37520
 2950.00000    8.00140    8.00140  132.87850    7.52590    3.67510   60.63920    7.52590    5.75590  142.51220  143.68640    5.90560  -46.69520   -3.97270    5.90560
 3000.00000    6.63880    6.63880  130.58070    7.65810    3.98900   65.81850    7.65810    5.24620  154.28580  153.57350    4.79470  -46.53230   -3.73800    4.79470
 3050.00000    7.50290    7.50290  208.52010    4.79570    4.22620   69.73310    4.79570    9.57290  142.76530  142.24830    6.24350  -46.78710   -3.92100    6.24350
 3100.00000    7.07360    7.07360  186.80780    5.35340    4.54630   75.01390    5.35340   11.77760  181.23200  174.42600    6.30890  -46.02600   -3.08760    6.30890
 3150.00000    7.43400    7.43400  188.82180    5.29600    4.62880   76.37520    5.29600    2.86290  166.62060  168.52340    3.77760  -45.20910   -2.19890    3.77760
 3200.00000    6.81110    6.81110  126.38510    7.91410    4.61480   76.14420    7.91410   10.81910  155.47660  151.04370    6.95320  -46.07740   -3.31610    6.95320
 3250.00000    6.41390    6.41390  107.57780    9.29560    4.13990   68.30840    9.29560    8.64970  164.95910  168.27560   10.18650  -45.70900   -3.33630   10.18650
 3300.00000    6.73550    6.73550  227.96700    4.38660    3.79450   62.60930    4.38660    7.75180  165.24180  167.39160    6.46030  -44.06520   -1.91380    6.46030
 3350.00000    6.82170    6.82170  200.24230    4.99400    4.35080   71.78820    4.99400    5.33540  164.73210  161.32680    3.86840  -44.33680   -1.84500    3.86840
 3400.00000    6.98920    6.98920  101.38590    9.86330    3.71140   61.23810    9.86330   12.98910  155.52540  150.99260    6.67970  -47.76440   -4.93450    6.67970
 3450.00000    5.96500    5.96500   30.24440   33.06420    3.26160   53.81560   33.06420   24.69820  185.09000  185.09000   26.93060  -64.47090  -21.30070   26.93060
 3500.00000    5.83900    5.83900   46.62160   21.44930    2.97220   49.04130   21.44930   16.54230  186.19820  186.19820   17.44210  -60.15590  -16.64750   17.44210
 3550.00000    6.03370    6.03370   25.99020   38.47610    2.60780   43.02870   38.47610   25.73100  196.42820  202.76490   38.58180  -76.16960  -32.32310   38.58180
 3600.00000    6.85370    6.85370   99.49210   10.05130    3.66960   60.54840   10.05130    7.17790  151.61780  150.19560    6.89790  -47.85780   -3.98840    6.89790
 3650.00000    6.31250    6.31250  104.54670    9.56510    4.02570   66.42400    9.56510    9.37980  163.72180  163.02820    6.75910  -47.10110   -3.44190    6.75910
 3700.00000    6.20170    6.20170  100.31320    9.97220    2.90100   47.86570    9.97220   17.30440  153.55870  158.17060   15.34810  -51.20950   -7.76190   15.34810
 3750.00000    5.89900    5.89900   42.38040   23.59580    2.58590   42.66730   23.59580   19.20330  172.56100  164.84020   20.47080  -60.36920  -17.13170   20.47080
 3800.00000    6.19960    6.19960   99.91910   10.00810    3.06220   50.52630   10.00810    7.42390  153.08150  154.07520    9.25750  -45.23670   -2.20940    9.25750
 3850.00000    5.93000    5.93000   51.65140   19.37320    3.03070   50.00570   19.37320   13.83950  200.17290  194.62000   27.57490  -57.31780  -14.50210   27.57490
 3900.00000    6.84380    6.84380  156.89230    6.37380    3.50090   57.76490    6.37380    8.43050  153.66000  145.88210    5.56580  -45.92310   -3.31760    5.56580
 3950.00000    6.48230    6.48230   97.57930   10.24860    3.02880   49.97520   10.24860   12.39360  161.34030  179.22880   10.53850  -49.20300   -6.80910   10.53850
 4000.00000    6.70850    6.70850  112.66720    8.87570    3.57610   59.00560    8.87570    6.18500  154.85890  150.51380    7.07690  -45.01960   -2.83590    7.07690
 4050.00000    6.57070    6.57070   85.63840   11.67700    3.28730   54.24050   11.67700    9.77260  177.83470  169.59010   10.69050  -44.94950   -2.97600   10.69050
 4100.00000    7.76990    7.76990   98.42410   10.16040    3.65780   60.35290   10.16040    6.80520  172.97570  170.67760    9.92900  -45.79780   -4.03580    9.92900
 4150.00000    6.47560    6.47560   79.43190   12.58940    3.39540   56.02410   12.58940    8.13640  165.85270  158.74540   12.88740  -44.24590   -2.69410   12.88740
 4200.00000    6.46120    6.46120  127.60180    7.84570    3.18460   52.54590    7.84570   14.81880  149.02490  150.97460    8.44440  -43.58230   -2.24210    8.44440
 4250.00000    6.12020    6.12020   42.90460   23.30750    2.74620   45.31230   23.30750    5.44030  162.60410  165.77010   22.86960  -48.56300   -7.43300   22.86960
 4300.00000    6.18840    6.18840   49.77110   20.09200    1.49250   24.62620   20.09200   23.91220  169.96770  173.50110   16.68420  -63.39120  -21.08710   16.68420
 4350.00000    6.73480    6.73480  117.75970    8.49220    1.95440   32.24680    8.49220   11.55680  157.12440  160.72560    9.45170  -49.33730   -5.74260    9.45170
 4400.00000    6.97040    6.97040  138.00150    7.24630    1.66530   27.47750    7.24630    9.42010  149.78840  151.93210    8.99840  -47.90960   -4.36520    8.99840
 4450.00000    6.80330    6.80330   93.17950   10.73200    3.25810   53.75950   10.73200    9.52750  158.66270  154.15470   11.32840  -50.37470   -7.48130   11.32840
 4500.00000    6.75580    6.75580  108.70750    9.19900    2.48090   40.93570    9.19900   11.27760  151.11850  152.65190   10.70480  -50.54650   -8.29990   10.70480
 4550.00000    6.99090    6.99090   88.68550   11.27580    2.63000   43.39500   11.27580   12.55700  162.22620  159.08780   11.94330  -50.34110   -8.74120   11.94330
 4600.00000    6.44720    6.44720   84.62060   11.81750    2.47390   40.81940   11.81750   12.83350  143.28650  145.19250   12.72210  -51.06860  -10.11970   12.72210
 4650.00000    7.07510    7.07510   96.35770   10.37800    3.15880   52.12020   10.37800   12.59430  154.39450  160.88750   11.98540  -48.12460   -7.82240   11.98540
 4700.00000    7.17820    7.17820   81.95010   12.20260    3.14930   51.96350   12.20260   13.26340  158.56370  152.87480   14.29590  -46.28610   -6.63490   14.29590
 4750.00000    6.87460    6.87460   85.84870   11.64840    3.58560   59.16240   11.64840   12.49740  152.35510  149.06440   12.79550  -44.27380   -5.26930   12.79550
 4800.00000    6.49940    6.49940   61.37340   16.29370    2.79620   46.13730   16.29370   13.85020  146.01220  154.03510   16.35740  -42.53700   -4.17930   16.35740
 4850.00000    7.14050    7.14050   95.99180   10.41770    2.49380   41.14850   10.41770   14.50080  148.26070  152.09510   11.70500  -45.02790   -7.03340   11.70500
 4900.00000    6.82270    6.82270  128.08690    7.80720    3.06500   50.57250    7.80720   11.06380  155.21780  152.50280    8.62000  -40.36260   -2.66490    8.62000
 4950.00000    6.97030    6.97030  115.16440    8.68320    3.11080   51.32820    8.68320   10.87090  157.48380  155.39170   10.20110  -40.55570   -3.15670   10.20110
 5000.00000    6.87000    6.87000  101.61260    9.84130    3.00800   49.63200    9.84130   11.65200  161.27460  170.99020   11.08120  -39.75330   -2.65110   11.08120
 5050.00000    7.16240    7.16240  114.61190    8.72510    2.78580   45.96570    8.72510   11.15700  162.67130  165.60810   10.13470  -40.57300   -3.76760   10.13470
 5100.00000    7.22810    7.22810  125.20760    7.98720    2.54910   42.06020    7.98720   10.32310  146.42630  148.65400   10.21150  -39.34770   -2.84110   10.21150
 5150.00000    7.15140    7.15140  121.59390    8.22410    2.97950   49.16170    8.22410    8.68110  158.93950  153.85120    9.79510  -38.18970   -2.06240    9.79510
