~Version ---------------------------------------------------
VERS. 2.0 : CWLS log ASCII Standard -VERSION 2.0
WRAP.  NO : ONE LINE PER DEPTH STEP
~Well ------------------------------------------------------
STRT.FT                        950.0 : START DEPTH
STOP.FT                       9550.0 : STOP DEPTH
STEP.FT                     50.00000 : STEP LENGTH
NULL.                        -999.25 : NULL VALUE
COMP.  TENNESSE GAS TRANSMISSION CO. : COMPANY
WELL. TGT CALSTAN A1 BENT N 6-4-41-1 : WELL
FLD .                                : FIELD
LOC .                                : LOCATION
CTRY.                         CANADA : COUNTRY
SRVC.                   Schlumberger : SERVICE COMPANY
DATE.                    20-Jan-1961 : LOGDATE
LOC1.                                : LOCATION 1
SECT.                                : SECTION
TOWN.                                : TOWNSHIP
RNGE.                                : RANGE
PDAT.                                : PERM DATUM
EPD .                                : ELEVATION
LMF .                                : LOG MEASURED FROM
DMF .                                : DRILL MEASURED FROM
APD .                                : ABOVE PERM DATUM
EKB .                        2916.25 : ELEV-KELLY BUSHING.
EDF .                                : ELEV-DRILL FLOOR
EGL .                           2904 : ELEV-GROUND LEVEL
PROV.                        Alberta : PROVINCE
UWI .               100060404101W500 : UNIQUE WELL ID
SLAT.WGS84                  52.50008 : SURFACE LATITUDE
SLON.WGS84                 -114.0878 : SURFACE LONGITUDE
~Curve Information -----------------------------------------
DEPT  .FT                                  : DEPTH FEET
CALWS .IN                                  : CALIPER [MCALED]
CILDED.MMHO                                : CONDUCTIVITY FROM RESISTIVITY LOG
CONDWS.MMHO :   CONDUCTIVITY [1000/DRESWS] : CONDUCTIVITY [CILDED]
DRESWS.OHMM                                : DEEP RESISTIVITY [IF ILDED<1;1000/CILDED]
DTED  .US/F                                : DELTA TIME FROM SONIC LOG
DTWS  .US/F                                : DELTA TIME [DTED]
GRSED .UGRA_EQ                             : GAMMA RAY FROM SONIC LOG
GRWS  .GAPI                                : GAMMA RAY [GRSED*16.50]
ILDED .OHMM                                : INDUCTION LOG DEEP RESISTIVITY
MCALED.IN                                  : CALIPER MICROLOG
SNED  .OHMM                                : 16 INCH SHORT NORMAL RESISTIVITY FROM IEL
SPRED .MV                                  : SPONTANEOUS POTENTIAL FROM RESISTIVITY LOG
SPWS  .MV                                  : SPONTANEOUS POTENTIAL [BASELINE 0 MV] [SPRED]
SRESWS.OHMM                                : SHALLOW RESISTIVITY [SNED]
~Params ----------------------------------------------------
~Other -----------------------------------------------------
1. ALL CURVES APPEAR ON DEPTH, MUD DENSITY 10.4 PPG. DATA FROM 2" AND 5" IMAGES.
~ASCII -----------------------------------------------------
# ...
 3400.00000   11.49850  154.58860  159.09130    6.28570  151.39330  151.39330    4.03110   66.51320    6.28570   11.49850    6.60500  -77.89980    1.28360    6.60500
 3450.00000    9.27980   77.56830   84.53660   11.82920  109.72970  109.72970    3.27820   54.09030   11.82920    9.27980   16.34550  -81.36410   -2.12720   16.34550
 3500.00000   10.49600  152.51300  146.63620    6.81960  111.35870  111.35870    3.85000   63.52500    6.81960   10.49600    7.50180  -83.48350   -2.92680    7.50180
 3550.00000    8.79350   53.38470   64.40310   15.52720  103.30670  103.30670    2.69620   44.48730   15.52720    8.79350   32.05260 -139.46510  -57.58850   32.05260
 3600.00000   11.72490  191.45380  168.39270    5.93850  106.50050  106.50050    3.31190   54.64630    5.93850   11.72490    6.68490  -83.61790   -0.46110    6.68490
 3650.00000   13.96350  199.21160  195.31250    5.12000  130.12010  130.12010    3.96350   65.39780    5.12000   13.96350    5.66840  -82.88430    0.27250    5.66840
 3700.00000    -999.25  184.67700  176.74400    5.65790    -999.25    -999.25    -999.25    -999.25    5.65790    -999.25    6.04980  -82.59880    0.55800    6.04980
 3750.00000    -999.25  136.56070  138.93330    7.19770    -999.25    -999.25    -999.25    -999.25    7.19770    -999.25    8.22610  -85.89920   -2.45810    8.22610
 3800.00000    -999.25  107.67150  115.95950    8.62370    -999.25    -999.25    -999.25    -999.25    8.62370    -999.25    9.74930  -86.12100   -0.49340    9.74930
 3850.00000    -999.25   99.33000  109.32900    9.14670    -999.25    -999.25    -999.25    -999.25    9.14670    -999.25   10.81800  -85.25570   -0.40810   10.81800
 3900.00000    -999.25  103.03020  112.05490    8.92420    -999.25    -999.25    -999.25    -999.25    8.92420    -999.25   10.58360  -85.56150   -1.49400   10.58360
 3950.00000    -999.25  102.59140  106.52920    9.38710    -999.25    -999.25    -999.25    -999.25    9.38710    -999.25   11.31980  -85.30930   -2.02180   11.31980
 4000.00000    -999.25  101.75350  111.27560    8.98670    -999.25    -999.25    -999.25    -999.25    8.98670    -999.25   11.03270  -84.24690   -1.73950   11.03270
 4050.00000    -999.25   93.48520  101.86830    9.81660    -999.25    -999.25    -999.25    -999.25    9.81660    -999.25   14.22740  -81.91790   -0.19050   14.22740
 4100.00000    -999.25   64.67210   73.77130   13.55540    -999.25    -999.25    -999.25    -999.25   13.55540    -999.25   19.98050  -80.17640    0.77100   19.98050
 4150.00000    -999.25   57.46970   66.71690   14.98870    -999.25    -999.25    -999.25    -999.25   14.98870    -999.25   21.43890  -79.21850    0.94880   21.43890
 4200.00000    -999.25   89.69100   98.08250   10.19550    -999.25    -999.25    -999.25    -999.25   10.19550    -999.25   13.32220  -79.71770   -0.33040   13.32220
 4250.00000    -999.25  106.91510  116.78830    8.56250    -999.25    -999.25    -999.25    -999.25    8.56250    -999.25   10.17970  -79.85220   -1.24500   10.17970
 4300.00000    -999.25  129.97130  133.86340    7.47030    -999.25    -999.25    -999.25    -999.25    7.47030    -999.25    8.83810  -78.97630   -1.14910    8.83810
 4350.00000    -999.25  103.42520  111.62580    8.95850    -999.25    -999.25    -999.25    -999.25    8.95850    -999.25   10.64080  -77.37180   -0.32460   10.64080
 4400.00000    -999.25  331.12410  237.37180    4.21280    -999.25    -999.25    -999.25    -999.25    4.21280    -999.25    5.00870  -73.87920    2.38790    5.00870
 4450.00000    -999.25  120.03530  125.78620    7.95000    -999.25    -999.25    -999.25    -999.25    7.95000    -999.25    9.44030  -76.36960   -0.42270    9.44030
 4500.00000    -999.25  150.37100  147.75200    6.76810    -999.25    -999.25    -999.25    -999.25    6.76810    -999.25    7.56110  -76.91930   -0.35890    7.56110
 4550.00000    -999.25  121.00840  126.67050    7.89450    -999.25    -999.25    -999.25    -999.25    7.89450    -999.25    9.11830  -77.79550   -0.62160    9.11830
 4600.00000    -999.25  104.60060  114.61190    8.72510    -999.25    -999.25    -999.25    -999.25    8.72510    -999.25   10.48850  -77.94330   -0.15590   10.48850
 4650.00000    -999.25   99.55540  109.70930    9.11500    -999.25    -999.25    -999.25    -999.25    9.11500    -999.25   11.44800  -77.93680    0.46410   11.44800
 4700.00000    -999.25   97.70780  107.40220    9.31080    -999.25    -999.25    -999.25    -999.25    9.31080    -999.25   11.12050  -76.71420    2.30020   11.12050
 4750.00000    -999.25  101.45500  111.20010    8.99280    -999.25    -999.25    -999.25    -999.25    8.99280    -999.25   10.93200  -80.15800   -2.72450   10.93200
 4800.00000    -999.25   99.10530  110.11400    9.08150    -999.25    -999.25    -999.25    -999.25    9.08150    -999.25   10.82250  -79.13320   -3.37190   10.82250
 4850.00000    -999.25   97.50340  107.18920    9.32930    -999.25    -999.25    -999.25    -999.25    9.32930    -999.25   11.07950  -77.21930   -3.13030   11.07950
 4900.00000    -999.25  119.95800  122.78070    8.14460    -999.25    -999.25    -999.25    -999.25    8.14460    -999.25   10.53590  -75.42660   -3.00990   10.53590
 4950.00000    -999.25  114.69610  122.10310    8.18980    -999.25    -999.25    -999.25    -999.25    8.18980    -999.25   10.53880  -72.44220   -1.69770   10.53880
 5000.00000    -999.25   75.29020   85.65530   11.67470    -999.25    -999.25    -999.25    -999.25   11.67470    -999.25   17.72510  -70.07490   -0.95680   17.72510
 5050.00000    -999.25   99.54290  108.09290    9.25130    -999.25    -999.25    -999.25    -999.25    9.25130    -999.25   12.86870  -70.29020   -1.92630   12.86870
 5100.00000    -999.25   40.70230   47.71740   20.95670    -999.25    -999.25    -999.25    -999.25   20.95670    -999.25   38.57350  -69.14800   -1.53830   38.57350
 5150.00000    -999.25   92.19560  100.59150    9.94120    -999.25    -999.25    -999.25    -999.25    9.94120    -999.25   15.07650  -67.98350   -1.12800   15.07650
 5200.00000    -999.25   98.07940  107.18570    9.32960    -999.25    -999.25    -999.25    -999.25    9.32960    -999.25   13.89490  -66.30180   -0.20050   13.89490
 5250.00000    9.24550   46.56160   49.96950   20.01220    -999.25    -999.25    -999.25    -999.25   20.01220    9.24550   35.14620  -66.23450   -0.88740   35.14620
 5300.00000    9.89550   86.14220   94.71130   10.55840    -999.25    -999.25    -999.25    -999.25   10.55840    9.89550   16.52600  -65.79390   -0.75600   16.52600
 5350.00000   10.00260  193.96020  175.40780    5.70100    -999.25    -999.25    -999.25    -999.25    5.70100   10.00260    7.06570  -69.91460   -2.33110    7.06570
 5400.00000   11.39220  214.36270  190.69050    5.24410    -999.25    -999.25    -999.25    -999.25    5.24410   11.39220    5.96600  -72.90230   -4.90240    5.96600
 5450.00000   11.07890  276.59920  237.14670    4.21680    -999.25    -999.25    -999.25    -999.25    4.21680   11.07890    4.68880  -72.18150   -4.57250    4.68880
 5500.00000   12.09580  219.62780  194.66240    5.13710    -999.25    -999.25    -999.25    -999.25    5.13710   12.09580    5.64020  -70.07930   -2.86130    5.64020
 5550.00000    9.51290   84.60220   94.11410   10.62540    -999.25    -999.25    -999.25    -999.25   10.62540    9.51290   14.30810  -68.18200   -1.35490   14.30810
 5600.00000   12.13490  373.33410  262.86740    3.80420    -999.25    -999.25    -999.25    -999.25    3.80420   12.13490    3.02790  -68.72400   -2.28780    3.02790
 5650.00000   10.16890  210.74780  170.63100    5.86060    -999.25    -999.25    -999.25    -999.25    5.86060   10.16890    8.59160  -67.85110   -1.80590    8.59160
 5700.00000    9.85810   80.10780   87.01550   11.49220    -999.25    -999.25    -999.25    -999.25   11.49220    9.85810   15.82250  -75.49100  -10.49280   15.82250
 5750.00000    9.81110  103.49230  108.19700    9.24240    -999.25    -999.25    -999.25    -999.25    9.24240    9.81110   12.52040  -72.26590   -8.89670   12.52040
 5800.00000    9.90430   69.46680   78.13780   12.79790    -999.25    -999.25    -999.25    -999.25   12.79790    9.90430   17.46200  -62.71510   -0.97480   17.46200
