~Version ---------------------------------------------------
VERS.      2.0 : CWLS log ASCII Standard -VERSION 2.0
WRAP.       NO : One line per depth step
CREA. 12/21/17 : LAS Creation Date
~Well ------------------------------------------------------
STRT.FT                    1250.0 : START DEPTH
STOP.FT                    9750.0 : STOP DEPTH
STEP.FT                  50.00000 : STEP LENGTH
NULL.                     -999.25 : NULL VALUE
COMP.  PHILLIPS PETROLEUM COMPANY : COMPANY
WELL. PHILLIPS KAYBOB 10-34-64-19 : WELL
FLD .                             : FIELD
LOC .                             : LOCATION
CTRY.                      CANADA : COUNTRY
SRVC.                       Welex : SERVICE COMPANY
DATE.                 14-Dec-1960 : LOGDATE
PROV.                     Alberta : PROVINCE
UWI .            100103406419W500 : UNIQUE WELL ID
SLAT.WGS84               54.58335 : SURFACE LATITUDE
SLON.WGS84               -116.782 : SURFACE LONGITUDE
~Curve Information -----------------------------------------
DEPT  .FT    : Depth Curve
CALWS .IN    : CALIPER [MCALED]
CONDWS.MMHO  : CONDUCTIVITY [1000/DRESWS]
DRESWS.OHMM  : DEEP RESISTIVITY [LT16ED]
GRNED .CPS   : GAMMA RAY FROM GRN LOG [ADJ. TO RESISTIVITY LOG]
GRWS  .CPS   : GAMMA RAY [GRNED]
LAT9ED.OHMM  : LATERAL 9' (3IZ)  FROM RESISTIVITY LOG
LT16ED.OHMM  : LATERAL 16' (3IZ)  FROM RESISTIVITY LOG
MCALED.IN    : CALIPER FROM CONTACT CALIPER LOG
MRESWS.OHMM  : MEDIUM RESISTIVITY [LT9ED]
NEUTED.CPS   : NEUTRON FROM GRN LOG [ADJ. TO RESISTIVITY LOG]
NEUTWS.CPS   : NEUTRON [NEUTED]
SNED  .OHMM  : SHORT NORMAL 18" (2Z) FROM RESISTIVITY LOG
SPRED .MV    : SPONTANEOUS POTENTIAL FROM RESISTIVITY LOG
SPWS  .MV    : SPONTANEOUS POTENTIAL [BASELINE 0 MV, SPRED]
SRESWS.OHMM  : SHALLOW RESISTIVITY [SNED]
~Params ----------------------------------------------------
PD  .                             SCF : PERMANENT DATUM
LMF .                              KB : LOG MEASURED FROM
DAPD.FT                         14.41 : FEET ABOVE PERMANENT DATUM
DMF .                              KB : DRILLING MEASURED FROM
EKB .FT                          2452 : KELLY BUSHING
EGL .FT                          2437 : GROUND LEVEL
DATE.                        12/14/60 : RUN DATE
RUN .                               1 : RUN NUMBER
DD  .FT                          9756 : DEPTH DRILLER
DL  .FT                          9757 : DEPTH LOGGER
BLI .FT                          9756 : BOTTOM LOG INTERVAL
TLI .FT                          1245 : TOP LOG INTERVAL
CS  .IN                         9.625 : CASING SIZE
CBD .FT                          1253 : CASING BOTTOM DRILLER
CBL .FT                          1245 : CASING BOTTOM LOGGER
BS  .IN                         7.875 : BIT SIZE
BSD .FT                          9756 : BIT SIZE AT DEPTH
DFT . OIL EMULSION GEL CAUSTIC TANNEX : DRILLING FLUID TYPE
DFD .                            10.5 : DRILLING FLUID DENSITY
DFV .                             115 : DRILLING FLUID VISCOSITY
DFPH.                             9.5 : DRILLING FLUID PH
DFL .                             5.3 : DRILLING FLUID LOSS
MSS .                      CIRCULATED : MUD SAMPLE SOURCE
RMS .OHMM                        2.73 : RESISTIVITY MUD SAMPLE
MST .DEGF                          72 : MUD SAMPLE TEMPERATURE
RMF .OHMM                        1.07 : RESISTIVITY MUD FILTRATE SAMPLE
MFST.DEGF                         195 : MUD FILTRATE SAMPLE TEMPERATURE
RMC .OHMM                        1.14 : RESISTIVITY MUD CAKE
MCST.DEGF                         195 : MUD CAKE SAMPLE TEMPERATURE
RMB .OHMM                        1.09 : RESISTIVITY MUD AT BHT
ENGI.                          DOWHAN : RECORDING ENGINEER
WITN.                        WILLIAMS : WITNESSED BY
CLNT.                         A2DTECH : CLIENT CODE
ORIG.                     2" 5" PRINT : ORIGIN OF DATA
UWI .                100103406419W500 : UNIQUE WELL ID
DICO.          A2D Technologies, Inc. : DIGITIZING COMPANY
~Other -----------------------------------------------------
~ASCII -----------------------------------------------------
# ...
 3550.00000   10.55450  121.41910    8.23600  106.61490  106.61490    9.93340    8.23600   10.55450    9.93340  296.39910  296.39910    9.10840  -76.82240   -9.30820    9.10840
 3600.00000   10.49610  135.13330    7.40010  107.36480  107.36480    9.07480    7.40010   10.49610    9.07480  297.86420  297.86420    9.87640  -76.56340   -9.13260    9.87640
 3650.00000   10.44850  111.76060    8.94770  110.06860  110.06860    9.97260    8.94770   10.44850    9.97260  289.63470  289.63470   10.47870  -75.68010   -8.33230   10.47870
 3700.00000    9.94570  112.63420    8.87830  117.66280  117.66280   10.06710    8.87830    9.94570   10.06710  308.88710  308.88710   11.24480  -76.54320   -9.27880   11.24480
 3750.00000    9.70150  105.04310    9.51990  104.05000  104.05000    9.56870    9.51990    9.70150    9.56870  304.06100  304.06100   10.50010  -77.64110  -10.45960   10.50010
 3800.00000    8.86770  107.79040    9.27740  107.77630  107.77630   17.93530    9.27740    8.86770   17.93530  360.46430  360.46430   20.82940  -76.24850   -9.15000   20.82940
 3850.00000    9.43210  113.60150    8.80270   96.12570   96.12570   10.39150    8.80270    9.43210   10.39150  324.89110  324.89110   11.01660  -76.98440   -9.96930   11.01660
 3900.00000    9.28890  177.99300    5.61820   83.70890   83.70890    5.63560    5.61820    9.28890    5.63560  342.30550  342.30550    9.19620  -77.32350  -10.39130    9.19620
 3950.00000    9.44700  142.72050    7.00670   98.57290   98.57290    9.66430    7.00670    9.44700    9.66430  354.07380  354.07380    9.50150  -76.49280   -9.64410    9.50150
 4000.00000    9.75260  129.74540    7.70740   96.75840   96.75840    8.45630    7.70740    9.75260    8.45630  339.39270  339.39270    9.63480  -76.86560  -10.09980    9.63480
 4050.00000   10.23770  172.44200    5.79940  101.84320  101.84320    7.45530    5.79940   10.23770    7.45530  315.98510  315.98510    7.93060  -75.85450   -9.17160    7.93060
 4100.00000    9.36200  134.57500    7.43080   94.84680   94.84680    8.34070    7.43080    9.36200    8.34070  348.00170  348.00170    9.29490  -75.13720   -8.53780    9.29490
 4150.00000   10.72380  212.85200    4.69810   92.99200   92.99200    5.16930    4.69810   10.72380    5.16930  299.27610  299.27610    5.98370  -74.04910   -7.53260    5.98370
 4200.00000   11.15700  196.04380    5.10090   93.20210   93.20210    5.81920    5.10090   11.15700    5.81920  298.00020  298.00020    7.21840  -74.87690   -8.44390    7.21840
 4250.00000   11.18180  192.01970    5.20780   98.25500   98.25500    6.33520    5.20780   11.18180    6.33520  285.31030  285.31030    7.55300  -73.65840   -7.30830    7.55300
 4300.00000   11.53010  133.75830    7.50520  199.39160  199.39160    5.05200    7.50520   11.53010    5.05200  310.17040  310.17040    4.95390  -73.40380   -7.13660    4.95390
 4350.00000   13.05880  371.30550    2.69320   99.99060   99.99060    2.79930    2.69320   13.05880    2.79930  313.78640  313.78640    3.92260  -73.77560   -7.59190    3.92260
 4400.00000   13.18050  207.73180    4.81390  105.37110  105.37110    4.44140    4.81390   13.18050    4.44140  342.50140  342.50140    6.20900  -74.31180   -8.21100    6.20900
 4450.00000   12.75170  195.49200    5.11530  105.08430  105.08430    5.43080    5.11530   12.75170    5.43080  319.10420  319.10420    6.04240  -74.24080   -8.25280    6.04240
 4500.00000   10.24740   37.30030   26.80940   94.60260   94.60260   26.49230   26.80940   10.24740   26.49230  359.93820  359.93820   15.04750  -75.57780  -10.56290   15.04750
 4550.00000   11.09870  213.23260    4.69250   99.22420   99.22420    3.87920    4.69250   11.09870    3.87920  286.56060  286.56060    3.33450  -74.69220  -10.65050    3.33450
 4600.00000    9.52010   39.35330   25.41080   74.54390   74.54390   25.28520   25.41080    9.52010   25.28520  356.22160  356.22160    7.77830  -82.57610  -19.51400    7.77830
 4650.00000    8.38500  267.30820    3.74100   55.17570   55.17570   18.83120    3.74100    8.38500   18.83120  397.01920  397.01920   17.87690 -109.39190  -47.30290   17.87690
 4700.00000    9.06840   25.85380   38.67910   73.87320   73.87320   25.41210   38.67910    9.06840   25.41210  360.20390  360.20390   19.76110  -81.13090  -20.02150   19.76110
 4750.00000   10.21840  127.87070    7.82040   91.86520   91.86520   28.01180    7.82040   10.21840   28.01180  344.27990  344.27990   16.82970  -79.31850  -19.18220   16.82970
 4800.00000   10.50530   42.37660   23.89090   82.89490   82.89490   27.15170   23.89090   10.50530   27.15170  338.97110  338.97110   14.20650  -78.50460  -19.34150   14.20650
 4850.00000   10.69640  160.69420    6.22300   93.91770   93.91770   17.39300    6.22300   10.69640   17.39300  390.04240  390.04240   19.18950  -74.68450  -16.50100   19.18950
 4900.00000   10.69700   85.15710   11.74300   89.31520   89.31520   14.37280   11.74300   10.69700   14.37280  391.37470  391.37470   13.12740  -75.17860  -17.96820   13.12740
 4950.00000   10.70910  136.49270    7.32640   66.50170   66.50170    8.50280    7.32640   10.70910    8.50280  405.56110  405.56110    9.73460  -76.05360  -19.82280    9.73460
 5000.00000   10.32890   77.83680   12.84740   80.74520   80.74520    7.80320   12.84740   10.32890    7.80320  405.77380  405.77380   20.35610  -67.01210  -11.75450   20.35610
 5050.00000   10.16340  267.05370    3.74490   81.27580   81.27580   14.54950    3.74490   10.16340   14.54950  410.94580  410.94580   13.68460  -68.83280  -14.54830   13.68460
 5100.00000    8.53790  118.94000    8.40760   55.79460   55.79460   29.35530    8.40760    8.53790   29.35530  411.27550  411.27550   27.72310 -117.75210  -64.44720   27.72310
 5150.00000   10.25730  126.54700    7.90220   72.18170   72.18170    9.42970    7.90220   10.25730    9.42970  378.88910  378.88910   13.93140  -78.10990  -25.77820   13.93140
 5200.00000    9.97860  120.44710    8.30240   84.74410   84.74410   12.35880    8.30240    9.97860   12.35880  385.39480  385.39480   13.45580  -56.63900   -5.18900   13.45580
 5250.00000    9.87450   69.48500   14.39160   85.37830   85.37830   19.31990   14.39160    9.87450   19.31990  404.89310  404.89310   15.71740  -54.42800   -3.79800   15.71740
 5300.00000    9.55020  154.19520    6.49380   93.18180   93.18180    9.47840    6.49380    9.55020    9.47840  364.32260  364.32260   10.89250  -53.94550   -4.13540   10.89250
 5350.00000   10.73400   70.62350   14.15960   59.87720   59.87720   36.37800   14.15960   10.73400   36.37800  431.74560  431.74560   28.39980  -79.60910  -30.62430   28.39980
 5400.00000    9.06310   44.61300   22.41500   63.81690   63.81690   48.12790   22.41500    9.06310   48.12790  438.03990  438.03990   39.23920  -58.61320  -10.44840   39.23920
 5450.00000    8.66760   42.13010   23.73600   59.27130   59.27130   66.20120   23.73600    8.66760   66.20120  419.61190  419.61190   39.91390  -98.35690  -51.01740   39.91390
 5500.00000   11.32980  112.30400    8.90440   95.34650   95.34650    7.87500    8.90440   11.32980    7.87500  311.66820  311.66820   10.48860  -52.62040   -6.10080   10.48860
 5550.00000   12.33280  264.85630    3.78220   91.78740   91.78740    3.92010    3.78220   12.33280    3.92010  281.83610  281.83610    5.37350  -51.45710   -5.75750    5.37350
 5600.00000   10.36580  182.23900    5.48730   88.70700   88.70700   11.57100    5.48730   10.36580   11.57100  366.40490  366.40490   11.03390  -48.56590   -3.69160   11.03390
 5650.00000    9.73920   94.85780   10.54210  155.63280  155.63280   16.42410   10.54210    9.73920   16.42410  308.47310  308.47310   49.55890  -48.37440   -4.32000   49.55890
 5700.00000    9.62670   23.26800   42.97740  104.10770  104.10770   43.62970   42.97740    9.62670   43.62970  306.85600  306.85600   33.99820  -49.39390   -5.95160   33.99820
 5750.00000    8.84880    1.16310  859.75920  199.76260  199.76260  422.28370  859.75920    8.84880  422.28370  517.48210  517.48210  397.11400  -62.32680  -19.46070  397.11400
 5800.00000    9.89150   61.54090   16.25000   86.78970   86.78970   13.72390   16.25000    9.89150   13.72390  418.39370  418.39370   22.35020  -71.40750  -29.11770   22.35020
