~Version ---------------------------------------------------
VERS.      2.0 : CWLS log ASCII Standard -VERSION 2.0
WRAP.       NO : One line per depth step
CREA. 01/03/18 : LAS Creation Date
~Well ------------------------------------------------------
STRT.FT                           650.0 : START DEPTH
STOP.FT                          9200.0 : STOP DEPTH
STEP.FT                        50.00000 : STEP LENGTH
NULL.                           -999.25 : NULL VALUE
COMP.                DENISON MINES LTD. : COMPANY
WELL. DENISON ET AL VIRGHILLS 2-6-65-12 : WELL
FLD .                                   : FIELD
LOC .                                   : LOCATION
CTRY.                            CANADA : COUNTRY
SRVC.                      Schlumberger : SERVICE COMPANY
DATE.                       14-Mar-1976 : LOGDATE
PROV.                           Alberta : PROVINCE
UWI .                  100020606512W500 : UNIQUE WELL ID
SLAT.WGS84                     54.59091 : SURFACE LATITUDE
SLON.WGS84                    -115.7994 : SURFACE LONGITUDE
~Curve Information -----------------------------------------
DEPT  .FT    : Depth Curve
CALSED.IN    : CALIPER FROM SONIC LOG
CALWS .IN    : CALIPER [CALSED]
CILDED.MMHO  : CONDUCTIVITY FROM RESISTIVITY LOG
CONDWS.MMHO  : CONDUCTIVITY [1000/DRESWS]
DRESWS.OHMM  : DEEP RESISTIVITY [ILDED] FROM TOP TO 3965' IF ILDED<1;1000/CILDED;ELSE ILDED
DTED  .US/F  : DELTA TIME FROM SONIC LOG
DTWS  .US/F  : DELTA TIME [DTED] [DEPTH ADJ TO LL8]
GRSED .GAPI  : GAMMA RAY FROM SONIC LOG
GRWS  .GAPI  : GAMMA RAY [GRSED]
ILDED .OHMM  : INDUCTION LOG DEEP RESISTIVITY
ILMED .OHMM  : INDUCTION LOG MEDIUM RESISTIVITY
LL8ED .OHMM  : 8 INCH LATEROLOG RESISTIVITY
MRESWS.OHMM  : MEDIUM RESISTIVITY [ILMED]
SPRED .MV    : SPONTANEOUS POTENTIAL FROM RESISTIVITY LOG SHIFTED
SPWS  .MV    : SPONTANEOUS POTENTIAL [BASELINE 0 MV] [SPRED]
SRESWS.OHMM  : SHALLOW RESISTIVITY [LL8ED]
~Params ----------------------------------------------------
PD  .                     GL : PERMANENT DATUM
EPD .FT               3411.5 : ELEVATION PERMANENT DATUM
LMF .                     KB : LOG MEASURED FROM
DAPD.FT                 14.2 : FEET ABOVE PERMANENT DATUM
EKB .FT               3425.7 : KELLY BUSHING
EGL .FT               3411.5 : GROUND LEVEL
DATE.               03/14/76 : RUN DATE
RUN .                      1 : RUN NUMBER
DD  .FT                 9226 : DEPTH DRILLER
DL  .FT                 9229 : DEPTH LOGGER
BLI .FT                 9223 : BOTTOM LOG INTERVAL
TLI .FT                  637 : TOP LOG INTERVAL
CBD .FT                  639 : CASING BOTTOM DRILLER
CBL .FT                  637 : CASING BOTTOM LOGGER
BS  .IN                7.875 : BIT SIZE
BSD .FT                 9226 : BIT SIZE AT DEPTH
DFT .               GEL CHEM : DRILLING FLUID TYPE
DFD .                    9.4 : DRILLING FLUID DENSITY
DFV .                    120 : DRILLING FLUID VISCOSITY
DFPH.                    9.5 : DRILLING FLUID PH
DFL .                    7.8 : DRILLING FLUID LOSS
MSS .             CIRCULATED : MUD SAMPLE SOURCE
RMS .OHMM               2.51 : RESISTIVITY MUD SAMPLE
MST .DEGF                 54 : MUD SAMPLE TEMPERATURE
RMF .OHMM               1.99 : RESISTIVITY MUD FILTRATE SAMPLE
MFST.DEGF                 50 : MUD FILTRATE SAMPLE TEMPERATURE
RMC .OHMM               2.94 : RESISTIVITY MUD CAKE
MCST.DEGF                 50 : MUD CAKE SAMPLE TEMPERATURE
RMB .OHMM               0.56 : RESISTIVITY MUD AT BHT
TCS .HRS                 3.5 : TIME CIRCULATED STOPPED
LUN .                   7691 : LOGGING UNIT NUMBER
LUL .                    EDM : LOGGING UNIT LOCATION
ENGI.              CROCKFORD : RECORDING ENGINEER
WITN.             CARRINGTON : WITNESSED BY
CLNT.                A2DTECH : CLIENT CODE
ORIG.            2" 5" PRINT : ORIGIN OF DATA
UWI .       100020606512W500 : UNIQUE WELL ID
DICO. A2D Technologies, Inc. : DIGITIZING COMPANY
~Other -----------------------------------------------------
~ASCII -----------------------------------------------------
# ...
 7100.00000    8.70110    8.70110    -999.25   22.46850   44.50680   51.16600   51.16600   11.69200   11.69200   44.50680   51.13670  225.54200   51.13670 -156.22860 -117.68290  225.54200
 7150.00000    8.64010    8.64010    -999.25   28.22770   35.42650   50.30630   50.30630   13.32350   13.32350   35.42650   50.32280  287.21520   50.32280 -189.07100 -150.29500  287.21520
 7200.00000    8.32830    8.32830    -999.25    9.23140  108.32590   48.23950   48.23950   22.21940   22.21940  108.32590  194.41750  954.97900  194.41750 -126.21060  -87.20190  954.97900
 7250.00000    8.69150    8.69150    -999.25  133.95310    7.46530   57.40490   57.40490   44.91630   44.91630    7.46530    7.83550    7.99210    7.83550  -91.59050  -52.35030    7.99210
 7300.00000    7.25050    7.25050    -999.25   45.78200   21.86380   49.25490   49.25490   20.33630   20.33630   21.86380   24.65490   70.63260   24.65490 -166.56330 -127.09270   70.63260
 7350.00000    8.38020    8.38020    -999.25   47.86860   20.89050   52.24660   52.24660   32.53490   32.53490   20.89050   23.81100   20.51460   23.81100 -105.99300  -66.28970   20.51460
 7400.00000    8.58760    8.58760    -999.25   87.80420   11.38930   53.57380   53.57380   26.91190   26.91190   11.38930   11.87170   16.22270   11.87170 -109.94280  -70.00920   16.22270
 7450.00000    8.39680    8.39680    -999.25   23.39810   42.73860   53.63970   53.63970   34.51600   34.51600   42.73860   45.85450   49.83380   45.85450  -51.56680  -11.40050   49.83380
 7500.00000    8.51240    8.51240    -999.25   62.27810   16.05700   59.93660   59.93660   46.16730   46.16730   16.05700   16.96900   18.90120   16.96900  -47.89430   -7.49640   18.90120
 7550.00000    8.78760    8.78760    -999.25   83.76400   11.93850   62.33860   62.33860   52.96300   52.96300   11.93850   12.36350   14.65590   12.36350  -42.18690   -1.55870   14.65590
 7600.00000   10.24290   10.24290    -999.25  179.65580    5.56620   72.43110   72.43110   70.29170   70.29170    5.56620    6.36570    7.30230    6.36570  -66.51350  -26.36880    7.30230
 7650.00000   13.29230   13.29230    -999.25  266.23400    3.75610   81.24920   81.24920   81.93540   81.93540    3.75610    4.05610    4.74730    4.05610  -59.67550  -20.81660    4.74730
 7700.00000   11.83780   11.83780    -999.25  238.34490    4.19560   78.71560   78.71560   78.17060   78.17060    4.19560    4.34930    5.22660    4.34930  -48.79870  -11.23860    5.22660
 7750.00000    9.90170    9.90170    -999.25  203.50430    4.91390   75.33740   75.33740   68.72940   68.72940    4.91390    5.10280    6.29730    5.10280  -47.81850  -11.55060    6.29730
 7800.00000    8.79660    8.79660    -999.25  157.76910    6.33850   69.68330   69.68330   68.32000   68.32000    6.33850    6.62810    8.30520    6.62810  -40.30290   -5.32090    8.30520
 7850.00000    8.41610    8.41610    -999.25  100.82170    9.91850   67.46970   67.46970   64.87510   64.87510    9.91850   10.93250    9.20880   10.93250  -40.94600   -7.26270    9.20880
 7900.00000    9.28150    9.28150    -999.25  165.36840    6.04940   70.10850   70.10850   68.51590   68.51590    6.04940    6.03780    6.82380    6.03780  -53.11550  -20.71810    6.82380
 7950.00000   11.95370   11.95370    -999.25  263.90790    3.78920   77.72470   77.72470   70.38730   70.38730    3.78920    4.16930    5.18540    4.16930  -68.51940  -37.42070    5.18540
 8000.00000   12.42160   12.42160    -999.25  249.71280    4.00460   80.91320   80.91320   75.07450   75.07450    4.00460    4.10970    5.36730    4.10970  -62.42240  -32.61600    5.36730
 8050.00000   11.52140   11.52140    -999.25  238.64690    4.19030   79.59990   79.59990   71.99400   71.99400    4.19030    4.53980    5.97610    4.53980  -56.22370  -27.70310    5.97610
 8100.00000    8.58030    8.58030    -999.25  129.18230    7.74100   72.97100   72.97100   67.22400   67.22400    7.74100    8.16560    8.80800    8.16560  -38.39860  -11.17680    8.80800
 8150.00000    9.32720    9.32720    -999.25  184.39930    5.42430   72.59340   72.59340   75.49270   75.49270    5.42430    5.67840    6.47630    5.67840  -48.98970  -23.05370    6.47630
 8200.00000    8.54540    8.54540    -999.25  132.21740    7.56330   69.91090   69.91090   77.33510   77.33510    7.56330    7.89000   10.14910    7.89000  -36.03000  -11.39280   10.14910
 8250.00000    8.36260    8.36260    -999.25  125.75140    7.95220   70.68210   70.68210   73.66220   73.66220    7.95220    8.56280    9.18210    8.56280  -38.95290  -15.60800    9.18210
 8300.00000    9.70320    9.70320    -999.25  204.84920    4.88180   77.25300   77.25300   91.44210   91.44210    4.88180    5.12550    6.94000    5.12550  -58.26590  -36.20680    6.94000
 8350.00000    9.76500    9.76500    -999.25  186.30990    5.36740   77.01390   77.01390   89.80550   89.80550    5.36740    5.63370    7.44340    5.63370  -47.75670  -26.99630    7.44340
 8400.00000    9.39350    9.39350    -999.25  214.90050    4.65360   74.90440   74.90440   84.08830   84.08830    4.65360    4.86660    6.76970    4.86660  -43.72070  -24.24620    6.76970
 8450.00000   10.55930   10.55930    -999.25  248.12050    4.03030   79.36220   79.36220   86.66480   86.66480    4.03030    4.21270    5.10150    4.21270  -50.83770  -32.66190    5.10150
 8500.00000   10.77620   10.77620    -999.25  311.08070    3.21460   87.35740   87.35740  103.99670  103.99670    3.21460    3.49950    4.36670    3.49950  -49.81470  -32.93120    4.36670
 8550.00000    8.22580    8.22580    -999.25  129.02570    7.78180   80.47490   80.47490  125.80470  125.80470    7.78180    8.39910   11.74450    8.39910  -25.61650  -10.01880   11.74450
 8600.00000    8.07190    8.07190    -999.25   58.08580   17.21590   60.83420   60.83420   42.08090   42.08090   17.21590   17.98860   24.62990   17.98860  -22.78440   -8.48550   24.62990
 8650.00000   10.27740   10.27740    -999.25  246.18360    4.06210   84.09870   84.09870   94.53050   94.53050    4.06210    4.24090    5.50110    4.24090  -34.11040  -21.09730    5.50110
 8700.00000    8.04900    8.04900    -999.25   46.25130   21.62100   61.31950   61.31950   52.85520   52.85520   21.62100   23.08290   57.37830   23.08290  -20.81230   -9.09800   57.37830
 8750.00000    7.93040    7.93040    -999.25   16.66680   59.99960   58.61200   58.61200   43.00450   43.00450   59.99960   62.88560  138.90390   62.88560  -20.97160  -10.54960  138.90390
 8800.00000    8.08280    8.08280    -999.25   46.79460   21.37240   58.02960   58.02960   43.97180   43.97180   21.37240   22.15340   29.21940   22.15340  -23.72820  -13.55170   29.21940
 8850.00000    8.11920    8.11920    -999.25   96.70150   10.34110   61.42730   61.42730   53.73040   53.73040   10.34110   10.92580   14.67350   10.92580  -20.75560  -10.57910   14.67350
 8900.00000    7.98710    7.98710    -999.25   24.25380   41.49420   54.59850   54.59850   32.85710   32.85710   41.49420   41.35020   51.06070   41.35020  -13.82780   -3.65130   51.06070
 8950.00000    7.98760    7.98760    -999.25    4.33880  230.47820   51.78290   51.78290   23.39360   23.39360  230.47820  210.97450 1214.54350  210.97450   -8.57620    1.60030 1214.54350
 9000.00000    7.88330    7.88330    -999.25    1.25880  794.41610   50.41360   50.41360   21.10150   21.10150  794.41610 1053.18710 1242.46470 1053.18710  -19.80460   -9.62810 1242.46470
 9050.00000    7.37020    7.37020    -999.25   42.60050   23.50920   56.10320   56.10320   13.12050   13.12050   23.50920   22.12580   83.29500   22.12580 -160.50090 -150.32450   83.29500
 9100.00000    7.75230    7.75230    -999.25    5.04260  198.30920   49.84890   49.84890   13.28660   13.28660  198.30920  338.46120  227.90090  338.46120 -111.11380 -100.93730  227.90090
 9150.00000    7.83730    7.83730    -999.25    1.54250  649.88650   51.32440   51.32440   22.39770   22.39770  649.88650 1385.79680 1799.22100 1385.79680 -105.31690  -95.14040 1799.22100
 9200.00000    7.82770    7.82770    -999.25   36.08640   27.71130   58.13220   58.13220    -999.25    -999.25   27.71130   29.27720   50.50890   29.27720  -18.93290   -8.75640   50.50890
