~Version ---------------------------------------------------
VERS. 2.0 : CWLS log ASCII Standard -VERSION 2.0
WRAP.  NO : ONE LINE PER DEPTH STEP
~Well ------------------------------------------------------
STRT.F                          1450.0 : START DEPTH
STOP.F                         11100.0 : STOP DEPTH
STEP.F                        50.00000 : STEP LENGTH
NULL.                          -999.25 : NULL VALUE
COMP. AMOCO CANADA PETROLEUM CO., LTD. : COMPANY
WELL.       AMOCO PEX TONY 10-16-64-22 : WELL
FLD .                                  : FIELD
LOC .                                  : LOCATION
CTRY.                           CANADA : COUNTRY
SRVC.           Schlumberger of Canada : SERVICE COMPANY
DATE.                      08-Apr-1978 : LOGDATE
PROV.                          Alberta : PROVINCE
UWI .                 100101606422W500 : UNIQUE WELL ID
SLAT.WGS84                    54.53914 : SURFACE LATITUDE
SLON.WGS84                   -117.2632 : SURFACE LONGITUDE
~Curve Information -----------------------------------------
DEPT   .F                 : 
GRD    .GAPI 45 310 01 00 : GAMMA RAY FROM DENSITY LOG
CALD   .IN   45 280 60 00 : CALIPER FROM DENSITY LOG
RHOB   .G/C3 45 350 01 00 : BULK DENSITY
DRHO   .G/C3 45 356 01 00 : BULK DENSITY CORRECTION
DPHI_SS.DEC  45 890 03 00 : DENSITY POROSITY SANDSTONE
NPHI_SS.DEC  42 890 03 00 : NEUTRON POROSITY SANDSTONE
GRS    .GAPI 60 310 01 00 : GAMMA RAY FROM SONIC LOG
DT     .US/F 60 500 00 00 : DELTA-T (INTERVAL TRANSIT TIME)
CALS   .IN   60 280 50 00 : CALIPER FROM SONIC LOG
NPHI_LS.DEC  42 890 01 00 : NEUTRON POROSITY LIMESTONE
DPHI_LS.DEC  45 890 10 00 : DENSITY POROSITY LIMESTONE
ILD    .OHMM 07 120 46 00 : INDUCTION DEEP RESISTIVITY
ILM    .OHMM 07 120 44 00 : INDUCTION MEDIUM RESISTIVITY
LL8    .OHMM 07 220 08 00 : LATEROLOG 8
SPR    .MV   07 010 01 00 : SPONTANEOUS POTENTIAL FROM RESISTIVITY LOG
GR     .GAPI 81 310 01 00 : GAMMA RAY
NEUT   .NAPI 35 330 01 00 : NEUTRON
~Params ----------------------------------------------------
PD  .                     GL : PERMANENT DATUM
EPD .FT               2639.4 : ELEVATION PERMANENT DATUM
LMF .                     KB : LOG MEASURED FROM
DAPD.FT                 21.4 : FEET ABOVE PERMANENT DATUM
EKB .FT               2660.8 : KELLY BUSHING
EGL .FT               2639.4 : GROUND LEVEL
DATE.               04/08/78 : RUN DATE
RUN .                      2 : RUN NUMBER
DD  .FT                11105 : DEPTH DRILLER
DL  .FT                11103 : DEPTH LOGGER
BLI .FT                11099 : BOTTOM LOG INTERVAL
TLI .FT                 6000 : TOP LOG INTERVAL
CBD .FT                 1528 : CASING BOTTOM DRILLER
CBL .FT                 1528 : CASING BOTTOM LOGGER
BS  .IN                 8.75 : BIT SIZE
BSD .FT                11105 : BIT SIZE AT DEPTH
DFT .              GEL GELEX : DRILLING FLUID TYPE
DFD .                      9 : DRILLING FLUID DENSITY
DFV .                     92 : DRILLING FLUID VISCOSITY
DFPH.                      9 : DRILLING FLUID PH
DFL .                    9.8 : DRILLING FLUID LOSS
MSS .               FLOWLINE : MUD SAMPLE SOURCE
RMS .OHMM               1.91 : RESISTIVITY MUD SAMPLE
MST .DEGF                 52 : MUD SAMPLE TEMPERATURE
RMF .OHMM               1.45 : RESISTIVITY MUD FILTRATE SAMPLE
MFST.DEGF                 60 : MUD FILTRATE SAMPLE TEMPERATURE
TCS .HRS                 2.5 : TIME CIRCULATED STOPPED
LUN .              OSU C 244 : LOGGING UNIT NUMBER
LUL .                    EDM : LOGGING UNIT LOCATION
ENGI.                   GUNN : RECORDING ENGINEER
WITN.                   WALL : WITNESSED BY
CLNT.                A2DTECH : CLIENT CODE
ORIG.            2" 5" PRINT : ORIGIN OF DATA
UWI .       100101606422W500 : UNIQUE WELL ID
DICO. A2D Technologies, Inc. : DIGITIZING COMPANY
~Other -----------------------------------------------------
~ASCII -----------------------------------------------------
# ...
 7600.00000   56.35930    9.09970    2.74960    0.04760    -999.25    -999.25   37.02570   55.47100    9.56460    0.06080   -0.02280   16.86110   19.26660   46.09740  -68.72120    -999.25    -999.25
 7650.00000   29.10550    9.47830    2.82410   -0.00030    -999.25    -999.25   33.80360   67.27330    9.57500    0.02910   -0.07690    1.31280    1.51330    9.67680 -111.49890    -999.25    -999.25
 7700.00000   11.19190   10.63190    2.61280    0.07860    -999.25    -999.25   13.22640   51.20700    9.79290    0.00330    0.07320  846.15690  763.99620 1402.92410  -83.02800    -999.25    -999.25
 7750.00000   12.44370    8.83040    2.71730    0.01880    -999.25    -999.25   16.57970   49.37300    9.24290    0.02200   -0.01350   48.20260   93.50160  178.72550 -131.10210    -999.25    -999.25
 7800.00000   13.86840    9.44760    2.75040    0.02120    -999.25    -999.25   16.03030   49.71150    9.59150    0.00780   -0.02150  115.13250  160.32760  217.54760 -112.98820    -999.25    -999.25
 7850.00000   18.49640    9.42090    2.75920    0.11700    -999.25    -999.25   22.95790   48.61870    9.60220    0.00560    0.00800   61.25930  210.78930  255.50250  -61.20390    -999.25    -999.25
 7900.00000   59.54560    9.10560    2.73380    0.01550    -999.25    -999.25   55.15360   59.60020    9.46980    0.14150   -0.00450    6.01740    6.37780    7.98950  -57.74960    -999.25    -999.25
 7950.00000   57.82080    9.01170    2.70670    0.04220    -999.25    -999.25   60.72920   58.36030    9.59790    0.07990   -0.00450    7.88310    9.36270   24.50970  -49.44180    -999.25    -999.25
 8000.00000   55.37330    9.37950    2.70800    0.01550    -999.25    -999.25   49.66200   54.52090    9.92240    0.05710   -0.01070   22.78660   47.01120  110.85070  -38.61330    -999.25    -999.25
 8050.00000   58.78490   10.62270    2.45060    0.25910    -999.25    -999.25   49.14860   60.11790   10.43410    0.17920    0.18030   24.67930    -999.25   36.23230  -36.67100    -999.25    -999.25
 8100.00000   35.69590    8.93290    2.76890    0.09100    -999.25    -999.25   37.05660   55.36680    9.52420    0.04370   -0.03650   65.76880   79.04750  156.03400  -37.96060    -999.25    -999.25
 8150.00000   38.13110    8.73600    2.73330    0.02220    -999.25    -999.25   41.48200   53.73480    9.59100    0.02330   -0.01710   89.60400  102.81770  146.92350  -40.80460    -999.25    -999.25
 8200.00000   45.20820    8.83910    2.75360    0.03530    -999.25    -999.25   43.96310   54.24870    9.51590    0.02210   -0.01790   70.63470   74.25180  122.81010  -27.76990    -999.25    -999.25
 8250.00000   63.72090    8.76310    2.74460    0.05010    -999.25    -999.25   56.20180   56.11050    9.44980    0.05440   -0.02870   57.32500   62.50480   86.74080  -10.19050    -999.25    -999.25
 8300.00000   48.61520    8.73580    2.72050    0.03560    -999.25    -999.25   52.84760   55.77270    9.54480    0.03540   -0.00560  285.56210  337.18500  625.33060  -29.00730    -999.25    -999.25
 8350.00000   35.09110    8.72280    2.75480    0.03040    -999.25    -999.25   35.72160   52.36180    9.47350    0.01820   -0.02560  188.54510  257.17030  370.17070  -29.78340    -999.25    -999.25
 8400.00000   38.88800    8.67080    2.73060    0.02320    -999.25    -999.25   41.66290   53.81340    9.52710    0.02610   -0.01410  114.75660  183.65880  214.48110  -15.03020    -999.25    -999.25
 8450.00000   63.26590    8.74620    2.72690    0.02680    -999.25    -999.25   71.94490   58.12610    9.74030    0.05650   -0.01760   48.47850   49.43140   57.77780  -13.15040    -999.25    -999.25
 8500.00000    -999.25    8.69330    2.39410    0.02330    -999.25    -999.25    -999.25   87.80720    9.71360    0.24300    0.17960  143.48510  256.93590  818.84830  -51.00300    -999.25    -999.25
 8550.00000   11.99790    8.86190    2.73350    0.01960    -999.25    -999.25   16.15110   49.07410    9.63690    0.00340   -0.00890  473.57640  693.53370  720.75730  -99.48690    -999.25    -999.25
 8600.00000   13.31150    9.74820    2.71740    0.21960    -999.25    -999.25   18.67640   48.74900    9.92560    0.00150   -0.01490  921.82450  861.80890 1381.59390  -92.01000    -999.25    -999.25
 8650.00000   12.83400    9.63700    2.64410    0.20530    -999.25    -999.25   13.55160   49.10250    9.75200    0.00270    0.01380  590.02440  473.52100 1384.07850 -131.16100    -999.25    -999.25
 8700.00000   13.16030   10.25340    2.63090    -999.25    -999.25    -999.25   18.30960   49.68130   10.12830    0.00430    0.06030  474.49910  685.34670  803.61870 -115.40380    -999.25    -999.25
 8750.00000   10.62620   10.87240    2.65640    0.20750    -999.25    -999.25   13.77200   48.49280   10.23950   -0.00450    0.03040  591.11180 1490.58420 1388.12130 -130.23550    -999.25    -999.25
 8800.00000    6.88470    9.45730    2.60720    0.15670    -999.25    -999.25    9.30850   49.69100   10.04410    0.00140    0.06820  134.11010  123.40840  215.33130 -113.79280    -999.25    -999.25
 8850.00000   10.38790   10.77960    2.58810    0.24440    -999.25    -999.25   13.02040   49.75730   10.25100    0.00080    0.06260  527.56670 1227.08220 1390.24070 -126.23450    -999.25    -999.25
 8900.00000   11.84990   10.56500    2.64150    0.23540    -999.25    -999.25   16.29950   48.35940   10.23360    0.00000    0.04940  411.35230  479.63230 1385.82340 -120.32480    -999.25    -999.25
 8950.00000   12.16810   11.15800    2.63930    0.13980    -999.25    -999.25   12.09030   48.55360   10.22320    0.00290    0.04980  262.73680  251.91380  315.77460 -118.03010    -999.25    -999.25
 9000.00000   12.83130   10.70940    2.65070    0.24090    -999.25    -999.25   14.17510   48.38800   10.18990   -0.00210    0.02880  566.96000  545.35500 1395.01210 -129.57770    -999.25    -999.25
 9050.00000   12.14620   11.00630    2.52410    0.25800    -999.25    -999.25   13.23580   47.96100    9.97250    0.00170    0.09180  346.62850  177.74890  650.59380 -128.68140    -999.25    -999.25
 9100.00000    7.59140   11.32060    2.62780    0.24700    -999.25    -999.25   12.14730   48.62050   10.25730    0.00160    0.05590  143.72390  128.38870  153.84140 -116.26250    -999.25    -999.25
 9150.00000    7.83580    9.64200    2.73590    0.18030    -999.25    -999.25   13.06140   48.71130    9.88340    0.00460   -0.01080   64.18280    -999.25   89.96510 -119.19420    -999.25    -999.25
 9200.00000   12.10470    9.47950    2.60550    0.14750    -999.25    -999.25   13.38240   49.91700   10.04650    0.01160    0.06180   58.45190   72.49980   84.89310 -115.94520    -999.25    -999.25
 9250.00000   27.65200    8.61390    2.79280    0.03950    -999.25    -999.25   31.62390   53.44890    9.94690    0.08390   -0.05590   18.78150   22.50080   38.76450 -103.96040    -999.25    -999.25
 9300.00000   16.68470    8.21530    2.70620    0.15110    -999.25    -999.25   19.96430   50.81320    9.51720    0.08910    0.00020   38.54820   60.13730  178.96940 -152.72120    -999.25    -999.25
 9350.00000   13.94410    7.96360    2.77550    0.22590    -999.25    -999.25   17.16810   48.24360    9.50290    0.06990   -0.04030   34.17290   57.65060  143.01880 -176.37560    -999.25    -999.25
 9400.00000   23.66500   11.15890    2.52330    0.25160    -999.25    -999.25   25.71370   52.28370   10.15970    0.07100    0.09030   84.41640   74.52580   84.21060 -187.30890    -999.25    -999.25
 9450.00000   30.61410    8.60050    2.76130    0.02990    -999.25    -999.25   33.26990   50.77710   10.00510    0.01640   -0.02920  364.07180  403.27740  923.84890 -161.96010    -999.25    -999.25
 9500.00000   19.85110    9.38300    2.73110    0.25860    -999.25    -999.25   22.62950   49.94280    9.89910    0.00570   -0.01640  439.78840  533.35630  946.71740 -188.19040    -999.25    -999.25
 9550.00000   22.97130    8.88320    2.73480    0.01060    -999.25    -999.25   23.77860   49.05420    9.82520    0.00440   -0.01490  402.49090  220.85480  623.88530 -188.36090    -999.25    -999.25
 9600.00000   31.22220    8.83770    2.73680    0.04090    -999.25    -999.25   31.19740   51.29790    9.77090    0.00860   -0.02180  180.43240  160.08680  377.75640 -131.04620    -999.25    -999.25
