~Version ---------------------------------------------------
VERS.      2.0 : CWLS log ASCII Standard -VERSION 2.0
WRAP.       NO : One line per depth step
CREA. 11/07/17 : LAS Creation Date
~Well ------------------------------------------------------
STRT.FT                            650.0 : START DEPTH
STOP.FT                           5950.0 : STOP DEPTH
STEP.FT                         50.00000 : STEP LENGTH
NULL.                            -999.25 : NULL VALUE
COMP. CANADIAN NATURAL RESOURCES LIMITED : COMPANY
WELL.            LASMO NIPISI 10-31-80-8 : WELL
FLD .                             NIPISI : FIELD
LOC .                                    : LOCATION
CTRY.                             CANADA : COUNTRY
SRVC.                         Lane Wells : SERVICE COMPANY
DATE.                        29-Jun-1966 : LOGDATE
PROV.                            Alberta : PROVINCE
UWI .                   100103108008W500 : UNIQUE WELL ID
SLAT.WGS84                 55.9797973633 : SURFACE LATITUDE
SLON.WGS84               -115.2371520996 : SURFACE LONGITUDE
~Curve Information -----------------------------------------
DEPT  .FT    : Depth Curve
ACED  .US/F  : DELTA TIME (ACOUSTIC) FROM SONIC LOG
CALSED.IN    : CALIPER FROM SONIC LOG
CALWS .IN    : CALIPER [CALSED]
CILDED.MMHO  : CONDUCTIVITY FROM RESISTIVITY LOG
CONDWS.MMHO  : CONDUCTIVITY [1000/DRESWS]
DRESWS.OHMM  : DEEP RESISTIVITY [ILDED]
DTWS  .US/F  : DELTA TIME [ACED]
GRSED .GAPI  : GAMMA RAY FROM SONIC LOG
GRWS  .GAPI  : GAMMA RAY [GRSED]
ILDED .OHMM  : INDUCTION LOG DEEP RESISTIVITY
SNED  .OHMM  : 16 INCH SHORT NORMAL RESISTIVITY FROM IEL
SPRED .MV    : SPONTANEOUS POTENTIAL FROM RESISTIVITY LOG
SPWS  .MV    : SPONTANEOUS POTENTIAL [BASELINE 0 MV] [SPRED]
SRESWS.OHMM  : SHALLOW RESISTIVITY [SNED]
~Params ----------------------------------------------------
PD  .                    CBF : PERMANENT DATUM
EPD .FT               2159.4 : ELEVATION PERMANENT DATUM
LMF .                     KB : LOG MEASURED FROM
DAPD.FT                 14.6 : FEET ABOVE PERMANENT DATUM
DMF .                     KB : DRILLING MEASURED FROM
EKB .FT                 2174 : KELLY BUSHING
EGL .FT               2159.4 : GROUND LEVEL
DATE.               06/29/66 : RUN DATE
RUN .                      1 : RUN NUMBER
DD  .FT                 5979 : DEPTH DRILLER
DL  .FT                 5976 : DEPTH LOGGER
BLI .FT                 5972 : BOTTOM LOG INTERVAL
TLI .FT                  627 : TOP LOG INTERVAL
CS  .IN                8.625 : CASING SIZE
CBD .FT                  627 : CASING BOTTOM DRILLER
CBL .FT                  627 : CASING BOTTOM LOGGER
BS  .IN                7.875 : BIT SIZE
BSD .FT                 5979 : BIT SIZE AT DEPTH
DFT .                MUD GEL : DRILLING FLUID TYPE
DFD .                   10.2 : DRILLING FLUID DENSITY
DFV .                     84 : DRILLING FLUID VISCOSITY
DFPH.                   10.5 : DRILLING FLUID PH
DFL .                    7.6 : DRILLING FLUID LOSS
MSS .                   CIRC : MUD SAMPLE SOURCE
RMS .OHMM               0.94 : RESISTIVITY MUD SAMPLE
MST .DEGF                 66 : MUD SAMPLE TEMPERATURE
RMF .OHMM               0.71 : RESISTIVITY MUD FILTRATE SAMPLE
MFST.DEGF                 67 : MUD FILTRATE SAMPLE TEMPERATURE
RMC .OHMM                1.9 : RESISTIVITY MUD CAKE
MCST.DEGF                 68 : MUD CAKE SAMPLE TEMPERATURE
MFSS.                      M : MUD FILTRATE SAMPLE SOURCE
MCSS.                      M : MUD CAKE SAMPLE SOURCE
RMB .OHMM               0.45 : RESISTIVITY MUD AT BHT
TCS .HRS                   2 : TIME CIRCULATED STOPPED
LUN .                   8038 : LOGGING UNIT NUMBER
LUL .                     SL : LOGGING UNIT LOCATION
ENGI.                 MOURRE : RECORDING ENGINEER
WITN.                 GASPER : WITNESSED BY
CLNT.                A2DTECH : CLIENT CODE
ORIG.            2" 5" PRINT : ORIGIN OF DATA
UWI .       100103108008W500 : UNIQUE WELL ID
DICO. A2D Technologies, Inc. : DIGITIZING COMPANY
~Other -----------------------------------------------------
~ASCII -----------------------------------------------------
# ...
 3100.00000    -999.25    9.37700    9.37700  134.86770  133.23650    7.50570    -999.25    -999.25    -999.25    7.50570   41.27810  -97.51390  -72.71050   41.27810
 3150.00000    -999.25    8.70370    8.70370   52.02230   50.67860   19.73220    -999.25    -999.25    -999.25   19.73220   61.04460  -89.38570  -64.37190   61.04460
 3200.00000    -999.25    8.79590    8.79590   45.49860   43.48020   23.00230    -999.25    -999.25    -999.25   23.00230   65.35660  -74.08330  -48.85700   65.35660
 3250.00000    -999.25    8.73280    8.73280   29.61050   29.52750   33.86670    -999.25    -999.25    -999.25   33.86670   70.93810  -63.65430  -38.21640   70.93810
 3300.00000    -999.25    8.68900    8.68900   19.79990   22.41710   44.60890    -999.25    -999.25    -999.25   44.60890   82.27830  -66.02720  -40.37900   82.27830
 3350.00000    -999.25    8.65500    8.65500   13.69770   16.55740   63.63970    -999.25    -999.25    -999.25   63.63970  100.92060  -63.21780  -37.35710  100.92060
 3400.00000    -999.25    8.63000    8.63000   21.39160   22.34940   44.74400    -999.25    -999.25    -999.25   44.74400   91.59840  -61.03800  -34.96690   91.59840
 3450.00000    -999.25    8.67360    8.67360   22.24030   22.31820   44.92180    -999.25    -999.25    -999.25   44.92180   66.39970  -66.74660  -40.46290   66.39970
 3500.00000    -999.25    8.78580    8.78580   65.60100   62.24690   16.06950    -999.25    -999.25    -999.25   16.06950   33.50510  -62.82430  -36.32920   33.50510
 3550.00000    -999.25    8.66680    8.66680   33.35720   32.15140   31.10280    -999.25    -999.25    -999.25   31.10280   93.01350  -75.93130  -49.22580   93.01350
 3600.00000    -999.25    9.37470    9.37470  167.08090  159.03310    6.28910    -999.25    -999.25    -999.25    6.28910   11.41420  -43.00090  -16.08280   11.41420
 3650.00000    -999.25    8.54390    8.54390   50.50820   47.74930   20.94270    -999.25    -999.25    -999.25   20.94270   68.29090  -75.14230  -48.01390   68.29090
 3700.00000    -999.25    8.38060    8.38060   56.22220   53.30920   18.78040    -999.25    -999.25    -999.25   18.78040   46.86480  -74.28670  -46.94570   46.86480
 3750.00000    -999.25    8.34110    8.34110   81.74110   75.87300   13.18920    -999.25    -999.25    -999.25   13.18920   29.37410  -44.88310  -17.33070   29.37410
 3800.00000    -999.25    8.21200    8.21200    7.89840    5.05940  197.65170    -999.25    -999.25    -999.25  197.65170   68.17090  -68.63810  -40.87530   68.17090
 3850.00000    -999.25    8.04790    8.04790   65.90740   62.44300   16.02570    -999.25    -999.25    -999.25   16.02570   72.01350  -95.61630  -67.64090   72.01350
 3900.00000    -999.25    8.16360    8.16360   76.86800   71.59840   13.96680    -999.25    -999.25    -999.25   13.96680   43.88910  -79.22790  -51.04220   43.88910
 3950.00000    -999.25    8.18910    8.18910   32.90610   30.46570   32.82510    -999.25    -999.25    -999.25   32.82510   40.55370  -49.72160  -21.32340   40.55370
 4000.00000    -999.25    8.19410    8.19410  108.42880   94.90860   10.55040    -999.25    -999.25    -999.25   10.55040   15.93450  -33.41930   -5.19790   15.93450
 4050.00000    -999.25    8.85040    8.85040  207.73810  155.69780    6.42270    -999.25    -999.25    -999.25    6.42270    7.26690  -38.19270  -11.21910    7.26690
 4100.00000    -999.25    8.40850    8.40850  127.22130  111.82930    8.94220    -999.25    -999.25    -999.25    8.94220    9.74460  -29.40720   -3.69390    9.74460
 4150.00000    -999.25    8.57800    8.57800  235.81520  216.89150    4.61060    -999.25    -999.25    -999.25    4.61060    6.48190  -27.28860   -2.82310    6.48190
 4200.00000    -999.25   10.78970   10.78970  365.03360  311.18540    3.21370    -999.25    -999.25    -999.25    3.21370    3.87090  -38.27500  -15.06980    3.87090
 4250.00000    -999.25   11.94490   11.94490  377.01110  322.68090    3.09910    -999.25    -999.25    -999.25    3.09910    3.78500  -37.52390  -15.57280    3.78500
 4300.00000    -999.25   10.33210   10.33210  397.67870  336.64370    2.97050    -999.25    -999.25    -999.25    2.97050    3.78350  -35.75120  -16.75060    3.78350
 4350.00000    -999.25   10.24320   10.24320  464.15090  393.95600    2.53850    -999.25    -999.25    -999.25    2.53850    3.36060  -32.24110  -12.26440    3.36060
 4400.00000    -999.25   11.93600   11.93600  560.09180  450.06530    2.22190    -999.25    -999.25    -999.25    2.22190    2.54700  -37.80820  -18.51350    2.54700
 4450.00000    -999.25    8.36170    8.36170   95.66840  120.99010    8.29310    -999.25    -999.25    -999.25    8.29310   11.74910  -35.26540  -16.65950   11.74910
 4500.00000    -999.25    8.17410    8.17410  110.30730  104.73730    9.54770    -999.25    -999.25    -999.25    9.54770   15.24520  -20.57900   -2.65830   15.24520
 4550.00000    -999.25    8.05960    8.05960   50.03100   46.79590   21.36940    -999.25    -999.25    -999.25   21.36940   26.00480  -36.55800  -19.31930   26.00480
 4600.00000    -999.25    8.07220    8.07220   42.21080   39.43470   25.37780    -999.25    -999.25    -999.25   25.37780   22.82320  -27.08070  -10.53070   22.82320
 4650.00000    -999.25    8.12100    8.12100  191.16350  181.35330    5.51410    -999.25    -999.25    -999.25    5.51410    8.61920  -17.91990   -2.05190    8.61920
 4700.00000    -999.25    8.11270    8.11270  152.71660  142.43370    7.02090    -999.25    -999.25    -999.25    7.02090   10.16300  -18.74880   -3.56960   10.16300
 4750.00000    -999.25    8.83520    8.83520  360.27060  294.91920    3.39190    -999.25    -999.25    -999.25    3.39190    5.22060  -27.23090  -12.73690    5.22060
 4800.00000    -999.25    9.83470    9.83470  311.37350  274.39360    3.64440    -999.25    -999.25    -999.25    3.64440    4.98210  -28.75470  -15.62690    4.98210
 4850.00000    -999.25   10.50230   10.50230  545.27250  425.42970    2.35260    -999.25    -999.25    -999.25    2.35260    3.49310  -26.21690  -11.69010    3.49310
 4900.00000   94.10540    9.91130    9.91130  580.49400  482.22980    2.07370   94.10540   48.87200   48.87200    2.07370    2.78010  -24.02830   -9.12910    2.78010
 4950.00000   85.55230   10.53030   10.53030  410.94380  357.89170    2.79410   85.55230   47.97350   47.97350    2.79410    3.99800  -32.28010  -12.38060    3.99800
 5000.00000  108.15650    9.77030    9.77030  399.46810  336.71970    2.97010  108.15650   51.47530   51.47530    2.97010    4.54130  -60.96120   -7.49170    4.54130
 5050.00000   70.06630    8.78540    8.78540  415.80630  347.72930    2.87580   70.06630   40.03590   40.03590    2.87580    3.95310  -60.40550  -13.17490    3.95310
 5100.00000   67.15180    8.12230    8.12230  185.92600  170.08040    5.89420   67.15180   26.32360   26.32360    5.89420   11.11440  -44.89780   -3.47130   11.11440
 5150.00000   64.85810    8.10590    8.10590  189.10030  171.72690    5.82320   64.85810   32.48390   32.48390    5.82320   12.38160  -47.48400   -7.99770   12.38160
 5200.00000   58.26330    8.01410    8.01410   91.99910   84.05160   11.91440   58.26330   18.76520   18.76520   11.91440   28.53260  -43.37500   -5.00540   28.53260
 5250.00000   68.22740    8.02790    8.02790  164.74350  154.20850    6.51390   68.22740   43.53030   43.53030    6.51390   13.91720  -41.55370   -4.23420   13.91720
 5300.00000   72.13100    8.40810    8.40810  293.66000  260.54560    3.83810   72.13100   46.63560   46.63560    3.83810    7.40790  -48.28710  -12.00340    7.40790
 5350.00000   67.28120    8.08250    8.08250  182.60180  170.04030    5.88360   67.28120   31.03570   31.03570    5.88360   14.06110  -39.24120   -3.98570   14.06110
 5400.00000   73.48530    8.09670    8.09670  220.66170  203.07450    4.92430   73.48530   40.67260   40.67260    4.92430   10.50770  -37.88910   -3.65170   10.50770
 5450.00000   77.56990    8.09050    8.09050  265.07600  234.64880    4.26170   77.56990   42.54290   42.54290    4.26170    8.96200  -34.96270   -1.35420    8.96200
 5500.00000   52.32910    7.85510    7.85510   64.04890   54.32870   18.48530   52.32910   17.24000   17.24000   18.48530   80.99990  -48.83320  -15.38880   80.99990
