~Version ---------------------------------------------------
VERS.      2.0 : CWLS log ASCII Standard -VERSION 2.0
WRAP.       NO : One line per depth step
CREA. 08/22/14 : LAS Creation Date
~Well ------------------------------------------------------
STRT.FT                 1143.82546 : START DEPTH
STOP.FT                11159.82546 : STOP DEPTH
STEP.FT                    0.50000 : STEP LENGTH
NULL.                      -999.25 : NULL VALUE
COMP.            TRIAD OIL CO. LTD : COMPANY
WELL. TRIAD PAN AM ANTE 2-27-66-25 : WELL
FLD .                              : FIELD
LOC .                              : LOCATION
CTRY.                       CANADA : COUNTRY
SRVC.                   Lane Wells : SERVICE COMPANY
DATE.                  15-Aug-1967 : LOGDATE
PROV.                      Alberta : PROVINCE
UWI .             100022706625W500 : UNIQUE WELL ID
SLAT.WGS84                54.73614 : SURFACE LATITUDE
SLON.WGS84                 -117.69 : SURFACE LONGITUDE
~Curve Information -----------------------------------------
DEPT.FT    : DEPTH FEET
CALS.IN    : CALIPER FROM SONIC LOG
DT  .US/F  : DELTA TIME FROM SONIC LOG
GRS .GAPI  : GAMMA RAY FROM SONIC LOG
ILD .OHMM  : INDUCTION LOG DEEP RESISTIVITY
SN  .OHMM  : 16 INCH SHORT NORMAL RESISTIVITY FROM IEL
SPR .MV    : SPONTANEOUS POTENTIAL FROM RESISTIVITY LOG
~Params ----------------------------------------------------
PD  .                     GL : PERMANENT DATUM
EPD .FT               2399.7 : ELEVATION PERMANENT DATUM
LMF .                     KB : LOG MEASURED FROM
DAPD.FT                   15 : FEET ABOVE PERMANENT DATUM
DMF .                     KB : DRILLING MEASURED FROM
EKB .FT               2414.7 : KELLY BUSHING
EGL .FT               2399.7 : GROUND LEVEL
DATE.               08/15/67 : RUN DATE
RUN .                      1 : RUN NUMBER
DD  .FT                11172 : DEPTH DRILLER
DL  .FT                11160 : DEPTH LOGGER
BLI .FT                11156 : BOTTOM LOG INTERVAL
TLI .FT                 1144 : TOP LOG INTERVAL
CS  .IN                9.625 : CASING SIZE
CBD .FT                 1145 : CASING BOTTOM DRILLER
CBL .FT                 1144 : CASING BOTTOM LOGGER
BS  .IN                7.625 : BIT SIZE
BSD .FT                11172 : BIT SIZE AT DEPTH
DFT .                MUD GEL : DRILLING FLUID TYPE
DFD .                    9.9 : DRILLING FLUID DENSITY
DFV .                     89 : DRILLING FLUID VISCOSITY
DFPH.                      9 : DRILLING FLUID PH
DFL .                    7.2 : DRILLING FLUID LOSS
MSS .                   CIRC : MUD SAMPLE SOURCE
RMS .OHMM                3.0 : RESISTIVITY MUD SAMPLE
MST .DEGF                 86 : MUD SAMPLE TEMPERATURE
RMF .OHMM                2.4 : RESISTIVITY MUD FILTRATE SAMPLE
MFST.DEGF                 86 : MUD FILTRATE SAMPLE TEMPERATURE
RMC .OHMM                3.2 : RESISTIVITY MUD CAKE
MCST.DEGF                 86 : MUD CAKE SAMPLE TEMPERATURE
MFSS.                   MEAS : MUD FILTRATE SAMPLE SOURCE
MCSS.                   MEAS : MUD CAKE SAMPLE SOURCE
RMB .OHMM                1.2 : RESISTIVITY MUD AT BHT
TCS .HRS                   6 : TIME CIRCULATED STOPPED
LUN .                   1256 : LOGGING UNIT NUMBER
LUL .                    EDM : LOGGING UNIT LOCATION
ENGI.      KOWALCHUK DOMSTAD : RECORDING ENGINEER
WITN.            DANIELEWICZ : WITNESSED BY
CLNT.                A2DTECH : CLIENT CODE
ORIG.            2" 5" PRINT : ORIGIN OF DATA
UWI .       100022706625W500 : UNIQUE WELL ID
DICO. A2D Technologies, Inc. : DIGITIZING COMPANY
~Other -----------------------------------------------------
~ASCII -----------------------------------------------------
# ...
 3821.82546   10.16200   96.20450  119.13510   11.01660   20.25190  -80.80240
 3822.32546   10.12810   95.71630  118.45400   11.31150   20.74830  -81.05230
 3822.82546   10.05990   95.32500  114.55090   12.00040   21.74110  -80.76210
 3823.32546   10.05080   95.72150  111.57520   12.34520   22.23780  -80.29190
 3823.82546   10.13010   97.15310  104.62520   13.03740   23.33580  -79.46920
 3824.32546   10.25900   96.37900   97.33800   13.12900   24.37200  -78.87300
 3824.82546   10.31900   95.06100   95.94540   12.76280   23.67910  -78.80750
 3825.32546   10.45200   92.03000   97.02600   11.85900   21.82800  -78.65700
 3825.82546   10.46120   90.78060   99.05290   11.47570   21.03090  -78.59490
 3826.32546   10.39900   87.68100  112.64200   10.52300   19.34500  -78.44100
 3826.82546   10.26380   86.52360  117.34590   10.15370   18.99900  -78.38230
 3827.32546    9.93520   87.46040  128.22920    9.63420   18.15680  -78.24060
 3827.82546    9.82170   88.90260  131.72380    9.53040   17.73530  -78.19330
 3828.32546    9.68780   91.77550  136.36930    9.35620   16.94470  -78.39960
 3828.82546    9.66060   93.21110  137.86020    9.26810   16.69020  -78.58790
 3829.32546    9.67990   95.57440  140.29820    9.09180   16.27130  -78.96290
 3829.82546    9.71010   96.34610  139.43740    9.02050   16.06050  -79.14990
 3830.32546    9.76950   97.83400  133.97310    8.92060   15.63860  -79.52470
 3830.82546    9.79790   98.67910  130.61520    8.86680   15.42680  -79.67270
 3831.32546    9.79160   99.29460  126.41720    8.75580   15.15260  -79.87160
 3831.82546    9.77340   99.15950  126.37880    8.74660   15.12020  -79.94910
 3832.32546    9.81810   98.90620  127.70960    8.77900   15.11970  -80.05100
 3832.82546    9.86790   98.92270  128.32300    8.79280   15.12000  -79.92540
 3833.32546    9.96430   99.29240  129.42340    8.82170   15.12000  -79.41430
 3833.82546   10.01260   99.52560  129.47350    8.83580   15.12000  -79.16040
 3834.32546   10.10900   99.99210  128.36440    8.86400   15.12000  -78.65250
 3834.82546   10.20100  100.47800  126.89100    8.89400   15.12000  -78.12100
 3835.32546   10.18710  100.69230  126.24320    8.90730   15.12000  -77.90250
 3835.82546   10.13600  101.15000  127.04200    8.93300   15.08500  -78.21900
 3836.32546   10.11710  101.13680  128.60790    8.93240   15.05470  -78.50680
 3836.82546   10.12900  101.08900  132.49200    8.93200   14.97900  -79.22300
 3837.32546   10.15390  101.06900  133.00560    8.93200   14.95030  -79.49280
 3837.82546   10.21170  101.01960  133.30120    8.93200   14.88080  -80.14430
 3838.32546   10.24190  100.99470  133.95350    8.93200   14.84600  -80.34480
 3838.82546   10.30030  100.94480  135.50220    8.93200   14.77560  -80.35790
 3839.32546   10.33000  100.92030  134.82300    8.93630   14.74070  -80.27240
 3839.82546   10.38800  100.87100  130.92100    8.97500   14.67110  -80.10230
 3840.32546   10.41800  100.85720  128.56650    9.00270   14.64710  -80.01740
 3840.82546   10.47050  100.88490  123.77020    9.05790   14.66890  -79.84740
 3841.32546   10.46740  100.91300  121.65920    9.08540   14.70090  -79.76250
 3841.82546   10.42990  100.96610  117.93440    9.13980   14.76320  -79.59250
 3842.32546   10.41430  100.99230  115.85860    9.16710   14.79170  -79.50720
 3842.82546   10.42770  101.03990  116.23480    9.21940   14.73150  -79.33730
 3843.32546   10.46010  101.04260  118.49080    9.22850   14.66410  -79.25230
 3843.82546   10.53550  101.00840  121.37460    9.20080   14.55260  -79.08170
 3844.32546   10.61500  100.96700  122.10000    9.15600   14.43700  -78.90900
 3844.82546   10.64280  100.94740  122.49460    9.13450   14.38260  -78.82680
 3845.32546   10.64900  100.90500  123.27500    9.08900   14.26400  -78.64700
 3845.82546   10.63760  100.88640  124.10660    9.06920   14.21230  -78.58510
 3846.32546   10.61400  100.85000  125.40300    9.02200   14.09100  -78.83000
 3846.82546   10.60550  100.93660  125.81090    9.00260   14.04200  -78.99410
 3847.32546   10.54100  101.21400  126.81400    8.95400   13.91600  -79.40400
 3847.82546   10.51090  101.32810  126.19890    8.95560   13.86760  -79.55740
 3848.32546   10.43910  101.60710  124.80460    9.01740   13.95780  -79.92790
 3848.82546   10.40260  101.74640  124.19960    9.04780   14.04580  -79.93560
 3849.32546   10.34960  102.02460  122.90510    9.10550   14.21220  -79.53680
 3849.82546   10.33210  102.16370  122.18880    9.13680   14.29480  -79.24600
 3850.32546   10.30560  102.44190  122.99150    9.19980   14.45940  -78.66290
 3850.82546   10.29270  102.60360  124.51980    9.23170   14.54190  -78.37110
 3851.32546   10.25610  102.63670  128.19490    9.29530   14.70650  -77.81720
 3851.82546   10.22950  102.36520  128.60690    9.32680   14.78890  -77.80040
 3852.32546   10.17180  101.61770  127.24590    9.39050   14.95430  -78.10570
 3852.82546   10.14290  101.24390  126.51030    9.42190   15.03740  -78.27520
 3853.32546   10.07900  100.49660  124.82180    9.48360   15.17210  -78.61450
 3853.82546   10.05990  100.12290  124.48230    9.51900   15.15580  -78.78410
 3854.32546   10.04670   99.58930  125.26150    9.58840   14.99230  -79.12330
 3854.82546   10.03400  100.03500  124.73100    9.44200   14.82300  -79.28000
 3855.32546   10.02710  100.36890  123.87490    9.33870   14.74360  -79.09980
 3855.82546   10.01000  101.09500  122.09900    9.11800   14.57100  -78.70800
 3856.32546   10.00220  101.41210  122.97510    9.02350   14.49560  -78.53750
 3856.82546    9.98200  102.25000  125.73100    8.82400   14.31900  -78.12500
 3857.32546    9.97410  102.07820  126.97060    8.93910   14.24870  -77.81440
 3857.82546    9.95300  101.57900  126.16400    9.23700   14.20900  -76.36600
 3858.32546    9.94550  101.38200  126.61470    9.35260   14.45250  -75.49940
 3858.82546    9.92540  100.89810  128.15510    9.63620   15.03970  -73.39010
 3859.32546    9.92850  100.65650  128.89380    9.77740   15.33130  -73.09160
 3859.82546    9.96010  100.12780  130.65340   10.06040   15.91130  -74.83490
 3860.32546    9.98110   99.33080  129.10650   10.20300   16.10450  -76.21240
 3860.82546   10.02310   97.12370  119.97420   10.39180   15.86420  -77.67420
 3861.32546   10.04410   95.95010  115.37260   10.24930   15.57480  -77.95960
 3861.82546   10.07710   93.60220  107.59530    9.76800   15.01330  -78.50670
 3862.32546   10.08320   92.33760  104.33770    9.52900   14.73360  -78.78240
 3862.82546   10.08860   93.47920  100.47810    9.05130   14.17450  -79.33490
 3863.32546   10.09110   95.50390   99.31920    8.83550   13.89430  -79.61110
 3863.82546   10.09650   99.41660   98.37260    8.73600   13.41540  -80.16360
 3864.32546   10.09940  100.96690   99.61030    8.80060   13.24730  -80.37160
 3864.82546   10.11450   99.95670  102.66150    8.88980   12.97430  -80.51730
 3865.32546   10.16600   94.75000  101.25800    9.01000   12.69900  -80.51700
 3865.82546   10.19550   95.04050  100.10110    8.86570   12.56980  -80.51700
 3866.32546   10.26100   96.10300   97.71600    8.64300   12.28700  -80.51700
 3866.82546   10.27470   96.63330   96.82340    8.55900   12.16490  -80.51700
 3867.32546   10.33500   97.95000   94.73000    8.36200   11.87600  -80.51700
 3867.82546   10.36490   94.41020   93.88530    8.28240   11.75980  -80.51760
 3868.32546   10.43900   90.75000   91.63800    8.08100   11.46400  -80.51800
 3868.82546   10.46780   90.43040   92.11530    8.00640   11.35430  -80.49190
 3869.32546   10.52850   90.06550   93.38340    7.82010   11.08470  -80.14780
 3869.82546   10.55250   90.32060   93.00120    7.72430   10.95030  -79.89700
 3870.32546   10.59600   91.05460   90.49950    7.74210   10.75280  -79.39360
 3870.82546   10.62450   91.42960   88.92560    7.78740   10.74090  -79.14540
 3871.32546   10.69690   92.17960   85.76520    7.85570   10.76760  -79.08050
 3871.82546   10.73720   92.55440   84.37070    7.88890   10.78030  -79.20920
 3872.32546   10.81780   93.30360   85.46550    7.95530   10.80450  -79.48060
 3872.82546   10.85820   93.67870   86.53120    7.98960   10.81310  -79.61540
