~Version ---------------------------------------------------
VERS.      2.0 : CWLS log ASCII Standard -VERSION 2.0
WRAP.       NO : One line per depth step
CREA. 08/31/17 : LAS Creation Date
~Well ------------------------------------------------------
STRT.FT                            1500.0 : START DEPTH
STOP.FT                           12250.0 : STOP DEPTH
STEP.FT                          50.00000 : STEP LENGTH
NULL.                             -999.25 : NULL VALUE
COMP.            CHEVRON STANDARD LIMITED : COMPANY
WELL. CHEVRON NORCEN PL BRAZEAU 7-4-49-12 : WELL
FLD .                                     : FIELD
LOC .                                     : LOCATION
CTRY.                              CANADA : COUNTRY
SRVC.                        Schlumberger : SERVICE COMPANY
DATE.                         05-Jun-1978 : LOGDATE
PROV.                             Alberta : PROVINCE
UWI .                    100070404912W500 : UNIQUE WELL ID
SLAT.WGS84                       53.19691 : SURFACE LATITUDE
SLON.WGS84                      -115.6898 : SURFACE LONGITUDE
~Curve Information -----------------------------------------
DEPT    .FT    : Depth Curve
CALDED  .IN    : CALIPER FROM CNFD LOG
CALSED  .IN    : CALIPER FROM SONIC LOG [ADJ.TO GRDED]
CALWS   .IN    : CALIPER [CALSED]
CONDWS  .MMHO  : CONDUCTIVITY [1000/DRESWS]
DCORED  .G/C3  : DENSITY CORRECTION FROM CNFD LOG
DCORWS  .G/C3  : DENSITY CORRECTION [DCORED]
DENWS   .G/C3  : FORMATION BULK DENSITY [CALCULATED FROM DPOLSWS, M=2.71, F=1.00]
DPHILSED.V/V   : DENSITY POROSITY LIMESTONE [M=2.71, F=1.0] FROM CNFD LOG [ADJ.TO RHOBED]
DPHISSED.V/V   : DENSITY POROSITY SANDSTONE [M=2.65, F=1.0] FROM CNFD LOG [ADJ.TO RHOBED]
DPOLSWS .V/V   : DENSITY POROSITY LIMESTONE [DPHISSED CONVERTED TO LIMESTONE MATRIX,M=2.71, F=1.0, SPL.TO DPHILSED @ 2605.3']
DRESWS  .OHMM  : DEEP RESISTIVITY [ILDED]
DTED    .US/F  : DELTA-T FROM BCS LOG [ADJ.TO GRDED]
DTWS    .US/F  : COMPRESSIONAL SONIC [DTED]
GRDED   .GAPI  : GAMMA RAY FROM CNFD LOG
GRSED   .GAPI  : GAMMA RAY FROM BCS LOG [ADJ.TO GRDED]
GRWS    .GAPI  : GAMMA RAY [GRSED]
ILDED   .OHMM  : DEEP INDUCTION FROM DIL-LAT LOG
ILMED   .OHMM  : MEDIUM INDUCTION FROM DIL-LAT LOG
LL8ED   .OHMM  : LATEROLOG-8 FROM DIL-LAT LOG
MRESWS  .OHMM  : MEDIUM RESISTIVITY [ILMED]
NPHILSED.V/V   : NEUTRON POROSITY LIMESTONE FROM CNFD LOG [ADJ.TO RHOBED]
NPHISSED.V/V   : NEUTRON POROSITY SANDSTONE FROM CNFD LOG [ADJ.TO RHOBED]
NPOLSWS .V/V   : NEUTRON POROSITY LIMESTONE [NPHISSED CONVERTED TO LIMESTONE MATRIX & SPL. TO NPHILSED @ 2605']
RHOBED  .G/C3  : FORMATION BULK DENSITY FROM CNFD LOG
SPRED   .MV    : SPONTANEOUS POTENTIAL FROM DIL-LAT LOG
SPWS    .MV    : SPONTANEOUS POTENTIAL [BASELINE 0 MV,SPRED]
SRESWS  .OHMM  : SHALLOW RESISTIVITY [LL8ED]
~Params ----------------------------------------------------
PD  .                     GL : PERMANENT DATUM
EPD .FT               3221.1 : ELEVATION PERMANENT DATUM
LMF .                     KB : LOG MEASURED FROM
DAPD.FT                 18.9 : FEET ABOVE PERMANENT DATUM
DMF .                     KB : DRILLING MEASURED FROM
EKB .FT                 3240 : KELLY BUSHING
EGL .FT               3221.1 : GROUND LEVEL
DATE.               06/05/78 : RUN DATE
RUN .                      1 : RUN NUMBER
DD  .FT                12300 : DEPTH DRILLER
DL  .FT                12303 : DEPTH LOGGER
BLI .FT                12297 : BOTTOM LOG INTERVAL
TLI .FT                 1518 : TOP LOG INTERVAL
CBD .FT                 1518 : CASING BOTTOM DRILLER
CBL .FT                 1518 : CASING BOTTOM LOGGER
BS  .IN                 8.75 : BIT SIZE
BSD .FT                12300 : BIT SIZE AT DEPTH
DFT .                    GEL : DRILLING FLUID TYPE
DFD .                     11 : DRILLING FLUID DENSITY
DFV .                     68 : DRILLING FLUID VISCOSITY
DFPH.                   10.5 : DRILLING FLUID PH
MSS .               FLOWLINE : MUD SAMPLE SOURCE
RMS .OHMM               3.34 : RESISTIVITY MUD SAMPLE
MST .DEGF                 68 : MUD SAMPLE TEMPERATURE
TCS .HRS                 350 : TIME CIRCULATED STOPPED
LUN .                   7802 : LOGGING UNIT NUMBER
LUL .                    EDM : LOGGING UNIT LOCATION
ENGI.            STEENBERGEN : RECORDING ENGINEER
WITN.             RICHARDSON : WITNESSED BY
CLNT.                A2DTECH : CLIENT CODE
ORIG.            2" 5" PRINT : ORIGIN OF DATA
UWI .       100070404912W500 : UNIQUE WELL ID
DICO. A2D Technologies, Inc. : DIGITIZING COMPANY
~Other -----------------------------------------------------
~ASCII -----------------------------------------------------
# ...
 4100.00000   10.92900    9.35130    9.35130  135.18080    0.07190    0.07190    2.60020    -999.25    0.03020    0.06420    7.39750   79.21580   79.21580   80.52070   81.44800   81.44800    7.39750    8.24700    8.50530    8.24700    -999.25    0.23850    0.19470    2.59130  -19.03110   -8.68670    8.50530
 4150.00000   10.96890    9.32490    9.32490  106.17400    0.06770    0.06770    2.52510    -999.25    0.07570    0.10810    9.41850   78.30380   78.30380   63.56540   61.45400   61.45400    9.41850   10.12730   10.35880   10.12730    -999.25    0.20450    0.16100    2.50730  -19.17280   -8.82840   10.35880
 4200.00000   11.18780    9.40120    9.40120   88.35010    0.09350    0.09350    2.53760    -999.25    0.06810    0.10080   11.31890   74.11560   74.11560   68.69970   72.44290   72.44290   11.31890   11.99540   12.74260   11.99540    -999.25    0.21240    0.16880    2.54780  -23.04120  -12.69680   12.74260
 4250.00000   10.21500    9.18720    9.18720   49.86360    0.04090    0.04090    2.35510    -999.25    0.17870    0.20750   20.05470   77.76170   77.76170   45.74970   52.73460   52.73460   20.05470   18.96540   15.34700   18.96540    -999.25    0.24560    0.20170    2.37230  -36.35420  -26.00980   15.34700
 4300.00000   12.54120    9.43510    9.43510  302.56270    0.10560    0.10560    2.31700    -999.25    0.20180    0.22980    3.30510   97.94640   97.94640  118.15500  120.51820  120.51820    3.30510    3.71680    4.55660    3.71680    -999.25    0.47860    0.43690    2.28700  -15.87400   -5.52960    4.55660
 4350.00000    9.05000    8.53760    8.53760   40.93930    0.02130    0.02130    2.35840    -999.25    0.17670    0.20560   24.42640   78.27690   78.27690   42.73710   42.20370   42.20370   24.42640   25.86290   27.76370   25.86290    -999.25    0.25860    0.21470    2.36390  -34.46410  -24.11970   27.76370
 4400.00000    9.00940    8.68670    8.68670   40.10780    0.06530    0.06530    2.41500    -999.25    0.14240    0.17250   24.93280   76.45350   76.45350   46.30100   40.02180   40.02180   24.93280   23.05220   20.15250   23.05220    -999.25    0.25390    0.21000    2.42690  -33.67970  -23.33530   20.15250
 4450.00000   10.50850    9.31220    9.31220  279.89420    0.00070    0.00070    1.80820    -999.25    0.51020    0.52740    3.58160  103.91760  103.91760   69.20980   73.25860   73.25860    3.58160    4.06550    4.76130    4.06550    -999.25    0.45910    0.41730    2.00000  -15.35800   -5.01360    4.76130
 4500.00000   12.04970    9.07030    9.07030  199.36200    0.08940    0.08940    1.92280    -999.25    0.44070    0.46030    5.01600   85.80920   85.80920   67.13810   76.85150   76.85150    5.01600    5.34090    5.70880    5.34090    -999.25    0.40390    0.36110    2.00000  -16.49480   -6.15040    5.70880
 4550.00000   12.18560    9.65340    9.65340  233.48670    0.08980    0.08980    1.94400    -999.25    0.42790    0.44800    4.28290   98.47930   98.47930   64.59850   80.99420   80.99420    4.28290    4.58610    5.50010    4.58610    -999.25    0.39860    0.35570    2.00000  -16.50800   -6.16360    5.50010
 4600.00000   11.73150    9.44210    9.44210  132.31890    0.12570    0.12570    2.38590    -999.25    0.16010    0.18950    7.55750   83.99040   83.99040   71.12810   79.66050   79.66050    7.55750    7.16340    6.38110    7.16340    -999.25    0.28970    0.24570    2.38980  -17.85960   -7.51520    6.38110
 4650.00000   11.61900    9.34460    9.34460  116.25470    0.10830    0.10830    2.23790    -999.25    0.24970    0.27610    8.60180   75.40300   75.40300   59.25070   63.47500   63.47500    8.60180    8.21760    7.54660    8.21760    -999.25    0.31200    0.26810    2.25830  -17.83610   -7.49170    7.54660
 4700.00000   10.81680    9.27590    9.27590   38.31580    0.07230    0.07230    2.54910    -999.25    0.06120    0.09410   26.10140   71.31970   71.31970   40.76580   44.12020   44.12020   26.10140   27.76650   30.27200   27.76650    -999.25    0.24590    0.20200    2.55930  -33.87770  -23.53330   30.27200
 4750.00000   10.50630    9.27910    9.27910   94.85780    0.04620    0.04620    2.52360    -999.25    0.07660    0.10900   10.54210   75.46680   75.46680   61.39940   72.11840   72.11840   10.54210   10.96430   12.07150   10.96430    -999.25    0.30220    0.25820    2.54310  -19.64840   -9.30400   12.07150
 4800.00000   11.21590    9.35100    9.35100   74.09710    0.06290    0.06290    2.52610    -999.25    0.07510    0.10760   13.49580   74.39370   74.39370   65.47710   66.57530   66.57530   13.49580   14.83740   16.24770   14.83740    -999.25    0.23900    0.19520    2.53240  -21.64370  -11.29930   16.24770
 4850.00000   11.56480    9.55600    9.55600  168.60560    0.12480    0.12480    1.82370    -999.25    0.50080    0.51830    5.93100   98.45390   98.45390   63.04970   71.89320   71.89320    5.93100    6.26680    6.91280    6.26680    -999.25    0.39040    0.34730    2.00430  -18.96220   -8.61780    6.91280
 4900.00000   13.67800    9.47390    9.47390  173.19320   -0.00750   -0.00750    1.75360    -999.25    0.54330    0.55930    5.77390   83.23460   83.23460   75.86330   68.77140   68.77140    5.77390    6.32400    6.65310    6.32400    -999.25    0.42230    0.37990    2.00000  -19.09660   -8.75220    6.65310
 4950.00000   11.03140    9.74480    9.74480  129.22230    0.16260    0.16260    2.35200    -999.25    0.18060    0.20940    7.73890   90.61400   90.61400   78.82060   70.96940   70.96940    7.73890    7.04780    6.16970    7.04780    -999.25    0.37900    0.33580    2.36760  -16.69210   -6.34770    6.16970
 5000.00000   10.17180    9.51700    9.51700  101.12550    0.04460    0.04460    2.54610    -999.25    0.06300    0.09590    9.88870   78.68050   78.68050   75.90680   76.41730   76.41730    9.88870    8.80230    9.42440    8.80230    -999.25    0.30700    0.26300    2.55800  -18.00570   -7.66130    9.42440
 5050.00000   10.62410    9.65750    9.65750  130.93460    0.05540    0.05540    2.55910    -999.25    0.05510    0.08830    7.63740   83.41730   83.41730   78.63620   79.10280   79.10280    7.63740    7.92830    8.96470    7.92830    -999.25    0.28200    0.23800    2.56890  -21.40310  -11.05870    8.96470
 5100.00000   11.75250    9.32580    9.32580   62.40050   -0.00060   -0.00060    2.01150    -999.25    0.38700    0.40850   16.02550  114.26310  114.26310   59.11070   58.56280   58.56280   16.02550   17.05340   17.21340   17.05340    -999.25    0.43850    0.39650    2.00110  -21.06490  -10.72050   17.21340
 5150.00000   10.83450    9.22790    9.22790  137.67470    0.19020    0.19020    2.28300    -999.25    0.22240    0.24970    7.26350   78.92950   78.92950   75.68640   77.54230   77.54230    7.26350    7.82470    8.36770    7.82470    -999.25    0.33350    0.28970    2.28320  -15.41630   -5.07190    8.36770
 5200.00000   10.82910    9.03860    9.03860  138.36540    0.15260    0.15260    2.14530    -999.25    0.30590    0.33030    7.22720   82.75040   82.75040   76.37410   88.01730   88.01730    7.22720    7.63510    8.57070    7.63510    -999.25    0.30760    0.26370    2.15420  -16.08380   -5.73940    8.57070
 5250.00000   11.11980    9.60190    9.60190   82.51100    0.05300    0.05300    2.66520    -999.25   -0.00920    0.02620   12.11960   73.30160   73.30160   97.99130  103.60150  103.60150   12.11960   13.17210   16.72790   13.17210    -999.25    0.20800    0.16450    2.66570  -16.84480   -6.50040   16.72790
 5300.00000    -999.25    9.48150    9.48150  112.93950    -999.25    -999.25    -999.25    -999.25    -999.25    -999.25    8.85430   78.07100   78.07100    -999.25  119.10570  119.10570    8.85430    9.43300   10.81600    9.43300    -999.25    -999.25    -999.25    -999.25  -16.79680   -6.45240   10.81600
 5350.00000    -999.25    9.53800    9.53800   94.87490    -999.25    -999.25    -999.25    -999.25    -999.25    -999.25   10.54020   76.11170   76.11170    -999.25  111.24040  111.24040   10.54020   11.22760   11.51240   11.22760    -999.25    -999.25    -999.25    -999.25  -17.87810   -7.53370   11.51240
