~Version ---------------------------------------------------
VERS.      2.0 : CWLS log ASCII Standard -VERSION 2.0
WRAP.       NO : One line per depth step
CREA. 09/25/17 : LAS Creation Date
~Well ------------------------------------------------------
STRT.FT                      300.0 : START DEPTH
STOP.FT                    10650.0 : STOP DEPTH
STEP.FT                   50.00000 : STEP LENGTH
NULL.                      -999.25 : NULL VALUE
COMP.     CHEVRON STANDARD LIMITED : COMPANY
WELL. CHEVRON BA KAYBOBS 6-6-62-19 : WELL
FLD .                              : FIELD
LOC .                              : LOCATION
CTRY.                       CANADA : COUNTRY
SRVC.                     P.G.A.C. : SERVICE COMPANY
DATE.                  16-Mar-1967 : LOGDATE
PROV.                      Alberta : PROVINCE
UWI .             100060606219W500 : UNIQUE WELL ID
SLAT.WGS84                54.33243 : SURFACE LATITUDE
SLON.WGS84               -116.8409 : SURFACE LONGITUDE
~Curve Information -----------------------------------------
DEPT  .FT    : Depth Curve
CALWS .IN    : CALIPER [MCALED]
CILDED.MMHO  : CONDUCTIVITY FROM RESISTIVITY LOG
CONDWS.MMHO  : CONDUCTIVITY [1000/DRESWS]
DRESWS.OHMM  : DEEP RESISTIVITY [1000/CILDED IF ILDED<1, ILDED]
DT1ED .US/F  : DELTA TIME (DUAL RECIEVER R1R2=1') FROM SONIC LOG [ADJ. TO RESISTIVITY LOG]
DT22ED.US/F  : DELTA TIME (DUAL RECIEVER R1R2=1') FROM SONIC LOG [ADJ. TO RESISTIVITY LOG]
DTED  .US/F  : DELTA TIME (DUAL RECIEVER R1R2=3') FROM SONIC LOG [ADJ. TO RESISTIVITY LOG]
DTWS  .US/F  : COMPRESSIONAL SONIC [DTED SPL. TO DT2ED @2148.11M]
GRED  .GAPI  : GAMMA RAY FROM CBL LOG [ADJ. TO RESISTIVITY LOG]
GRSED .GAPI  : GAMMA RAY FROM SONIC LOG [ADJ. TO RESISTIVITY LOG]
GRWS  .GAPI  : GAMMA RAY [GRED SPL. TO GRSED @ (118' and 1099')
ILDED .OHMM  : DEEP INDUCTION RESISTIVITY FROM RESISTIVITY LOG
MCALED.IN    : CALIPER FROM MICROLOG [ADJ. TO RESISTIVITY LOG]
SNED  .OHMM  : 16 INCH SHORT NORMAL RESISTIVITY FROM RESISTIVITY LOG
SPRED .MV    : SPONTANEOUS POTENTIAL FROM RESISTIVITY LOG
SPWS  .MV    : SPONTANEOUS POTENTIAL [BASELINE 0 MV, SPRED]
SRESWS.OHMM  : SHALLOW RESISTIVITY [SNED]
~Params ----------------------------------------------------
PD  .                     GL : PERMANENT DATUM
EPD .FT               1839.3 : ELEVATION PERMANENT DATUM
LMF .                    KDB : LOG MEASURED FROM
DAPD.FT                 16.7 : FEET ABOVE PERMANENT DATUM
DMF .                    KDB : DRILLING MEASURED FROM
EKB .FT                 2856 : KELLY BUSHING
EGL .FT               2839.3 : GROUND LEVEL
DATE.               03/16/67 : RUN DATE
RUN .                      1 : RUN NUMBER
DD  .FT                10641 : DEPTH DRILLER
DL  .FT                10655 : DEPTH LOGGER
BLI .FT                10649 : BOTTOM LOG INTERVAL
TLI .FT                 1121 : TOP LOG INTERVAL
CS  .IN                10.75 : CASING SIZE
CBD .FT                 1120 : CASING BOTTOM DRILLER
CBL .FT                 1121 : CASING BOTTOM LOGGER
BS  .IN                    9 : BIT SIZE
BSD .FT                10641 : BIT SIZE AT DEPTH
DFT .     SUPER COL CHEM MUD : DRILLING FLUID TYPE
DFD .                   10.1 : DRILLING FLUID DENSITY
DFV .                     72 : DRILLING FLUID VISCOSITY
DFPH.                     10 : DRILLING FLUID PH
DFL .                    9.9 : DRILLING FLUID LOSS
MSS .             CIRCULATED : MUD SAMPLE SOURCE
RMS .OHMM               1.53 : RESISTIVITY MUD SAMPLE
MST .DEGF                 40 : MUD SAMPLE TEMPERATURE
RMF .OHMM                1.4 : RESISTIVITY MUD FILTRATE SAMPLE
MFST.DEGF                 40 : MUD FILTRATE SAMPLE TEMPERATURE
RMC .OHMM                2.3 : RESISTIVITY MUD CAKE
MCST.DEGF                 40 : MUD CAKE SAMPLE TEMPERATURE
MFSS.                      M : MUD FILTRATE SAMPLE SOURCE
MCSS.                      M : MUD CAKE SAMPLE SOURCE
RMB .OHMM                1.2 : RESISTIVITY MUD AT BHT
TCS .HRS                   4 : TIME CIRCULATED STOPPED
LUN .                 ES 131 : LOGGING UNIT NUMBER
LUL .                     RD : LOGGING UNIT LOCATION
ENGI.                  MANLY : RECORDING ENGINEER
WITN.        MCMILLAN KLCIAK : WITNESSED BY
CLNT.                A2DTECH : CLIENT CODE
ORIG.            2" 5" PRINT : ORIGIN OF DATA
UWI .       100060606219W500 : UNIQUE WELL ID
DICO. A2D Technologies, Inc. : DIGITIZING COMPANY
~Other -----------------------------------------------------
~ASCII -----------------------------------------------------
# ...
 2350.00000   14.08390  196.16160  196.31320    5.09390    -999.25    -999.25   94.77890   94.77890   53.75630   76.95360   76.95360    5.09390   14.08390    5.88960  -67.63680   -3.29520    5.88960
 2400.00000   14.60340  424.78210  424.01630    2.35840    -999.25    -999.25  146.75990  146.75990   55.01660   78.30020   78.30020    2.35840   14.60340    3.81430  -68.26230   -4.02400    3.81430
 2450.00000   10.51220  122.61440  122.56550    8.15890    -999.25    -999.25   92.75830   92.75830   45.76870   51.29020   51.29020    8.15890   10.51220    7.43430  -72.40200   -8.26760    7.43430
 2500.00000   13.02260  308.14550  285.53480    3.50220    -999.25    -999.25   98.51810   98.51810   66.45930   81.61190   81.61190    3.50220   13.02260    4.10610  -67.34050   -3.30940    4.10610
 2550.00000   12.98590  312.06540  311.82760    3.20690    -999.25    -999.25  117.05730  117.05730   80.74970   93.22750   93.22750    3.20690   12.98590    3.91870  -65.97780   -2.05000    3.91870
 2600.00000   13.16420  240.68620  237.29300    4.21420    -999.25    -999.25  104.17560  104.17560   56.57330   86.65690   86.65690    4.21420   13.16420    4.91530  -66.89340   -3.06950    4.91530
 2650.00000   11.65610  102.32250  101.54760    9.84760    -999.25    -999.25   88.84230   88.84230   39.11000   56.92090   56.92090    9.84760   11.65610   11.18380  -74.85570  -11.13510   11.18380
 2700.00000   11.67750  265.32650  242.76560    4.11920    -999.25    -999.25  108.01270  108.01270   60.17880   85.41040   85.41040    4.11920   11.67750    4.95960  -66.32430   -2.70760    4.95960
 2750.00000   10.83110   58.29920   60.01030   16.66380    -999.25    -999.25   85.16980   85.16980   39.00090   38.64060   38.64060   16.66380   10.83110   17.72060  -80.17910  -16.66570   17.72060
 2800.00000   12.60330  252.15600  251.92720    3.96940    -999.25    -999.25   98.96580   98.96580   51.40240   85.51410   85.51410    3.96940   12.60330    4.45120  -66.62430   -3.21410    4.45120
 2850.00000   12.09130  182.58940  175.41710    5.70070    -999.25    -999.25   92.11830   92.11830   39.99750   65.00690   65.00690    5.70070   12.09130    6.76620  -69.45080   -6.14460    6.76620
 2900.00000   13.28820   91.23290   91.15270   10.97060    -999.25    -999.25   80.86130   80.86130   33.16040   52.15460   52.15460   10.97060   13.28820   12.20350  -68.09720   -4.89420   12.20350
 2950.00000   12.93250  265.30460  265.35050    3.76860    -999.25    -999.25   97.17570   97.17570   47.31110   65.25950   65.25950    3.76860   12.93250    4.48330  -67.76460   -4.66560    4.48330
 3000.00000   14.83840  174.30480  156.29400    6.39820    -999.25    -999.25  118.64430  118.64430   39.57620   54.22780   54.22780    6.39820   14.83840    7.64350  -70.78830   -7.79260    7.64350
 3050.00000   12.77460  176.79410  160.75880    6.22050    -999.25    -999.25   93.61350   93.61350   42.54020   69.15540   69.15540    6.22050   12.77460    7.11030  -67.08930   -4.19680    7.11030
 3100.00000   11.82520   57.92940   61.29290   16.31510    -999.25    -999.25   94.84600   94.84600   31.31530   51.11350   51.11350   16.31510   11.82520   17.72150  -78.14370  -15.35520   17.72150
 3150.00000   13.45440  101.06010  107.12720    9.33470    -999.25    -999.25   86.24720   86.24720   32.34180   48.62070   48.62070    9.33470   13.45440   10.74450  -70.26680   -7.58150   10.74450
 3200.00000   12.77750   51.41190   52.77740   18.94750    -999.25    -999.25   92.86860   92.86860   33.88650   47.82000   47.82000   18.94750   12.77750   18.20980  -83.40030  -20.81900   18.20980
 3250.00000   13.56620  205.36160  205.50760    4.86600    -999.25    -999.25  117.50950  117.50950   42.53890   66.72670   66.72670    4.86600   13.56620    6.13050  -68.66910   -6.19100    6.13050
 3300.00000   11.01610  197.98620  197.92570    5.05240    -999.25    -999.25   83.51630   83.51630   52.13390   61.57460   61.57460    5.05240   11.01610    6.27800  -68.21500   -5.84020    6.27800
 3350.00000   11.83080  225.42620  225.35210    4.43750    -999.25    -999.25   98.73490   98.73490   49.55810   69.72460   69.72460    4.43750   11.83080    5.45430  -65.94850   -3.67760    5.45430
 3400.00000    9.48510   54.72840   58.68440   17.04030    -999.25    -999.25   84.21820   84.21820   23.32710   50.79380   50.79380   17.04030    9.48510   23.02070  -88.69500  -26.55340   23.02070
 3450.00000   11.20980  108.27700   95.65530   10.45420    -999.25    -999.25   86.42720   86.42720   35.21620   58.40260   58.40260   10.45420   11.20980   16.70150  -69.50490   -7.50480   16.70150
 3500.00000   13.03210  170.69910  170.57570    5.86250    -999.25    -999.25   94.17770   94.17770   44.59790   81.99890   81.99890    5.86250   13.03210    7.36210  -68.07720   -6.21770    7.36210
 3550.00000   13.07960  168.81620  159.08110    6.28610    -999.25    -999.25   93.73990   93.73990   55.12260   87.58490   87.58490    6.28610   13.07960    7.46740  -68.54890   -6.83000    7.46740
 3600.00000   15.00000  166.84950  160.91920    6.21430    -999.25    -999.25   92.73650   92.73650   51.32420   83.62050   83.62050    6.21430   15.00000    6.64560  -67.19870   -5.62130    6.64560
 3650.00000   15.00000  145.66030  145.75770    6.86070    -999.25    -999.25   91.23020   91.23020   75.86440   91.14800   91.14800    6.86070   15.00000    7.58340  -69.16660   -7.72980    7.58340
 3700.00000   15.00000  153.08350  153.05500    6.53360    -999.25    -999.25   95.97620   95.97620   79.01520  101.87220  101.87220    6.53360   15.00000    7.35850  -68.48870   -7.19350    7.35850
 3750.00000   15.00000  153.35230  153.41890    6.51810    -999.25    -999.25   98.92420   98.92420   81.81450  106.59800  106.59800    6.51810   15.00000    7.66800  -66.44470   -5.29000    7.66800
 3800.00000   15.00000   85.04720   85.04340   11.75870    -999.25    -999.25   91.39630   91.39630   62.28110  101.20110  101.20110   11.75870   15.00000   14.07180  -69.21950   -8.20540   14.07180
 3850.00000   15.00000  128.50830  128.61570    7.77510    -999.25    -999.25  102.58160  102.58160   89.70460  107.93140  107.93140    7.77510   15.00000    9.08640  -64.99460   -4.12210    9.08640
 3900.00000   15.00000  139.20080  139.25640    7.18100    -999.25    -999.25   94.37250   94.37250   86.20380  103.46950  103.46950    7.18100   15.00000    8.52220  -64.66450   -3.93260    8.52220
 3950.00000   14.32580  171.42960  171.32970    5.83670    -999.25    -999.25   91.58020   91.58020   82.93850   92.17720   92.17720    5.83670   14.32580    6.70400  -64.23290   -3.64250    6.70400
 4000.00000   14.00230  146.73240  146.69850    6.81670    -999.25    -999.25  101.87300  101.87300   73.06490   90.58620   90.58620    6.81670   14.00230    7.87640  -64.26160   -3.81180    7.87640
 4050.00000   13.29790  129.63550  129.60750    7.71560    -999.25    -999.25   88.02330   88.02330   60.50560   84.10960   84.10960    7.71560   13.29790    8.63650  -64.25310   -3.94390    8.63650
 4100.00000   13.35890  126.48650  119.86240    8.34290    -999.25    -999.25   79.36480   79.36480   65.12680   97.72580   97.72580    8.34290   13.35890    9.16230  -64.55100   -4.38330    9.16230
 4150.00000   13.19310  154.56560  154.48550    6.47310    -999.25    -999.25   89.65450   89.65450   69.65650   91.43400   91.43400    6.47310   13.19310    7.83590  -63.35610   -3.32900    7.83590
 4200.00000   13.46020  171.81340  171.75340    5.82230    -999.25    -999.25   93.28720   93.28720   67.68650   90.50350   90.50350    5.82230   13.46020    7.16700  -63.81810   -3.93250    7.16700
 4250.00000   11.99160  177.33900  177.37100    5.63790    -999.25    -999.25   93.62990   93.62990   93.86210  100.30450  100.30450    5.63790   11.99160    6.76170  -64.13400   -4.38900    6.76170
 4300.00000   13.02190  150.10440  149.91830    6.67030    -999.25    -999.25   96.02640   96.02640   91.52740   93.06020   93.06020    6.67030   13.02190    8.00990  -64.95270   -5.34830    8.00990
 4350.00000   11.78050   84.91280   84.91420   11.77660    -999.25    -999.25   82.88500   82.88500   62.17240   93.08790   93.08790   11.77660   11.78050   15.50200  -70.65560  -11.19270   15.50200
