~Version ---------------------------------------------------
VERS.      2.0 : CWLS log ASCII Standard -VERSION 2.0
WRAP.       NO : One line per depth step
CREA. 01/03/18 : LAS Creation Date
~Well ------------------------------------------------------
STRT.FT                     1000.0 : START DEPTH
STOP.FT                     9900.0 : STOP DEPTH
STEP.FT                   50.00000 : STEP LENGTH
NULL.                      -999.25 : NULL VALUE
COMP.       CALIFORNIA STANDARD CO : COMPANY
WELL. CAL STAN MEEKWAP 10-11-65-19 : WELL
FLD .                              : FIELD
LOC .                              : LOCATION
CTRY.                       CANADA : COUNTRY
SRVC.       Schlumberger of Canada : SERVICE COMPANY
DATE.                  22-Nov-1960 : LOGDATE
PROV.                      Alberta : PROVINCE
UWI .             100101106519W500 : UNIQUE WELL ID
SLAT.WGS84                54.61203 : SURFACE LATITUDE
SLON.WGS84               -116.7575 : SURFACE LONGITUDE
~Curve Information -----------------------------------------
DEPT  .FT         : Depth Curve
CALWS .IN         : CALIPER [CALSED]
CILDED.MMHO       : CONDUCTIVITY FROM RESISTIVITY LOG
CONDWS.MMHO       : CONDUCTIVITY [1000/DRESWS]
DRESWS.OHMM       : DEEP RESISTIVITY [ILDED] IF ILDED<5;1000/CILDED;ELSE ILDED
DTED  .US/F       : DELTA TIME FROM SONIC LOG
DTWS  .US/F       : DELTA TIME [DTED]
GRSED .UgRa-Eq/T  : GAMMA RAY FROM SONIC LOG
GRWS  .GAPI       : GAMMA RAY [GRSED] [CONVERTED SCALE *16.5 API]
ILDED .OHMM       : INDUCTION LOG DEEP RESISTIVITY
MCALED.IN         : MICROCALIPER
SNED  .OHMM       : 16 INCH SHORT NORMAL RESISTIVITY FROM IEL
SPRED .MV         : SPONTANEOUS POTENTIAL FROM RESISTIVITY LOG
SPWS  .MV         : SPONTANEOUS POTENTIAL [BASELINE 0 MV] [SPRED]
SRESWS.OHMM       : SHALLOW RESISTIVITY [SNED]
~Params ----------------------------------------------------
LMF .                     KB : LOG MEASURED FROM
DMF .                     KB : DRILLING MEASURED FROM
EKB .FT                 2664 : KELLY BUSHING
EGL .FT               2652.4 : GROUND LEVEL
DATE.               11/22/60 : RUN DATE
RUN .                      1 : RUN NUMBER
DD  .FT                 9934 : DEPTH DRILLER
DL  .FT                 9940 : DEPTH LOGGER
BLI .FT                 9934 : BOTTOM LOG INTERVAL
TLI .FT                 1001 : TOP LOG INTERVAL
CBD .FT               1000.5 : CASING BOTTOM DRILLER
CBL .FT                 1001 : CASING BOTTOM LOGGER
BS  .IN                    9 : BIT SIZE
BSD .FT                 9934 : BIT SIZE AT DEPTH
DFT .                    GEL : DRILLING FLUID TYPE
DFD .                   10.6 : DRILLING FLUID DENSITY
DFV .                     93 : DRILLING FLUID VISCOSITY
DFPH.                    9.5 : DRILLING FLUID PH
DFL .                    8.8 : DRILLING FLUID LOSS
RMS .OHMM               0.73 : RESISTIVITY MUD SAMPLE
MST .DEGF                182 : MUD SAMPLE TEMPERATURE
RMB .OHMM               0.73 : RESISTIVITY MUD AT BHT
TCS .HRS                   3 : TIME CIRCULATED STOPPED
LUN .                   1534 : LOGGING UNIT NUMBER
LUL .                    EDM : LOGGING UNIT LOCATION
ENGI.               WILLIAMS : RECORDING ENGINEER
WITN.                  CHANT : WITNESSED BY
CLNT.                A2DTECH : CLIENT CODE
ORIG.            2" 5" PRINT : ORIGIN OF DATA
UWI .       100101106519W500 : UNIQUE WELL ID
DICO. A2D Technologies, Inc. : DIGITIZING COMPANY
~Other -----------------------------------------------------
~ASCII -----------------------------------------------------
# ...
 5900.00000    9.85180   82.40410   74.95690   13.34100   70.89450   70.89450    4.19290   69.18290   13.34100    9.85180   22.99670 -103.40010  -65.69770   22.99670
 5950.00000   10.81410  105.99070  105.33190    9.49380   66.24750   66.24750    4.69380   77.44770    9.49380   10.81410   13.36050  -64.92240  -26.91140   13.36050
 6000.00000    9.51900   64.63370   58.82420   16.99980   65.10730   65.10730    4.97240   82.04460   16.99980    9.51900   22.29900  -60.38100  -22.06140   22.29900
 6050.00000    9.70030  137.97330  143.60390    6.96360   66.96080   66.96080    5.42820   89.56530    6.96360    9.70030   12.73060  -65.47660  -26.84840   12.73060
 6100.00000    8.37910   45.37830   37.81820   26.44230   47.62170   47.62170    1.16550   19.23080   26.44230    8.37910   70.27550 -153.36100 -114.42420   70.27550
 6150.00000   10.16070  202.06080  202.06080    4.94900   53.48930   53.48930    2.61510   43.14910    4.57290   10.16070   15.93140 -101.26440  -62.01900   15.93140
 6200.00000    8.41550   82.19080   75.79950   13.19270   54.79000   54.79000    2.15810   35.60870   13.19270    8.41550   31.87280 -112.54260  -72.98850   31.87280
 6250.00000    9.54380   14.32450    7.98450  125.24260   50.92780   50.92780    1.05640   17.43060  125.24260    9.54380   96.48430  -75.16200  -35.29930   96.48430
 6300.00000   10.03550   21.74460   11.40560   87.67630   50.19630   50.19630    2.95940   48.83010   87.67630   10.03550   72.18630  -41.97860   -1.80730   72.18630
 6350.00000    9.97320   90.06210   85.17520   11.74050   49.83800   49.83800    1.58380   26.13270   11.74050    9.97320   32.52640  -93.73760  -53.25770   32.52640
 6400.00000    9.97340   77.17330   74.84810   13.36040   59.72570   59.72570    3.68650   60.82720   13.36040    9.97340   27.97890  -70.87580  -30.08730   27.97890
 6450.00000   10.42190   26.73060   20.09800   49.75630   54.25100   54.25100    2.32230   38.31790   49.75630   10.42190   50.83520  -79.96490  -38.86780   50.83520
 6500.00000   11.39400   19.53340   11.97330   83.51890   49.57870   49.57870    0.89460   14.76090   83.51890   11.39400   76.70420 -147.56070 -106.15500   76.70420
 6550.00000    9.46680   27.51960   19.95700   50.10770   50.55300   50.55300    0.87630   14.45900   50.10770    9.46680   68.41260 -258.72200 -217.00770   68.41260
 6600.00000   10.77780   29.50030   21.43820   46.64570   49.95800   49.95800    1.07880   17.80020   46.64570   10.77780   81.43910 -263.57920 -221.55630   81.43910
 6650.00000    9.11570   23.56590   18.23360   54.84390   51.95720   51.95720    1.03420   17.06430   54.84390    9.11570   75.32400 -285.75100 -243.41940   75.32400
 6700.00000   10.50460  256.62410  256.62410    3.89680   66.31420   66.31420    3.76500   62.12250    3.52610   10.50460    5.97830 -248.42010 -205.77990    5.97830
 6750.00000    9.30560   62.47790   56.94790   17.55990   59.58430   59.58430    4.50180   74.27970   17.55990    9.30560   27.75940 -234.67480 -191.72600   27.75940
 6800.00000   10.61410   27.68520   19.98520   50.03700   53.85150   53.85150    2.12870   35.12350   50.03700   10.61410   50.08160 -242.91510 -199.65770   50.08160
 6850.00000   11.17970   13.45480    8.45020  118.34030   52.85330   52.85330    1.65100   27.24150  118.34030   11.17970   70.41920 -272.28710 -228.72110   70.41920
 6900.00000   10.46450   27.28730   21.84710   45.77270   55.02650   55.02650    1.84060   30.36990   45.77270   10.46450   47.94200 -255.04320 -211.16860   47.94200
 6950.00000    9.29420   16.16760    9.12020  109.64670   54.61200   54.61200    2.17880   35.95020  109.64670    9.29420   89.24090 -257.95250 -213.76930   89.24090
 7000.00000    9.41970   19.81550   13.89550   71.96550   53.95700   53.95700    1.72400   28.44600   71.96550    9.41970   72.45560 -233.19400 -188.70220   72.45560
 7050.00000    9.32370   26.27170   20.00000   50.00000   54.19370   54.19370    2.75870   45.51860   50.00000    9.32370   50.00000 -222.37410 -177.57370   50.00000
 7100.00000    9.65150   19.48660   12.49130   80.05560   52.98580   52.98580    2.11720   34.93380   80.05560    9.65150   87.09210 -247.28770 -202.17870   87.09210
 7150.00000    9.47630   34.46180   26.57360   37.63140   57.57450   57.57450    3.07270   50.69960   37.63140    9.47630   45.43060 -196.44000 -151.02230   45.43060
 7200.00000    9.08040   32.47850   25.37230   39.41310   57.23850   57.23850    3.04810   50.29370   39.41310    9.08040   47.77150 -148.68230 -102.95600   47.77150
 7250.00000    9.17410   33.30090   27.03620   36.98740   58.26200   58.26200    3.49280   57.63120   36.98740    9.17410   43.69270  -90.02000  -43.98510   43.69270
 7300.00000    9.90040   67.33490   63.84920   15.66190   61.32930   61.32930    4.34220   71.64630   15.66190    9.90040   19.21530  -61.76280  -15.41930   19.21530
 7350.00000   10.17400   13.52130    7.05470  141.74970   49.63450   49.63450    1.50320   24.80280  141.74970   10.17400  102.09040  -56.21960   -9.56750  102.09040
 7400.00000   10.17430   17.01070   11.17250   89.50570   50.45400   50.45400    1.39840   23.07360   89.50570   10.17430  101.82890 -102.76450  -55.80380  101.82890
 7450.00000   10.39500   20.83760   12.97590   77.06570   50.26520   50.26520    1.00720   16.61880   77.06570   10.39500  139.89210  -94.71710  -47.44780  139.89210
 7500.00000   10.68150   15.75810    9.27570  107.80880   50.23520   50.23520    0.93650   15.45220  107.80880   10.68150  137.77920 -109.39330  -61.81540  137.77920
 7550.00000   10.72820   15.21650    8.91200  112.20790   50.29850   50.29850    1.37170   22.63300  112.20790   10.72820  127.01080 -124.35600  -76.46950  127.01080
 7600.00000   11.37030   15.40000    8.85610  112.91650   49.88000   49.88000    0.87290   14.40290  112.91650   11.37030  109.20630 -146.90550  -98.71040  109.20630
 7650.00000   11.59120   12.69850    5.42480  184.33980   51.29230   51.29230    0.96740   15.96210  184.33980   11.59120  116.57350 -145.52380  -97.02000  116.57350
 7700.00000   10.81130   15.97670    9.41540  106.20860   49.81280   49.81280    1.05900   17.47350  106.20860   10.81130   95.47730 -122.93830  -74.12590   95.47730
 7750.00000   11.69790   13.14050    6.94060  144.07970   50.47880   50.47880    1.43530   23.68240  144.07970   11.69790  151.80920 -133.76340  -84.64240  151.80920
 7800.00000   10.07560   19.66290   13.95630   71.65240   50.41100   50.41100    1.22240   20.16960   71.65240   10.07560   64.31950 -138.91420  -89.48460   64.31950
 7850.00000   12.16600   15.33180    8.93850  111.87510   49.70070   49.70070    1.05220   17.36130  111.87510   12.16600  133.57820 -183.47170 -133.73350  133.57820
 7900.00000   10.06960   20.70500   13.82820   72.31590   51.02030   51.02030    1.10660   18.25890   72.31590   10.06960   73.68470 -209.72350 -159.67670   73.68470
 7950.00000    7.91700   23.98660   20.00000   50.00000   51.58300   51.58300    1.08980   17.98170   50.00000    7.91700   86.71830 -287.69890 -237.34350   86.71830
 8000.00000    8.69140   23.56640   20.00000   50.00000   50.00770   50.00770    1.29650   21.39230   50.00000    8.69140   76.08940 -239.28160 -188.61760   76.08940
 8050.00000    9.82420   16.76060    9.05500  110.43610   52.02380   52.02380    1.44190   23.79130  110.43610    9.82420   78.70960 -178.16460 -127.19200   78.70960
 8100.00000    9.20830   31.04980   24.89280   40.17220   54.29900   54.29900    1.47650   24.36230   40.17220    9.20830   55.41930 -120.35040  -69.06920   55.41930
 8150.00000    8.80760   18.56100   12.90690   77.47810   49.71030   49.71030    1.64610   27.16060   77.47810    8.80760   59.78810 -127.89940  -76.30950   59.78810
 8200.00000   10.65350  126.04350  116.70790    8.56840   55.98650   55.98650    1.72830   28.51690    8.56840   10.65350   16.66160 -110.77200  -58.87350   16.66160
 8250.00000    9.50740   10.70740    5.64300  177.21130   51.12430   51.12430    1.64650   27.16730  177.21130    9.50740   88.02640 -110.48510  -58.27800   88.02640
 8300.00000    9.87750   21.82430   15.45930   64.68580   54.36000   54.36000    3.06450   50.56420   64.68580    9.87750   49.57390 -100.23390  -47.71820   49.57390
