~Version ---------------------------------------------------
VERS.      2.0 : CWLS log ASCII Standard -VERSION 2.0
WRAP.       NO : One line per depth step
CREA. 12/14/17 : LAS Creation Date
~Well ------------------------------------------------------
STRT.FT                            1000.0 : START DEPTH
STOP.FT                            6150.0 : STOP DEPTH
STEP.FT                          50.00000 : STEP LENGTH
NULL.                             -999.25 : NULL VALUE
COMP. SHELL OIL COMPANY OF CANADA LIMITED : COMPANY
WELL.       SHELL ET AL NIPISI 10-10-78-9 : WELL
FLD .                                     : FIELD
LOC .                                     : LOCATION
CTRY.                              CANADA : COUNTRY
SRVC.                        Schlumberger : SERVICE COMPANY
DATE.                         20-Feb-1962 : LOGDATE
PROV.                             Alberta : PROVINCE
UWI .                    100101007809W500 : UNIQUE WELL ID
SLAT.WGS84                       55.74661 : SURFACE LATITUDE
SLON.WGS84                      -115.3035 : SURFACE LONGITUDE
~Curve Information -----------------------------------------
DEPT  .FT    : Depth Curve
CALWS .IN    : CALIPER [MCALED]
CILDED.MMHO  : CONDUCTIVITY INDUCTION LOG DEEP FROM IEL LOG
CONDWS.MMHO  : CONDUCTIVITY [1000/DRESWS]
DRESWS.OHMM  : DEEP RESISTIVITY [1000/CILDED IF ILDED<2, ILDED]
DT1ED .US/F  : DELTA TIME 1 FT SPAN FROM BHC LOG
DTED  .US/F  : DELTA TIME 3 FT SPAN FROM BHC LOG
DTWS  .US/F  : COMPRESSIONAL SONIC [DTED]
GRNED .GAPI  : GAMMA RAY FROM GRN LOG
GRWS  .GAPI  : GAMMA RAY [GRNED]]
ILDED .OHMM  : DEEP INDUCTION FROM IEL LOG
MCALED.IN    : MLT CALIPER FROM MICRO LOG
NEUTED.CPS   : NEUTRON FROM GRN LOG
NEUTWS.CPS   : NEUTRON POROSITY [NEUTED]
SNED  .OHMM  : SHORT NORMAL 16" FROM IEL LOG
SPRED .MV    : SPONTANEOUS POTENTIAL FROM IEL LOG
SPWS  .MV    : SPONTANEOUS POTENTIAL [BASELINE 0 MV, SPRED]
SRESWS.OHMM  : SHALLOW RESISTIVITY [SNED]
~Params ----------------------------------------------------
PD  .                     GL : PERMANENT DATUM
EPD .FT                 2162 : ELEVATION PERMANENT DATUM
LMF .                     KB : LOG MEASURED FROM
DAPD.FT                   14 : FEET ABOVE PERMANENT DATUM
EKB .FT                 2176 : KELLY BUSHING
EGL .FT                 2162 : GROUND LEVEL
DATE.               02/20/62 : RUN DATE
RUN .                      1 : RUN NUMBER
DD  .FT                 6173 : DEPTH DRILLER
DL  .FT                 6175 : DEPTH LOGGER
BLI .FT                 6174 : BOTTOM LOG INTERVAL
TLI .FT                  712 : TOP LOG INTERVAL
CBD .FT                  710 : CASING BOTTOM DRILLER
CBL .FT                  712 : CASING BOTTOM LOGGER
BS  .IN                 8.75 : BIT SIZE
BSD .FT                 6173 : BIT SIZE AT DEPTH
DFT .                    GEL : DRILLING FLUID TYPE
DFD .                     10 : DRILLING FLUID DENSITY
DFV .                    108 : DRILLING FLUID VISCOSITY
DFPH.                    9.5 : DRILLING FLUID PH
DFL .                    8.4 : DRILLING FLUID LOSS
RMS .OHMM               1.19 : RESISTIVITY MUD SAMPLE
MST .DEGF                 60 : MUD SAMPLE TEMPERATURE
RMF .OHMM                0.6 : RESISTIVITY MUD FILTRATE SAMPLE
MFST.DEGF                 80 : MUD FILTRATE SAMPLE TEMPERATURE
RMC .OHMM               1.33 : RESISTIVITY MUD CAKE
MCST.DEGF                 80 : MUD CAKE SAMPLE TEMPERATURE
RMB .OHMM               0.59 : RESISTIVITY MUD AT BHT
TCS .HRS                   2 : TIME CIRCULATED STOPPED
LUN .                   3534 : LOGGING UNIT NUMBER
LUL .                    WCT : LOGGING UNIT LOCATION
ENGI.                   GRAY : RECORDING ENGINEER
WITN.                GORRILL : WITNESSED BY
CLNT.                A2DTECH : CLIENT CODE
ORIG.            2" 5" PRINT : ORIGIN OF DATA
UWI .       100101007809W500 : UNIQUE WELL ID
DICO. A2D Technologies, Inc. : DIGITIZING COMPANY
~Other -----------------------------------------------------
~ASCII -----------------------------------------------------
 1000.00000   14.28660  408.87800  397.75670    2.51410    -999.25  149.29120  149.29120   81.06720   81.06720    2.51410   14.28660  162.89400  162.89400    2.13560  -42.62640   -6.99680    2.13560
 1050.00000   13.84230  368.68880  354.22050    2.82310    -999.25  145.24630  145.24630   93.26230   93.26230    2.82310   13.84230  161.34780  161.34780    2.36920  -41.12480   -6.06190    2.36920
 1100.00000   13.28500  251.47170  272.66040    3.66860    -999.25  132.98980  132.98980   86.20230   86.20230    3.66860   13.28500  164.66510  164.66510    3.44410  -39.41520   -4.17280    3.44410
 1150.00000   13.07410  263.77430  277.92450    3.59810    -999.25  140.39720  140.39720   94.32970   94.32970    3.59810   13.07410  165.51060  165.51060    3.07210  -38.90430   -3.48110    3.07210
 1200.00000   11.29310  582.28080  582.28080    1.71740    -999.25  159.43950  159.43950   75.38180   75.38180    1.90960   11.29310  165.06490  165.06490    1.69140  -38.26320   -2.66040    1.69140
 1250.00000    8.86720  262.15220  263.88010    3.78960    -999.25  119.54640  119.54640   36.52910   36.52910    3.78960    8.86720  188.36830  188.36830    3.18030  -60.73230  -24.61290    3.18030
 1300.00000    8.67110  279.25320  311.58470    3.20940    -999.25  119.84980  119.84980   41.54180   41.54180    3.20940    8.67110  202.58700  202.58700    3.82890  -62.59220  -26.16990    3.82890
 1350.00000    9.03530   19.43760   20.27680   49.64380    -999.25   56.49810   56.49810   37.26380   37.26380   49.64380    9.03530  301.27850  301.27850   21.37340  -47.55080  -10.37910   21.37340
 1400.00000    8.63580  189.48780  208.26820    4.80150    -999.25  111.74850  111.74850   46.29460   46.29460    4.80150    8.63580  198.48080  198.48080    5.21810  -62.36070  -23.93640    5.21810
 1450.00000    9.43820  174.01930  180.16400    5.55310    -999.25  108.19440  108.19440   59.37620   59.37620    5.55310    9.43820  192.71580  192.71580    4.34620  -45.86200   -6.17270    4.34620
 1500.00000    9.61180  274.89510  275.96100    3.62370    -999.25  122.31020  122.31020   72.87150   72.87150    3.62370    9.61180  179.48050  179.48050    3.02440  -44.78660   -3.84460    3.02440
 1550.00000    8.79520  221.46870  260.29470    3.84180    -999.25  107.69410  107.69410   51.92730   51.92730    3.84180    8.79520  193.01080  193.01080    4.41540  -57.68020  -16.48410    4.41540
 1600.00000    8.84730  226.89730  230.60100    4.33650    -999.25  117.90610  117.90610   62.23250   62.23250    4.33650    8.84730  184.64330  184.64330    3.70940  -54.34270  -13.08320    3.70940
 1650.00000    8.69180  277.89180  299.61650    3.33760    -999.25  117.42310  117.42310   55.85710   55.85710    3.33760    8.69180  188.81150  188.81150    3.85730  -66.48720  -25.16500    3.85730
 1700.00000    9.02020  222.22690  235.86440    4.24000    -999.25  116.59680  116.59680   55.73300   55.73300    4.24000    9.02020  187.30080  187.30080    3.76500  -62.72630  -21.34090    3.76500
 1750.00000   10.12230  238.70030  252.50610    3.96030    -999.25  116.07420  116.07420   69.12650   69.12650    3.96030   10.12230  173.91240  173.91240    3.51740  -53.46040  -12.01210    3.51740
 1800.00000    9.22390  219.13970  222.95050    4.48530    -999.25   97.68150   97.68150   72.55040   72.55040    4.48530    9.22390  186.69570  186.69570    3.59900  -52.06260  -10.55150    3.59900
 1850.00000    9.38480  113.79830  113.56550    8.80960    -999.25   87.05700   87.05700   45.02400   45.02400    8.80960    9.38480  241.46160  241.46160    7.26970  -66.26140  -24.68700    7.26970
 1900.00000   11.38400  281.94310  279.20480    3.58160    -999.25  119.26340  119.26340   71.42890   71.42890    3.58160   11.38400  173.14820  173.14820    3.19740  -59.10730  -17.47010    3.19740
 1950.00000   10.05500  230.74460  239.83480    4.17140    -999.25  117.99480  117.99480   74.03460   74.03460    4.17140   10.05500  188.61800  188.61800    3.53050  -59.23270  -17.53230    3.53050
 2000.00000   10.11230  146.12450  154.21150    6.48460    -999.25   99.91240   99.91240   44.19300   44.19300    6.48460   10.11230  192.73590  192.73590    5.88850  -57.48550  -15.72220    5.88850
 2050.00000    9.03040    9.23260    8.73330  114.50410    -999.25   71.31790   71.31790   20.31780   20.31780  114.50410    9.03040  250.48720  250.48720   62.60160  -86.91750  -45.09140   62.60160
 2100.00000    8.68030    1.79250    2.00010  499.96380    -999.25   76.05460   76.05460   12.69000   12.69000  499.96380    8.68030  230.79190  230.79190   96.42910  -97.74470  -55.85530   96.42910
 2150.00000    9.63000  296.57360  322.82020    3.09770    -999.25  138.70720  138.70720   85.26210   85.26210    3.09770    9.63000  164.27380  164.27380    5.75010  -51.78520   -9.84310    5.75010
 2200.00000    9.97540  373.07520  429.42320    2.32870    -999.25   98.80210   98.80210   56.00950   56.00950    2.32870    9.97540  182.89790  182.89790    2.63350  -54.70160  -12.89050    2.63350
 2250.00000    9.67430  280.50890  300.64340    3.32620    -999.25   88.83130   88.83130   48.03590   48.03590    3.32620    9.67430  206.54030  206.54030    6.47420  -53.37720  -11.69620    6.47420
 2300.00000    9.40440  133.52690  149.82840    6.67430    -999.25   73.19450   73.19450   46.17390   46.17390    6.67430    9.40440  204.60680  204.60680   14.59880  -55.29100  -13.74010   14.59880
 2350.00000    9.50330  159.50490  165.01580    6.06410    -999.25   70.19600   70.19600   21.31720   21.31720    6.06410    9.50330  242.98660  242.98660    9.99430  -63.52110  -22.10100    9.99430
 2400.00000    9.46100  100.59370  100.10210    9.98980    -999.25   66.51730   66.51730   35.93560   35.93560    9.98980    9.46100  274.80430  274.80430   12.08520  -46.26240   -4.97250   12.08520
 2450.00000    9.55600   45.21690   45.84430   21.87260    -999.25   57.89190   57.89190   16.36840   16.36840   21.87260    9.55600  284.53980  284.53980   30.49260  -68.47550  -27.31650   30.49260
 2500.00000    9.26230  245.53550  259.22180    3.85770    -999.25   84.18310   84.18310   52.58290   52.58290    3.85770    9.26230  224.72640  224.72640    4.84730  -52.88310  -11.85420    4.84730
 2550.00000    9.31740  118.66960  120.36740    8.30790    -999.25   68.21520   68.21520   46.54920   46.54920    8.30790    9.31740  242.17250  242.17250   10.92560  -57.35230  -18.01980   10.92560
 2600.00000    8.40020   94.55310   92.40910   10.82840    -999.25   57.63790   57.63790   14.97710   14.97710   10.82840    8.40020  264.00730  264.00730   26.32980 -104.36730  -66.75590   26.32980
 2650.00000    9.14860   13.04190   11.14430   89.73200    -999.25   54.53400   54.53400   14.24550   14.24550   89.73200    9.14860  376.09080  376.09080   48.20660  -53.77890  -17.87180   48.20660
 2700.00000    9.42810  157.34720  167.73830    5.96170    -999.25   87.42740   87.42740   32.30490   32.30490    5.96170    9.42810  233.87590  233.87590    8.44440  -41.73360   -7.54770    8.44440
 2750.00000    9.09240   61.18800   59.80900   16.71990    -999.25   59.86250   59.86250   24.15180   24.15180   16.71990    9.09240  304.98520  304.98520   21.69810  -55.38670  -22.25640   21.69810
 2800.00000    9.21790   88.80800   91.20430   10.96440    -999.25   66.23840   66.23840   28.37590   28.37590   10.96440    9.21790  279.80380  279.80380   14.18230  -52.81530  -19.81510   14.18230
 2850.00000   10.13690  472.01070  466.42660    2.15060    -999.25   84.82250   84.82250   70.46480   70.46480    2.15060   10.13690  188.02560  188.02560    3.50070  -43.05390  -10.18460    3.50070
 2900.00000    9.15640  103.50580  113.87840    8.78130    -999.25   77.01280   77.01280   30.83010   30.83010    8.78130    9.15640  258.22860  258.22860   13.75150  -38.45150   -5.71230   13.75150
 2950.00000    9.14300  333.02540  330.37100    3.02840    -999.25  110.92750  110.92750  199.16390  199.16390    3.02840    9.14300  176.68080  176.68080    4.48670  -39.36740   -6.56250    4.48670
 3000.00000    8.99710   27.82000   26.41740   37.85380    -999.25   54.59100   54.59100   22.11720   22.11720   37.85380    8.99710  343.37350  343.37350   31.24410  -48.68860  -15.66240   31.24410
