~Version ---------------------------------------------------
VERS.      2.0 : CWLS log ASCII Standard -VERSION 2.0
WRAP.       NO : One line per depth step
CREA. 11/10/17 : LAS Creation Date
~Well ------------------------------------------------------
STRT.FT                        1050.0 : START DEPTH
STOP.FT                       11950.0 : STOP DEPTH
STEP.FT                      50.00000 : STEP LENGTH
NULL.                         -999.25 : NULL VALUE
COMP.        CHEVRON STANDARD LIMITED : COMPANY
WELL. SOBC AMERADA N SIMON 11-6-67-26 : WELL
FLD .                                 : FIELD
LOC .                                 : LOCATION
CTRY.                          CANADA : COUNTRY
SRVC.          Schlumberger of Canada : SERVICE COMPANY
DATE.                     28-Mar-1967 : LOGDATE
PROV.                         Alberta : PROVINCE
UWI .                100110606726W500 : UNIQUE WELL ID
SLAT.WGS84                   54.77215 : SURFACE LATITUDE
SLON.WGS84                  -117.9555 : SURFACE LONGITUDE
~Curve Information -----------------------------------------
DEPT  .FT    : Depth Curve
CALSED.IN    : CALIPER FROM BHC LOG [DEPTH ADJ. TO LL8ED]
CALWS .IN    : CALIPER [TOP MCALED 8838' CALSED TD]
CONDWS.MMHO  : CONDUCTIVITY [1000/DRESWS]
DRESWS.OHMM  : DEEP RESISTIVITY [ILDED]
DTED  .US/F  : DELTA TIME FROM BHC LOG  [DEPTH ADJ. TO LL8ED]
DTWS  .US/F  : DELTA TIME [DTED]
GRSED .GAPI  : GAMMA RAY FROM BHC LOG [DEPTH ADJ. TO LL8ED]
GRWS  .GAPI  : GAMMA RAY [GRSED]
ILDED .OHMM  : INDUCTION LOG DEEP RESISTIVITY FROM DIL LOG
ILMED .OHMM  : INDUCTION LOG MEDIUM RESISTIVITY FROM DIL LOG
LL8ED .OHMM  : LATEROLOG 8 RESISTIVITY FROM DIL LOG
MCALED.IN    : CALIPER MICROLOG FROM MLC LOG [DEPTH ADJ. TO CALSED]
MRESWS.OHMM  : MEDIUM RESISTIVITY [ILMED]
SPRED .MV    : SPONTANEOUS POTENTIAL FROM DIL LOG
SRESWS.OHMM  : SHALLOW RESISTIVITY [LL8ED]
~Params ----------------------------------------------------
PD  .                     GL : PERMANENT DATUM
EPD .FT               2588.1 : ELEVATION PERMANENT DATUM
LMF .                     KB : LOG MEASURED FROM
DAPD.FT                 15.9 : FEET ABOVE PERMANENT DATUM
DMF .                     KB : DRILLING MEASURED FROM
EKB .FT               2604.0 : KELLY BUSHING
EGL .FT               2588.1 : GROUND LEVEL
DATE.               03/28/67 : RUN DATE
RUN .                      2 : RUN NUMBER
DD  .FT                11983 : DEPTH DRILLER
DL  .FT                11980 : DEPTH LOGGER
BLI .FT                11976 : BOTTOM LOG INTERVAL
TLI .FT                 8850 : TOP LOG INTERVAL
CBD .FT                 8849 : CASING BOTTOM DRILLER
CBL .FT                 8850 : CASING BOTTOM LOGGER
BS  .IN                  8.5 : BIT SIZE
BSD .FT                11983 : BIT SIZE AT DEPTH
DFT .               GEL CHEM : DRILLING FLUID TYPE
DFD .                   11.6 : DRILLING FLUID DENSITY
DFV .                     70 : DRILLING FLUID VISCOSITY
DFPH.                   11.0 : DRILLING FLUID PH
MSS .                   CIRC : MUD SAMPLE SOURCE
RMS .OHMM               0.78 : RESISTIVITY MUD SAMPLE
MST .DEGF                 58 : MUD SAMPLE TEMPERATURE
RMF .OHMM               0.47 : RESISTIVITY MUD FILTRATE SAMPLE
MFST.DEGF                 66 : MUD FILTRATE SAMPLE TEMPERATURE
RMC .OHMM               0.63 : RESISTIVITY MUD CAKE
MCST.DEGF                 62 : MUD CAKE SAMPLE TEMPERATURE
RMB .OHMM               0.25 : RESISTIVITY MUD AT BHT
TCS .HRS                 2.5 : TIME CIRCULATED STOPPED
LUN .                   2547 : LOGGING UNIT NUMBER
LUL .                    EDM : LOGGING UNIT LOCATION
ENGI.                   BIGG : RECORDING ENGINEER
WITN.                HOVDEBO : WITNESSED BY
CLNT.                A2DTECH : CLIENT CODE
ORIG.            2" 5" PRINT : ORIGIN OF DATA
UWI .       100110606726W500 : UNIQUE WELL ID
DICO. A2D Technologies, Inc. : DIGITIZING COMPANY
~Other -----------------------------------------------------
~ASCII -----------------------------------------------------
# ...
 5650.00000    -999.25   11.77340  103.88850    9.62570    -999.25    -999.25    -999.25    -999.25    9.62570   12.37320   16.77160   11.77340   12.37320  -77.43760   16.77160
 5700.00000    -999.25   12.73870   67.59910   14.79310    -999.25    -999.25    -999.25    -999.25   14.79310   15.50120   21.00030   12.73870   15.50120  -48.92500   21.00030
 5750.00000    -999.25   12.93700   78.88680   12.67640    -999.25    -999.25    -999.25    -999.25   12.67640   17.55650  114.16530   12.93700   17.55650  -54.36020  114.16530
 5800.00000    -999.25   12.74990   77.08730   12.97230    -999.25    -999.25    -999.25    -999.25   12.97230   15.41460   26.41190   12.74990   15.41460  -62.77550   26.41190
 5850.00000    -999.25   12.83070   78.76930   12.69530    -999.25    -999.25    -999.25    -999.25   12.69530   14.21770   16.49360   12.83070   14.21770  -46.64980   16.49360
 5900.00000    -999.25   12.55030  104.78120    9.54370    -999.25    -999.25    -999.25    -999.25    9.54370   11.79570   18.13190   12.55030   11.79570  -51.55320   18.13190
 5950.00000    -999.25   12.63930  131.89740    7.58160    -999.25    -999.25    -999.25    -999.25    7.58160    8.37570   10.16370   12.63930    8.37570  -36.12380   10.16370
 6000.00000    -999.25   12.92040  100.99580    9.90140    -999.25    -999.25    -999.25    -999.25    9.90140   11.75900   13.96440   12.92040   11.75900  -41.70210   13.96440
 6050.00000    -999.25   12.44730  118.41190    8.44510    -999.25    -999.25    -999.25    -999.25    8.44510   10.96380   19.06400   12.44730   10.96380  -54.12020   19.06400
 6100.00000    -999.25   12.16280  108.05090    9.25490    -999.25    -999.25    -999.25    -999.25    9.25490   13.34350   20.17830   12.16280   13.34350  -76.40990   20.17830
 6150.00000    -999.25   12.52120   92.57120   10.80250    -999.25    -999.25   61.88720   61.88720   10.80250   12.25990   13.55300   12.52120   12.25990  -37.50250   13.55300
 6200.00000    -999.25   12.25480  108.66910    9.20230   78.66850   78.66850   78.69810   78.69810    9.20230   10.54980   11.82880   12.25480   10.54980  -33.67710   11.82880
 6250.00000    -999.25   14.86700  117.03570    8.54440   77.56930   77.56930   71.47340   71.47340    8.54440    9.05570   14.45480   14.86700    9.05570  -29.28170   14.45480
 6300.00000    -999.25   11.58190  133.40630    7.49590   73.42610   73.42610   30.31910   30.31910    7.49590   10.54920   18.25140   11.58190   10.54920  -90.16270   18.25140
 6350.00000    -999.25   11.63380   70.62500   14.15930   64.50840   64.50840   33.24650   33.24650   14.15930   18.87430   38.21820   11.63380   18.87430  -88.43750   38.21820
 6400.00000    -999.25   12.44640   68.88190   14.51760   79.15260   79.15260   76.55130   76.55130   14.51760   12.66860   26.25530   12.44640   12.66860  -33.93170   26.25530
 6450.00000    -999.25   12.60090   38.87040   25.72650   68.27230   68.27230   59.39740   59.39740   25.72650   21.59940   28.24980   12.60090   21.59940  -32.20370   28.24980
 6500.00000    -999.25   13.26440   78.54100   12.73220   87.15050   87.15050   82.02270   82.02270   12.73220    8.86170   17.92660   13.26440    8.86170  -25.94170   17.92660
 6550.00000    -999.25   12.47890   44.41880   22.51300   70.02700   70.02700   73.07530   73.07530   22.51300   20.45150   26.44560   12.47890   20.45150  -29.94840   26.44560
 6600.00000    -999.25   12.48840   35.85950   27.88660   65.73090   65.73090   57.51000   57.51000   27.88660   23.10440   35.69020   12.48840   23.10440  -31.42350   35.69020
 6650.00000    -999.25   12.29680   60.92400   16.41390   66.71750   66.71750   43.37710   43.37710   16.41390   17.08450   21.82270   12.29680   17.08450  -56.35470   21.82270
 6700.00000    -999.25   12.10440  125.83290    7.94710   76.23830   76.23830   32.93340   32.93340    7.94710    9.88010   19.44300   12.10440    9.88010  -57.65050   19.44300
 6750.00000    -999.25   15.94690  369.04450    2.70970   88.42300   88.42300   64.99060   64.99060    2.70970    3.06900    4.31650   15.94690    3.06900  -36.14310    4.31650
 6800.00000    -999.25   14.57940  271.75390    3.67980   87.08380   87.08380   67.16030   67.16030    3.67980    4.13700    4.61500   14.57940    4.13700  -29.56060    4.61500
 6850.00000    -999.25   14.80470  379.59310    2.63440   86.94180   86.94180   64.75770   64.75770    2.63440    3.20530    3.82530   14.80470    3.20530  -30.19040    3.82530
 6900.00000    -999.25   12.27280   15.18320   65.86240   97.39060   97.39060  127.96760  127.96760   65.86240   48.33230  132.88060   12.27280   48.33230  -32.30150  132.88060
 6950.00000    -999.25   12.26850    5.36180  186.50390   83.13110   83.13110  239.77240  239.77240  186.50390   79.48070  358.16940   12.26850   79.48070  -58.29430  358.16940
 7000.00000    -999.25   12.46620  236.88820    4.22140   66.32060   66.32060   50.27780   50.27780    4.22140    6.30930   16.06640   12.46620    6.30930  -79.84400   16.06640
 7050.00000    -999.25   11.70580  223.30900    4.47810   70.01220   70.01220   71.22210   71.22210    4.47810    5.91790   11.50750   11.70580    5.91790  -57.98650   11.50750
 7100.00000    -999.25   12.23260  211.90030    4.71920   68.85990   68.85990   61.72650   61.72650    4.71920    6.66960   14.40030   12.23260    6.66960  -74.95670   14.40030
 7150.00000    -999.25   12.24060  136.00630    7.35260   66.61080   66.61080   65.79500   65.79500    7.35260    7.85160   13.25560   12.24060    7.85160  -60.48170   13.25560
 7200.00000    -999.25   12.24530   71.55870   13.97460   66.42630   66.42630   67.00530   67.00530   13.97460   15.18240   21.46100   12.24530   15.18240  -54.66980   21.46100
 7250.00000    -999.25   12.24070   60.94590   16.40800   63.01260   63.01260   66.37100   66.37100   16.40800   18.65070   25.95650   12.24070   18.65070  -46.53110   25.95650
 7300.00000    -999.25   12.21380   36.11440   27.68980   63.05100   63.05100   48.40430   48.40430   27.68980   24.53010   36.53690   12.21380   24.53010  -56.76810   36.53690
 7350.00000    -999.25   12.28410   44.27330   22.58700   62.92260   62.92260   68.81420   68.81420   22.58700   21.31370   29.59580   12.28410   21.31370  -46.84190   29.59580
 7400.00000    -999.25   12.43310   41.17850   24.28450   62.65410   62.65410   74.29810   74.29810   24.28450   22.29610   35.36680   12.43310   22.29610  -48.99370   35.36680
 7450.00000    -999.25   12.52090   30.20000   33.11260   61.03630   61.03630   58.82110   58.82110   33.11260   28.97000   44.97030   12.52090   28.97000  -53.59070   44.97030
 7500.00000    -999.25   12.51360   23.15330   43.19030   60.18380   60.18380   61.19570   61.19570   43.19030   36.69690   63.72900   12.51360   36.69690  -40.09710   63.72900
 7550.00000    -999.25   12.68490   32.07380   31.17810   63.80820   63.80820   77.82960   77.82960   31.17810   26.37830   42.68930   12.68490   26.37830  -39.93880   42.68930
 7600.00000    -999.25   12.29740   29.53350   33.85990   55.01880   55.01880  143.18000  143.18000   33.85990   30.93370   64.12760   12.29740   30.93370  -69.01740   64.12760
 7650.00000    -999.25   11.71200   48.95460   20.42710   60.71230   60.71230   17.59590   17.59590   20.42710   28.74950   75.51540   11.71200   28.74950 -100.85360   75.51540
 7700.00000    -999.25   11.59740  344.00320    2.90700   59.71040   59.71040   56.83710   56.83710    2.90700    4.02270   21.37580   11.59740    4.02270 -139.17820   21.37580
 7750.00000    -999.25   14.14760   71.96000   13.89660   56.80340   56.80340   45.27160   45.27160   13.89660   15.30880   17.71070   14.14760   15.30880  -48.30620   17.71070
 7800.00000    -999.25   12.69850    7.78480  128.45510   51.36790   51.36790   16.77980   16.77980  128.45510   57.39850  220.21930   12.69850   57.39850  -43.98970  220.21930
 7850.00000    -999.25   12.26510   14.56490   68.65810   52.65410   52.65410   40.89290   40.89290   68.65810   38.61220   94.30450   12.26510   38.61220  -31.59390   94.30450
 7900.00000    -999.25   12.48000   18.34540   54.50970   50.56160   50.56160   27.48320   27.48320   54.50970   42.92380  162.30120   12.48000   42.92380  -49.97090  162.30120
