~Version ---------------------------------------------------
VERS. 2.0 : CWLS log ASCII Standard -VERSION 2.0
WRAP.  NO : ONE LINE PER DEPTH STEP
~Well ------------------------------------------------------
STRT.F                         1200.0 : START DEPTH
STOP.F                        11700.0 : STOP DEPTH
STEP.F                       50.00000 : STEP LENGTH
NULL.                         -999.25 : NULL VALUE
COMP.            MOBIL OIL CANADA LTD : COMPANY
WELL. MOBIL ICG MARSH HEAD 11-3-60-20 : WELL
FLD .                                 : FIELD
LOC .                                 : LOCATION
CTRY.                          CANADA : COUNTRY
SRVC.                    Schlumberger : SERVICE COMPANY
DATE.                     05-Jan-1976 : LOGDATE
PROV.                         Alberta : PROVINCE
UWI .                100110306020W500 : UNIQUE WELL ID
SLAT.WGS84                   54.15991 : SURFACE LATITUDE
SLON.WGS84                  -116.9171 : SURFACE LONGITUDE
~Curve Information -----------------------------------------
DEPT   .F                 : 
CALD   .IN   70 280 01 00 : CALIPER FROM DENSITY LOG
GRD    .GAPI              : GAMMA RAY FROM DENSITY LOG
ILD    .OHMM 07 120 46 00 : DEEP INDUCTION RESISTIVITY
ILM    .OHMM 07 120 44 00 : INDUCTION LOG MEDIUM RESISTIVITY
LL8    .OHMM              : LATEROLOG-8 RESISTIVITY
SPR    .MV                : SPONTANEOUS POTENTIAL FROM RESISTIVITY
DT     .US/F 60 532 00 00 : 3-4 FT COMPENSATED SONIC
DRHO   .G/C3 00 000 00 01 : DENSITY CORRECTION
RHOB   .G/C3 45 350 01 00 : BULK DENSITY
NPHI_LS.DEC               : ENCHANCED THERMAL NEUTRON POROSITY IN SELECTED LITHOLOGY SANDSTONE
DPHI_LS.DEC  45 890 10 00 : DENSITY POROSITY LIMESTONE
CALS   .IN                : CALIPER FROM SONIC LOG
GRS    .GAPI              : GAMMA RAY FROM SONIC LOG
~Params ----------------------------------------------------
PD  .                     GL : PERMANENT DATUM
EPD .FT               3132.5 : ELEVATION PERMANENT DATUM
LMF .                     KB : LOG MEASURED FROM
DAPD.FT                 14.5 : FEET ABOVE PERMANENT DATUM
EKB .FT                 3147 : KELLY BUSHING
EGL .FT               3132.5 : GROUND LEVEL
DATE.               01/05/76 : RUN DATE
RUN .                      1 : RUN NUMBER
DD  .FT                11725 : DEPTH DRILLER
DL  .FT                11730 : DEPTH LOGGER
BLI .FT                11724 : BOTTOM LOG INTERVAL
TLI .FT                 1203 : TOP LOG INTERVAL
CBD .FT                 1203 : CASING BOTTOM DRILLER
CBL .FT                 1203 : CASING BOTTOM LOGGER
BS  .IN                 8.75 : BIT SIZE
BSD .FT                11725 : BIT SIZE AT DEPTH
DFT .                    GEL : DRILLING FLUID TYPE
DFD .                    9.6 : DRILLING FLUID DENSITY
DFV .                    110 : DRILLING FLUID VISCOSITY
DFPH.                   10.5 : DRILLING FLUID PH
DFL .                    9.8 : DRILLING FLUID LOSS
MSS .               FLOWLINE : MUD SAMPLE SOURCE
RMS .OHMM               2.42 : RESISTIVITY MUD SAMPLE
MST .DEGF                 74 : MUD SAMPLE TEMPERATURE
RMF .OHMM               1.63 : RESISTIVITY MUD FILTRATE SAMPLE
MFST.DEGF                 74 : MUD FILTRATE SAMPLE TEMPERATURE
RMB .OHMM               0.67 : RESISTIVITY MUD AT BHT
TCS .HRS                   3 : TIME CIRCULATED STOPPED
LUN .                   7658 : LOGGING UNIT NUMBER
LUL .                     RD : LOGGING UNIT LOCATION
ENGI.              DODSWORTH : RECORDING ENGINEER
WITN.   OLINYK LINDENSCHMIDT : WITNESSED BY
CLNT.                A2DTECH : CLIENT CODE
ORIG.            2" 5" PRINT : ORIGIN OF DATA
UWI .       100110306020W500 : UNIQUE WELL ID
DICO. A2D Technologies, Inc. : DIGITIZING COMPANY
~Other -----------------------------------------------------
~ASCII -----------------------------------------------------
# ...
 3800.00000   11.42650   62.02810    7.71990    6.45820    7.50400  -98.86410   91.12810    0.16130    2.11580    0.30410    0.36610    9.65170   65.40690
 3850.00000   11.22310   53.10360   11.34320    9.48660   10.71640  -97.63490   84.69530    0.01510    2.34240    0.21940    0.20620    9.67730   57.20760
 3900.00000   12.75960   63.88070    8.61830    7.77650    8.77740  -95.45270   90.96460    0.04950    2.27470    0.25960    0.25530   10.33540   65.51740
 3950.00000   11.66910   48.95020    7.19480    6.07580    5.62770  -96.95500   84.55580    0.08380    2.32950    0.20810    0.23180   10.02570   59.26150
 4000.00000   14.30560   71.91410    5.61570    4.50140    5.03290  -98.23620   90.47630    0.06280    2.28470    0.29000    0.27990   10.50220   66.29230
 4050.00000   13.70730   71.80600    6.90690    6.18660    7.22990  -96.10870   89.45900    0.09930    2.22860    0.24430    0.27260   10.06770   72.20280
 4100.00000   11.28250   79.89030    3.82430    3.10290    3.82510  -98.04110   89.71870    0.15100    2.15120    0.32030    0.30220    9.59950   69.44610
 4150.00000    9.76580   37.41490   54.16060   47.73310   67.55690 -115.25250   74.78680    0.13070    2.37310    0.20080    0.19420    9.09220   38.01370
 4200.00000   10.23520   35.89950    9.07680    7.09430    9.33860 -102.54650   75.62180    0.06020    2.39610    0.19370    0.17570    9.54700   52.32200
 4250.00000   10.93440   63.53790   12.19480   10.10860   10.61890 -104.09290   78.86150    0.01710    2.46490    0.21660    0.13560    9.55660   57.88300
 4300.00000   10.73010   68.08600   10.82360    8.94280   10.29560 -100.05350   81.57710    0.04280    2.52410    0.19180    0.10640    9.73920   67.52670
 4350.00000   11.43840   75.72560    7.28900    6.68760    8.22670  -99.24120   89.15040    0.03680    2.45270    0.28100    0.15170    9.94000   68.86800
 4400.00000   12.97790   90.09040   10.45060    8.79760    9.95880 -100.13900   79.88850    0.04550    2.52450    0.21410    0.11520   10.16490   81.52530
 4450.00000   14.94020   99.02720    9.12660    8.17720    9.55970 -100.98400   83.61900    0.03190    2.43620    0.24090    0.16070   10.39530   97.29500
 4500.00000   11.88290   97.55590    9.43370    8.40570   10.16160 -101.35250   81.36460    0.02440    2.38670    0.21480    0.19490    9.48700   87.85760
 4550.00000   11.28910  103.19800    8.61420    7.77960   10.01250 -100.08240   85.76830    0.15550    2.05750    0.26190    0.38090    9.50020   96.24920
 4600.00000   11.87550  135.68010   11.04120    9.94560   13.82560  -99.10900   90.43510    0.01820    2.36470    0.32030    0.23040    9.99820  121.91420
 4650.00000   10.86430   94.93820   13.57570   12.39870   16.28160  -99.33360   79.77680    0.22200    2.30010    0.20220    0.25290    9.71080   92.60760
 4700.00000   11.43170   95.43030   12.76990   11.51550   15.10050 -101.62270   82.57680    0.16520    2.09980    0.25070    0.35520    9.49380   88.07150
 4750.00000   11.76620  100.56270   10.85980    9.75250   11.88220  -99.91060   81.82120    0.19670    2.08190    0.25980    0.37320    9.56200   91.22250
 4800.00000   12.46330  102.10650    7.87680    7.24830    8.54890  -98.96820   85.24380    0.13820    1.95950    0.27830    0.44960    9.49430   92.39480
 4850.00000   12.37880   97.59500    9.45070    8.44820   11.19550  -97.83890   83.30140    0.15930    1.97540    0.24840    0.44050    9.74020   90.67370
 4900.00000   12.60410   96.33310    9.63800    8.52080   10.14580  -98.21330   83.18340    0.16550    2.03250    0.23520    0.40380    9.70640   94.14510
 4950.00000   11.20760   97.10430    8.72690    8.11510    9.15810  -99.56050   76.02620    0.10280    2.34010    0.19590    0.20720    9.48090   95.48370
 5000.00000   11.59480   99.03360    9.18910    8.25630    9.67500  -97.24640   80.13990    0.18460    2.13610    0.24510    0.35660   10.13920   91.87570
 5050.00000   12.60750  103.00680    8.29700    7.77500    8.89510  -96.61960   79.97460    0.15390    2.08580    0.24920    0.35550   10.02640   93.95210
 5100.00000   12.03310  105.04490    8.86370    8.15100    9.85260  -95.85810   83.68770    0.16370    1.98270    0.28290    0.40180    9.96600   98.71850
 5150.00000   11.22890  105.60390   10.29490    9.19560   10.51890  -96.11380   78.59390    0.16630    2.15670    0.22530    0.35130    9.43690   98.81330
 5200.00000   11.34260   67.98000   15.12100   12.75250   16.21380 -108.58590   74.65470    0.15710    2.28330    0.16150    0.26970    9.47220   68.31540
 5250.00000   11.02900   97.47850   12.79310   11.75650   13.25960  -94.17940   76.49390    0.22350    2.23970    0.19120    0.27240    9.49220   90.69190
 5300.00000   11.74510   97.77970   15.21800   13.82440   16.07510  -94.26770   73.34610    0.23120    2.30220    0.15060    0.23970    9.47460   89.18560
 5350.00000   12.09160  100.28590   12.54330   11.34220   13.54710  -93.55190   77.33750    0.20120    2.08640    0.21960    0.37310    9.84290   91.12320
 5400.00000   12.88910   92.62100   11.17660   10.17520   12.15390  -92.94170   77.97010    0.21260    2.04580    0.23100    0.39220    9.85010   87.81200
 5450.00000   12.51210  102.90710    9.31940    8.85640   10.60220  -92.32890   80.26970    0.15770    1.94450    0.25230    0.45020    9.86120  101.63750
 5500.00000   11.39450   95.72300   10.97660    9.81560   12.00130  -91.56650   79.76650    0.20710    2.13010    0.19610    0.35060    9.47730   94.82000
 5550.00000   11.07670  122.95950    9.76800    8.56250   11.08930  -89.59740   89.42850    0.17450    2.13800    0.28080    0.32470    9.47290  110.15260
 5600.00000   10.45510  121.38680   12.83210   11.71810   15.61950  -88.83360   87.30850    0.22370    2.30220    0.25800    0.23690    9.49410  113.89150
 5650.00000   10.54260  119.52580   12.13940   11.50240   15.94670  -87.77880   87.95130    0.19030    2.26870    0.27950    0.29800    9.49350  114.41660
 5700.00000   10.61730  111.96440   20.93450   21.04790   26.98310  -88.15990   88.66020    0.23610    2.41380    0.24490    0.17950    9.49610  108.73650
 5750.00000   10.59890  119.08470   16.44910   15.18340   22.65110  -87.40280   90.32540    0.23590    2.36470    0.26780    0.20990    9.50030  107.25820
 5800.00000   11.33140  131.77420   16.62620   13.02130   17.23960  -86.91890   90.27660    0.24180    2.42540    0.26990    0.16970    9.49030  116.63450
 5850.00000   10.46460  109.60680   33.22210   28.02540   46.19030  -87.11300   84.91570    0.01340    2.51180    0.19480    0.11230    9.49330  105.65730
 5900.00000   11.32460  105.36040   10.16710    9.78820   13.53670  -85.65430   89.92270    0.10700    2.20640    0.29160    0.28500    9.48180  105.68880
 5950.00000   10.96690   91.53390   13.95810   13.47260   18.54200  -84.77700   79.57610    0.19550    2.32050    0.21180    0.20930    9.51940  107.43020
 6000.00000   11.51480   90.11230   12.08210    8.56690   10.02850  -83.89340   78.15850    0.20130    2.22080    0.20450    0.26960    9.50400   93.48560
 6050.00000    9.67210   91.45220    8.59530   10.97330   13.30590  -83.61990   73.04390    0.03020    2.53780    0.17780    0.10820    9.49770   83.80620
 6100.00000   10.28700  109.05190    9.73890    9.23540   10.71330  -81.12630   80.55040    0.06030    2.48440    0.24440    0.12480    9.48710  104.95640
 6150.00000   10.34570  104.62960   13.20440   10.57850   12.81360  -80.87260   77.56710    0.03630    2.48450    0.24060    0.12330    9.51790  103.90300
 6200.00000   10.10540  105.96750   13.10300   11.21600   13.41190  -77.80780   77.18830    0.03080    2.52800    0.22830    0.10880    9.58140  101.72130
 6250.00000   11.27910   95.86560    7.97290    5.93250    7.56550  -76.03470   84.83920    0.10400    2.35090    0.32280    0.20590   10.25130   98.60040
 6300.00000   12.07750  103.98590    8.67610    8.24850    9.82680  -77.60330   81.59430    0.11430    2.36840    0.27940    0.18750   10.73120  121.22290
 6350.00000   13.99320  118.09960    6.67200    6.40880    9.15360  -76.35820   89.54140    0.15790    2.08200    0.34040    0.37190    9.95230  126.70180
