~Version ---------------------------------------------------
VERS.      2.0 : CWLS log ASCII Standard -VERSION 2.0
WRAP.       NO : One line per depth step
CREA. 12/14/17 : LAS Creation Date
~Well ------------------------------------------------------
STRT.FT                            1000.0 : START DEPTH
STOP.FT                            6150.0 : STOP DEPTH
STEP.FT                          50.00000 : STEP LENGTH
NULL.                             -999.25 : NULL VALUE
COMP. SHELL OIL COMPANY OF CANADA LIMITED : COMPANY
WELL.       SHELL ET AL NIPISI 10-10-78-9 : WELL
FLD .                                     : FIELD
LOC .                                     : LOCATION
CTRY.                              CANADA : COUNTRY
SRVC.                        Schlumberger : SERVICE COMPANY
DATE.                         20-Feb-1962 : LOGDATE
PROV.                             Alberta : PROVINCE
UWI .                    100101007809W500 : UNIQUE WELL ID
SLAT.WGS84                       55.74661 : SURFACE LATITUDE
SLON.WGS84                      -115.3035 : SURFACE LONGITUDE
~Curve Information -----------------------------------------
DEPT  .FT    : Depth Curve
CALWS .IN    : CALIPER [MCALED]
CILDED.MMHO  : CONDUCTIVITY INDUCTION LOG DEEP FROM IEL LOG
CONDWS.MMHO  : CONDUCTIVITY [1000/DRESWS]
DRESWS.OHMM  : DEEP RESISTIVITY [1000/CILDED IF ILDED<2, ILDED]
DT1ED .US/F  : DELTA TIME 1 FT SPAN FROM BHC LOG
DTED  .US/F  : DELTA TIME 3 FT SPAN FROM BHC LOG
DTWS  .US/F  : COMPRESSIONAL SONIC [DTED]
GRNED .GAPI  : GAMMA RAY FROM GRN LOG
GRWS  .GAPI  : GAMMA RAY [GRNED]]
ILDED .OHMM  : DEEP INDUCTION FROM IEL LOG
MCALED.IN    : MLT CALIPER FROM MICRO LOG
NEUTED.CPS   : NEUTRON FROM GRN LOG
NEUTWS.CPS   : NEUTRON POROSITY [NEUTED]
SNED  .OHMM  : SHORT NORMAL 16" FROM IEL LOG
SPRED .MV    : SPONTANEOUS POTENTIAL FROM IEL LOG
SPWS  .MV    : SPONTANEOUS POTENTIAL [BASELINE 0 MV, SPRED]
SRESWS.OHMM  : SHALLOW RESISTIVITY [SNED]
~Params ----------------------------------------------------
PD  .                     GL : PERMANENT DATUM
EPD .FT                 2162 : ELEVATION PERMANENT DATUM
LMF .                     KB : LOG MEASURED FROM
DAPD.FT                   14 : FEET ABOVE PERMANENT DATUM
EKB .FT                 2176 : KELLY BUSHING
EGL .FT                 2162 : GROUND LEVEL
DATE.               02/20/62 : RUN DATE
RUN .                      1 : RUN NUMBER
DD  .FT                 6173 : DEPTH DRILLER
DL  .FT                 6175 : DEPTH LOGGER
BLI .FT                 6174 : BOTTOM LOG INTERVAL
TLI .FT                  712 : TOP LOG INTERVAL
CBD .FT                  710 : CASING BOTTOM DRILLER
CBL .FT                  712 : CASING BOTTOM LOGGER
BS  .IN                 8.75 : BIT SIZE
BSD .FT                 6173 : BIT SIZE AT DEPTH
DFT .                    GEL : DRILLING FLUID TYPE
DFD .                     10 : DRILLING FLUID DENSITY
DFV .                    108 : DRILLING FLUID VISCOSITY
DFPH.                    9.5 : DRILLING FLUID PH
DFL .                    8.4 : DRILLING FLUID LOSS
RMS .OHMM               1.19 : RESISTIVITY MUD SAMPLE
MST .DEGF                 60 : MUD SAMPLE TEMPERATURE
RMF .OHMM                0.6 : RESISTIVITY MUD FILTRATE SAMPLE
MFST.DEGF                 80 : MUD FILTRATE SAMPLE TEMPERATURE
RMC .OHMM               1.33 : RESISTIVITY MUD CAKE
MCST.DEGF                 80 : MUD CAKE SAMPLE TEMPERATURE
RMB .OHMM               0.59 : RESISTIVITY MUD AT BHT
TCS .HRS                   2 : TIME CIRCULATED STOPPED
LUN .                   3534 : LOGGING UNIT NUMBER
LUL .                    WCT : LOGGING UNIT LOCATION
ENGI.                   GRAY : RECORDING ENGINEER
WITN.                GORRILL : WITNESSED BY
CLNT.                A2DTECH : CLIENT CODE
ORIG.            2" 5" PRINT : ORIGIN OF DATA
UWI .       100101007809W500 : UNIQUE WELL ID
DICO. A2D Technologies, Inc. : DIGITIZING COMPANY
~Other -----------------------------------------------------
~ASCII -----------------------------------------------------
# ...
 3050.00000    8.66620   65.61910   64.04840   15.61320    -999.25   58.42230   58.42230   18.78840   18.78840   15.61320    8.66620  291.53240  291.53240   41.68130 -109.34590  -76.09740   41.68130
 3100.00000    9.08710   22.83150   23.15780   43.18380    -999.25   53.57150   53.57150   19.38930   19.38930   43.18380    9.08710  344.90850  344.90850   40.98190  -72.85300  -39.38100   40.98190
 3150.00000    8.99910   24.21360   24.14720   41.41270    -999.25   53.25360   53.25360   14.46780   14.46780   41.41270    8.99910  331.58400  331.58400   63.33300  -96.44390  -62.75060   63.33300
 3200.00000    8.98720   52.27380   52.54060   19.04240    -999.25   57.76870   57.76870   18.26340   18.26340   19.04240    8.98720  283.85620  283.85620   36.84760  -90.37920  -56.46250   36.84760
 3250.00000    8.57880   64.45440   64.99500   15.38580    -999.25   59.29570   59.29570   17.56910   17.56910   15.38580    8.57880  295.86800  295.86800   40.47130 -113.73450  -79.59650   40.47130
 3300.00000    8.55830   64.97480   65.08890   15.36360    -999.25   56.85270   56.85270   15.53150   15.53150   15.36360    8.55830  275.48940  275.48940   43.07070 -114.84910  -80.48870   43.07070
 3350.00000    8.96010   23.20440   24.10790   41.48810    -999.25   51.48090   51.48090   11.04490   11.04490   41.48810    8.96010  340.02470  340.02470   57.49770 -101.25650  -66.67270   57.49770
 3400.00000    8.32830  118.37240  123.65680    8.08690    -999.25   58.65570   58.65570   13.73500   13.73500    8.08690    8.32830  278.63660  278.63660   28.74730 -112.87560  -78.07050   28.74730
 3450.00000    9.01120   24.48780   21.96390   45.72800    -999.25   52.05430   52.05430   15.22660   15.22660   45.72800    9.01120  331.32720  331.32720   48.92290  -89.38740  -54.35880   48.92290
 3500.00000    8.70610   39.16280   38.24460   26.14750    -999.25   53.07630   53.07630   15.03120   15.03120   26.14750    8.70610  301.04970  301.04970   55.54500 -111.56620  -76.31640   55.54500
 3550.00000    8.99030   29.43140   28.17160   35.49670    -999.25   55.75240   55.75240   14.29870   14.29870   35.49670    8.99030  317.71300  317.71300   50.79350  -90.86010  -55.38790   50.79350
 3600.00000    8.98690   25.36210   27.44380   36.46960    -999.25   52.27430   52.27430   13.69830   13.69830   36.46960    8.98690  334.83550  334.83550   55.12200  -97.23870  -61.54310   55.12200
 3650.00000    8.72070   17.88840   17.73370   56.38980    -999.25   53.66390   53.66390   12.98830   12.98830   56.38980    8.72070  351.46870  351.46870   72.06930  -99.76290  -63.84600   72.06930
 3700.00000    8.89810   24.55690   24.22470   41.28070    -999.25   51.05700   51.05700   14.06820   14.06820   41.28070    8.89810  328.14840  328.14840   62.84200 -106.67450  -70.53410   62.84200
 3750.00000    8.80760   19.02020   19.05850   52.47000    -999.25   50.13090   50.13090   13.25440   13.25440   52.47000    8.80760  353.68620  353.68620   69.09880 -104.12860  -67.76690   69.09880
 3800.00000    8.54460   55.30460   50.62390   19.75350    -999.25   51.67530   51.67530   15.63230   15.63230   19.75350    8.54460  294.10880  294.10880   45.94650 -113.40350  -76.81950   45.94650
 3850.00000    9.20240  177.19700  198.56990    5.03970    -999.25   70.09910   70.09910   53.39250   53.39250    5.03970    9.20240  249.98370  249.98370   10.38040  -61.74710  -24.93950   10.38040
 3900.00000    8.82180  213.23450  205.72320    4.86090    -999.25   62.97110   62.97110   45.39310   45.39310    4.86090    8.82180  214.03340  214.03340   10.83920  -84.04240  -47.01360   10.83920
 3950.00000    8.46620   65.85560   66.60570   15.01810    -999.25   53.42750   53.42750   23.35050   23.35050   15.01810    8.46620  243.36450  243.36450   27.54460 -102.57700  -65.32480   27.54460
 4000.00000    8.56170   53.09950   51.56900   19.39150    -999.25   53.63470   53.63470   19.40350   19.40350   19.39150    8.56170  262.20920  262.20920   31.05120  -74.85070  -37.37720   31.05120
 4050.00000    8.97690   43.38130   43.68220   22.89260    -999.25   55.43050   55.43050   23.25270   23.25270   22.89260    8.97690  323.96980  323.96980   27.95470  -70.35790  -32.66200   27.95470
 4100.00000    8.41630  301.32160  308.95380    3.23970    -999.25   60.25610   60.25610   26.59320   26.59320    3.23970    8.41630  252.58440  252.58440   17.62250 -110.35160  -72.43230   17.62250
 4150.00000    8.32290  535.95420  481.92770    2.07500    -999.25   69.94080   69.94080   45.19080   45.19080    2.07500    8.32290  205.42790  205.42790    9.91470 -100.36930  -62.22870    9.91470
 4200.00000    8.98230   29.87820   28.79110   34.73450    -999.25   55.88900   55.88900   23.16720   23.16720   34.73450    8.98230  330.29860  330.29860   33.92600  -51.92480  -13.56080   33.92600
 4250.00000    9.62620  234.99000  201.95490    4.95160    -999.25   62.06350   62.06350   64.37010   64.37010    4.95160    9.62620  194.57590  194.57590    5.89150  -53.02930  -12.82910    5.89150
 4300.00000   12.63330  296.52010  289.65360    3.45240    -999.25   98.92540   98.92540   64.62130   64.62130    3.45240   12.63330  185.67190  185.67190    4.34400  -61.57290  -20.27880    4.34400
 4350.00000   14.23700  402.17170  379.96900    2.63180    -999.25  103.46840  103.46840   88.10060   88.10060    2.63180   14.23700  186.85780  186.85780    3.47700  -63.17860  -21.95540    3.47700
 4400.00000   13.40220  443.42340  415.76580    2.40520    -999.25  102.05340  102.05340   86.90290   86.90290    2.40520   13.40220  177.50340  177.50340    3.23600  -55.92220  -14.76910    3.23600
 4450.00000   13.60950  414.67920  379.16070    2.63750    -999.25   98.95400   98.95400   87.63530   87.63530    2.63750   13.60950  180.50370  180.50370    3.46810  -53.70410  -12.62200    3.46810
 4500.00000   12.18910  387.97300  350.70490    2.85140    -999.25   96.03370   96.03370   83.80520   83.80520    2.85140   12.18910  180.95230  180.95230    3.72290  -53.96780  -12.95570    3.72290
 4550.00000   14.19210  394.49880  360.77640    2.77180    -999.25   94.29420   94.29420   87.08810   87.08810    2.77180   14.19210  186.60030  186.60030    3.52500  -61.08620  -20.14490    3.52500
 4600.00000   12.28060  364.33970  337.55280    2.96250    -999.25   93.20390   93.20390   73.97010   73.97010    2.96250   12.28060  182.88530  182.88530    3.85280  -63.24430  -22.37420    3.85280
 4650.00000   11.99420  316.23590  301.80480    3.31340    -999.25   87.25370   87.25370   62.55940   62.55940    3.31340   11.99420  190.32560  190.32560    4.39390  -53.24880  -12.44860    4.39390
 4700.00000   11.77210  365.09410  340.42560    2.93750    -999.25   91.88670   91.88670   77.88070   77.88070    2.93750   11.77210  190.97130  190.97130    3.61130  -65.16050  -24.43130    3.61130
 4750.00000   14.82790  430.86560  422.10120    2.36910    -999.25  102.70810  102.70810   73.09860   73.09860    2.36910   14.82790  187.07290  187.07290    3.02080  -62.18620  -21.52700    3.02080
 4800.00000    8.99950   53.35870   40.13600   24.91530    -999.25   47.54650   47.54650   32.82640   32.82640   24.91530    8.99950  273.71680  273.71680   16.44860  -60.34180  -19.94260   16.44860
 4850.00000    9.00420  107.22280  118.68550    8.43920    -999.25   67.66220   67.66220   37.50360   37.50360    8.43920    9.00420  288.13590  288.13590   15.91860  -47.70780   -8.18370   15.91860
 4900.00000    8.93420   52.25070   52.10150   19.19330    -999.25   57.47480   57.47480   20.67830   20.67830   19.19330    8.93420  317.99740  317.99740   21.47510  -67.01860  -28.36340   21.47510
 4950.00000    9.01610   72.71890   75.15510   13.30980    -999.25   61.89410   61.89410   32.67350   32.67350   13.30980    9.01610  280.85000  280.85000   16.41940  -46.13350   -8.35340   16.41940
 5000.00000    9.53160  162.45780  169.74470    5.89120    -999.25   74.67420   74.67420   58.98370   58.98370    5.89120    9.53160  217.40990  217.40990    8.42970  -46.04590   -9.13470    8.42970
 5050.00000    9.06220   90.98570   90.12340   11.09590    -999.25   64.76950   64.76950   42.32280   42.32280   11.09590    9.06220  269.65970  269.65970   13.52920  -40.31950   -4.27800   13.52920
