~Version ---------------------------------------------------
VERS.      2.0 : CWLS log ASCII Standard -VERSION 2.0
WRAP.       NO : One line per depth step
CREA. 10/01/14 : LAS Creation Date
~Well ------------------------------------------------------
STRT.FT                                  935.9 : START DEPTH
STOP.FT                                 9375.9 : STOP DEPTH
STEP.FT                                0.50000 : STEP LENGTH
NULL.                                  -999.25 : NULL VALUE
COMP. THE BRITISH AMERICAN OIL COMPANY LIMITED : COMPANY
WELL.        B.A. EAST GOOSE RIVER 10-22-66-15 : WELL
FLD .                                          : FIELD
LOC .                                          : LOCATION
CTRY.                                   CANADA : COUNTRY
SRVC.                   Schlumberger of Canada : SERVICE COMPANY
DATE.                              16-Mar-1960 : LOGDATE
PROV.                                  Alberta : PROVINCE
UWI .                         100102206615W500 : UNIQUE WELL ID
SLAT.WGS84                            54.72873 : SURFACE LATITUDE
SLON.WGS84                           -116.1771 : SURFACE LONGITUDE
~Curve Information -----------------------------------------
DEPT.FT      : DEPTH FEET
CILD.MMHO    : CONDUCTIVITY FROM RESISTIVITY LOG
DT  .US/F    : DELTA-T FROM SONIC LOG
GRS .MG/TON  : GAMMA RAY FROM SONIC LOG
ILD .OHMM    : DEEP INDUCTION FROM RESISTIVITY LOG
MCAL.IN      : MLT CALIPER FROM MICRO LOG
SN  .OHMM    : SHORT NORMAL FROM RESISTIVITY LOG
SPR .MV      : SPONTANEOUS POTENTIAL FROM RESISTIVITY LOG
~Params ----------------------------------------------------
LMF .                     KB : LOG MEASURED FROM
DMF .                     KB : DRILLING MEASURED FROM
EKB .FT                 3222 : KELLY BUSHING
EGL .FT                 3205 : GROUND LEVEL
DATE.               03/16/60 : RUN DATE
RUN .                      2 : RUN NUMBER
DD  .FT                 9370 : DEPTH DRILLER
DL  .FT                 9378 : DEPTH LOGGER
BLI .FT                 9373 : BOTTOM LOG INTERVAL
TLI .FT                 5000 : TOP LOG INTERVAL
CBD .FT                  975 : CASING BOTTOM DRILLER
BS  .IN                    9 : BIT SIZE
BSD .FT                 9370 : BIT SIZE AT DEPTH
DFT .                    GEL : DRILLING FLUID TYPE
DFD .                     10 : DRILLING FLUID DENSITY
DFV .                    120 : DRILLING FLUID VISCOSITY
DFPH.                     10 : DRILLING FLUID PH
DFL .                    6.2 : DRILLING FLUID LOSS
RMS .OHMM                2.8 : RESISTIVITY MUD SAMPLE
MST .DEGF                 59 : MUD SAMPLE TEMPERATURE
RMF .OHMM               1.41 : RESISTIVITY MUD FILTRATE SAMPLE
MFST.DEGF                 68 : MUD FILTRATE SAMPLE TEMPERATURE
RMC .OHMM               2.56 : RESISTIVITY MUD CAKE
MCST.DEGF                 67 : MUD CAKE SAMPLE TEMPERATURE
RMB .OHMM               0.94 : RESISTIVITY MUD AT BHT
TCS .HRS                 4.5 : TIME CIRCULATED STOPPED
LUN .                  1573C : LOGGING UNIT NUMBER
LUL .                     WC : LOGGING UNIT LOCATION
ENGI.              HAUSEGGER : RECORDING ENGINEER
WITN.                   COTE : WITNESSED BY
CLNT.                A2DTECH : CLIENT CODE
ORIG.            2" 5" PRINT : ORIGIN OF DATA
UWI .       100102206615W500 : UNIQUE WELL ID
DICO. A2D Technologies, Inc. : DIGITIZING COMPANY
~Other -----------------------------------------------------
~ASCII -----------------------------------------------------
# ...
 1520.90000  292.82630  123.33140    3.85370    3.49440   12.33650    3.21210  -40.79570
 1521.40000  293.25020  120.67980    3.78450    3.48910   12.68600    3.21170  -40.81230
 1521.90000  296.20230  115.08710    3.43970    3.47320   13.02520    3.21030  -40.84410
 1522.40000  300.02520  115.18620    3.48770    3.46790   12.26970    3.20990  -40.86340
 1522.90000  302.94020  120.05020    3.65550    3.52830   10.88930    3.25980  -40.98320
 1523.40000  301.68160  123.96420    3.68420    3.57250   10.96370    3.33620  -41.00650
 1523.90000  294.22030  129.86780    3.73490    3.74360   13.38830    3.56530  -41.04080
 1524.40000  288.41640  130.01820    3.71870    3.81130   13.81000    3.64170  -41.06420
 1524.90000  268.54690  131.59680    3.70310    4.01450   14.49610    3.83710  -41.17090
 1525.40000  260.48230  129.69960    3.84560    4.09310   14.63740    3.92620  -41.23250
 1525.90000  237.03680  120.57470    3.89910    4.37890   12.21140    4.19260  -41.85950
 1526.40000  231.22700  118.49370    3.79900    4.48240   11.77750    4.32180  -42.33920
 1526.90000  216.70730  117.63630    3.63390    4.79320   11.01100    4.64810  -43.47700
 1527.40000  213.24240  117.57810    3.75130    4.89670   10.74940    4.71590  -43.88890
 1527.90000  201.79800  114.16600    4.08410    5.21220    9.97830    4.96180  -45.10250
 1528.40000  192.44770  113.45390    3.94300    5.42460    9.76400    5.15900  -45.68750
 1528.90000  182.03450  113.58430    3.86320    5.63700    9.28640    5.35630  -45.64390
 1529.40000  174.11320  113.60650    3.77910    5.84940    9.11080    5.55270  -45.57150
 1529.90000  168.94980  112.39090    3.57060    6.11020    9.12370    5.74690  -46.25880
 1530.40000  163.57250  111.56110    3.73630    6.43970    8.57340    6.13200  -48.06560
 1530.90000  156.67160  112.06620    3.87470    6.79280    8.41080    6.58730  -50.42200
 1531.40000  147.97270  111.13400    3.70220    7.22990    8.77230    7.07330  -52.82890
 1531.90000  136.70480  111.42790    3.61530    7.45150    8.88010    7.31350  -53.53090
 1532.40000  126.94650  111.25540    3.38900    8.18070    8.99460    7.92950  -55.01730
 1532.90000  122.60330  110.80790    3.35580    8.43450    8.86510    8.11200  -55.27850
 1533.40000  114.17650  110.40570    3.10710    9.05090    8.35750    8.33870  -56.33570
 1533.90000  114.21810  111.15800    3.00080    9.01520    8.41270    8.33980  -56.70530
 1534.40000  118.57560  113.24210    2.71210    8.46700    8.74540    7.84750  -57.34580
 1534.90000  122.94420  113.58560    2.66280    8.08280    8.91460    7.47630  -57.15870
 1535.40000  141.37750  113.73130    2.74780    6.93020    9.07330    6.36270  -55.59440
 1535.90000  149.44160  113.70480    2.77580    6.54600    9.06320    5.99150  -54.45090
 1536.40000  176.62700  114.31350    2.83230    5.52640    8.87650    4.98650  -50.59820
 1536.90000  187.03600  114.61500    2.92930    5.23130    8.85700    4.73190  -48.92390
 1537.40000  219.21070  117.39760    3.25180    4.50140   10.71070    3.97420  -44.06930
 1537.90000  231.96240  120.27000    3.31390    4.34030   11.65710    3.87100  -43.33760
 1538.40000  263.25980  128.09370    3.47460    3.90110   12.85280    3.56150  -41.95180
 1538.90000  279.10020  128.98950    3.62620    3.64160   11.20980    3.38720  -41.71000
 1539.40000  288.83990  129.04890    3.76180    3.56620   12.09110    3.36000  -41.62290
 1539.90000  292.24220  130.97590    3.77160    3.51590   12.21740    3.33380  -41.43360
 1540.40000  292.95940  128.82540    3.64450    3.51500   11.40280    3.31250  -40.82340
 1540.90000  292.38150  125.17730    3.70540    3.51410   11.39880    3.29130  -40.68220
 1541.40000  292.33100  122.44850    3.60650    3.51320   12.01550    3.29900  -40.75880
 1541.90000  293.10750  126.19180    3.75320    3.51230   12.12060    3.33010  -41.00960
 1542.40000  295.87450  129.06520    3.90210    3.52870   11.25520    3.34570  -40.98450
 1542.90000  296.40700  130.77480    4.29940    3.58390   10.19600    3.38150  -40.75570
 1543.40000  294.97530  130.69750    4.28490    3.60330   10.80220    3.39320  -40.71740
 1543.90000  287.31410  133.51720    4.37940    3.66150   12.03960    3.41620  -40.72450
 1544.40000  283.69240  133.38760    4.48340    3.69270   11.84220    3.45210  -40.78470
 1544.90000  273.51400  130.94650    4.55950    3.81410   10.88020    3.52340  -41.05060
 1545.40000  269.90460  127.60670    4.50930    3.85920   11.34530    3.54590  -41.07620
 1545.90000  259.75390  120.17050    4.17270    3.99440   11.30100    3.61580  -41.29370
 1546.40000  256.61260  119.70210    4.04900    4.03950   10.93970    3.63950  -41.38310
 1546.90000  248.33820  116.48400    3.55630    4.12580   10.98570    3.71060  -41.47660
 1547.40000  247.51050  115.51770    3.47650    4.13470   10.79570    3.72440  -41.47870
 1547.90000  248.68800  113.15000    3.27860    4.15500   10.50210    3.68970  -41.48480
 1548.40000  250.96590  112.28840    3.24170    4.15450   10.45890    3.66550  -41.56810
 1548.90000  257.92140  111.57000    3.34290    4.05070   11.37220    3.59290  -41.48920
 1549.40000  262.74580  112.69330    3.53370    3.93190   11.74170    3.51750  -41.67110
 1549.90000  265.91410  113.64000    3.76420    3.81320   11.48640    3.44160  -41.43530
 1550.40000  269.80710  112.74300    3.86520    3.69450   11.08130    3.36560  -41.36050
 1550.90000  273.57130  112.77680    3.74310    3.63700   10.93850    3.28970  -41.21470
 1551.40000  277.97800  114.77830    3.70790    3.59640   10.19830    3.21370  -40.97340
 1551.90000  282.32020  119.00630    3.67280    3.55580    9.85350    3.21440  -40.97740
 1552.40000  286.47500  120.79440    3.68330    3.52060   10.10530    3.22210  -41.06730
 1552.90000  290.99010  121.39950    3.66080    3.50610   10.14260    3.22600  -41.07950
 1553.40000  294.14510  123.64720    3.69320    3.46270   10.85950    3.23750  -40.98040
 1553.90000  296.05500  125.71970    3.69490    3.44820   12.24960    3.21750  -40.94590
 1554.40000  300.53820  133.61980    3.74040    3.40490   14.92240    3.09150  -40.84380
 1554.90000  301.71200  135.62420    3.86580    3.40100   13.87050    3.08860  -40.81950
 1555.40000  303.29010  139.70450    4.21770    3.39530   11.43000    3.17270  -40.78320
 1555.90000  301.84300  138.65580    4.31960    3.42160   11.12770    3.21620  -40.77760
 1556.40000  296.49980  135.19630    4.67420    3.53130   10.65990    3.34660  -40.79290
 1556.90000  292.91150  133.53960    4.70830    3.58670   11.14760    3.39460  -40.80330
 1557.40000  279.29590  128.13190    4.52880    3.77180   13.00630    3.55810  -40.88480
 1557.90000  273.90800  128.03310    4.34660    3.83670   12.97900    3.61590  -40.93370
 1558.40000  261.11840  124.72890    3.91810    4.03130   11.90560    3.78440  -40.98990
 1558.90000  256.69810  122.63750    3.91710    4.09620   11.30060    3.86970  -40.99350
 1559.40000  242.24270  120.92230    4.05560    4.31390   11.64190    4.09810  -41.00440
 1559.90000  231.67830  121.54480    3.82760    4.48120   11.49600    4.15360  -41.01170
 1560.40000  219.49710  118.03890    3.49470    4.64850   12.52760    4.20100  -41.01900
 1560.90000  213.03560  115.29170    3.24240    4.81510   12.58920    4.13610  -41.02620
 1561.40000  211.60680  114.65070    3.38440    4.81330   11.38670    4.02600  -40.98640
 1561.90000  216.20970  113.11510    3.76120    4.67460   12.23100    3.91150  -40.94230
 1562.40000  224.82030  113.54150    3.93920    4.45900   12.67900    3.68510  -40.83930
 1562.90000  236.90090  117.11770    3.91160    4.24350   11.51240    3.46730  -40.75730
 1563.40000  250.16150  116.97880    3.82640    4.13950   11.15950    3.36920  -40.67590
 1563.90000  265.72960  113.57990    3.62680    3.83780   10.04900    3.11110  -40.58040
 1564.40000  273.93410  112.77120    3.63570    3.73890   10.45670    3.04020  -40.61960
 1564.90000  295.42000  114.38520    3.87380    3.47300   11.35910    2.85760  -40.37130
 1565.40000  303.72190  114.59610    3.97990    3.40160   11.27350    2.81480  -40.40560
