~Version ---------------------------------------------------
VERS.      2.0 : CWLS log ASCII Standard -VERSION 2.0
WRAP.       NO : One line per depth step
CREA. 11/15/17 : LAS Creation Date
~Well ------------------------------------------------------
STRT.FT                        1000.0 : START DEPTH
STOP.FT                       10050.0 : STOP DEPTH
STEP.FT                      50.00000 : STEP LENGTH
NULL.                         -999.25 : NULL VALUE
COMP.        SKELLY OIL OF CANADA LTD : COMPANY
WELL. SKELLY A2 TWO CREEK 10-20-62-16 : WELL
FLD .                              WC : FIELD
LOC .                                 : LOCATION
CTRY.                          CANADA : COUNTRY
SRVC.                   Dresser Atlas : SERVICE COMPANY
DATE.                     30-Jan-1976 : LOGDATE
PROV.                         Alberta : PROVINCE
UWI .                100102006216W500 : UNIQUE WELL ID
SLAT.WGS84                   54.38094 : SURFACE LATITUDE
SLON.WGS84                  -116.3576 : SURFACE LONGITUDE
~Curve Information -----------------------------------------
DEPT  .FT    : Depth Curve
ACED  .US/F  : DELTA TIME (ACOUSTIC) FROM BHC LOG [DEPTH ADJ. TO SFLED]
CALSED.IN    : CALIPER FROM BHC LOG [DEPTH ADJ. TO SFLED]
CALWS .IN    : CALIPER [CALSED]
CONDWS.MMHO  : CONDUCTIVITY [1000/DRESWS]
DRESWS.OHMM  : DEEP RESISTIVITY [ILDED]
DTWS  .US/F  : DELTA TIME [ACED]
GRSED .GAPI  : GAMMA RAY FROM BHC LOG [DEPTH ADJ. TO SFLED]
GRWS  .GAPI  : GAMMA RAY [GRSED]
ILDED .OHMM  : INDUCTION LOG DEEP RESISTIVITY FROM DIFL LOG
ILMED .OHMM  : INDUCTION LOG MEDIUM RESISTIVITY FROM DIFL LOG
MCALED.IN    : CALIPER MICROLOG FROM ML LOG [DEPTH ADJ. TO CALSED]
MRESWS.OHMM  : MEDIUM RESISTIVITY [ILMED]
SFLED .OHMM  : SPHERICALLY FOCUSED LOG RESISTIVITY FROM DIFL LOG
SPRED .MV    : SPONTANEOUS POTENTIAL FROM DIFL LOG
SPWS  .MV    : SPONTANEOUS POTENTIAL [BASELINE 0 MV] [SPRED]
SRESWS.OHMM  : SHALLOW RESISTIVITY [SFLED]
~Params ----------------------------------------------------
PD  .                     GL : PERMANENT DATUM
EPD .FT               3027.7 : ELEVATION PERMANENT DATUM
LMF .                     KB : LOG MEASURED FROM
DAPD.FT                 13.6 : FEET ABOVE PERMANENT DATUM
DMF .                     KB : DRILLING MEASURED FROM
EKB .FT               3041.3 : KELLY BUSHING
EGL .FT               3027.7 : GROUND LEVEL
DATE.               01/30/76 : RUN DATE
RUN .                      1 : RUN NUMBER
DD  .FT                10050 : DEPTH DRILLER
DL  .FT                10058 : DEPTH LOGGER
BLI .FT                10056 : BOTTOM LOG INTERVAL
TLI .FT                 1050 : TOP LOG INTERVAL
CS  .IN                9.625 : CASING SIZE
CBD .FT                 1062 : CASING BOTTOM DRILLER
CBL .FT                 1050 : CASING BOTTOM LOGGER
BS  .IN                  8.5 : BIT SIZE
BSD .FT                10050 : BIT SIZE AT DEPTH
DFT .           MUD GEL CHEM : DRILLING FLUID TYPE
DFD .                    9.1 : DRILLING FLUID DENSITY
DFV .                    100 : DRILLING FLUID VISCOSITY
DFPH.                     10 : DRILLING FLUID PH
DFL .                    7.8 : DRILLING FLUID LOSS
MSS .                   CIRC : MUD SAMPLE SOURCE
RMS .OHMM                2.2 : RESISTIVITY MUD SAMPLE
MST .DEGF                 62 : MUD SAMPLE TEMPERATURE
RMF .OHMM                1.8 : RESISTIVITY MUD FILTRATE SAMPLE
MFST.DEGF                 62 : MUD FILTRATE SAMPLE TEMPERATURE
RMC .OHMM                2.5 : RESISTIVITY MUD CAKE
MCST.DEGF                 60 : MUD CAKE SAMPLE TEMPERATURE
MFSS.                   MEAS : MUD FILTRATE SAMPLE SOURCE
MCSS.                   MEAS : MUD CAKE SAMPLE SOURCE
RMB .OHMM                0.8 : RESISTIVITY MUD AT BHT
TCS .HRS                   7 : TIME CIRCULATED STOPPED
LUN .                   6155 : LOGGING UNIT NUMBER
LUL .                    EDM : LOGGING UNIT LOCATION
ENGI.           HETHERINGTON : RECORDING ENGINEER
WITN.           BALL SHEDDON : WITNESSED BY
CLNT.                A2DTECH : CLIENT CODE
ORIG.        2" 5" 10" PRINT : ORIGIN OF DATA
UWI .       100102006216W500 : UNIQUE WELL ID
DICO. A2D Technologies, Inc. : DIGITIZING COMPANY
~Other -----------------------------------------------------
~ASCII -----------------------------------------------------
# ...
 3150.00000   99.04340    8.85230    8.85230  241.19050    4.14610   99.04340   81.18760   81.18760    4.14610    4.56630    -999.25    4.56630    8.69010  -90.56700   -3.43390    8.69010
 3200.00000   82.05650    8.94760    8.94760  157.37620    6.35420   82.05650   85.10420   85.10420    6.35420    7.28150    -999.25    7.28150    9.49370  -91.84190   -4.17150    9.49370
 3250.00000   89.61320    9.39100    9.39100  156.92180    6.37260   89.61320   84.29230   84.29230    6.37260    6.61040    -999.25    6.61040    8.61880  -91.62620   -3.42400    8.61880
 3300.00000   99.02330    9.93830    9.93830  213.96780    4.67360   99.02330   99.14920   99.14920    4.67360    5.20110    -999.25    5.20110    5.46280  -92.24470   -3.50790    5.46280
 3350.00000   93.82230   11.05200   11.05200  164.05280    6.09560   93.82230  114.93750  114.93750    6.09560    7.00130    -999.25    7.00130    6.57680  -96.26980   -9.04890    6.57680
 3400.00000   92.67320    9.73470    9.73470  126.90840    7.87970   92.67320  115.35680  115.35680    7.87970    9.00040    -999.25    9.00040    8.37310  -98.84130  -13.45030    8.37310
 3450.00000   94.91950   11.05270   11.05270  165.84570    6.02970   94.91950  119.02980  119.02980    6.02970    6.67320    -999.25    6.67320    7.11440  -97.86170  -14.31890    7.11440
 3500.00000   97.83480   10.66430   10.66430  179.69770    5.56490   97.83480  134.76430  134.76430    5.56490    6.34590    -999.25    6.34590    7.03690  -98.32510  -16.61210    7.03690
 3550.00000   88.05490    9.39060    9.39060   98.75080   10.12650   88.05490  133.32010  133.32010   10.12650   11.25640    -999.25   11.25640   12.91610  -83.73420   -3.86020   12.91610
 3600.00000   89.63830    9.75060    9.75060  120.11290    8.32550   89.63830  124.26260  124.26260    8.32550    9.36210    -999.25    9.36210   10.63800  -82.26810   -3.42100   10.63800
 3650.00000   84.45060    9.28420    9.28420  104.83170    9.53910   84.45060  122.06450  122.06450    9.53910   11.79070    -999.25   11.79070   10.69470  -84.17900   -5.44100   10.69470
 3700.00000   89.77830   10.11450   10.11450  134.03300    7.46090   89.77830  124.72250  124.72250    7.46090    6.99750    -999.25    6.99750    6.52330  -84.09540   -5.46780    6.52330
 3750.00000   84.37500    9.40370    9.40370  100.61370    9.93900   84.37500  112.36220  112.36220    9.93900    9.30280    -999.25    9.30280    8.67640  -84.56210   -6.04370    8.67640
 3800.00000   89.82920    9.53550    9.53550  102.45480    9.76040   89.82920  112.58160  112.58160    9.76040    9.08700    -999.25    9.08700    8.18100  -85.97950   -7.57080    8.18100
 3850.00000   87.06590    9.65130    9.65130  114.21260    8.75560   87.06590  138.20740  138.20740    8.75560    8.18270    -999.25    8.18270    7.75420  -79.85620   -1.55780    7.75420
 3900.00000   93.95760   10.02640   10.02640  135.74050    7.36700   93.95760  124.25060  124.25060    7.36700    6.93540    -999.25    6.93540    6.55830  -82.06490   -3.87570    6.55830
 3950.00000   94.29240    9.63180    9.63180  128.51650    7.78110   94.29240  123.51730  123.51730    7.78110    7.32930    -999.25    7.32930    6.63500  -82.53130   -4.45240    6.63500
 4000.00000   88.01380    9.91450    9.91450  113.04930    8.84570   88.01380  126.73120  126.73120    8.84570    8.24950    -999.25    8.24950    7.81440  -79.93230   -2.10420    7.81440
 4050.00000   83.65800   11.22720   11.22720  101.16240    9.88510   83.65800  104.07260  104.07260    9.88510    8.67840    -999.25    8.67840    7.93430  -82.23960   -5.06590    7.93430
 4100.00000   85.34380   10.05260   10.05260  103.29670    9.68080   85.34380  124.62370  124.62370    9.68080    9.00880    -999.25    9.00880    8.38630  -80.92350   -4.40740    8.38630
 4150.00000   89.48490    9.69880    9.69880  114.65260    8.72200   89.48490  134.87560  134.87560    8.72200    8.30220    -999.25    8.30220    7.88550  -80.32590   -4.46080    7.88550
 4200.00000   90.16810    9.56580    9.56580  107.08470    9.33840   90.16810  127.67620  127.67620    9.33840    8.73740    -999.25    8.73740    8.18580  -80.81150   -5.60400    8.18580
 4250.00000   90.66590    9.66830    9.66830  144.90230    6.90120   90.66590  141.36090  141.36090    6.90120    7.36660    -999.25    7.36660    7.96250  -79.59500   -5.03860    7.96250
 4300.00000   97.02700    9.69620    9.69620  147.78910    6.76640   97.02700  150.02950  150.02950    6.76640    7.46280    -999.25    7.46280    7.92620  -76.36380   -2.46170    7.92620
 4350.00000   94.66020    9.61480    9.61480  120.62000    8.29050   94.66020  148.63300  148.63300    8.29050    9.02740    -999.25    9.02740    9.60120  -76.27770   -3.03330    9.60120
 4400.00000   96.10640    9.49850    9.49850  125.06100    7.99610   96.10640  150.62820  150.62820    7.99610    8.74360    -999.25    8.74360   10.12500  -75.90970   -3.31630   10.12500
 4450.00000   96.09750    9.25720    9.25720  100.27320    9.97280   96.09750  157.28150  157.28150    9.97280   10.64290    -999.25   10.64290   13.25090  -74.67940   -2.74360   13.25090
 4500.00000   97.65530    9.18000    9.18000   96.55210   10.35710   97.65530  161.94300  161.94300   10.35710   11.43260    -999.25   11.43260   14.89750  -75.56570   -4.28100   14.89750
 4550.00000   95.07110   10.56310   10.56310  139.04530    7.19190   95.07110  149.63350  149.63350    7.19190    7.81690    -999.25    7.81690   10.99710  -74.80570   -4.17530   10.99710
 4600.00000   86.86800    9.78630    9.78630  152.16070    6.57200   86.86800  128.78600  128.78600    6.57200    7.16340    -999.25    7.16340    8.13830  -75.29670   -5.32400    8.13830
 4650.00000   92.97860    9.88390    9.88390  167.42570    5.97280   92.97860  138.83910  138.83910    5.97280    6.51240    -999.25    6.51240    8.35880  -71.42820   -2.10650    8.35880
 4700.00000   88.79530    9.62730    9.62730  151.03340    6.62100   88.79530  137.23920  137.23920    6.62100    7.23820    -999.25    7.23820    8.44610  -70.56690   -1.90280    8.44610
 4750.00000   81.29430    9.50220    9.50220  140.44550    7.12020   81.29430  130.56450  130.56450    7.12020    7.65960    -999.25    7.65960    9.75800  -70.86840   -2.85540    9.75800
 4800.00000   88.04250    9.87740    9.87740  182.33200    5.48450   88.04250  131.83180  131.83180    5.48450    5.85580    -999.25    5.85580    7.04250  -69.55010   -2.19140    7.04250
 4850.00000   82.82340    9.27700    9.27700  120.81890    8.27690   82.82340  135.43690  135.43690    8.27690    8.98740    -999.25    8.98740   10.01980  -70.51790   -3.81690   10.01980
 4900.00000  100.74960   11.41860   11.41860  205.34720    4.86980  100.74960  127.41760  127.41760    4.86980    4.36150    -999.25    4.36150    5.48590  -70.57240   -4.52240    5.48590
 4950.00000   99.16890   10.46080   10.46080  244.77410    4.08540   99.16890  227.46310  227.46310    4.08540    3.68730    -999.25    3.68730    5.93640  -68.02590   -2.63340    5.93640
 5000.00000   98.56730   11.99740   11.99740  351.06200    2.84850   98.56730  115.42000  115.42000    2.84850    2.66640   11.22310    2.66640    3.50160  -67.96600   -1.48170    3.50160
 5050.00000   90.21390   11.52960   11.52960  188.46590    5.30600   90.21390  123.96120  123.96120    5.30600    5.05830   12.06950    5.05830    5.38850  -70.57660   -2.96810    5.38850
 5100.00000  110.20100   10.50340   10.50340  215.10930    4.64880  110.20100  134.74400  134.74400    4.64880    4.84710   10.88230    4.84710    4.72160  -77.46790   -8.72970    4.72160
 5150.00000   79.84880    9.58600    9.58600   79.16650   12.63160   79.84880   91.01730   91.01730   12.63160   13.13130    9.22260   13.13130   14.72080  -86.17700  -16.32020   14.72080
 5200.00000  162.07120   10.71100   10.71100  604.52180    1.65420  162.07120  101.93490  101.93490    1.65420    1.56660   11.24820    1.56660    3.04430  -75.56960   -4.58300    3.04430
 5250.00000   76.34300    9.07730    9.07730   89.12180   11.22060   76.34300   56.15330   56.15330   11.22060   14.36690    9.23070   14.36690   17.61020 -118.06820  -45.96300   17.61020
