~Version ---------------------------------------------------
VERS.      2.0 : CWLS log ASCII Standard -VERSION 2.0
WRAP.       NO : One line per depth step
CREA. 12/20/17 : LAS Creation Date
~Well ------------------------------------------------------
STRT.FT                    300.0 : START DEPTH
STOP.FT                   9750.0 : STOP DEPTH
STEP.FT                 50.00000 : STEP LENGTH
NULL.                    -999.25 : NULL VALUE
COMP.     PHILLIPS PETROLEUM CO. : COMPANY
WELL. PHILLIPS KAYBOB 2-15-64-19 : WELL
FLD .                            : FIELD
LOC .                            : LOCATION
CTRY.                     CANADA : COUNTRY
SRVC.                    Unknown : SERVICE COMPANY
DATE.                28-Jul-1959 : LOGDATE
PROV.                    Alberta : PROVINCE
UWI .           100021506419W500 : UNIQUE WELL ID
SLAT.WGS84              54.53255 : SURFACE LATITUDE
SLON.WGS84             -116.7821 : SURFACE LONGITUDE
~Curve Information -----------------------------------------
DEPT  .FT    : Depth Curve
CALWS .IN    : CALIPER [MCALED]
CONDWS.MMHO  : CONDUCTIVITY [1000/DRESWS]
DRESWS.OHMM  : DEEP RESISTIVITY [LAT9ED]
GRED  .CU    : GAMMA RAY FROM GR LOG, DEPTH ADJUSTED WITH [SPRED]
GRNED .CPS   : GAMMA RAY FROM NEUTRON LOG, DEPTH ADJUSTED WITH [SPRED]
GRWS  .CPS   : GAMMA RAY [GRNED], SPLICED WITH [GRED] FROM TOP-1186'
LAT9ED.OHMM  : LATERAL 9' FROM RES. LOG
LT16ED.OHMM  : LATERAL 16' FROM RES. LOG
MCALED.IN    : CALIPER FROM MICROLOG
NEUTED.CPS   : NEUTRON FROM NEUTRON LOG, DEPTH ADJUSTED WITH [SPRED]
NEUTWS.CPS   : NEUTRON [NEUED]
SNED  .OHMM  : 16 INCH SHORT NORMAL RESISTIVITY FROM IEL
SPRED .MV    : SPONTANEOUS POTENTIAL FROM RESISTIVITY LOG
SPWS  .MV    : SPONTANEOUS POTENTIAL [BASELINE 0 MV] [SPRED]
SRESWS.OHMM  : SHALLOW RESISTIVITY [SNED]
~Params ----------------------------------------------------
PD  .                    CSG : PERMANENT DATUM
LMF .                     KB : LOG MEASURED FROM
DMF .                     KB : DRILLING MEASURED FROM
EKB .FT                 2446 : KELLY BUSHING
EDF .FT                 2443 : DRILLING FLOOR
EGL .FT                 2433 : GROUND LEVEL
DATE.               07/28/59 : RUN DATE
RUN .                      1 : RUN NUMBER
DD  .FT                 9800 : DEPTH DRILLER
DL  .FT                 9799 : DEPTH LOGGER
BLI .FT                 9798 : BOTTOM LOG INTERVAL
TLI .FT                 1276 : TOP LOG INTERVAL
CS  .IN                9.625 : CASING SIZE
CBD .FT                 1266 : CASING BOTTOM DRILLER
CBL .FT                 1276 : CASING BOTTOM LOGGER
BS  .IN                7.875 : BIT SIZE
BSD .FT                 9800 : BIT SIZE AT DEPTH
DFT .   OIL EMULSION AQUAGEL : DRILLING FLUID TYPE
DFD .                   10.7 : DRILLING FLUID DENSITY
DFV .                    110 : DRILLING FLUID VISCOSITY
DFPH.                   10.5 : DRILLING FLUID PH
DFL .                    4.6 : DRILLING FLUID LOSS
RMS .OHMM                2.6 : RESISTIVITY MUD SAMPLE
MST .DEGF                 58 : MUD SAMPLE TEMPERATURE
RMF .OHMM                2.1 : RESISTIVITY MUD FILTRATE SAMPLE
MFST.DEGF                 58 : MUD FILTRATE SAMPLE TEMPERATURE
RMC .OHMM                3.4 : RESISTIVITY MUD CAKE
MCST.DEGF                 58 : MUD CAKE SAMPLE TEMPERATURE
RMB .OHMM               0.84 : RESISTIVITY MUD AT BHT
LUN .                   6101 : LOGGING UNIT NUMBER
ENGI.                 FOWLER : RECORDING ENGINEER
WITN.        HANKINS JACKSON : WITNESSED BY
CLNT.                A2DTECH : CLIENT CODE
ORIG.            2" 5" PRINT : ORIGIN OF DATA
UWI .       100021506419W500 : UNIQUE WELL ID
DICO. A2D Technologies, Inc. : DIGITIZING COMPANY
~Other -----------------------------------------------------
~ASCII -----------------------------------------------------
# ...
 4900.00000   10.71320   49.82490   20.07030    -999.25   85.79200   85.79200   20.07030   30.16340   10.71320  349.42480  349.42480   13.67760  -86.37450   -8.83430   13.67760
 4950.00000   10.21740   72.48850   13.88560    -999.25   89.36150   89.36150   13.88560   19.41070   10.21740  376.75650  376.75650   11.83870  -83.78850  -10.69370   11.83870
 5000.00000   10.47730   26.50680   37.72620    -999.25   82.60450   82.60450   37.72620   17.97290   10.47730  425.34740  425.34740   19.72120  -85.03110  -16.33760   19.72120
 5050.00000   10.72770   50.82440   19.67560    -999.25   71.51680   71.51680   19.67560   12.97980   10.72770  309.50570  309.50570   10.62830  -95.14500  -30.87480   10.62830
 5100.00000    9.85990   57.37730   17.42850    -999.25  102.72400  102.72400   17.42850   17.72280    9.85990  362.28020  362.28020   14.74300  -68.01970   -8.17290   14.74300
 5150.00000   10.47780   65.42750   15.28410    -999.25   76.06710   76.06710   15.28410   11.34790   10.47780  336.68320  336.68320   11.42840  -65.98640  -10.56300   11.42840
 5200.00000   10.09230   30.86160   32.41170    -999.25   68.94550   68.94550   32.41170   14.30870   10.09230  409.22790  409.22790   12.28980  -84.50680  -33.52880   12.28980
 5250.00000    9.68220   43.43670   23.02200    -999.25   58.27560   58.27560   23.02200   23.88380    9.68220  365.96260  365.96260   17.97390  -75.86120  -29.28450   17.97390
 5300.00000    9.68270   78.61510   12.72020    -999.25   78.53590   78.53590   12.72020    9.44110    9.68270  426.18820  426.18820    8.31670  -64.55680  -22.40340    8.31670
 5350.00000    9.21890   74.89070   13.35280    -999.25   94.65020   94.65020   13.35280   10.31470    9.21890  403.33110  403.33110   10.79000  -44.68080   -4.18990   10.79000
 5400.00000    9.61080  131.80610    7.58690    -999.25   88.37210   88.37210    7.58690    6.52260    9.61080  395.84680  395.84680    2.59720  -47.00120   -6.25410    2.59720
 5450.00000    9.49700   89.78910   11.13850    -999.25   98.31460   98.31460   11.13850   10.50470    9.49700  432.09040  432.09040    7.70380  -48.17290   -7.16830    7.70380
 5500.00000    8.02310   34.96780   28.59770    -999.25   41.02400   41.02400   28.59770    5.92350    8.02310  493.82330  493.82330   25.16030 -127.99260  -86.73310   25.16030
 5550.00000    8.41560   22.78590   43.88670    -999.25   97.07440   97.07440   43.88670   18.81920    8.41560  445.03360  445.03360   16.69180  -52.20980  -10.69420   16.69180
 5600.00000    9.00630   72.00100   13.88870    -999.25   97.72700   97.72700   13.88870   15.53810    9.00630  418.79570  418.79570   15.82560  -54.92360  -13.15180   15.82560
 5650.00000    9.02040   74.70490   13.38600    -999.25   83.13580   83.13580   13.38600   12.85640    9.02040  450.61670  450.61670   12.53250  -61.56240  -19.53440   12.53250
 5700.00000   11.04140  180.81710    5.56390    -999.25   92.42500   92.42500    5.56390    8.87690   11.04140  320.94270  320.94270    2.03690  -50.61510   -8.32960    2.03690
 5750.00000   10.32080  279.12690    3.58260    -999.25   68.29020   68.29020    3.58260    3.49070   10.32080  292.77810  292.77810    2.44310  -50.26540   -7.72500    2.44310
 5800.00000   10.44360   16.23380   61.60000    -999.25  130.70240  130.70240   61.60000   22.55140   10.44360  295.25970  295.25970   15.72150  -72.04840   -5.40470   15.72150
 5850.00000    9.19330   28.44500   35.15560    -999.25  111.23710  111.23710   35.15560   28.20010    9.19330  360.59230  360.59230   15.84060  -66.13890   -1.72420   15.84060
 5900.00000    8.73740    0.93140 1073.66920    -999.25    -999.25    -999.25 1073.66920 1982.90610    8.73740  380.80350  380.80350  255.21210  -85.88950  -23.70390  255.21210
 5950.00000    9.19640  108.88170    9.19010    -999.25   96.37660   96.37660    9.19010   10.68110    9.19640  479.15130  479.15130   11.92680  -79.57940  -19.63400   11.92680
 6000.00000    9.12920   31.73090   31.51500    -999.25   77.74570   77.74570   31.51500   19.19300    9.12920  483.53160  483.53160   21.96720  -72.80200  -15.07450   21.96720
 6050.00000    9.24170   34.36890   29.09610    -999.25   94.63900   94.63900   29.09610   21.63070    9.24170  509.69120  509.69120   19.50220  -72.70620  -17.20780   19.50220
 6100.00000    8.25270   13.31280   75.11560    -999.25   76.01130   76.01130   75.11560   61.37260    8.25270  555.39860  555.39860   44.07460 -114.21480  -60.94550   44.07460
 6150.00000    8.66370    6.36790  157.03740    -999.25   41.22310   41.22310  157.03740   38.25990    8.66370  537.17830  537.17830   30.90330 -102.24160  -51.20130   30.90330
 6200.00000    8.65040    3.12170  320.60570    -999.25   36.75240   36.75240  320.60570  128.18970    8.65040  589.94150  589.94150  131.55530 -140.76180  -91.96180  131.55530
 6250.00000    8.55280    5.27290  189.64750    -999.25   46.12530   46.12530  189.64750   87.93520    8.55280  758.62720  758.62720  199.56410  -76.45180  -29.86970  199.56410
 6300.00000    8.58590   14.33440   69.76210    -999.25   94.51390   94.51390   69.76210   92.85590    8.58590  752.14440  752.14440   49.70150  -47.78100   -3.42790   49.70150
 6350.00000    8.27820    1.11160  899.61360    -999.25   56.56810   56.56810  899.61360  781.12130    8.27820  543.16390  543.16390   51.46050 -142.40920 -100.28520   51.46050
 6400.00000    8.42570   12.51350   79.91370    -999.25   67.44900   67.44900   79.91370   22.67930    8.42570  576.07740  576.07740   32.78700  -95.60060  -55.70570   32.78700
 6450.00000    8.37430   27.01240   37.02390    -999.25   60.18030   60.18030   37.02390   25.75950    8.37430  587.13070  587.13070   60.87660  -65.50860  -27.85380   60.87660
 6500.00000    8.82080    7.73700  129.24920    -999.25   24.41460   24.41460  129.24920  174.22100    8.82080  713.24580  713.24580  141.77460 -121.58810  -86.15130  141.77460
 6550.00000    8.36620    3.01320  331.87770    -999.25   26.92020   26.92020  331.87770  175.57690    8.36620  710.11190  710.11190  112.41710 -190.21300 -157.00530  112.41710
 6600.00000    8.62530    2.80740  356.20120    -999.25   25.63290   25.63290  356.20120  403.34740    8.62530  727.44970  727.44970  123.41950 -196.77270 -165.79410  123.41950
 6650.00000    8.48160   66.82970   14.96340    -999.25  113.65970  113.65970   14.96340   27.51960    8.48160  471.32510  471.32510    5.79220  -69.75420  -41.00460    5.79220
 6700.00000    8.39150  160.50120    6.40540    -999.25   72.38140   72.38140    6.40540    6.92750    8.39150  483.85430  483.85430    3.66800  -97.20820  -70.69880    3.66800
 6750.00000    8.38040   49.05330   20.38600    -999.25   72.73730   72.73730   20.38600    6.83330    8.38040  486.80890  486.80890   16.90970  -85.40900  -61.11760   16.90970
 6800.00000    8.53180   44.69130   22.37570    -999.25   85.91720   85.91720   22.37570    6.11970    8.53180  623.32890  623.32890   15.82170  -34.42400  -12.36160   15.82170
 6850.00000    8.28660   15.16210   65.95390    -999.25   34.96040   34.96040   65.95390   79.50910    8.28660  754.01830  754.01830  141.01640  -40.44920  -20.61590  141.01640
 6900.00000    8.24640    8.27280  120.87840    -999.25   37.62840   37.62840  120.87840   84.42390    8.24640  695.13090  695.13090   94.25810   -1.61840   15.98580   94.25810
 6950.00000    8.19620    9.39740  106.42840    -999.25   55.66710   55.66710  106.42840   99.29730    8.19620  609.94180  609.94180   52.98740  -24.17000   -8.80600   52.98740
 7000.00000    8.21770   23.55050   42.46200    -999.25   56.77620   56.77620   42.46200   25.21290    8.21770  616.59320  616.59320   42.39080  -32.72420  -17.62630   42.39080
 7050.00000    8.24410    6.24870  160.03210    -999.25   58.41220   58.41220  160.03210   96.62760    8.24410  657.62740  657.62740   75.11240  -58.93050  -43.79220   75.11240
 7100.00000    8.08580    1.79910  555.83950    -999.25   55.29340   55.29340  555.83950  820.89230    8.08580  731.63710  731.63710  196.98430  -44.28930  -29.11060  196.98430
 7150.00000    8.14910    1.41080  708.82860    -999.25   51.02540   51.02540  708.82860  730.63610    8.14910  581.79750  581.79750  217.69720  -44.72010  -29.50090  217.69720
