~Version ---------------------------------------------------
VERS.      2.0 : CWLS log ASCII Standard -VERSION 2.0
WRAP.       NO : One line per depth step
CREA. 12/29/17 : LAS Creation Date
~Well ------------------------------------------------------
STRT.FT                        1050.0 : START DEPTH
STOP.FT                       10000.0 : STOP DEPTH
STEP.FT                      50.00000 : STEP LENGTH
NULL.                         -999.25 : NULL VALUE
COMP.        SKELLY OIL OF CANADA LTD : COMPANY
WELL. SKELLY B-1 TWO CREEK 11-9-62-16 : WELL
FLD .                                 : FIELD
LOC .                                 : LOCATION
CTRY.                          CANADA : COUNTRY
SRVC.                    Schlumberger : SERVICE COMPANY
DATE.                     07-Nov-1976 : LOGDATE
PROV.                         Alberta : PROVINCE
UWI .                100110906216W500 : UNIQUE WELL ID
SLAT.WGS84                   54.35197 : SURFACE LATITUDE
SLON.WGS84                  -116.3434 : SURFACE LONGITUDE
~Curve Information -----------------------------------------
DEPT    .FT    : Depth Curve
CALDED  .IN    : CALIPER  FROM DENSITY LOG [ADJ. TO RESISTIVITY LOG]
CALSED  .IN    : CALIPER FROM SONIC LOG
CALWS   .IN    : CALIPER [CALDED]
CILDED  .MMHO  : DEEP INDUCTION CONDUCTIVITY FROM RESISTIVITY LOG
CONDWS  .MMHO  : CONDUCTIVITY [1000/DRESWS]
DCORWS  .G/C3  : DENSITY CORRECTION [DRHOED]
DENWS   .G/C3  : FORMATION BULK DENSITY [CALC. FROM DPOLSWS,M=2.71 F=1.00]
DPHILSED.V/V   : DENSITY POROSITY LIMESTONE [M=2.71 F=1.00 ASSUMED] FROM DENSITY LOG
DPHISSED.V/V   : DENSITY POROSITY SANDSTONE [M=2.65 F=1.00 ASSUMED] FROM DENSITY LOG
DPOLSWS .V/V   : DENSITY POROSITY LIMESTONE [DPHISSED CONVERTED TO LIMESTONE MATRIX,M=2.71 F=1.00 & SPL. TO DPHILSED @ 6444']
DRESWS  .OHMM  : DEEP RESISTIVITY [ILDED] FROM START TO 1365.5' [1000/CILDED,IF ILDED<2,ELSE ILDED]
DRHOED  .G/C3  : DENSITY CORRECTION FROM DENSITY LOG
DTED    .US/F  : DELTA TIME FROM SONIC LOG
DTWS    .US/F  : COMPRESSIONAL SONIC [DTED]
GRDED   .GAPI  : GAMMA RAY FROM DENSITY LOG [ADJ. TO RESISTIVITY LOG]
GRSED   .GAPI  : GAMMA RAY FROM SONIC LOG
GRWS    .GAPI  : GAMMA RAY [GRSED SPL. TO GRDED @ 9980']
ILDED   .OHMM  : DEEP INDUCTION RESISTIVITY FROM RESISTIVITY LOG
ILMED   .OHMM  : MEDIUM INDUCTION RESISTIVITY FROM RESISTIVITY LOG
LL8ED   .OHMM  : LATEROLOG 8 FROM RESISTIVITY LOG
MRESWS  .OHMM  : MEDIUM RESISTIVITY [ILMED]
NEUTED  .NAPI  : NEUTRON FROM GRN LOG [ADJ. TO RESISTIVITY LOG]
NEUTWS  .NAPI  : NEUTRON [NEUTED]
NPHILSED.V/V   : NEUTRON POROSITY LIMESTONE FROM DENSITY LOG
NPHISSED.V/V   : NEUTRON POROSITY SANDSTONE FROM DENSITY LOG
NPOLSWS .V/V   : NEUTRON POROSITY LIMESTONE [NPHISSED MATRIX CONVERSION FOR LIMESTONE & SPL. TO NPHILSED @ 6446']
RHOBED  .G/C3  : BULK DENSITY FROM DENSITY LOG
SPRED   .MV    : SPONTANEOUS POTENTIAL FROM RESISTIVITY LOG
SPWS    .MV    : SPONTANEOUS POTENTIAL [BASELINE 0 MV,SPRED]
SRESWS  .OHMM  : SHALLOW RESISTIVITY [LL8ED]
~Params ----------------------------------------------------
PD  .                     GL : PERMANENT DATUM
EPD .FT                 2996 : ELEVATION PERMANENT DATUM
LMF .                     KB : LOG MEASURED FROM
DAPD.FT                   15 : FEET ABOVE PERMANENT DATUM
EKB .FT                 3011 : KELLY BUSHING
EGL .FT                 2996 : GROUND LEVEL
DATE.             11/07/1976 : RUN DATE
RUN .                      1 : RUN NUMBER
DD  .FT                10019 : DEPTH DRILLER
DL  .FT                10020 : DEPTH LOGGER
BLI .FT                10019 : BOTTOM LOG INTERVAL
TLI .FT                 5150 : TOP LOG INTERVAL
CBD .FT                 1041 : CASING BOTTOM DRILLER
CBL .FT                 1040 : CASING BOTTOM LOGGER
BS  .IN                7.875 : BIT SIZE
BSD .FT                10020 : BIT SIZE AT DEPTH
DFT .               GEL-CHEM : DRILLING FLUID TYPE
DFD .                    9.2 : DRILLING FLUID DENSITY
DFV .                     86 : DRILLING FLUID VISCOSITY
DFPH.                    9.0 : DRILLING FLUID PH
DFL .                    5.4 : DRILLING FLUID LOSS
RMS .OHMM               2.02 : RESISTIVITY MUD SAMPLE
MST .DEGF                 51 : MUD SAMPLE TEMPERATURE
RMF .OHMM               1.54 : RESISTIVITY MUD FILTRATE SAMPLE
MFST.DEGF                 65 : MUD FILTRATE SAMPLE TEMPERATURE
RMC .OHMM                2.1 : RESISTIVITY MUD CAKE
MCST.DEGF                 51 : MUD CAKE SAMPLE TEMPERATURE
RMB .OHMM               0.49 : RESISTIVITY MUD AT BHT
MRT .DEGF                206 : MAXIMUM RECORDED TEMPERATURE
LUN .                   7691 : LOGGING UNIT NUMBER
LUL .                    WCT : LOGGING UNIT LOCATION
ENGI.               ROCKFORD : RECORDING ENGINEER
WITN.                   BALL : WITNESSED BY
CLNT.                A2DTECH : CLIENT CODE
ORIG.               5" PRINT : ORIGIN OF DATA
UWI .       100110906216W500 : UNIQUE WELL ID
DICO. A2D Technologies, Inc. : DIGITIZING COMPANY
~Other -----------------------------------------------------
~ASCII -----------------------------------------------------
# ...
 7050.00000    8.00600    8.15720    8.15720    -999.25    8.95530    0.00070    2.68130    0.01680    -999.25    0.01680  111.66560    0.00070   52.60980   52.60980   26.37880   26.67810   26.67810  111.66560  116.73550  162.59480  116.73550    -999.25    -999.25    0.01360    -999.25    0.01360    2.68430  -25.64810  -14.97600  162.59480
 7100.00000    8.09480    8.18980    8.18980    -999.25   27.71300    0.00970    2.72370   -0.00800    -999.25   -0.00800   36.08420    0.00970   54.58010   54.58010   35.49570   38.16980   38.16980   36.08420   38.01840   58.25460   38.01840    -999.25    -999.25    0.03470    -999.25    0.03470    2.71960  -35.93120  -21.78520   58.25460
 7150.00000    7.99560    8.05550    8.05550    -999.25   10.30160    0.02440    2.69820    0.00690    -999.25    0.00690   97.07240    0.02440   53.51100   53.51100   24.05260   22.93630   22.93630   97.07240  102.69660  168.52300  102.69660    -999.25    -999.25    0.01590    -999.25    0.01590    2.70100  -41.29030  -24.35430  168.52300
 7200.00000    8.01430    8.03360    8.03360    -999.25    8.49520    0.03490    2.71030   -0.00020    -999.25   -0.00020  117.71300    0.03490   53.04280   53.04280   33.27420   30.15090   30.15090  117.71300  108.91980  147.59950  108.91980    -999.25    -999.25    0.01020    -999.25    0.01020    2.69660  -45.08040  -25.69570  147.59950
 7250.00000    8.04820    7.99910    7.99910    -999.25    5.72810    0.01360    2.69610    0.00810    -999.25    0.00810  174.57770    0.01360   51.73310   51.73310   19.05620   20.29880   20.29880  174.57770  198.83620  265.45140  198.83620    -999.25    -999.25    0.00800    -999.25    0.00800    2.69170  -67.73800  -45.90450  265.45140
 7300.00000    8.13980    8.07440    8.07440    -999.25    8.08810    0.00370    2.66520    0.02620    -999.25    0.02620  123.63790    0.00370   55.79690   55.79690   54.36160   51.64410   51.64410  123.63790  129.39590  174.65240  129.39590    -999.25    -999.25    0.03080    -999.25    0.03080    2.66660  -30.01890   -5.73670  174.65240
 7350.00000    8.27340    8.24760    8.24760    -999.25   50.30810    0.00940    2.63750    0.04240    -999.25    0.04240   19.87750    0.00940   58.84250   58.84250   97.88520   86.16690   86.16690   19.87750   20.75090   23.61610   20.75090    -999.25    -999.25    0.06470    -999.25    0.06470    2.65220  -31.68000  -13.58170   23.61610
 7400.00000    8.28630    8.26510    8.26510    -999.25    7.84480    0.01540    2.72540   -0.00900    -999.25   -0.00900  127.47280    0.01540   52.72570   52.72570   34.87970   34.95480   34.95480  127.47280  114.80180  147.73270  114.80180    -999.25    -999.25    0.01130    -999.25    0.01130    2.72670  -58.40240  -36.99470  147.73270
 7450.00000    8.59940    8.36350    8.36350    -999.25    3.31340    0.01260    2.69020    0.01160    -999.25    0.01160  301.80860    0.01260   49.92320   49.92320   12.18240   14.77430   14.77430  301.80860  240.27950  278.62680  240.27950    -999.25    -999.25    0.00210    -999.25    0.00210    2.69520  -83.65320  -62.87330  278.62680
 7500.00000    8.58860    8.34690    8.34690    -999.25    0.65360    0.00830    2.69680    0.00770    -999.25    0.00770 1530.02100    0.00830   49.30510   49.30510   11.23670   11.43830   11.43830 1530.02100 1357.38880  969.53060 1357.38880    -999.25    -999.25    0.00100    -999.25    0.00100    2.68520  -93.24110  -73.08900  969.53060
 7550.00000    8.91590    8.50210    8.50210    -999.25   14.50060    0.04060    2.67320    0.02150    -999.25    0.02150   68.96260    0.04060   50.61210   50.61210   10.71170   10.97750   10.97750   68.96260   76.64110  417.63550   76.64110    -999.25    -999.25    0.00630    -999.25    0.00630    2.66530 -119.37570  -99.85150  417.63550
 7600.00000    8.53710    8.20470    8.20470    -999.25    5.89230    0.01430    2.70330    0.00390    -999.25    0.00390  169.71360    0.01430   48.18010   48.18010   11.23210   10.28140   10.28140  169.71360  134.66020  203.92310  134.66020    -999.25    -999.25    0.00020    -999.25    0.00020    2.71410 -102.48380  -83.58740  203.92310
 7650.00000   11.01100    8.62850    8.62850    -999.25    2.27450    0.16360    2.43470    0.16100    -999.25    0.16100  439.66290    0.16360   55.68330   55.68330   10.42570    9.74310    9.74310  439.66290  314.50050 1243.68080  314.50050    -999.25    -999.25   -0.00430    -999.25   -0.00430    2.45910 -115.19540  -96.92680 1243.68080
 7700.00000    7.63250    7.62200    7.62200    -999.25  113.72940    0.11780    2.58240    0.07460    -999.25    0.07460    8.79280    0.11780   55.75510   55.75510    9.48040    9.85980    9.85980    8.79280   14.15440  152.82700   14.15440    -999.25    -999.25    0.06330    -999.25    0.06330    2.56700 -167.08760 -149.44680  152.82700
 7750.00000   10.44730    8.64790    8.64790    -999.25    2.64060    0.16090    2.55580    0.09020    -999.25    0.09020  378.70700    0.16090   49.35850   49.35850   14.05840   12.59500   12.59500  378.70700  351.40030 1023.35030  351.40030    -999.25    -999.25    0.00040    -999.25    0.00040    2.53300 -112.35840  -95.34540 1023.35030
 7800.00000    8.56530    8.25730    8.25730    -999.25    7.84600    0.03080    2.74030   -0.01770    -999.25   -0.01770  127.45350    0.03080   49.53600   49.53600   12.15920   13.05610   13.05610  127.45350  145.05640  225.13050  145.05640    -999.25    -999.25    0.00170    -999.25    0.00170    2.74850 -104.99890  -88.61380  225.13050
 7850.00000    8.80480    8.43050    8.43050    -999.25    4.51660    0.10120    2.71700   -0.00410    -999.25   -0.00410  221.40480    0.10120   49.22910   49.22910   12.28810   13.03210   13.03210  221.40480  284.62220  362.06210  284.62220    -999.25    -999.25    0.00510    -999.25    0.00510    2.68810 -106.62960  -90.87230  362.06210
 7900.00000    9.95010    8.58960    8.58960    -999.25    1.56110    0.20180    2.62880    0.04750    -999.25    0.04750  640.56420    0.20180   49.49760   49.49760   13.85660   15.02150   15.02150  640.56420 1096.89950  920.90240 1096.89950    -999.25    -999.25    0.00200    -999.25    0.00200    2.61220 -113.24240  -98.11290  920.90240
 7950.00000    7.38460    7.70090    7.70090    -999.25   84.04630    0.07020    2.57290    0.08020    -999.25    0.08020   11.89820    0.07020   56.69080   56.69080    8.49060   10.32780   10.32780   11.89820   16.11860  107.97310   16.11860    -999.25    -999.25    0.04910    -999.25    0.04910    2.57780 -180.22390 -165.72220  107.97310
 8000.00000    9.84400    8.51360    8.51360    -999.25    0.66790    0.22070    2.51980    0.11120    -999.25    0.11120 1497.33170    0.22070   48.71860   48.71860   12.05510   13.39730   13.39730 1497.33170 1327.78110  965.44460 1327.78110    -999.25    -999.25    0.00820    -999.25    0.00820    2.54510 -117.23580 -103.36190  965.44460
 8050.00000    9.22390    8.52850    8.52850    -999.25    7.60480    0.10160    2.66690    0.02520    -999.25    0.02520  131.49650    0.10160   48.84570   48.84570   14.44420   16.84150   16.84150  131.49650  109.34380  182.56950  109.34380    -999.25    -999.25    0.00050    -999.25    0.00050    2.64830 -131.74280 -118.49680  182.56950
 8100.00000    8.10570    8.12930    8.12930    -999.25    8.05580    0.01390    2.81890   -0.06370    -999.25   -0.06370  124.13380    0.01390   50.02010   50.02010   27.29920   26.69210   26.69210  124.13380  109.46820  243.03590  109.46820    -999.25    -999.25    0.01750    -999.25    0.01750    2.81560  -81.85040  -69.23220  243.03590
 8150.00000    8.25980    8.25340    8.25340    -999.25    4.63400    0.01690    2.89250   -0.10670    -999.25   -0.10670  215.79710    0.01690   48.12930   48.12930   22.14560   20.54240   20.54240  215.79710  377.05920 1484.72200  377.05920    -999.25    -999.25    0.00680    -999.25    0.00680    2.86930  -66.65770  -54.66730 1484.72200
 8200.00000    -999.25    8.31670    8.31670    -999.25    4.32140    -999.25    -999.25    -999.25    -999.25    -999.25  231.40650    -999.25   47.62170   47.62170    -999.25   18.95850   18.95850  231.40650  256.47600  361.58520  256.47600    -999.25    -999.25    -999.25    -999.25    -999.25    -999.25 -113.53900 -102.17640  361.58520
