~Version ---------------------------------------------------
VERS.      2.0 : CWLS log ASCII Standard -VERSION 2.0
WRAP.       NO : One line per depth step
CREA. 01/05/18 : LAS Creation Date
~Well ------------------------------------------------------
STRT.FT                   300.0 : START DEPTH
STOP.FT                 11550.0 : STOP DEPTH
STEP.FT                50.00000 : STEP LENGTH
NULL.                   -999.25 : NULL VALUE
COMP.      MOBIL OIL CANADA LTD : COMPANY
WELL. MOBIL PINEDALE 6-29-54-16 : WELL
FLD .                           : FIELD
LOC .                           : LOCATION
CTRY.                    CANADA : COUNTRY
SRVC.    Schlumberger of Canada : SERVICE COMPANY
DATE.               02-Oct-1968 : LOGDATE
PROV.                   Alberta : PROVINCE
UWI .          100062905416W500 : UNIQUE WELL ID
SLAT.WGS84             53.69074 : SURFACE LATITUDE
SLON.WGS84            -116.3264 : SURFACE LONGITUDE
~Curve Information -----------------------------------------
DEPT    .FT    : Depth Curve
CALDED  .IN    : CALIPER FROM DENSITY LOG [ADJ. TO RESISTIVITY LOG]
CALNED  .IN    : CALIPER FROM NEUTRON LOG [ADJ. TO RESISTIVITY LOG]
CALSED  .IN    : CALIPER FROM SONIC LOG [ADJ. TO RESISTIVITY LOG]
CALWS   .IN    : CALIPER [CALSED]
CILDED  .MMHO  : DEEP INDUCTION CONDUCTIVITY FROM RESISTIVITY LOG
CONDWS  .MMHO  : CONDUCTIVITY [1000/DRESWS]
DCORED  .G/C3  : DENSITY CORRECTION FROM DENSITY LOG [ADJ. TO RESISTIVITY LOG]
DCORWS  .G/C3  : DENSITY CORRECTION [DCORED]
DENWS   .G/C3  : FORMATION BULK DENSITY [RHOBED]
DPHILSED.V/V   : DENSITY POROSITY LIMESTONE [M=2.71,F=1.0] FROM DENSITY LOG [ADJ. TO RESISTIVITY LOG]
DPOLSWS .V/V   : DENSITY POROSITY LIMESTONE [CALC. FROM DENWS M=2.71,F=1.0]
DRESWS  .OHMM  : DEEP RESISTIVITY [1000/CILDED IF ILDED <5, ILDED]
DTED    .US/F  : DELTA-T FROM SONIC LOG [ADJ. TO RESISTIVITY LOG]
DTWS    .US/F  : COMPRESSIONAL SONIC [DTED]
GRDED   .GAPI  : GAMMA RAY FROM DENSITY LOG [ADJ. TO RESISTIVITY LOG]
GRNED   .GAPI  : GAMMA RAY FROM NEUTRON LOG [ADJ. TO RESISTIVITY LOG]
GRSED   .GAPI  : GAMMA RAY FROM SONIC LOG [ADJ. TO RESISTIVITY LOG]
GRWS    .GAPI  : GAMMA RAY [GRSED SPL. TO GRDED @ 11555']
ILDED   .OHMM  : DEEP INDUCTION FROM RESISTIVITY LOG
NPOLSWS .V/V   : NEUTRON POROSITY LIMESTONE [SNPLSED]
RHOBED  .G/C3  : BULK DENSITY FROM DENSITY LOG [ADJ. TO RESISTIVITY LOG]
SNED    .OHMM  : SHORT NORMAL FROM RESISTIVITY LOG
SNPLSED .V/V   : SIDEWALL NEUTRON POROSITY LIMESTONE FROM NEUTRON LOG [ADJ. TO RESISTIVITY LOG]
SPRED   .MV    : SPONTANEOUS POTENTIAL FROM RESISTIVITY LOG
SPWS    .MV    : SPONTANEOUS POTENTIAL [BASELINE 0 MV, SPRED]
SRESWS  .OHMM  : SHALLOW RESISTIVITY [SNED]
~Params ----------------------------------------------------
DATE.               10/02/68 : RUN DATE
RUN .                      1 : RUN NUMBER
CLNT.                A2DTECH : CLIENT CODE
ORIG.               5" PRINT : ORIGIN OF DATA
UWI .       100062905416W500 : UNIQUE WELL ID
DICO. A2D Technologies, Inc. : DIGITIZING COMPANY
~Other -----------------------------------------------------
IEL & SNP & FDC & BHC SONIC LOG RAN
SPRED,SNED,ILDED & CILDED VERIFY FROM SMALL SECTION FROM TOP - 6470'
~ASCII -----------------------------------------------------
# ...
 8400.00000    -999.25    -999.25    9.20270    9.20270   51.76520   46.91510    -999.25    -999.25    -999.25    -999.25    -999.25   21.31510   54.28030   54.28030    -999.25    -999.25   42.82810   42.82810   21.31510    -999.25    -999.25   25.43740    -999.25 -116.72870  -47.59660   25.43740
 8450.00000    -999.25    -999.25    9.46250    9.46250   39.25420   36.37010    -999.25    -999.25    -999.25    -999.25    -999.25   27.54910   54.52200   54.52200    -999.25    -999.25   44.14610   44.14610   27.54910    -999.25    -999.25   30.05300    -999.25 -107.70800  -42.72110   30.05300
 8500.00000    -999.25    -999.25    9.52050    9.52050   22.34870   20.29790    -999.25    -999.25    -999.25    -999.25    -999.25   49.26620   59.05530   59.05530    -999.25    -999.25   54.09190   54.09190   49.26620    -999.25    -999.25   40.19420    -999.25  -89.45840  -28.58950   40.19420
 8550.00000    -999.25    -999.25   10.03510   10.03510   21.36580   17.94290    -999.25    -999.25    -999.25    -999.25    -999.25   55.73230   53.17640   53.17640    -999.25    -999.25   18.63670   18.63670   55.73230    -999.25    -999.25   54.66580    -999.25  -91.00280  -34.25200   54.66580
 8600.00000    9.30880    -999.25    9.38100    9.38100   30.91780   27.81460    0.00450    0.00450    2.68970    -999.25    0.01190   35.95230   55.36550   55.36550    -999.25    -999.25   33.07010   33.07010   35.95230    -999.25    2.68970   34.88200    -999.25  -67.07050  -14.46480   34.88200
 8650.00000    9.25040    9.24950    9.36290    9.36290   35.33350   32.15190    0.00590    0.00590    2.70200   -0.02600    0.00470   31.10240   56.83850   56.83850   37.98890   42.69050   37.50160   37.50160   31.10240    0.03760    2.70200   32.36150    0.03760  -55.36010   -6.87250   32.36150
 8700.00000    9.21860    9.30770    9.46550    9.46550   34.29380   31.26620    0.00400    0.00400    2.71500   -0.00020   -0.00290   31.98370   57.47600   57.47600   39.37620   41.60000   43.22660   43.22660   31.98370    0.03840    2.71500   31.41200    0.03840  -50.51640   -6.17390   31.41200
 8750.00000    9.13000    9.27370    9.35030    9.35030   29.95750   27.21980    0.00730    0.00730    2.75010   -0.00470   -0.02350   36.73800   57.42490   57.42490   43.79770   44.67060   44.14550   44.14550   36.73800    0.03400    2.75010   34.39440    0.03400  -48.38040   -8.15590   34.39440
 8800.00000    9.03910    9.08040    9.14970    9.14970   14.15520   10.99560    0.01520    0.01520    2.71140    0.00380   -0.00080   90.94550   59.48230   59.48230   55.37530   51.69900   53.46410   53.46410   90.94550    0.04150    2.71140   68.56620    0.04150  -43.38430   -5.43640   68.56620
 8850.00000    8.96430    8.91290    9.02230    9.02230   13.21650   10.28140    0.00270    0.00270    2.71770   -0.00960   -0.00450   97.26340   56.88810   56.88810   48.33440   47.32330   47.12920   47.12920   97.26340    0.03330    2.71770   71.75130    0.03330  -75.40340  -38.57100   71.75130
 8900.00000    9.29970    9.29640    9.49130    9.49130    6.33400    3.54720    0.24930    0.24930    2.76700   -0.02920   -0.03330  281.91300   50.02060   50.02060   26.68550   27.20740   27.25650   27.25650  281.91300    0.02770    2.76700  164.92780    0.02770  -82.34320  -46.61910  164.92780
 8950.00000   10.84020   10.03970    9.87560    9.87560    4.77680    2.24150    0.25000    0.25000    2.67560    0.05900    0.02010  446.29760   49.94600   49.94600   15.18350   16.54910   13.43880   13.43880  446.29760    0.08070    2.67560  175.72840    0.08070 -123.76450  -89.15590  175.72840
 9000.00000   11.79590   11.39750   10.07620   10.07620    5.14650    2.85170    0.23510    0.23510    2.55680    0.10720    0.08960  350.66330   49.31350   49.31350   15.19340   15.46350   12.52880   12.52880  350.66330    0.06170    2.55680  143.77280    0.06170 -152.13960 -118.63930  143.77280
 9050.00000   13.83730   12.82310   10.26050   10.26050    4.51290    2.05840    0.19310    0.19310    2.64760    0.05280    0.03650  485.82560   49.55430   49.55430   13.21760   14.24230   11.18250   11.18250  485.82560    0.13070    2.64760  127.71760    0.13070 -192.82690 -160.43480  127.71760
 9100.00000   15.01520   15.00000   10.10140   10.10140    5.39780    2.11670    0.18300    0.18300    2.48730    0.14990    0.13020  472.43390   49.51170   49.51170   15.36900   13.87150   11.62840   11.62840  472.43390    0.25390    2.48730  108.28370    0.25390 -213.22860 -181.95210  108.28370
 9150.00000   15.00000   15.00000   12.45870   12.45870    4.11180    1.80450    0.24920    0.24920    2.65430    0.07020    0.03260  554.15910   54.02100   54.02100   19.29570   19.76600   16.74980   16.74980  554.15910    0.32280    2.65430  106.90550    0.32280 -205.39410 -175.22580  106.90550
 9200.00000   12.23380   11.63240   10.80620   10.80620    4.58890    2.32980    0.10700    0.10700    2.57610    0.05840    0.07830  429.95330   51.75090   51.75090   12.11260   12.87860   10.48510   10.48510  429.95330    0.22990    2.57610   75.16720    0.22990 -203.91310 -174.86030   75.16720
 9250.00000   11.93480   10.93250    9.85810    9.85810    9.52100    6.51000    0.22340    0.22340    2.70770    0.02140    0.00130  153.60960   50.36580   50.36580   11.12530   11.79860   10.39480   10.39480  153.60960    0.09940    2.70770   87.97340    0.09940 -204.86680 -176.92230   87.97340
 9300.00000   14.01120   13.96780    9.28320    9.28320    4.46220    1.86340    0.20840    0.20840    2.38110    0.21460    0.19230  536.66270   40.00500   40.00500   14.90500   15.50890   10.23840   10.23840  536.66270    0.11860    2.38110  155.60200    0.11860 -211.95890 -185.12260  155.60200
 9350.00000   12.76120   12.09640    9.59710    9.59710    7.17420    3.97760    0.24010    0.24010    2.38900    0.21470    0.18770  251.40670   48.93180   48.93180   11.35530   13.03640    9.90780    9.90780  251.40670    0.13970    2.38900  133.01200    0.13970 -202.29270 -176.57200  133.01200
 9400.00000   12.45980   11.76380    9.92200    9.92200    7.89690    4.92580    0.24890    0.24890    2.49290    0.16440    0.12700  203.01100   50.83090   50.83090   11.52690   13.22290    8.88620    8.88620  203.01100    0.08680    2.49290  116.07560    0.08680 -192.68370 -168.07120  116.07560
 9450.00000   14.75620   13.67300   11.16540   11.16540    7.97360    5.36740    0.16140    0.16140    2.19910    0.30680    0.29880  186.31460   67.50360   67.50360   17.89090   17.00640   17.18540   17.18540  186.31460    0.26910    2.19910  119.37190    0.26910 -189.37990 -165.88300  119.37190
 9500.00000   13.33650   12.68650    9.97470    9.97470    6.25960    3.52080    0.12400    0.12400    2.49510    0.15240    0.12570  284.02370   69.52450   69.52450   12.98340   14.08990   10.96040   10.96040  284.02370    0.10010    2.49510  125.61160    0.10010 -183.54270 -161.15400  125.61160
 9550.00000   13.51490   13.32440   10.26680   10.26680    9.27760    6.45230    0.19340    0.19340    2.25940    0.29890    0.26350  154.98280   50.40360   50.40360   22.67980   22.94740   21.42830   21.42830  154.98280    0.21520    2.25940   90.69100    0.21520 -184.50190 -163.22150   90.69100
 9600.00000    9.19010    9.18460    9.01980    9.01980    4.55370    2.17150    0.03680    0.03680    2.90820   -0.09990   -0.11590  460.51350   48.36580   48.36580   11.29400   13.41130    9.61940    9.61940  460.51350    0.01950    2.90820  208.83580    0.01950 -169.08690 -148.92200  208.83580
 9650.00000   15.01370   14.04120   10.08710   10.08710    6.08380    3.37720    0.20700    0.20700    1.91980    0.44930    0.46210  296.10230   57.32900   57.32900   20.70620   22.17380   21.94600   21.94600  296.10230    0.23380    1.91980  102.42160    0.23380 -167.98450 -148.92790  102.42160
 9700.00000   10.78360   10.53610    9.65220    9.65220    9.30270    6.89910    0.30250    0.30250    2.49130    0.14850    0.12790  144.99250   50.85760   50.85760   30.47640   31.17450   31.21920   31.21920  144.99250    0.12760    2.49130   66.08240    0.12760 -134.87770 -116.93660   66.08240
