~Version ---------------------------------------------------
VERS.      2.0 : CWLS log ASCII Standard -VERSION 2.0
WRAP.       NO : One line per depth step
CREA. 11/13/17 : LAS Creation Date
~Well ------------------------------------------------------
STRT.FT                    1000.0 : START DEPTH
STOP.FT                    9550.0 : STOP DEPTH
STEP.FT                  50.00000 : STEP LENGTH
NULL.                     -999.25 : NULL VALUE
COMP.      MESA PETROLEUM COMPANY : COMPANY
WELL. MESA ET AL SAKWA 14-3-65-15 : WELL
FLD .                             : FIELD
LOC .                             : LOCATION
CTRY.                      CANADA : COUNTRY
SRVC.                Schlumberger : SERVICE COMPANY
DATE.                 05-Mar-1972 : LOGDATE
PROV.                     Alberta : PROVINCE
UWI .            100140306515W500 : UNIQUE WELL ID
SLAT.WGS84               54.60078 : SURFACE LATITUDE
SLON.WGS84              -116.1844 : SURFACE LONGITUDE
~Curve Information -----------------------------------------
DEPT  .FT    : Depth Curve
CALSED.IN    : CALIPER FROM SONIC LOG
CALWS .IN    : CALIPER [CALSED]
CONDWS.MMHO  : CONDUCTIVITY [1000/DRESWS]
DRESWS.OHMM  : DEEP RESISTIVITY [ILDED]
DTED  .US/F  : DELTA TIME FROM SONIC LOG [DEPTH ADJ TO LL8]
DTWS  .US/F  : DELTA TIME [DTED]
GRSED .GAPI  : GAMMA RAY FROM SONIC LOG
GRWS  .GAPI  : GAMMA RAY [GRSED]
ILDED .OHMM  : INDUCTION LOG DEEP RESISTIVITY
ILMED .OHMM  : INDUCTION LOG MEDIUM RESISTIVITY
LL8ED .OHMM  : 8 INCH LATEROLOG RESISTIVITY
MRESWS.OHMM  : MEDIUM RESISTIVITY [ILMED]
SPRED .MV    : SPONTANEOUS POTENTIAL FROM RESISTIVITY LOG
SPWS  .MV    : SPONTANEOUS POTENTIAL [BASELINE 0 MV] [SPRED]
SRESWS.OHMM  : SHALLOW RESISTIVITY [LL8ED]
~Params ----------------------------------------------------
PD  .                     GL : PERMANENT DATUM
EPD .FT                 3248 : ELEVATION PERMANENT DATUM
LMF .                     KB : LOG MEASURED FROM
DAPD.FT                   14 : FEET ABOVE PERMANENT DATUM
EKB .FT                 3262 : KELLY BUSHING
EGL .FT                 3248 : GROUND LEVEL
DATE.               03/05/72 : RUN DATE
RUN .                      1 : RUN NUMBER
DD  .FT                 9600 : DEPTH DRILLER
DL  .FT                 9602 : DEPTH LOGGER
BLI .FT                 9596 : BOTTOM LOG INTERVAL
TLI .FT                 1088 : TOP LOG INTERVAL
CBD .FT                 1088 : CASING BOTTOM DRILLER
CBL .FT                 1088 : CASING BOTTOM LOGGER
BS  .IN                 8.75 : BIT SIZE
BSD .FT                 9600 : BIT SIZE AT DEPTH
DFT .                    GEL : DRILLING FLUID TYPE
DFD .                    8.8 : DRILLING FLUID DENSITY
DFV .                    185 : DRILLING FLUID VISCOSITY
DFPH.                     10 : DRILLING FLUID PH
DFL .                    7.8 : DRILLING FLUID LOSS
MSS .               FLOWLINE : MUD SAMPLE SOURCE
RMS .OHMM               3.18 : RESISTIVITY MUD SAMPLE
MST .DEGF                 68 : MUD SAMPLE TEMPERATURE
RMF .OHMM               3.21 : RESISTIVITY MUD FILTRATE SAMPLE
MFST.DEGF                 61 : MUD FILTRATE SAMPLE TEMPERATURE
TCS .HRS                   4 : TIME CIRCULATED STOPPED
LUN .                   5628 : LOGGING UNIT NUMBER
LUL .                    EDM : LOGGING UNIT LOCATION
ENGI.                WORONUK : RECORDING ENGINEER
WITN.                  HOVER : WITNESSED BY
CLNT.                A2DTECH : CLIENT CODE
ORIG.            2" 5" PRINT : ORIGIN OF DATA
UWI .       100140306515W500 : UNIQUE WELL ID
DICO. A2D Technologies, Inc. : DIGITIZING COMPANY
~Other -----------------------------------------------------
~ASCII -----------------------------------------------------
 1000.00000    -999.25    -999.25    -999.25    -999.25    -999.25    -999.25   53.56450   53.56450    -999.25    -999.25    -999.25    -999.25    -999.25    -999.25    -999.25
 1050.00000    -999.25    -999.25    -999.25    -999.25    -999.25    -999.25   51.31590   51.31590    -999.25    -999.25    -999.25    -999.25    -999.25    -999.25    -999.25
 1100.00000   10.95580   10.95580  342.18450    2.92240  125.10610  125.10610   88.47450   88.47450    2.92240    3.10020    3.25830    3.10020  -97.70480   -3.11060    3.25830
 1150.00000   14.97870   14.97870  280.13560    3.56970  138.96130  138.96130   74.94590   74.94590    3.56970    3.40650    3.22390    3.40650 -101.57850   -2.84890    3.22390
 1200.00000   14.90650   14.90650  279.43630    3.57910  129.67280  129.67280   74.43630   74.43630    3.57910    3.25310    3.53040    3.25310 -101.02330   -2.79750    3.53040
 1250.00000   13.31650   13.31650  269.30950    3.71320  123.66410  123.66410   69.87910   69.87910    3.71320    3.62340    3.41050    3.62340  -99.29060   -1.56350    3.41050
 1300.00000   11.64920   11.64920  240.00960    4.16650  118.59950  118.59950   61.61430   61.61430    4.16650    3.71900    3.36400    3.71900 -100.52140   -3.29560    3.36400
 1350.00000   11.58900   11.58900  204.08160    4.90000   96.48770   96.48770   62.96690   62.96690    4.90000    4.64830    5.48570    4.64830  -98.09210   -1.30450    5.48570
 1400.00000   10.65520   10.65520  254.67970    3.92650  122.65250  122.65250   87.66370   87.66370    3.92650    3.64620    3.48110    3.64620  -99.22060   -2.77250    3.48110
 1450.00000   13.17990   13.17990  202.29460    4.94340  110.47610  110.47610   75.15400   75.15400    4.94340    4.36580    5.37850    4.36580  -99.25010   -3.14310    5.37850
 1500.00000   12.06650   12.06650  228.44090    4.37750  116.91940  116.91940   73.84060   73.84060    4.37750    3.93560    3.82060    3.93560  -99.07700   -3.73820    3.82060
 1550.00000   12.64200   12.64200  326.60530    3.06180  120.69530  120.69530   78.14160   78.14160    3.06180    2.82090    3.20220    2.82090  -97.46170   -4.11740    3.20220
 1600.00000   10.29350   10.29350  394.43060    2.53530  139.66960  139.66960   90.60880   90.60880    2.53530    2.29120    2.52560    2.29120  -98.51230   -7.16260    2.52560
 1650.00000   10.89480   10.89480  240.41350    4.15950  119.07950  119.07950   86.94560   86.94560    4.15950    4.00950    3.93290    4.00950  -96.50120   -7.14600    3.93290
 1700.00000   10.65440   10.65440  304.65660    3.28320  116.67630  116.67630   71.94080   71.94080    3.28320    3.13380    3.05060    3.13380  -88.32640   -0.97580    3.05060
 1750.00000   10.82690   10.82690  207.68000    4.81510  110.91520  110.91520   79.34400   79.34400    4.81510    4.62240    5.29440    4.62240  -90.21000   -3.61010    5.29440
 1800.00000   13.31000   13.31000  376.56270    2.65560  117.87150  117.87150   74.57170   74.57170    2.65560    2.49560    2.38390    2.49560  -96.61460   -9.59000    2.38390
 1850.00000   11.98120   11.98120  289.20120    3.45780  113.58360  113.58360   67.10530   67.10530    3.45780    3.39630    3.52620    3.39630  -90.69660   -3.37020    3.52620
 1900.00000    8.73130    8.73130  101.70460    9.83240  110.81930  110.81930   50.66990   50.66990    9.83240    9.49650    8.61060    9.49650 -108.22490  -21.03270    8.61060
 1950.00000   13.87820   13.87820  579.51670    1.72790  172.96850  172.96850   71.53740   71.53740    1.72790    1.60920    2.00620    1.60920  -87.54600   -0.48860    2.00620
 2000.00000    8.88820    8.88820   95.46630   10.47490  105.79510  105.79510   74.92090   74.92090   10.47490    9.56540    8.42440    9.56540 -107.91280  -20.98900    8.42440
 2050.00000   15.00290   15.00290  390.60970    2.56010  164.38610  164.38610   56.51910   56.51910    2.56010    2.37390    2.31810    2.37390  -90.39090   -3.60120    2.31810
 2100.00000   14.79880   14.79880  241.42340    4.14210  149.98610  149.98610   66.96750   66.96750    4.14210    3.90700    3.73650    3.90700  -88.93970   -2.28420    3.73650
 2150.00000   10.39260   10.39260  259.49760    3.85360  110.46600  110.46600   69.30980   69.30980    3.85360    3.68870    4.05170    3.68870  -89.30580   -2.78450    4.05170
 2200.00000   10.43510   10.43510  212.28970    4.71510  105.33390  105.33390   58.26270   58.26270    4.71510    4.39460    3.62890    4.39460  -88.78610   -2.39960    3.62890
 2250.00000    9.84670    9.84670  227.99820    4.38600  115.39960  115.39960   63.35000   63.35000    4.38600    3.97600    3.62500    3.97600  -89.78800   -3.62130    3.62500
 2300.00000    9.94820    9.94820  312.80300    3.19690  114.37760  114.37760   59.86780   59.86780    3.19690    3.10550    2.98860    3.10550  -88.01170   -2.26680    2.98860
 2350.00000    9.20720    9.20720  151.70590    6.59170  105.27000  105.27000   52.57570   52.57570    6.59170    5.94740    6.59210    5.94740 -102.99770  -17.67460    6.59210
 2400.00000    9.12400    9.12400  167.20730    5.98060  106.60270  106.60270   63.05460   63.05460    5.98060    5.43830    8.19540    5.43830 -106.52200  -21.62060    8.19540
 2450.00000    9.32630    9.32630  244.22340    4.10330  103.46370  103.46370   54.18500   54.18500    4.10330    3.88110    4.82680    3.88110  -88.81650   -4.33900    4.82680
 2500.00000    9.12920    9.12920  124.37190    8.04040  106.51420  106.51420   47.44270   47.44270    8.04040    7.45200    8.07400    7.45200  -97.67700  -13.61920    8.07400
 2550.00000    8.75330    8.75330  344.68500    2.90120  104.15660  104.15660   54.71400   54.71400    2.90120    3.14300    3.72370    3.14300  -86.46160   -2.82550    3.72370
 2600.00000    8.23960    8.23960   85.57760   11.68530  111.36790  111.36790   39.84610   39.84610   11.68530   12.31980   15.57220   12.31980 -102.62880  -19.41450   15.57220
 2650.00000   12.07060   12.07060  206.96650    4.83170  110.05480  110.05480   60.28810   60.28810    4.83170    4.73250    3.97630    4.73250  -86.40230   -3.60980    3.97630
 2700.00000   11.22130   11.22130  269.07770    3.71640  103.84110  103.84110   67.85690   67.85690    3.71640    3.52870    3.92000    3.52870  -86.15560   -3.78690    3.92000
 2750.00000   10.95420   10.95420  276.54870    3.61600  104.22940  104.22940   69.75990   69.75990    3.61600    3.55990    3.70910    3.55990  -86.33130   -4.38230    3.70910
 2800.00000    9.84420    9.84420  318.65400    3.13820  109.61880  109.61880   72.10010   72.10010    3.13820    3.22400    3.32310    3.22400  -87.38930   -5.34040    3.32310
 2850.00000   10.37300   10.37300  285.37180    3.50420  112.80340  112.80340   60.05700   60.05700    3.50420    3.68140    3.07600    3.68140  -87.87080   -5.65080    3.07600
 2900.00000    8.63870    8.63870  198.49150    5.03800  103.00710  103.00710   60.92120   60.92120    5.03800    5.29320    6.27480    5.29320  -94.14890  -11.75790    6.27480
 2950.00000   10.69000   10.69000  335.65620    2.97930  108.34870  108.34870   73.87140   73.87140    2.97930    3.03340    3.39290    3.03340  -85.49380   -2.93090    3.39290
 3000.00000   10.91650   10.91650  236.66400    4.22540  101.48020  101.48020   77.93500   77.93500    4.22540    4.36580    4.52970    4.36580  -87.74360   -5.01050    4.52970
 3050.00000   14.76280   14.76280  190.94900    5.23700  105.11590  105.11590   72.87290   72.87290    5.23700    4.98100    4.71690    4.98100  -91.21590   -8.31170    4.71690
 3100.00000   15.00000   15.00000  179.90140    5.55860   94.70910   94.70910   87.45090   87.45090    5.55860    5.38570    5.23140    5.38570  -89.81720   -6.74200    5.23140
 3150.00000   15.00000   15.00000  211.00160    4.73930  106.44450  106.44450   93.25130   93.25130    4.73930    4.35590    4.56760    4.35590  -89.54000   -6.29370    4.56760
 3200.00000   12.94790   12.94790  191.91380    5.21150  114.31090  114.31090  169.42520  169.42520    5.21150    4.92740    6.26090    4.92740  -85.42540   -2.12610    6.26090
 3250.00000   11.49320   11.49320  135.71100    7.36860   95.56670   95.56670  110.28450  110.28450    7.36860    7.00700    9.58050    7.00700  -87.22240   -4.56920    9.58050
