~Version ---------------------------------------------------
VERS. 2.0 : CWLS log ASCII Standard -VERSION 2.0
WRAP.  NO : ONE LINE PER DEPTH STEP
~Well ------------------------------------------------------
STRT.M                        500.0 : START DEPTH
STOP.M                       3000.0 : STOP DEPTH
STEP.M                     50.00000 : STEP LENGTH
NULL.                       -999.25 : NULL VALUE
COMP.   PARAMOUNT RESOURCES COMPANY : COMPANY
WELL. PARA ET AL KAYBOB 12-35-63-18 : WELL
FLD .                        KAYBOB : FIELD
LOC .                               : LOCATION
CTRY.                        CANADA : COUNTRY
SRVC.                    Computalog : SERVICE COMPANY
DATE.                   20-Nov-2000 : LOGDATE
PROV.                       Alberta : PROVINCE
UWI .              100123506318W500 : UNIQUE WELL ID
SLAT.WGS84                 54.49699 : SURFACE LATITUDE
SLON.WGS84                -116.6156 : SURFACE LONGITUDE
~Curve Information -----------------------------------------
DEPT    .M      : DEPTH METERS
CALWS   .MM     : CALIPER [CALXED]
CALXDED .MM     : CALIPER X FROM DENSITY LOG
CALYDED .MM     : CALIPER Y FROM DENSITY LOG
CALYSED .MM     : CALIPER Y FROM SONIC LOG
CONDWS  .MMHO   : CONDUCTIVITY [1000/DRESWS]
DCORED  .KG/M3  : DENSITY CORRECTION FROM DENSITY LOG
DCORWS  .KG/M3  : DENSITY CORRECTION [DCORED]
DENWS   .KG/M3  : BULK DENSITY [M=2650/2710 AT 1875 F=1000] [CALCULATED FROM DPORSSED/DPORLSED]
DPOLSWS .V/V    : DENSITY POROSITY [CONVERTED M=2710 F=1000] [CALCULATED FROM DENWS]
DPORLSED.V/V    : DENSITY POROSITY [M=2710 F=1000] FROM DENSITY LOG
DPORSSED.V/V    : DENSITY POROSITY [M=2650 F=1000] FROM DENSITY LOG
DRESWS  .OHMM   : DEEP RESISTIVITY [STIDED]
DTED    .US/M   : DELTA TIME FROM SONIC LOG
DTWS    .V/V    : DELTA TIME [DTED]
GRDED   .GAPI   : GAMMA RAY FROM DENSITY LOG
GRRED   .GAPI   : GAMMA RAY FROM RESISTIVITY LOG
GRSED   .GAPI   : GAMMA RAY FROM SONIC LOG
GRWS    .GAPI   : GAMMA RAY [GRRED] CSG @ 454m
MRESWS  .OHMM   : MEDIUM RESISTIVITY [STIMED]
NPOLSWS .V/V    : NEUTRON POROSITY LIMESTONE [NPORSSED CONVERTED TO LIMESTONE FROM POWER LOG FROM START TO 1875,THEN NPORLSED TO END]
NPORLSED.V/V    : NEUTRON POROSITY LIMESTONE FROM DENSITY LOG
NPORSSED.V/V    : NEUTRON POROSITY SANDSTONE FROM DENSITY LOG
PEED    .B/E    : PHOTOELECTRIC FACTOR FROM DENSITY LOG
PEFWS   .B/E    : PHOTOELECTRIC FACTOR [PEED]
RHOBED  .KG/M3  : BULK DENSITY FROM DENSITY LOG
SFLED   .OHMM   : SPHERICALLY FOCUSED LOG RESISTIVITY
SPRED   .MV     : SPONTANEOUS POTENTIAL FROM RESISTIVITY LOG
SPWS    .MV     : SPONTANEOUS POTENTIAL [BASELINE 0 MV] [SPRED]
SRESWS  .OHMM   : SHALLOW RESISTIVITY [SFLED]
STIDED  .OHMM   : SIMULTANEOUS TRIPLE INDUCTION DEEP
STIMED  .OHMM   : SIMULTANEOUS TRIPLE INDUCTION MEDIUM
TENDED  .KG     : TENSION FROM DENSITY LOG
TENRED  .KG     : TENSION FROM RESISTIVITY LOG
TENSED  .KG     : TENSION FROM SONIC LOG
~Params ----------------------------------------------------
PD  .                         GL : PERMANENT DATUM
EPD .FT                    800.1 : ELEVATION PERMANENT DATUM
LMF .                         KB : LOG MEASURED FROM
DAPD.FT                     5.55 : FEET ABOVE PERMANENT DATUM
EKB .FT                   805.65 : KELLY BUSHING
EGL .FT                    800.1 : GROUND LEVEL
DATE.                   11/20/00 : RUN DATE
RUN .                          1 : RUN NUMBER
DD  .M                      3040 : DEPTH DRILLER
DL  .M                    3040.3 : DEPTH LOGGER
BLI .M                      3018 : BOTTOM LOG INTERVAL
TLI .M                       484 : TOP LOG INTERVAL
CBD .M                       484 : CASING BOTTOM DRILLER
CBL .M                       484 : CASING BOTTOM LOGGER
BS  .MM                      200 : BIT SIZE
BSD .M                      3040 : BIT SIZE AT DEPTH
DFT .               GEL CHEMICAL : DRILLING FLUID TYPE
DFD .                       1150 : DRILLING FLUID DENSITY
DFV .                        149 : DRILLING FLUID VISCOSITY
DFPH.                        9.5 : DRILLING FLUID PH
DFL .                          6 : DRILLING FLUID LOSS
MSS .                   FLOWLINE : MUD SAMPLE SOURCE
RMS .OHMM                   1.65 : RESISTIVITY MUD SAMPLE
MST .DEGC                     14 : MUD SAMPLE TEMPERATURE
RMF .OHMM                   1.45 : RESISTIVITY MUD FILTRATE SAMPLE
MFST.DEGC                     14 : MUD FILTRATE SAMPLE TEMPERATURE
RMC .OHMM                    1.8 : RESISTIVITY MUD CAKE
MCST.DEGC                     14 : MUD CAKE SAMPLE TEMPERATURE
RMB .OHMM                    0.5 : RESISTIVITY MUD AT BHT
TCS .HRS                       9 : TIME CIRCULATED STOPPED
LUN .                        364 : LOGGING UNIT NUMBER
LUL .             GRANDE PRAIRIE : LOGGING UNIT LOCATION
ENGI.          GRUBB MUTCH YOUNG : RECORDING ENGINEER
WITN.                     BREDIN : WITNESSED BY
CLNT.                    A2DTECH : CLIENT CODE
ORIG. 6.5"/100M 16.5"/100M PRINT : ORIGIN OF DATA
UWI .           100123506318W500 : UNIQUE WELL ID
DICO.     A2D Technologies, Inc. : DIGITIZING COMPANY
~Other -----------------------------------------------------
~ASCII -----------------------------------------------------
# ...
 1550.00000  212.62910  212.62910  211.90160  211.85350   86.52540   11.95320   11.95320 2520.14500    0.11100    -999.25    0.07870   11.55730  247.44640  247.44640   58.22330   59.18160   56.45150   59.18160   11.88380    0.25100    -999.25    0.29600    2.84980    2.84980 2509.56960   15.71580   29.51280  -18.84430   15.71580   11.55730   11.88380  541.84860 1154.62150  681.66160
 1600.00000  211.62720  211.62720  215.97400  216.13080  102.82460   90.19990   90.19990 2544.89500    0.09660    -999.25    0.06370    9.72530  261.37710  261.37710   93.13180   84.93340   81.14950   84.93340   10.50880    0.24600    -999.25    0.29100    2.70250    2.70250 2566.11350   13.98420   43.22670   -7.49710   13.98420    9.72530   10.50880  525.50850 1188.50840  691.03850
 1650.00000  208.88290  208.88290  213.93620  213.76010  160.75880   47.39150   47.39150 2488.96000    0.12930    -999.25    0.09760    6.22050  246.60310  246.60310   44.54100   46.36620   45.66610   46.36620    8.32910    0.22100    -999.25    0.26600    2.64300    2.64300 2488.87080   14.89070  -12.57310  -62.67510   14.89070    6.22050    8.32910 1067.83500 1280.42100  703.07450
 1700.00000  216.60800  216.60800  221.96570  221.66710   99.80740  207.70130  207.70130 2811.20510   -0.05920    -999.25   -0.09770   10.01930  272.18190  272.18190   89.39090   93.68230   93.38670   93.68230   10.49950    0.24370    -999.25    0.28870    3.93780    3.93780 2815.12670   14.09280   45.34980   -4.13040   14.09280   10.01930   10.49950 1630.41720 1364.36320  697.44430
 1750.00000  211.33160  211.33160  222.44660  222.40900   79.88690   22.41850   22.41850 2619.80490    0.05270    -999.25    0.01830   12.51770  210.42930  210.42930   72.02600   72.20270   72.86080   72.20270   13.33670    0.19170    -999.25    0.23750    2.70060    2.70060 2588.81860   17.39060   27.77940  -23.41480   17.39060   12.51770   13.33670 1615.26140 1368.38870  712.58050
 1800.00000  215.89950  215.89950  264.82650  274.42990  120.37170  244.20390  244.20390 2564.36500    0.08520    -999.25    0.05190    8.30760  315.43780  315.43780   98.33300   98.79120  106.57050   98.79120    9.09520    0.42760    -999.25    0.47260    2.88560    2.88560 2553.78760   10.56040   42.39260   -9.64840   10.56040    8.30760    9.09520 1650.30650 1380.41860  703.75900
 1850.00000  216.77100  216.77100  222.47270  222.73360   98.00080    8.68500    8.68500 2617.33010    0.05420    0.05280    0.01980   10.20400  210.81580  210.81580   77.55310   83.76490   75.36310   83.76490    9.92770    0.12970    0.11610    0.17240    2.81060    2.81060 2618.74850   16.03950   17.38810  -17.25700   16.03950   10.20400    9.92770 1609.82120 1414.90590  721.75870
 1900.00000  214.01450  214.01450  219.48790  219.43220   24.20780   53.29250   53.29250 2712.73610   -0.00160   -0.00160    -999.25   41.30900  167.29550  167.29550   16.81220   22.62490   18.95360   22.62490   72.84410    0.01780    0.01780    -999.25    5.01870    5.01870 2706.32620  374.61510  -11.79550  -54.72950  374.61510   41.30900   72.84410 1640.73610 1449.39620  741.46300
 1950.00000  211.62840  211.62840  216.36300  216.86130   84.22540   34.08350   34.08350 2703.67310    0.00370    0.00370    -999.25   11.87290  185.99720  185.99720   30.09710   29.92150   30.20920   29.92150   12.88510    0.10820    0.10820    -999.25    3.63810    3.63810 2705.73510   22.56370  -15.75940  -56.35180   22.56370   11.87290   12.88510 1788.85820 1471.26290  749.57550
 2000.00000  227.91790  227.91790  229.83170  228.14210   32.77720   40.59960   40.59960 2680.58790    0.01720    0.01720    -999.25   30.50900  166.55390  166.55390   15.39180   14.76780   13.81180   14.76780   40.99660    0.04220    0.04220    -999.25    5.06660    5.06660 2680.59230  147.25310  -99.44950 -132.51250  147.25310   30.50900   40.99660 1836.73380 1506.66130  749.94560
 2050.00000  220.88180  220.88180  229.55860  229.50810  244.85200   16.22380   16.22380 2660.58110    0.02890    0.02890    -999.25    4.08410  213.60360  213.60360  101.05290   99.94720   97.54260   99.94720    4.75300    0.13620    0.13620    -999.25    3.42070    3.42070 2660.26510   10.35670  -16.00730  -50.70100   10.35670    4.08410    4.75300 1840.29430 1539.67650  777.95230
 2100.00000  220.77680  220.77680  225.95620  226.62420    6.79490   28.48470   28.48470 2717.18190   -0.00420   -0.00420    -999.25  147.16890  179.14120  179.14120   24.55530   27.41390   30.38980   27.41390  179.90600    0.03230    0.03230    -999.25    4.46460    4.46460 2721.56100  220.99360   40.78530   -1.74840  220.99360  147.16890  179.90600 1873.39890 1645.19460  763.54580
 2150.00000  213.55850  213.55850  224.57880  224.70540    1.74840   34.04600   34.04600 2710.85500   -0.00050   -0.00050    -999.25  571.94560  175.84740  175.84740   21.27070   22.06370   26.53290   22.06370  478.19020    0.02710    0.02710    -999.25    4.13330    4.13330 2711.71800  508.12330  -11.81920  -49.65450  508.12330  571.94560  478.19020 1891.84520 1637.48160  794.38170
 2200.00000  212.37450  212.37450  220.48280  220.62400   13.96970   45.30820   45.30820 2740.78000   -0.01800   -0.01800    -999.25   71.58350  186.35380  186.35380   51.51540   52.81740   54.84660   52.81740   76.77370    0.06350    0.06350    -999.25    3.98670    3.98670 2740.80180   84.53500   28.92440   -6.07530   84.53500   71.58350   76.77370 1991.34950 1631.51010  800.36370
 2250.00000  208.80340  208.80340  241.25430  244.93590    0.83450   53.30360   53.30360 2749.84300   -0.02330   -0.02330    -999.25 1198.29550  164.83070  164.83070   15.55610   13.49380   18.55520   13.49380  757.62300    0.00930    0.00930    -999.25    4.93260    4.93260 2749.57130  827.99990  -39.46070  -77.13970  827.99990 1198.29550  757.62300 1979.91760 1654.58980  803.53320
 2300.00000  209.78450  209.78450  283.12390  281.73250    4.09690   61.76600   61.76600 2737.87300   -0.01630   -0.01630    -999.25  244.08870  164.44370  164.44370   15.19450   15.67760   18.34000   15.67760  255.51880    0.01020    0.01020    -999.25    5.40860    5.40860 2742.55350  580.13340  -38.73560  -79.09390  580.13340  244.08870  255.51880 2006.79460 1704.07080  804.99040
 2350.00000  209.81790  209.81790  257.73690  269.92300    0.49160   54.54800   54.54800 2730.34910   -0.01190   -0.01190    -999.25 2034.18600  177.89830  177.89830   12.45040   13.26850   12.01600   13.26850  390.26370    0.01060    0.01060    -999.25    5.30140    5.30140 2729.96090 1793.64310  -56.90950  -99.94710 1793.64310 2034.18600  390.26370 2043.40830 1729.78060  816.31630
 2400.00000  207.36560  207.36560  259.53090  256.82400    4.58780   56.09560   56.09560 2709.82910    0.00010    0.00010    -999.25  217.96840  172.33780  172.33780   13.23050   15.42710   15.90580   15.42710  192.62960    0.01790    0.01790    -999.25    5.03850    5.03850 2709.68260  217.16550  -73.98970 -119.70660  217.16550  217.96840  192.62960 2080.09790 1752.83780  816.49900
 2450.00000  214.22190  214.22190  221.90910  221.91010   46.09290   59.52960   59.52960 2720.77290   -0.00630   -0.00630    -999.25   21.69530  171.13760  171.13760   13.14780   14.58760    9.81030   14.58760   31.53240    0.11110    0.11110    -999.25    3.04170    3.04170 2720.73630   76.40490  -84.33550 -132.73170   76.40490   21.69530   31.53240 2114.12350 1804.44360  888.82420
 2500.00000  211.10130  211.10130  254.01550  256.55490   14.20790   14.34030   14.34030 2811.91600   -0.05960   -0.05960    -999.25   70.38320  166.51820  166.51820   26.51190   21.68430   17.43780   21.68430   84.56230    0.09670    0.09670    -999.25    3.04490    3.04490 2814.82760   93.50690  -34.89360  -85.96910   93.50690   70.38320   84.56230 2125.90770 1824.80320  854.68540
 2550.00000  229.76090  229.76090  253.02880  253.08600   60.92140   39.55960   39.55960 2735.82100   -0.01510   -0.01510    -999.25   16.41460  210.28910  210.28910   57.18910   62.92530   55.24630   62.92530   17.66300    0.12370    0.12370    -999.25    4.00730    4.00730 2734.55350   21.32120   37.08130  -16.67350   21.32120   16.41460   17.66300 2142.68380 1845.19780  856.99870
