~Version ---------------------------------------------------
VERS.      2.0 : CWLS log ASCII Standard -VERSION 2.0
WRAP.       NO : ONE LINE PER DEPTH STEP
CREA. 08/28/13 : LAS CREATION DATE
~Well ------------------------------------------------------
STRT.M                     450.0 : START DEPTH
STOP.M                    3750.0 : STOP DEPTH
STEP.M                  50.00000 : STEP LENGTH
NULL.                    -999.25 : NULL VALUE
COMP. ALBERTA ENERGY COMPANY LTD : COMPANY
WELL.   AEC NORTH KARR 4-26-66-1 : WELL
FLD .                            : FIELD
LOC .                            : LOCATION
CTRY.                     CANADA : COUNTRY
SRVC.                    Unknown : SERVICE COMPANY
DATE.                18-Oct-1996 : LOGDATE
PROV.                    Alberta : PROVINCE
UWI .           100042606601W600 : UNIQUE WELL ID
SLAT.WGS84              54.73603 : SURFACE LATITUDE
SLON.WGS84             -118.0441 : SURFACE LONGITUDE
~Curve Information -----------------------------------------
DEPT    .M      : DEPTH METERS
AHIBDED .MM     : ARRAY INDUCTION INPUT BOREHOLE DIAMETER TO AIT PROCESSING
AHT10ED .OHMM   : 10 INCH RESISTIVITY TWO FOOT RESOLUTION FROM AIT LOG
AHT20ED .OHMM   : 20 INCH RESISTIVITY TWO FOOT RESOLUTION FROM AIT LOG
AHT30ED .OHMM   : 30 INCH RESISTIVITY TWO FOOT RESOLUTION FROM AIT LOG
AHT60ED .OHMM   : 60 INCH RESISTIVITY TWO FOOT RESOLUTION FROM AIT LOG
AHT90ED .OHMM   : 90 INCH RESISTIVITY TWO FOOT RESOLUTION FROM AIT LOG
AHTRTED .OHMM   : ARRAY INDUCTION TWO FOOT RT
AHTRXED .OHMM   : ARRAY INDUCTION TWO FOOT RT
CALDED  .MM     : CALIPER FROM DENSITY LOG
CALRED  .MM     : CALIPER FROM RESISTIVITY LOG
CALWS   .MM     : CALIPER [HCLARED]<3625>[CALRED]
CGRDED  .GAPI   : GAMMA RAY FROM DENSITY LOG
CONDWS  .MMHO   : CONDUCTIVITY [1000/DRESWS]
DCORWS  .KG/M3  : DENSITY CORRECTION [HDRAED]<3625>[DRHOED]
DENWS   .KG/M3  : BULK DENSITY [RHOZED]<3625>[RHOBED]
DPHILSED.V/V    : DENSITY POROSITY [M=2710 F=1000] FROM DENSITY LOG
DPHZLSED.V/V    : DENSITY POROSITY LIMESTONE FROM DENSITY LOG
DPHZSSED.V/V    : DENSITY POROSITY SANDSTONE FROM DENSITY LOG
DPOLSWS .V/V    : DENSITY POROSITY LIMESTONE [CALCULATED FROM DENWS]
DRESWS  .OHMM   : DEEP RESISTIVITY [AHT90ED], SPLICED WITH [LLDED]AT 3625m
DRHOED  .KG/M3  : DENSITY CORRECTION FROM DENSITY LOG
DT4PED  .US/M   : DELTA TIME COMP - P & S FROM DIPOLE SONIC LOG
DTCOED  .US/M   : DELTA TIME COMPRESSIONAL FROM SONIC LOG
DTED    .US/M   : DELTA TIME FROM SONIC LOG
DTWS    .US/M   : DELTA TIME [DTED]
GRRED   .GAPI   : GAMMA RAY FROM RESISTIVITY LOG
GRSED   .GAPI   : GAMMA RAY FROM SONIC LOG
GRWS    .GAPI   : GAMMA RAY [GRRED]
HCALRED .MM     : HRCC CALIPER CALIBRATED FROM RES. LOG
HDDED   .MM     : HOLE DIAMETER FROM DENSITY LOG
HDRAED  .KG/M3  : DENSITY CORRECTION FROM DENSITY LOG
HDSED   .MM     : HOLE DIAMETER FROM SONIC LOG
LLDED   .OHMM   : LATEROLOG DEEP RESISTIVITY
LLSED   .OHMM   : LATEROLOG SHALLOW RESISTIVITY
MRESWS  .OHMM   : MEDIUM RESISTIVITY [LLSED]
MSFLED  .OHMM   : MICROSPHERICALLY FOCUSED LOG RESISTIVITY
NPOLSWS .V/V    : NUTRON POROSITY LIMESTONE [NPORLSED], MATRIX CONVERTED [NPORSSED] TO LIMESTONE FROM TOP TO 2150m
NPORLSED.V/V    : NUTRON POROSITY LIMESTONE FROM DENSITY LOG
NPORSSED.V/V    : NUTRON POROSITY SANDSTONE FROM DENSITY LOG
PEFED   .B/E    : PHOTOELECTRIC FACTOR FROM DENSITY LOG
PEFWS   .B/E    : PHOTOELECTRIC FACTOR [PEFED]
PEFZED  .B/E    : PHOTOELECTRIC FACTOR STANDARD RESOLUTION FROM DENSITY LOG
RHOBED  .KG/M3  : BULK DENSITY FROM DENSITY LOG
RHOZED  .KG/M3  : BULK DENSITY FROM DENSITY LOG
SGRDED  .GAPI   : GAMMA RAY FROM DENSITY LOG
SPRED   .MV     : SPONTANEOUS POTENTIAL FROM RESISTIVITY LOG
SPWS    .MV     : SPONTANEOUS POTENTIAL [BASELINE 0 MV] [SPRED]
SRESWS  .OHMM   : SHALLOW RESISTIVITY [AHT10ED], SPLICED WITH [LLSED] AT 3625m
TENDED  .N      : TENSION FROM DENSITY LOG
TENRED  .N      : TENSION FROM RESISTIVITY LOG
TENSED  .N      : TENSION FROM SONIC LOG
~Params ----------------------------------------------------
PD  .                        GL : PERMANENT DATUM
EPD .M                    811.6 : ELEVATION PERMANENT DATUM
LMF .                        KB : LOG MEASURED FROM
DAPD.M                      7.4 : FEET ABOVE PERMANENT DATUM
DMF .                        KB : DRILLING MEASURED FROM
EKB .M                      819 : KELLY BUSHING
EDF .M                    818.7 : DRILLING FLOOR
EGL .M                    811.6 : GROUND LEVEL
DATE.                  10/18/96 : RUN DATE
RUN .                         1 : RUN NUMBER
DD  .M                     3755 : DEPTH DRILLER
DL  .M                     3756 : DEPTH LOGGER
BLI .M                   3755.2 : BOTTOM LOG INTERVAL
TLI .M                     3627 : TOP LOG INTERVAL
CS  .MM                   177.8 : CASING SIZE
CBD .M                     3628 : CASING BOTTOM DRILLER
CBL .M                     3627 : CASING BOTTOM LOGGER
BS  .MM                     152 : BIT SIZE
BSD .M                     3755 : BIT SIZE AT DEPTH
DFT .                  GEL CHEM : DRILLING FLUID TYPE
DFD .                      1130 : DRILLING FLUID DENSITY
DFV .                        60 : DRILLING FLUID VISCOSITY
DFPH.                      10.5 : DRILLING FLUID PH
DFL .                         8 : DRILLING FLUID LOSS
MSS .                  FLOWLINE : MUD SAMPLE SOURCE
RMS .OHMM                  3.32 : RESISTIVITY MUD SAMPLE
MST .DEGC                     9 : MUD SAMPLE TEMPERATURE
RMF .OHMM                  2.76 : RESISTIVITY MUD FILTRATE SAMPLE
MFST.DEGC                     9 : MUD FILTRATE SAMPLE TEMPERATURE
RMC .OHMM                  1.85 : RESISTIVITY MUD CAKE
MCST.DEGC                    11 : MUD CAKE SAMPLE TEMPERATURE
MFSS.                  MEASURED : MUD FILTRATE SAMPLE SOURCE
MCSS.                  MEASURED : MUD CAKE SAMPLE SOURCE
RMB .OHMM                 0.824 : RESISTIVITY MUD AT BHT
TCS .HRS                   2230 : TIME CIRCULATED STOPPED
TLAB.HRS                   1545 : TIME LOGGER AT BOTTOM
LUN .                      2028 : LOGGING UNIT NUMBER
LUL .            GRANDE PRAIRIE : LOGGING UNIT LOCATION
ENGI.           GIESSEN CARRCLL : RECORDING ENGINEER
WITN.                    SHIPKA : WITNESSED BY
CLNT.                   A2DTECH : CLIENT CODE
ORIG. 16.5"/100M 33"/100M PRINT : ORIGIN OF DATA
UWI .          100042606601W600 : UNIQUE WELL ID
DICO.    A2D Technologies, Inc. : DIGITIZING COMPANY
~Other -----------------------------------------------------
~ASCII -----------------------------------------------------
# ...
 1850.00000  228.36990   13.34880   14.06140   15.48130   17.15810   18.24830   13.51760   18.42200    -999.25    -999.25  225.17210    -999.25    -999.25  -28.86840 2398.10740    -999.25    -999.25    0.13470    0.18240   18.24830    -999.25  301.63370  317.44400  344.46550  344.46550   98.53940   82.96960   98.53940  225.17210  232.45530  -28.86840  250.99730    -999.25    -999.25   15.48130    -999.25    0.32270    -999.25    0.37020    -999.25    2.76910    2.76910    -999.25 2398.10740    -999.25    -999.25    -999.25   13.34880    -999.25 12976.86130    -999.25
 1900.00000  230.68750    9.30880    9.20340    9.10960    9.01250    8.94900    9.17850    9.70670    -999.25    -999.25  230.34580    -999.25    -999.25   58.56720 2522.62500    -999.25    -999.25    0.07460    0.10960    8.94900    -999.25  237.94980  238.21100  258.10570  258.10570   77.95210   64.01470   77.95210  230.34580  237.95040   58.56720  248.90020    -999.25    -999.25    9.10960    -999.25    0.19090    -999.25    0.24350    -999.25    3.79580    3.79580    -999.25 2522.62500    -999.25    -999.25    -999.25    9.30880    -999.25 13565.19630    -999.25
 1950.00000  237.98010   12.33480   10.84450   10.19590    8.99690    8.74730    8.89230   12.24950    -999.25    -999.25  238.26000    -999.25    -999.25  119.13230 2474.64310    -999.25    -999.25    0.10980    0.13760    8.74730    -999.25  236.84420  235.95900  243.05630  243.05630   54.55590   48.82620   54.55590  238.26000  254.43010  119.13230  267.68390    -999.25    -999.25   10.19590    -999.25    0.18920    -999.25    0.24180    -999.25    3.67330    3.67330    -999.25 2474.64310    -999.25    -999.25    -999.25   12.33480    -999.25 13748.97850    -999.25
 2000.00000  232.34340   44.34810   54.95280   20.03320   17.19150   11.32150   10.96730   41.67820    -999.25    -999.25  232.96550    -999.25    -999.25   48.38970 2663.51810    -999.25    -999.25   -0.00840    0.02720   11.32150    -999.25  213.31520  220.32120  229.13410  229.13410   36.22330   27.46620   36.22330  232.96550  230.41880   48.38970  241.59810    -999.25    -999.25   20.03320    -999.25    0.11350    -999.25    0.16090    -999.25    3.17490    3.17490    -999.25 2663.51810    -999.25    -999.25    -999.25   44.34810    -999.25 13784.09470    -999.25
 2050.00000  230.84450   12.24510   12.50220   12.71190   13.02210   13.36610   12.30650   12.99110    -999.25    -999.25  230.92340    -999.25    -999.25   59.47390 2554.70780    -999.25    -999.25    0.05930    0.09080   13.36610    -999.25  254.44020  249.15310  258.11520  258.11520  105.96260  106.39320  105.96260  230.92340  237.90870   59.47390  260.16920    -999.25    -999.25   12.71190    -999.25    0.23930    -999.25    0.29100    -999.25    2.78420    2.78420    -999.25 2554.70780    -999.25    -999.25    -999.25   12.24510    -999.25 13766.59860    -999.25
 2100.00000  227.71890   43.48400   45.27150   48.35730   51.54590   53.05950   38.84570   51.84900    -999.25    -999.25  227.24820    -999.25    -999.25  153.91390 2514.07570    -999.25    -999.25    0.11100    0.11460   53.05950    -999.25  286.80420  293.32280  300.49690  300.49690   85.12950   67.07540   85.12950  227.24820  231.95420  153.91390  243.35500    -999.25    -999.25   48.35730    -999.25    0.41220    -999.25    0.45190    -999.25    2.66530    2.66530    -999.25 2514.07570    -999.25    -999.25    -999.25   43.48400    -999.25 14449.99710    -999.25
 2150.00000  219.88300    4.82280    4.55030    4.43090    4.21180    4.09910    4.33040    6.13660    -999.25    -999.25  219.26540    -999.25    -999.25   33.43780 2688.20920    -999.25    -999.25   -0.01250    0.01270    4.09910    -999.25  279.75630  280.56730  289.24510  289.24510   97.50510   88.71960   97.50510  219.26540  216.59950   33.43780  244.98070    -999.25    -999.25    4.43090    -999.25    0.29590    0.31770    0.34510    -999.25    4.98820    4.98820    -999.25 2688.20920    -999.25    -999.25    -999.25    4.82280    -999.25 14393.02930    -999.25
 2200.00000  222.26310  133.64800  146.44640  140.55130  119.40800  128.75820  108.78580  145.55300    -999.25    -999.25  222.31700    -999.25    -999.25   70.13450 2446.92480    -999.25    0.15060    0.11870    0.15380  128.75820    -999.25  283.17570  288.89660  297.98970  297.98970  144.63470  125.92650  144.63470  222.31700  223.37260   70.13450  234.20390    -999.25    -999.25  140.55130    -999.25    0.24230    0.24230    0.29200    -999.25    3.87060    3.87060    -999.25 2446.92480    -999.25    -999.25    -999.25  133.64800    -999.25 14321.70210    -999.25
 2250.00000  220.73190   24.37130   26.64130   23.60770   21.17860   19.93370   20.16220   26.74820    -999.25    -999.25  220.07590    -999.25    -999.25   55.54260 2637.05910    -999.25    0.03530    0.00030    0.04270   19.93370    -999.25  209.32800  209.07460  216.60660  216.60660   97.85460   83.35310   97.85460  220.07590  224.56420   55.54260  235.95230    -999.25    -999.25   23.60770    -999.25    0.12140    0.12140    0.16680    -999.25    3.27790    3.27790    -999.25 2637.05910    -999.25    -999.25    -999.25   24.37130    -999.25 15125.87790    -999.25
 2300.00000  221.02740   26.30640   29.40260   28.57490   28.13250   27.56490   26.39660   29.09380    -999.25    -999.25  220.99050    -999.25    -999.25   77.21670 2689.38210    -999.25    0.01160   -0.02340    0.01210   27.56490    -999.25  208.52670  207.78370  214.35220  214.35220   84.73980   85.23170   84.73980  220.99050  225.19980   77.21670  245.11280    -999.25    -999.25   28.57490    -999.25    0.08500    0.08500    0.12830    -999.25    3.47950    3.47950    -999.25 2689.38210    -999.25    -999.25    -999.25   26.30640    -999.25 14722.39260    -999.25
 2350.00000  220.48470   34.87420   43.49610   39.66170   37.40750   36.13000   36.52310   40.28510    -999.25    -999.25  220.16110    -999.25    -999.25   70.52230 2684.78810    -999.25    0.01360   -0.02170    0.01470   36.13000    -999.25  193.04220  192.59940  193.18860  193.18860   88.98410   81.05270   88.98410  220.16110  224.72690   70.52230  236.68150    -999.25    -999.25   39.66170    -999.25    0.07400    0.07400    0.11930    -999.25    3.50870    3.50870    -999.25 2684.78810    -999.25    -999.25    -999.25   34.87420    -999.25 15408.49510    -999.25
 2400.00000  220.24410   47.55720   59.60940   55.59270   53.29150   51.28320   49.28870   55.19510    -999.25    -999.25  220.61320    -999.25    -999.25   48.56060 2689.60570    -999.25    0.00990   -0.02550    0.01190   51.28320    -999.25  210.38360  207.76720  208.80640  208.80640  121.86480  115.06780  121.86480  220.61320  224.30030   48.56060  236.52060    -999.25    -999.25   55.59270    -999.25    0.11040    0.11040    0.15730    -999.25    3.38680    3.38680    -999.25 2689.60570    -999.25    -999.25    -999.25   47.55720    -999.25 15154.25590    -999.25
 2450.00000  214.36520   17.18950    9.74680    6.27310    4.08500    3.11950    2.83740   15.92300    -999.25    -999.25  212.23630    -999.25    -999.25   95.65520 2553.71360    -999.25    0.09050    0.05750    0.09140    3.11950    -999.25  194.58160  196.03320  197.61690  197.61690   45.03440   35.46220   45.03440  212.23630  198.79950   95.65520  146.53090    -999.25    -999.25    6.27310    -999.25    0.14120    0.14120    0.19280    -999.25    2.69930    2.69930    -999.25 2553.71360    -999.25    -999.25    -999.25   17.18950    -999.25 14513.54390    -999.25
 2500.00000  222.21830   59.75030   91.55160   81.42530   76.75960   67.00890   51.46400   98.00160    -999.25    -999.25  221.70820    -999.25    -999.25   45.73840 2806.09420    -999.25   -0.05590   -0.09520   -0.05620   67.00890    -999.25  173.68840  176.83850  179.84940  179.84940   47.02950   43.37650   47.02950  221.70820  227.18270   45.73840  236.74600    -999.25    -999.25   81.42530    -999.25    0.08080    0.08080    0.12130    -999.25    3.28050    3.28050    -999.25 2806.09420    -999.25    -999.25    -999.25   59.75030    -999.25 15143.77540    -999.25
