~Version ---------------------------------------------------
VERS.      2.0 : CWLS log ASCII Standard -VERSION 2.0
WRAP.       NO : One line per depth step
CREA. 04/12/13 : LAS Creation Date
~Well ------------------------------------------------------
STRT.M                       450.0 : START DEPTH
STOP.M                      3150.0 : STOP DEPTH
STEP.M                    50.00000 : STEP LENGTH
NULL.                      -999.25 : NULL VALUE
COMP.       CHEVRON CANADA LIMITED : COMPANY
WELL. CHEVRON ET AL GILBY 7-1-41-3 : WELL
FLD .                              : FIELD
LOC .                              : LOCATION
CTRY.                       CANADA : COUNTRY
SRVC.                      Unknown : SERVICE COMPANY
DATE.                  29-Dec-1986 : LOGDATE
PROV.                      Alberta : PROVINCE
UWI .             100070104103W500 : UNIQUE WELL ID
SLAT.WGS84                52.50131 : SURFACE LATITUDE
SLON.WGS84               -114.2957 : SURFACE LONGITUDE
~Curve Information -----------------------------------------
DEPT   .M      : DEPTH METER
C1     .MM     : CALIPER1 FROM DENSITY LOG
C2     .MM     : CALIPER2 FROM DENSITY LOG
CALS   .MM     : CALIPER FROM SONIC LOG
DPHI_LS.DEC    : DENSITY POROSITY LIMESTONE [M=2710,F=1000] FROM DENSITY LOG
DPHI_SS.DEC    : DENSITY POROSITY SANDSTONE [M=2650,F=1000] FROM DENSITY LOG
DRHO   .KG/M3  : DENSITY CORRECTION FROM DENSITY LOG
DT     .US/M   : DELTA TIME FROM SONIC LOG
GRD    .GAPI   : GAMMA RAY FROM DENSITY LOG
GRS    .GAPI   : GAMMA RAY FROM SONIC LOG
ILD    .OHMM   : DEEP INDUCTION FROM RESISTIVITY LOG
ILM    .OHMM   : MEDIUM INDUCTION FROM RESISTIVITY LOG
NPHI_LS.DEC    : NEUTRON POROSITY LIMESTONE FROM DENSITY LOG
NPHI_SS.DEC    : NEUTRON POROSITY SANDSTONE FROM DENSITY LOG
PEF    .B/E    : PHOTOELECTRIC FACTOR FROM DENSITY LOG
RHOB   .KG/M3  : BULK DENSITY FROM DENSITY LOG
SFLU   .OHMM   : SPHERICALLY FOCUSED RESISTIVITY FROM RESISTIVITY LOG
SPR    .MV     : SPONTANEOUS POTENTIAL FROM RESISTIVITY LOG
TEND   .N      : TENSION FROM DENSITY LOG
TENR   .N      : TENSION FROM RESISTIVITY LOG
~Params ----------------------------------------------------
PD  .                         GL : PERMANENT DATUM
EPD .M                     978.7 : ELEVATION PERMANENT DATUM
LMF .                         KB : LOG MEASURED FROM
DAPD.M                       3.5 : FEET ABOVE PERMANENT DATUM
DMF .                         KB : DRILLING MEASURED FROM
EKB .M                     982.2 : KELLY BUSHING
EGL .M                     978.7 : GROUND LEVEL
DATE.                   12/29/86 : RUN DATE
RUN .                          1 : RUN NUMBER
DD  .M                      3170 : DEPTH DRILLER
DL  .M                    3165.4 : DEPTH LOGGER
BLI .M                    3164.7 : BOTTOM LOG INTERVAL
TLI .M                     451.5 : TOP LOG INTERVAL
CS  .MM                    244.5 : CASING SIZE
CBD .M                     451.7 : CASING BOTTOM DRILLER
CBL .M                     451.5 : CASING BOTTOM LOGGER
BS  .MM                    215.9 : BIT SIZE
BSD .M                      3170 : BIT SIZE AT DEPTH
DFT .                   GEL CHEM : DRILLING FLUID TYPE
DFD .                       1080 : DRILLING FLUID DENSITY
DFV .                         82 : DRILLING FLUID VISCOSITY
DFPH.                       10.5 : DRILLING FLUID PH
DFL .                          7 : DRILLING FLUID LOSS
MSS .                   FLOWLINE : MUD SAMPLE SOURCE
RMS .OHMM                   1.18 : RESISTIVITY MUD SAMPLE
MST .DEGC                   26.7 : MUD SAMPLE TEMPERATURE
RMF .OHMM                   1.28 : RESISTIVITY MUD FILTRATE SAMPLE
MFST.DEGC                     20 : MUD FILTRATE SAMPLE TEMPERATURE
RMC .OHMM                  0.535 : RESISTIVITY MUD CAKE
MCST.DEGC                     78 : MUD CAKE SAMPLE TEMPERATURE
MFSS.                      PRESS : MUD FILTRATE SAMPLE SOURCE
MCSS.                    FILT CK : MUD CAKE SAMPLE SOURCE
RMB .OHMM                  0.573 : RESISTIVITY MUD AT BHT
TCS .HRS                    1800 : TIME CIRCULATED STOPPED
TLAB.HRS                    2332 : TIME LOGGER AT BOTTOM
LUN .                       8123 : LOGGING UNIT NUMBER
LUL .                         RD : LOGGING UNIT LOCATION
ENGI.                      POWER : RECORDING ENGINEER
WITN.                     SANDHU : WITNESSED BY
CLNT.                    A2DTECH : CLIENT CODE
ORIG. 6.5"/100" 16.5"/100M PRINT : ORIGIN OF DATA
UWI .           100070104103W500 : UNIQUE WELL ID
DICO.     A2D Technologies, Inc. : DIGITIZING COMPANY
~Other -----------------------------------------------------
~ASCII -----------------------------------------------------
  450.00000    -999.25    -999.25    -999.25    -999.25    -999.25    -999.25    -999.25   29.47880   27.72260    -999.25    -999.25    -999.25    0.75260    -999.25    -999.25    -999.25    -999.25    -999.25    -999.25
  500.00000  228.06880  303.79310  245.63950    -999.25    0.15600   -0.65480  301.33000   92.46870   80.48480    7.91280    6.43420    -999.25    0.38910    3.03000 2400.33450    6.14930   -3.03200 7263.96140 6097.16890
  550.00000  221.29250  299.17940  237.62220    -999.25    0.13110    7.72670  299.52120   91.37630   94.06900    6.72550    5.52410    -999.25    0.38690    3.29370 2433.97580    5.72670  -23.90790 7279.58060 6319.74170
  600.00000  220.93280  271.30020  233.06240    -999.25    0.16640  -10.01690  306.86940   85.06880   76.29100    9.16920    8.05740    -999.25    0.34140    3.16060 2376.99460    7.07380  -26.52050 7518.81400 6575.46970
  650.00000  209.66720  225.63670  214.28690    -999.25    0.24800    2.00740  314.12630   46.42840   52.27620   20.11000   16.60960    -999.25    0.33050    2.94190 2244.99900   13.97530  -41.49110 7637.01370 6774.24460
  700.00000  224.58610  274.45850  223.73390    -999.25    0.50250   59.32930  436.47610   87.48890   87.87450    3.82530    3.01520    -999.25    0.57600    3.15190 1958.57320    4.12660  -18.13330 8346.55570 6962.14550
  750.00000  219.97340  250.12540  228.79320    -999.25    0.14260    4.16940  278.90460   73.59210   66.41530   11.23750    9.78890    -999.25    0.28910    2.88430 2415.51730   10.53260  -22.53710 8452.59080 7278.14400
  800.00000  222.16380  235.95950  218.01860    -999.25    0.15370   -1.19090  285.70150   69.34790   71.27690    5.75600    5.51960    -999.25    0.31320    2.78450 2392.33450    5.00050  -20.27100 8439.90430 7405.47660
  850.00000  232.90250  254.46130  232.17780    -999.25    0.12570    5.78080  303.08790   86.48610   82.83720    4.54320    4.23370    -999.25    0.39670    2.90220 2442.32740    4.22140  -21.67680 8678.69340 7484.20210
  900.00000  258.43580  237.41700  227.21420    -999.25    0.39790  139.75920  325.96080   93.73920   86.49480    4.77460    4.38100    -999.25    0.41150    3.16570 2009.00700    4.55100  -21.76210 8920.45410 7826.22510
  950.00000  293.66550  226.26480  231.81880    -999.25    0.26990  187.04260  295.95610   83.38460   78.38430    6.49100    7.26140    -999.25    0.38180    4.40760 2212.43310    6.75230  -19.59630 9496.77540 8192.16020
 1000.00000  329.82400  231.78650  237.21210    -999.25    0.27520  204.30660  286.79570   69.02290   67.05870    4.86810    4.73540    -999.25    0.08140    3.10330 2200.47970    4.62160  -17.95390 9241.04200 8364.74020
 1050.00000  205.46490  216.49210  204.28740    -999.25    0.21180   45.03340  266.85060   33.36190   34.26000   19.04280   17.93850    -999.25    0.29980    2.46280 2302.51980   18.95510  -52.25960 9195.93750 8676.11820
 1100.00000  244.04710  218.22570  229.98350    -999.25    0.24500   18.89510  275.25710   61.49880   52.42690    9.00880    7.99430    -999.25    0.31210    2.86350 2251.31030    7.76910  -17.67300 10139.01560 8838.99320
 1150.00000  215.94830  214.04140  210.03520    -999.25    0.08960   -4.83990  247.05000   59.20400   57.70420    8.11700    8.72850    -999.25    0.28990    3.46860 2498.73020   10.39090  -15.88920 10322.97660 9081.63180
 1200.00000  231.92940  284.14360  229.12420    -999.25    0.31930   46.25240  361.12060   66.02390   63.38740    5.88060    4.72020    -999.25    0.38900    2.89490 2126.72290    5.19800  -11.77200 10571.13570 9099.57910
 1250.00000  203.83660  208.25830  208.49010    -999.25    0.19450   12.70300  261.92120   37.46320   38.40820    9.09640   11.45170    -999.25    0.28240    2.39920 2332.30490   15.41280  -66.01790 10288.67970 9515.92870
 1300.00000  244.23980  347.17360  245.06200    -999.25    0.19890  163.23370  318.28570   76.02860   69.19950    4.54690    4.45410    -999.25    0.46410    3.27400 2321.19410    4.67320   -9.54040 11024.99510 9647.35640
 1350.00000  282.39040  280.33460  251.18340    -999.25    0.06180    9.16480  272.99850   98.41300   93.02670    9.07350    8.68690    -999.25    0.34820    3.18580 2542.80420    8.34490  -14.40270 10869.09280 9842.71680
 1400.00000  317.45460  232.71780  244.02510    -999.25    0.27710  131.90710  295.27630  113.60370  107.94220    8.29770    8.59610    -999.25    0.36390    3.01990 2198.41210    8.95600  -10.68430 11567.19140 10076.73240
 1450.00000  291.61630  224.15780  231.40540    -999.25    0.16340  228.16340  287.18300  120.17550  111.02360    9.51670   10.02150    -999.25    0.32430    3.52230 2394.22660   10.43380   -7.46160 11795.05270 10365.05470
 1500.00000  330.49580  242.45550  250.28710    -999.25    0.28140   37.63730  264.66600  103.98180   94.49030    7.30720    7.50510    -999.25    0.30020    2.95590 2192.63890    7.70200   -9.86540 12123.10060 10568.17290
 1550.00000  370.85630  308.14790  287.71120    -999.25    0.39550  107.24260  280.98590   97.25530   98.02500    5.84610    5.23110    -999.25    0.40070    3.16430 1980.32470    5.38530   -6.77720 12980.73540 10822.15040
 1600.00000  303.64850  222.32660  232.74420    -999.25    0.32830   34.75200  246.02060   69.97110   66.37630   10.98300    9.77550    -999.25    0.29590    3.06350 2115.80080    8.77180   -9.42900 12993.60250 10962.63180
 1650.00000  335.50500  294.30820  293.33540    -999.25    0.49090   77.98450  251.49270   98.31760   98.26260    9.50520    9.08500    -999.25    0.36450    2.94830 1802.41020    8.73970   -5.90930 12567.93360 11208.13670
 1700.00000  305.95290  236.78480  242.75510    -999.25    0.62090   22.73160  287.98470  115.39180  110.76910    8.45560    7.91320    -999.25    0.44040    3.09470 1616.32840    9.27490   -3.38120 12791.92580 11365.54590
 1750.00000  214.39930  245.48640  219.11590    -999.25    0.01800    2.09450  263.99780  101.56230   96.75720    7.33760    9.01080    -999.25    0.29190    3.80150 2612.90110   20.78870    1.37360 12980.76760 11652.83890
 1800.00000  226.49120  314.16230  247.30840    -999.25    0.28920  131.80270  327.29960  171.58470  158.86480   10.17490    9.61470    -999.25    0.54710    3.02760 2180.17970   13.14190    4.25990 13068.23340 11840.90330
 1850.00000  323.01270  258.95520  269.18400    -999.25    0.25600   95.47650  311.55280  100.03440  100.20960    3.19660    2.87270    -999.25    0.43620    2.90270 2229.95630    3.31490    5.49970 13184.51270 11993.67190
 1900.00000  329.53300  266.26550  281.68330    -999.25    0.25240  100.08050  284.98880   88.34950   84.42380    3.54220    3.43870    -999.25    0.40420    2.93560 2236.81150    3.66050   16.34600 13627.89550 12367.62890
 1950.00000  302.05110  256.66090  262.88350    -999.25    0.33880   -4.10150  234.13180   74.88200   76.12540    9.07190    8.46210    -999.25    0.26900    2.75610 2089.38720   11.29290    2.84590 14078.62990 12463.24120
 2000.00000  242.71170  265.10460  241.96480    -999.25    0.02190  -11.78440  232.05080   98.63710   85.99480   13.76050   14.74120    -999.25    0.26850    2.83510 2603.18750   15.94670   -5.44960 14097.27830 12579.35740
 2050.00000  214.87190  228.09560  209.76840    -999.25    0.08210    6.71740  201.26620   15.44330   14.67410   83.98060   87.72120    -999.25    0.03420    2.68340 2479.52390   98.62980  -46.63820 14212.71190 13065.56640
 2100.00000  218.73290  226.54280  213.60800    0.06340    -999.25   56.96400  178.28650   15.05190   20.32740   79.82690   69.35680    0.05090    -999.25    5.33590 2596.26590   57.70790 -129.43100 14333.81640 13073.25980
 2150.00000  266.72330  268.12790  248.11580    0.00140    -999.25   -4.26410  164.39890   21.86000   20.78500  166.53080  149.81680    0.01160    -999.25    4.84270 2706.45290  186.07510  -88.91360 14704.37010 13431.03420
 2200.00000  228.00200  239.55230  225.33550   -0.00190    -999.25    2.26880  170.24840   20.08080   19.09110  338.81120  319.75930    0.02070    -999.25    4.24420 2712.63040  384.09260 -106.33340 14897.27050 13665.86330
 2250.00000  222.86580  239.73900  226.05540    0.00870    -999.25    2.87220  169.39510   20.47700   25.18230  756.09990  589.40280    0.01830    -999.25    4.96690 2696.07060  525.34510 -120.01150 15352.76560 13762.98050
