~Version ---------------------------------------------------
VERS.      2.0 : CWLS log ASCII Standard -VERSION 2.0
WRAP.       NO : One line per depth step
CREA. 11/03/17 : LAS Creation Date
~Well ------------------------------------------------------
STRT.FT                         1550.0 : START DEPTH
STOP.FT                        12000.0 : STOP DEPTH
STEP.FT                       50.00000 : STEP LENGTH
NULL.                          -999.25 : NULL VALUE
COMP. AMOCO CANADA PETROLEUM CO., LTD. : COMPANY
WELL.  AMOCO C-2 WASKAHIGAN 7-22-63-24 : WELL
FLD .                       WASKAHIGAN : FIELD
LOC .                                  : LOCATION
CTRY.                           CANADA : COUNTRY
SRVC.                          Unknown : SERVICE COMPANY
DATE.                      14-Dec-1976 : LOGDATE
PROV.                          Alberta : PROVINCE
UWI .                 100072206324W500 : UNIQUE WELL ID
SLAT.WGS84                    54.46349 : SURFACE LATITUDE
SLON.WGS84                   -117.5411 : SURFACE LONGITUDE
~Curve Information -----------------------------------------
DEPT    .FT    : Depth Curve
CALDED  .IN    : CALIPER FROM DENSITY LOG [ADJ. TO RESISTIVITY LOG]
CALSED  .IN    : CALIPER FROM SONIC LOG [ADJ. TO RESISTIVITY LOG]
CALWS   .IN    : CALIPER [CALDED]
CONDWS  .MMHO  : CONDUCTIVITY [1000/DRESWS]
DCORED  .G/C3  : DENSITY CORRECTION FROM DENSITY LOG [ADJ. TO RESISTIVITY LOG]
DCORWS  .G/C3  : DENSITY CORRECTION [DCORED]
DENWS   .G/C3  : FORMATION BULK DENSITY [RHOBED]
DPHILSED.V/V   : DENSITY POROSITY LIMESTONE [M=2.71, F=1.00 ASSUMED] FROM DENSITY LOG [ADJ. TO RESISTIVITY LOG]
DPHISSED.V/V   : DENSITY POROSITY SANDSTONE [M=2.65, F=1.00 ASSUMED] FROM DENSITY LOG [ADJ. TO RESISTIVITY LOG]
DPOLSWS .V/V   : DENSITY POROSITY LIMESTONE [CALC FROM DENWS, M=2710,F=1000 ASSUMED]
DRESWS  .OHMM  : DEEP RESISTIVITY [ILDED]
DTED    .US/F  : DELTA TIME FROM SONIC LOG [ADJ. TO RESISTIVITY LOG]
DTWS    .US/F  : COMPRESSIONAL SONIC [DTED]
GRDED   .GAPI  : GAMMA RAY FROM DENSITY LOG [ADJ. TO RESISTIVITY LOG]
GRSED   .GAPI  : GAMMA RAY FROM SONIC LOG [ADJ. TO RESISTIVITY LOG]
GRSRED  .GAPI  : GAMMA RAY (REPEAT SECTION) FROM SONIC LOG [ADJ. TO RESISTIVITY LOG]
GRWS    .GAPI  : GAMMA RAY [GRDED SPL. TO GRSRED @ 11982']
ILDED   .OHMM  : DEEP INDUCTION LOG RESISTIVITY FROM RESISTIVITY LOG
ILMED   .OHMM  : MEDIUM INDUCTION LOG RESISTIVITY FROM RESISTIVITY LOG
LL8ED   .OHMM  : 8 INCH LATEROLOG RESISTIVITY FROM RESISTIVITY LOG
MRESWS  .OHMM  : MEDIUM RESISTIVITY [ILMED]
NPHILSED.V/V   : NEUTRON POROSITY LIMESTONE FROM DENSITY LOG [ADJ. TO RESISTIVITY LOG]
NPHISSED.V/V   : NEUTRON POROSITY SANDSTONE FROM DENSITY LOG [ADJ. TO RESISTIVITY LOG]
NPOLSWS .V/V   : NEUTRON POROSITY LIMESTONE [SCHL. NPHISSED MATRIX CONVERSION FOR LIMESTONE, SPL. TO NPHILSED @ 7464']
RHOBED  .G/C3  : BULK DENSITY FROM DENSITY LOG [ADJ. TO RESISTIVITY LOG]
SPRED   .MV    : SPONTANEOUS POTENTIAL FROM RESISTIVITY LOG
SPWS    .MV    : SPONTANEOUS POTENTIAL [BASELINE 0 MV, SPRED]
SRESWS  .OHMM  : SHALLOW RESISTIVITY [LL8ED]
~Params ----------------------------------------------------
PD  .                     GL : PERMANENT DATUM
EPD .FT               2789.5 : ELEVATION PERMANENT DATUM
LMF .                     KB : LOG MEASURED FROM
DAPD.FT                 20.5 : FEET ABOVE PERMANENT DATUM
EKB .FT               2810.0 : KELLY BUSHING
EGL .FT               2789.5 : GROUND LEVEL
DATE.               12/14/76 : RUN DATE
RUN .                      1 : RUN NUMBER
DD  .FT                12005 : DEPTH DRILLER
DL  .FT                12008 : DEPTH LOGGER
BLI .FT                12002 : BOTTOM LOG INTERVAL
TLI .FT                 1519 : TOP LOG INTERVAL
CBD .FT                 1519 : CASING BOTTOM DRILLER
CBL .FT                 1519 : CASING BOTTOM LOGGER
BS  .IN                  8.5 : BIT SIZE
BSD .FT                12005 : BIT SIZE AT DEPTH
DFT .                    GEL : DRILLING FLUID TYPE
DFD .                    9.0 : DRILLING FLUID DENSITY
DFV .                     75 : DRILLING FLUID VISCOSITY
DFPH.                    9.5 : DRILLING FLUID PH
DFL .                   12.2 : DRILLING FLUID LOSS
MSS .               FLOWLINE : MUD SAMPLE SOURCE
RMS .OHMM               2.89 : RESISTIVITY MUD SAMPLE
MST .DEGF                 44 : MUD SAMPLE TEMPERATURE
RMF .OHMM               2.32 : RESISTIVITY MUD FILTRATE SAMPLE
MFST.DEGF                 62 : MUD FILTRATE SAMPLE TEMPERATURE
TCS .HRS                   4 : TIME CIRCULATED STOPPED
LUN .                   7635 : LOGGING UNIT NUMBER
LUL .                    EDM : LOGGING UNIT LOCATION
ENGI.                 PAQUIN : RECORDING ENGINEER
WITN.       MACDONALD FARLEY : WITNESSED BY
CLNT.                A2DTECH : CLIENT CODE
ORIG.            2" 5" PRINT : ORIGIN OF DATA
UWI .       100072206324W500 : UNIQUE WELL ID
DICO. A2D Technologies, Inc. : DIGITIZING COMPANY
~Other -----------------------------------------------------
DIL-CNFD-BCS TOOL RUN
GAPS IN DT AS PER IMAGE SPLICED
~ASCII -----------------------------------------------------
# ...
 4050.00000    9.77420    9.47940    9.77420  135.73680    0.16440    0.16440    2.21280    -999.25    0.25920    0.29080    7.36720   94.76390   94.76390  132.26050  114.66370    -999.25  132.26050    7.36720    6.88070    7.60880    6.88070    -999.25    0.50010    0.46030    2.21280 -158.38940   -4.45410    7.60880
 4100.00000   10.15510    9.84870   10.15510  120.23130    0.19860    0.19860    2.31430    -999.25    0.20370    0.23140    8.31730   95.66200   95.66200  120.63520  114.72770    -999.25  120.63520    8.31730    7.58340    8.61110    7.58340    -999.25    0.51060    0.47130    2.31430 -159.49740   -5.22600    8.61110
 4150.00000    9.96340    9.38510    9.96340  102.10540    0.19090    0.19090    2.19640    -999.25    0.28550    0.30040    9.79380   86.55240   86.55240  124.20980  114.47370    -999.25  124.20980    9.79380    9.13340   10.00950    9.13340    -999.25    0.50450    0.46490    2.19640 -160.06220   -5.47060   10.00950
 4200.00000    9.13160    9.28110    9.13160  119.85950    0.06300    0.06300    2.40460    -999.25    0.16080    0.17860    8.34310   87.48210   87.48210  127.56940  120.09720    -999.25  127.56940    8.34310    7.54470    8.74570    7.54470    -999.25    0.52300    0.48430    2.40460 -159.20910   -4.32820    8.74570
 4250.00000    9.00360    9.52630    9.00360  114.86330    0.16440    0.16440    2.39670    -999.25    0.16230    0.18320    8.70600   85.30090   85.30090  124.10800  121.79030    -999.25  124.10800    8.70600    8.33790    9.71320    8.33790    -999.25    0.47830    0.43760    2.39670 -158.94130   -3.77110    9.71320
 4300.00000    9.87670   10.11110    9.87670  106.05020    0.18600    0.18600    2.39510    -999.25    0.15690    0.18420    9.42950   94.55640   94.55640  141.84960  132.81240    -999.25  141.84960    9.42950    9.13840   10.02770    9.13840    -999.25    0.52800    0.48960    2.39510 -159.93970   -4.48020   10.02770
 4350.00000    9.89110    9.64500    9.89110  141.39070    0.10770    0.10770    2.23570    -999.25    0.26040    0.27740    7.07260   91.74550   91.74550  133.11010  158.55080    -999.25  133.11010    7.07260    6.78210    7.37630    6.78210    -999.25    0.49770    0.45780    2.23570 -162.07740   -6.32860    7.37630
 4400.00000    9.94930    9.63220    9.94930   86.79050    0.16370    0.16370    2.41710    -999.25    0.14730    0.17130   11.52200   81.90340   81.90340  116.21400  133.78270    -999.25  116.21400   11.52200   11.25820   11.64270   11.25820    -999.25    0.43790    0.39590    2.41710 -163.60940   -7.57130   11.64270
 4450.00000    9.32740    8.81440    9.32740   60.92810    0.08180    0.08180    2.52890    -999.25    0.07570    0.10590   16.41280   79.02280   79.02280  113.14210  117.63780    -999.25  113.14210   16.41280   16.05090   17.42210   16.05090    -999.25    0.29980    0.25580    2.52890 -168.61160  -12.28420   17.42210
 4500.00000    8.96660    9.87590    8.96660   78.85320    0.15180    0.15180    2.29450    -999.25    0.21740    0.24300   12.68180   86.30620   86.30620  115.14010  120.10120    -999.25  115.14010   12.68180   11.99000   13.22010   11.99000    -999.25    0.39590    0.35290    2.29450 -165.96750   -9.35080   13.22010
 4550.00000    8.91560    9.67460    8.91560   65.40950    0.24920    0.24920    2.32660    -999.25    0.19450    0.22420   15.28830   77.69940   77.69940  119.27500  128.04400    -999.25  119.27500   15.28830   14.86390   14.89700   14.86390    -999.25    0.30530    0.26130    2.32660 -161.47410   -5.10090   14.89700
 4600.00000   10.36190    9.41490   10.36190   89.87070    0.05170    0.05170    2.09260    -999.25    0.33690    0.36110   11.12710   78.95910   78.95910  128.30950  144.51230    -999.25  128.30950   11.12710   10.37170   10.70990   10.37170    -999.25    0.35140    0.30780    2.09260 -163.25940   -7.80770   10.70990
 4650.00000   11.42490    9.66610   11.42490   97.54380    0.04000    0.04000    2.43270    -999.25    0.13890    0.16220   10.25180   84.79390   84.79390  141.13420  154.80710    -999.25  141.13420   10.25180    9.46090    9.86420    9.46090    -999.25    0.38430    0.34110    2.43270 -164.10200   -9.57180    9.86420
 4700.00000   11.83320    9.71290   11.83320  122.98010    0.07180    0.07180    2.43670    -999.25    0.13070    0.15980    8.13140   91.65710   91.65710  147.49560  151.19780    -999.25  147.49560    8.13140    7.66270    8.42150    7.66270    -999.25    0.43050    0.38830    2.43670 -161.00490   -7.39620    8.42150
 4750.00000   11.88220    9.53540   11.88220  115.87350    0.16900    0.16900    2.44990    -999.25    0.12100    0.15210    8.63010   89.10660   89.10660  144.96590  158.96410    -999.25  144.96590    8.63010    8.43940    9.21620    8.43940    -999.25    0.43070    0.38850    2.44990 -157.54190   -4.85470    9.21620
 4800.00000   12.64780    9.74600   12.64780  117.33650    0.13440    0.13440    2.41520    -999.25    0.14830    0.17240    8.52250   93.27430   93.27430  159.38930  164.76970    -999.25  159.38930    8.52250    8.19830    9.62340    8.19830    -999.25    0.45450    0.41290    2.41520 -160.56110   -8.79540    9.62340
 4850.00000   11.03130    9.32230   11.03130   60.15330    0.00720    0.00720    2.43620    -999.25    0.16010    0.16010   16.62420   66.21160   66.21160  101.89160  116.25960    -999.25  101.89160   16.62420   12.65940   32.54060   12.65940    -999.25    0.29920    0.25520    2.43620 -158.19840   -7.35420   32.54060
 4900.00000   11.59250    9.86320   11.59250   86.81840    0.20840    0.20840    2.34580    -999.25    0.19190    0.21300   11.51830   92.14140   92.14140  154.23460  160.30090    -999.25  154.23460   11.51830   10.77760   12.44900   10.77760    -999.25    0.46290    0.42160    2.34580 -156.80500   -6.88230   12.44900
 4950.00000   10.74470    9.53770   10.74470   74.43190    0.23400    0.23400    2.51540    -999.25    0.08270    0.11380   13.43510   90.48570   90.48570  157.87120  166.11260    -999.25  157.87120   13.43510   12.81670   15.96960   12.81670    -999.25    0.42250    0.38010    2.51540 -153.97760   -4.32970   15.96960
 5000.00000   11.02970    9.40570   11.02970   90.33590    0.25060    0.25060    2.26960    -999.25    0.23910    0.25760   11.06980   88.74060   88.74060  147.71190  153.14050    -999.25  147.71190   11.06980   10.50990   12.76230   10.50990    -999.25    0.42680    0.38450    2.26960 -157.16310   -3.81750   12.76230
 5050.00000   10.75800    9.52890   10.75800  103.91120    0.25040    0.25040    2.28090    -999.25    0.23120    0.25090    9.62360   90.86450   90.86450  151.38020  151.88370    -999.25  151.38020    9.62360    9.23670   10.82780    9.23670    -999.25    0.46940    0.42830    2.28090 -161.76410   -4.72070   10.82780
 5100.00000    9.21590    8.75720    9.21590   45.37860    0.17800    0.17800    2.43410    -999.25    0.13780    0.16130   22.03680   85.90010   85.90010  164.89740  168.02190    -999.25  164.89740   22.03680   19.76250   45.44850   19.76250    -999.25    0.43740    0.39540    2.43410 -165.16460   -4.42350   45.44850
 5150.00000    9.55450    9.12330    9.55450   84.08100    0.19030    0.19030    2.34720    -999.25    0.19200    0.21220   11.89330   90.84060   90.84060  152.34480  165.63260    -999.25  152.34480   11.89330   11.59660   15.25000   11.59660    -999.25    0.44080    0.39890    2.34720 -171.78270   -4.06890   15.25000
 5200.00000   10.11940    9.23050   10.11940   98.46110    0.23800    0.23800    2.33720    -999.25    0.20050    0.21800   10.15630   94.62730   94.62730  163.38850  171.76410    -999.25  163.38850   10.15630    9.58140   12.70970    9.58140    -999.25    0.46640    0.42520    2.33720 -182.10300   -6.26590   12.70970
 5250.00000   10.03760    9.08080   10.03760   77.86890    0.17840    0.17840    2.36580    -999.25    0.17490    0.20130   12.84210   94.80720   94.80720  177.38730  181.11390    -999.25  177.38730   12.84210   12.09870   16.01010   12.09870    -999.25    0.48140    0.44080    2.36580 -192.52380   -6.39180   16.01010
