~Version ---------------------------------------------------
VERS.      2.0 : CWLS log ASCII Standard -VERSION 2.0
WRAP.       NO : One line per depth step
CREA. 02/26/13 : LAS Creation Date
~Well ------------------------------------------------------
STRT.FT                                800.0 : START DEPTH
STOP.FT                              10200.0 : STOP DEPTH
STEP.FT                             50.00000 : STEP LENGTH
NULL.                                -999.25 : NULL VALUE
COMP.                 EXXONMOBIL CANADA LTD. : COMPANY
WELL. MOBIL CARSON CREEK WEST 11-1-61-13 #11 : WELL
FLD .                                        : FIELD
LOC .                                        : LOCATION
CTRY.                                 CANADA : COUNTRY
SRVC.                           Schlumberger : SERVICE COMPANY
DATE.                            03-Feb-1963 : LOGDATE
PROV.                                Alberta : PROVINCE
UWI .                       100110106113W500 : UNIQUE WELL ID
SLAT.WGS84                     54.2487051583 : SURFACE LATITUDE
SLON.WGS84                   -115.8169997457 : SURFACE LONGITUDE
~Curve Information -----------------------------------------
DEPT.FT                : DEPTH FEET
CILD.MMHO 05 110 46 00 : INDUCTION DEEP CONDUCTIVITY
DT  .US/F 60 500 00 00 : DELTA-T (INTERVAL TRANSIT TIME)
DT1 .US/F 60 500 00 00 : DELTA-T SHEAR - LOWER DIPOLE
GRS .GAPI 60 310 01 00 : GAMMA RAY FROM SONIC LOG
ILD .OHMM 05 120 46 00 : INDUCTION DEEP RESISTIVITY
MCAL.IN   15 280 01 00 : MLT (MICROLOG) CALIPER
SN  .OHMM 05 040 16 00 : SHORT NORMAL RESISTIVITY
SPR .MV   05 010 01 00 : SPONTANEOUS POTENTIAL FROM RESISTIVITY LOG
~Params ----------------------------------------------------
PD  .                     GL : PERMANENT DATUM
EPD .FT               2486.7 : ELEVATION PERMANENT DATUM
LMF .                     KB : LOG MEASURED FROM
DAPD.FT                 14.5 : FEET ABOVE PERMANENT DATUM
EKB .FT               2501.2 : KELLY BUSHING
EGL .FT               2486.7 : GROUND LEVEL
DATE.               02/03/63 : RUN DATE
RUN .                      2 : RUN NUMBER
DD  .FT                10215 : DEPTH DRILLER
DL  .FT                10214 : DEPTH LOGGER
BLI .FT                10213 : BOTTOM LOG INTERVAL
TLI .FT                 5500 : TOP LOG INTERVAL
CBD .FT                 1031 : CASING BOTTOM DRILLER
CBL .FT                 1031 : CASING BOTTOM LOGGER
BS  .IN                    9 : BIT SIZE
BSD .FT                10215 : BIT SIZE AT DEPTH
DFT .                    GEL : DRILLING FLUID TYPE
DFD .                    9.7 : DRILLING FLUID DENSITY
DFV .                    150 : DRILLING FLUID VISCOSITY
DFPH.                   10.5 : DRILLING FLUID PH
DFL .                    8.2 : DRILLING FLUID LOSS
RMS .OHMM                3.1 : RESISTIVITY MUD SAMPLE
MST .DEGF                 63 : MUD SAMPLE TEMPERATURE
RMF .OHMM               2.22 : RESISTIVITY MUD FILTRATE SAMPLE
MFST.DEGF                 66 : MUD FILTRATE SAMPLE TEMPERATURE
RMC .OHMM               1.27 : RESISTIVITY MUD CAKE
MCST.DEGF                 66 : MUD CAKE SAMPLE TEMPERATURE
TCS .HRS                 4.5 : TIME CIRCULATED STOPPED
LUN .                   1571 : LOGGING UNIT NUMBER
LUL .                    WCT : LOGGING UNIT LOCATION
ENGI.                KOKONIS : RECORDING ENGINEER
WITN.                  MILLS : WITNESSED BY
CLNT.                A2DTECH : CLIENT CODE
ORIG.            2" 5" PRINT : ORIGIN OF DATA
UWI .       100110106113W500 : UNIQUE WELL ID
DICO. A2D Technologies, Inc. : DIGITIZING COMPANY
~Other -----------------------------------------------------
~ASCII -----------------------------------------------------
  800.00000    -999.25    -999.25    -999.25   50.76760    -999.25    -999.25    -999.25    -999.25
  850.00000    -999.25    -999.25    -999.25   45.84980    -999.25    -999.25    -999.25    -999.25
  900.00000    -999.25    -999.25    -999.25   57.86830    -999.25    -999.25    -999.25    -999.25
  950.00000    -999.25    -999.25    -999.25   45.00240    -999.25    -999.25    -999.25    -999.25
 1000.00000    -999.25    -999.25    -999.25   42.66340    -999.25    -999.25    -999.25    -999.25
 1050.00000  244.06370    -999.25  118.62570   75.60410    4.11600   11.59170    5.32060  -67.51970
 1100.00000  195.71960    -999.25  137.83100   77.36560    4.57510   11.37400    5.26460  -67.83080
 1150.00000  129.05490    -999.25  103.86080   71.98590    7.50230   10.50250    6.85580  -67.45040
 1200.00000  214.20270    -999.25  112.73500   79.76290    4.54810   11.05960    5.18500  -67.58780
 1250.00000  132.68360    -999.25   99.78020   75.87180    7.72340   11.45010    7.03670  -67.60380
 1300.00000  161.08620    -999.25  124.15700   97.04910    6.20750   10.35300    6.61460  -67.62500
 1350.00000  137.18270    -999.25  102.37350   74.27150    7.30080   11.28700    6.79540  -66.55400
 1400.00000   37.09280    -999.25   96.98570   74.63180   25.35730    9.45640   22.04060  -67.77120
 1450.00000  160.67630    -999.25  100.10450   78.49510    5.77350    9.69870    6.46390  -66.44800
 1500.00000  285.81010    -999.25  114.83470   93.10580    3.70220   12.13590    4.31590  -66.01620
 1550.00000  267.09020    -999.25  110.67750   89.51230    3.65590   13.12420    4.08840  -65.78390
 1600.00000  206.83170    -999.25  101.64250   81.14290    4.74520   14.28720    5.23200  -66.13860
 1650.00000  144.22210    -999.25  100.86250   66.06830    6.59040   10.60730    6.89340  -66.70280
 1700.00000  170.44820    -999.25  104.13830   66.24970    5.10020    9.33970    4.97580  -68.74110
 1750.00000  163.69220    -999.25  120.88050   79.84670    5.47140   10.32620    6.01640  -65.90400
 1800.00000   22.04810   79.55030   77.39250   47.81080   34.64380    9.06540   23.97780  -70.12360
 1850.00000   81.44280    -999.25  105.93500   62.83060   13.90890    9.63520   13.47990  -66.51490
 1900.00000  137.25920    -999.25  105.72800   69.95930    6.68700   10.97680    7.31760  -65.46930
 1950.00000  179.12900    -999.25  118.49530   68.08510    5.14340   11.13730    5.67780  -65.15210
 2000.00000  208.59180    -999.25  122.23550   68.47790    4.57300   10.93640    5.12600  -64.54220
 2050.00000  120.70760    -999.25   93.28580   73.66000    8.00530    9.94800    8.94240  -64.82330
 2100.00000   89.70020    -999.25   94.31800   67.36980   10.79920   10.00480   10.17070  -66.02260
 2150.00000  160.03930    -999.25  101.42800   68.65160    6.11640   10.40910    7.02950  -64.76130
 2200.00000   87.59160    -999.25  122.18630   46.59950   10.54370    8.60350   12.21780  -78.02800
 2250.00000  149.38960    -999.25  120.63380   71.53960    6.17120   11.42020    6.83160  -64.61260
 2300.00000  171.57800    -999.25  122.44700   67.64570    5.74760   10.58860    6.23900  -64.15240
 2350.00000   65.74150   80.01820   83.78230   47.26570   15.78040    8.63380   19.55790  -83.53400
 2400.00000  156.62360    -999.25   97.93700   69.87360    6.21820    9.46140    6.71770  -63.52730
 2450.00000   75.27850    -999.25   94.98750   47.70340   13.03770    8.81840   14.16270  -82.57550
 2500.00000  161.93050    -999.25  104.59400   64.23480    5.83340    9.69710    6.70380  -63.34600
 2550.00000   94.10510    -999.25   90.03970   59.29190   10.81340    9.36450   12.66740  -66.92830
 2600.00000   88.81230    -999.25   90.55450   73.60650   10.84510    9.37980   12.00450  -66.11250
 2650.00000  167.02960    -999.25   99.30800   78.04400    5.73130   10.38600    6.71340  -62.95780
 2700.00000  123.85050    -999.25   99.40300   89.43390    7.64050   11.23100    8.21870  -65.82160
 2750.00000  118.64490    -999.25   96.63620   84.37710    8.06040   11.51660    8.89550  -66.43720
 2800.00000  132.45830    -999.25   98.28730   99.86610    7.24520   10.56880    8.24660  -66.97610
 2850.00000  117.10400    -999.25   95.26620   98.82320    8.22830   10.17650    9.47740  -66.81110
 2900.00000  152.49450    -999.25  120.93350  167.24990    6.30880    9.35780    8.59000  -61.78890
 2950.00000   97.42890    -999.25   97.64050  103.84700    9.77740    9.80110   11.79170  -62.97960
 3000.00000  104.89110    -999.25   90.37100  100.19690    9.22920   10.17130   10.42410  -64.63370
 3050.00000  113.28500    -999.25   89.32430   83.14240    8.34470   10.58180    9.27830  -66.39270
 3100.00000  105.86960    -999.25   90.16900   95.47740    9.15530   11.11150    9.97970  -65.66980
 3150.00000   92.80520    -999.25   84.87100   97.25940   10.87890   10.23770   12.19650  -66.11450
 3200.00000  101.10740    -999.25   95.08200  107.45280    9.48000   10.55660   10.79350  -63.76070
 3250.00000  116.57510    -999.25   90.37500   96.06760    8.35760   11.46830    9.31370  -64.45000
 3300.00000  113.15580    -999.25   87.47450   98.12120    8.84740   11.21760    9.51590  -64.39220
 3350.00000  107.11150    -999.25   93.53080   92.05050    8.84500   11.71550    9.81590  -63.08920
 3400.00000   77.98990    -999.25   83.98880   85.98770   12.50030   11.04150   13.30890  -62.02980
 3450.00000  110.96460    -999.25   92.36820   95.28910    8.59320   11.43830    9.53490  -63.35620
 3500.00000  102.70470    -999.25   88.99580   95.80530    9.08140   11.40500    9.96770  -61.79360
 3550.00000  106.16620    -999.25   88.53130   96.85490    9.15070   12.36690   10.15780  -60.26050
 3600.00000  127.03090    -999.25  100.38200  104.73140    7.58490   13.45350    9.46610  -59.07110
 3650.00000  126.80580    -999.25   98.97400  102.63740    7.67160   12.16020    9.50170  -56.16610
 3700.00000  111.37600    -999.25   99.07930  120.18150    8.74730   10.55470   11.48750  -54.68420
 3750.00000  105.56530    -999.25   96.93000  118.60740    9.22060    9.60070   11.97660  -53.66810
 3800.00000   76.30480    -999.25   90.36250  118.27590   13.03580    9.30660   17.10150  -52.02280
 3850.00000  134.62360    -999.25   97.81680  106.61970    7.05920   11.77610    9.85810  -54.52470
 3900.00000  153.83760    -999.25   96.52050   94.95930    6.30590   12.37490    7.96850  -56.34050
 3950.00000  144.51970    -999.25   91.99100  103.55550    6.54520   12.31500    8.10110  -54.63520
 4000.00000  116.40440    -999.25   83.89730   90.72610    8.19080   10.26700    9.94780  -55.39810
 4050.00000  148.85680    -999.25   88.86220   95.61530    6.45440   11.50330    8.21850  -53.30340
 4100.00000  147.04090    -999.25   86.66100  107.20720    6.65690   12.84600    8.60830  -51.98000
 4150.00000  185.96640    -999.25   95.36820   98.23300    5.32000   13.75300    7.04980  -51.08340
 4200.00000  150.25850    -999.25   94.39700  121.21570    6.48570   10.94350    8.85080  -49.56620
 4250.00000  383.26000    -999.25  103.26250   89.94130    2.88570   14.64860    3.71900  -49.18880
 4300.00000  233.52570    -999.25   91.66180   92.32230    4.49980   13.85230    5.71610  -48.96050
 4350.00000  218.13590    -999.25   94.50320  110.44810    4.64850   13.22380    6.20190  -47.11640
 4400.00000   98.67300   76.79330   77.64780   64.69750   10.23350    9.41710   14.55940  -74.77170
 4450.00000  143.91300    -999.25   85.26730   75.49610    6.74700   16.05790    7.11610  -47.48660
 4500.00000   79.86980    -999.25   78.72300   58.63590   11.85780   11.11060   14.62010  -54.31590
 4550.00000   69.25930   64.75520   80.32820   75.47260   14.15140   10.83270   16.05500  -48.86840
 4600.00000  146.54330    -999.25  121.73900   88.45580    7.00110   15.16400   13.01160  -46.29300
 4650.00000   66.16530   70.39980   70.00230   48.29880   16.02130   11.15100   18.92630  -62.02030
 4700.00000   41.31000    -999.25  105.02580   65.43130   22.57180   13.40080   26.87170  -41.19270
 4750.00000   70.39410   80.03120   76.53770   49.25790   13.03760   10.73520   17.41040  -56.15550
