~Version ---------------------------------------------------
VERS.      2.0 : CWLS log ASCII Standard -VERSION 2.0
WRAP.       NO : One line per depth step
CREA. 12/20/17 : LAS Creation Date
~Well ------------------------------------------------------
STRT.FT                         300.0 : START DEPTH
STOP.FT                        9850.0 : STOP DEPTH
STEP.FT                      50.00000 : STEP LENGTH
NULL.                         -999.25 : NULL VALUE
COMP.          PACIFIC PETROLEUMS LTD : COMPANY
WELL. PACIFIC SUNRAY KAYBOB 2-2-64-19 : WELL
FLD .                                 : FIELD
LOC .                                 : LOCATION
CTRY.                          CANADA : COUNTRY
SRVC.          Schlumberger of Canada : SERVICE COMPANY
DATE.                     27-Jan-1959 : LOGDATE
PROV.                         Alberta : PROVINCE
UWI .                100020206419W500 : UNIQUE WELL ID
SLAT.WGS84                   54.50328 : SURFACE LATITUDE
SLON.WGS84                  -116.7572 : SURFACE LONGITUDE
~Curve Information -----------------------------------------
DEPT  .FT    : Depth Curve
CALWS .IN    : CALIPER [MCALED]
CONDWS.MMHO  : CONDUCTIVITY [1000/DRESWS]
DRESWS.OHMM  : DEEP RESISTIVITY [LNED]
GRED  .GAPI  : GAMMA RAY FROM CBL LOG [ADJ TO SPRED]
GRWS  .GAPI  : GAMMA RAY [GRED]
LNED  .OHMM  : 64 INCH LONG NORMAL RESISTIVITY FROM EL LOG
LT18ED.OHMM  : 18 FOOT 8 INCH LATERAL RESISTIVITY FROM EL LOG
MCALED.IN    : CALIPER FROM MICROLOG
NEUTED.CPS   : NEUTRON FROM NEUTRON LOG
NEUTWS.CPS   : NEUTRON [NEUTED]
SNED  .OHMM  : 16 INCH SHORT NORMAL RESISTIVITY FROM EL LOG
SPRED .MV    : SPONTANEOUS POTENTIAL FROM EL LOG
SPWS  .MV    : SPONTANEOUS POTENTIAL [BASELINE 0 MV] [SPRED]
SRESWS.OHMM  : SHALLOW RESISTIVITY [SNED]
~Params ----------------------------------------------------
LMF .                     KB : LOG MEASURED FROM
DMF .                     KB : DRILLING MEASURED FROM
EKB .FT               2473.7 : KELLY BUSHING
DATE.               01/27/59 : RUN DATE
RUN .                      1 : RUN NUMBER
DD  .FT                 9862 : DEPTH DRILLER
DL  .FT                 9866 : DEPTH LOGGER
BLI .FT                 9865 : BOTTOM LOG INTERVAL
TLI .FT                  684 : TOP LOG INTERVAL
CBD .FT                  685 : CASING BOTTOM DRILLER
CBL .FT                  684 : CASING BOTTOM LOGGER
BS  .IN                7.875 : BIT SIZE
BSD .FT                 9862 : BIT SIZE AT DEPTH
DFT .               OIL EMUL : DRILLING FLUID TYPE
DFD .                   10.7 : DRILLING FLUID DENSITY
DFV .                    170 : DRILLING FLUID VISCOSITY
DFPH.                      9 : DRILLING FLUID PH
DFL .                    6.6 : DRILLING FLUID LOSS
RMS .OHMM                3.9 : RESISTIVITY MUD SAMPLE
MST .DEGF                 61 : MUD SAMPLE TEMPERATURE
RMF .OHMM                2.7 : RESISTIVITY MUD FILTRATE SAMPLE
MFST.DEGF                 68 : MUD FILTRATE SAMPLE TEMPERATURE
RMC .OHMM                3.5 : RESISTIVITY MUD CAKE
MCST.DEGF                 68 : MUD CAKE SAMPLE TEMPERATURE
RMB .OHMM                1.3 : RESISTIVITY MUD AT BHT
TCS .HRS                 3.5 : TIME CIRCULATED STOPPED
LUN .                   2742 : LOGGING UNIT NUMBER
LUL .                     PR : LOGGING UNIT LOCATION
ENGI.                THOMSON : RECORDING ENGINEER
WITN.                FOGARTY : WITNESSED BY
CLNT.                A2DTECH : CLIENT CODE
ORIG.            2" 5" PRINT : ORIGIN OF DATA
UWI .       100020206419W500 : UNIQUE WELL ID
DICO. A2D Technologies, Inc. : DIGITIZING COMPANY
~Other -----------------------------------------------------
EL-ML-NEUT-CBL LOGS RUN
~ASCII -----------------------------------------------------
# ...
 2750.00000    -999.25  147.88090    6.76220   53.34940   53.34940    6.76220   10.38250    -999.25    -999.25    -999.25    6.54800  -96.38380   -1.77000    6.54800
 2800.00000    -999.25  114.65790    8.72160   79.24030   79.24030    8.72160    7.71490    -999.25    -999.25    -999.25    5.72740 -100.49880   -6.05700    5.72740
 2850.00000    -999.25  115.75550    8.63890   80.80830   80.80830    8.63890    9.21610    -999.25    -999.25    -999.25    5.87940 -100.28940   -6.02100    5.87940
 2900.00000    -999.25  122.97850    8.13150   83.71290   83.71290    8.13150    7.49910    -999.25    -999.25    -999.25    5.76990 -101.07720   -6.98110    5.76990
 2950.00000    -999.25   87.56110   11.42060  116.92680  116.92680   11.42060    6.36250    -999.25    -999.25    -999.25    9.06790  -99.66770   -5.74490    9.06790
 3000.00000    -999.25   64.23560   15.56770   89.29320   89.29320   15.56770    9.96060    -999.25    -999.25    -999.25   10.20880  -99.49410   -5.74360   10.20880
 3050.00000    -999.25   95.08510   10.51690   72.67620   72.67620   10.51690    8.78690    -999.25    -999.25    -999.25    6.78150 -100.73470   -7.15620    6.78150
 3100.00000    -999.25  125.08910    7.99430   73.91300   73.91300    7.99430    6.91200    -999.25    -999.25    -999.25    5.63910 -101.47090   -8.06580    5.63910
 3150.00000    -999.25  110.80700    9.02470   95.11660   95.11660    9.02470    7.42980    -999.25    -999.25    -999.25    6.44200 -102.66990   -9.43710    6.44200
 3200.00000    -999.25  107.35950    9.31450   90.71580   90.71580    9.31450    9.87490    -999.25    -999.25    -999.25    6.53350 -101.92020   -8.86070    6.53350
 3250.00000    -999.25  105.20450    9.50530   74.65220   74.65220    9.50530   11.16430    -999.25    -999.25    -999.25    7.18080 -101.33090   -8.44370    7.18080
 3300.00000    -999.25  104.89880    9.53300   92.56690   92.56690    9.53300    8.25090    -999.25    -999.25    -999.25    7.71420 -100.52560   -7.81040    7.71420
 3350.00000    -999.25  117.34060    8.52220   84.68670   84.68670    8.52220    6.55520    -999.25    -999.25    -999.25    6.44620 -100.97470   -8.43290    6.44620
 3400.00000    -999.25  105.35080    9.49210   68.37250   68.37250    9.49210    7.64610    -999.25    -999.25    -999.25    7.06530 -100.82650   -8.45700    7.06530
 3450.00000    -999.25  109.54580    9.12860   82.14270   82.14270    9.12860    8.19080    -999.25    -999.25    -999.25    6.78840 -100.92280   -8.72660    6.78840
 3500.00000    -999.25   87.19690   11.46830   88.19210   88.19210   11.46830    9.70020    -999.25    -999.25    -999.25    8.33830 -100.31290   -8.28900    8.33830
 3550.00000    -999.25   95.40350   10.48180   87.90300   87.90300   10.48180   11.75670    -999.25    -999.25    -999.25    8.83310  -99.60660   -7.75470    8.83310
 3600.00000    -999.25   97.87030   10.21760   93.39610   93.39610   10.21760    8.73300    -999.25    -999.25    -999.25    7.13370  -98.97070   -7.29210    7.13370
 3650.00000    -999.25  105.97820    9.43590   96.74660   96.74660    9.43590    9.71670    -999.25    -999.25    -999.25    6.56360  -99.06220   -7.55600    6.56360
 3700.00000    -999.25  119.05190    8.39970  101.20800  101.20800    8.39970    7.72890    -999.25    -999.25    -999.25    6.47110  -97.95170   -6.61880    6.47110
 3750.00000    -999.25  104.58830    9.56130   80.93120   80.93120    9.56130    7.93040    -999.25    -999.25    -999.25    7.86130  -95.84390   -4.68330    7.86130
 3800.00000    -999.25  110.36310    9.06100   90.97960   90.97960    9.06100    7.26220    -999.25    -999.25    -999.25    7.83660  -94.61540   -3.62680    7.83660
 3850.00000    -999.25   89.74400   11.14280   88.80360   88.80360   11.14280    8.23280    -999.25    -999.25    -999.25    9.34700  -93.96950   -3.15420    9.34700
 3900.00000    -999.25   90.90580   11.00040   99.57410   99.57410   11.00040    7.44360    -999.25    -999.25    -999.25    9.27520  -92.98480   -2.34190    9.27520
 3950.00000    -999.25   80.41110   12.43610   91.66870   91.66870   12.43610   11.96440    -999.25    -999.25    -999.25   13.49300  -91.99870   -1.52910   13.49300
 4000.00000    -999.25   65.70910   15.21860   96.26530   96.26530   15.21860    9.00400    -999.25    -999.25    -999.25   13.04760  -91.49860   -1.20130   13.04760
 4050.00000    -999.25  110.65250    9.03730   99.68070   99.68070    9.03730    8.17740    -999.25    -999.25    -999.25    7.69260  -92.67470   -2.21620    7.69260
 4100.00000    -999.25  123.95570    8.06740   77.26960   77.26960    8.06740    8.71480    -999.25    -999.25    -999.25    6.45450  -93.60970   -2.93560    6.45450
 4150.00000    -999.25  137.30790    7.28290   78.68960   78.68960    7.28290    7.19230    -999.25    -999.25    -999.25    5.66260  -94.14940   -3.48740    5.66260
 4200.00000    -999.25  116.83610    8.55900   79.70280   79.70280    8.55900    5.72700    -999.25    -999.25    -999.25    7.07980  -92.71780   -2.56860    7.07980
 4250.00000    -999.25  148.19430    6.74790   88.85600   88.85600    6.74790    6.14100    -999.25    -999.25    -999.25    5.77890  -91.84390   -2.20450    5.77890
 4300.00000    -999.25  105.00780    9.52310   81.82710   81.82710    9.52310    7.95980    -999.25    -999.25    -999.25    7.84750  -93.77360   -4.64300    7.84750
 4350.00000    -999.25  140.28590    7.12830   88.32850   88.32850    7.12830    5.95490    -999.25    -999.25    -999.25    5.98900  -91.18170   -2.56390    5.98900
 4400.00000    -999.25  177.63880    5.62940   78.28440   78.28440    5.62940    4.30240    -999.25    -999.25    -999.25    5.04230  -90.52800   -2.42000    5.04230
 4450.00000    -999.25  156.05250    6.40810  100.05080  100.05080    6.40810    4.92470    -999.25    -999.25    -999.25    5.40820  -90.41360   -2.81850    5.40820
 4500.00000    -999.25  242.14250    4.12980  112.46760  112.46760    4.12980    2.24730    -999.25    -999.25    -999.25    3.25300  -88.03770   -0.95240    3.25300
 4550.00000    -999.25  297.24750    3.36420   94.15840   94.15840    3.36420    1.68020    -999.25    -999.25    -999.25    2.26710  -88.80160   -2.22500    2.26710
 4600.00000    -999.25  195.80200    5.10720   89.17340   89.17340    5.10720    2.32230    -999.25    -999.25    -999.25    4.18560  -89.05440   -3.17420    4.18560
 4650.00000   13.03850  168.58010    5.93190   89.48620   89.48620    5.93190    3.15300   13.03850    -999.25    -999.25    5.26680  -89.88590   -4.76370    5.26680
 4700.00000   10.75290   84.73140   11.80200   83.71360   83.71360   11.80200    4.31230   10.75290    -999.25    -999.25   12.12730  -90.85310   -6.49340   12.12730
 4750.00000   13.59160  130.72750    7.64950   69.57700   69.57700    7.64950   14.20400   13.59160    -999.25    -999.25    7.22630  -89.35050   -5.74880    7.22630
 4800.00000   10.83020   87.08680   11.48280   72.09560   72.09560   11.48280    1.61050   10.83020    -999.25    -999.25    9.16040  -89.81520   -6.96990    9.16040
 4850.00000    -999.25   59.61180   16.77520   62.27450   62.27450   16.77520    0.68420    -999.25    -999.25    -999.25   12.60370  -89.89630   -7.81350   12.60370
 4900.00000    -999.25   41.32450   24.19870   53.53130   53.53130   24.19870   14.11690    -999.25    -999.25    -999.25   24.11760  -98.86370  -17.53890   24.11760
 4950.00000    -999.25   65.39840   15.29090   70.29550   70.29550   15.29090   11.59210    -999.25    -999.25    -999.25    8.83920  -87.88620   -7.32390    8.83920
 5000.00000    -999.25   59.65730   16.76240   65.99910   65.99910   16.76240    6.32760    -999.25    -999.25    -999.25    8.94590  -84.64190   -4.96080    8.94590
 5050.00000    -999.25   34.64920   28.86070   65.39950   65.39950   28.86070   10.30130    -999.25    -999.25    -999.25   17.36660  -87.04480   -9.54730   17.36660
 5100.00000    -999.25   48.06930   20.80330   58.66040   58.66040   20.80330    5.36240    -999.25    -999.25    -999.25   12.42520  -91.67580  -16.37930   12.42520
 5150.00000   11.95640   32.86220   30.43010   94.72710   94.72710   30.43010   13.81630   11.95640    -999.25    -999.25   16.38360  -78.60390   -5.49540   16.38360
