~Version ---------------------------------------------------
VERS.      2.0 : CWLS log ASCII Standard -VERSION 2.0
WRAP.       NO : One line per depth step
CREA. 10/03/17 : LAS Creation Date
~Well ------------------------------------------------------
STRT.FT                               950.0 : START DEPTH
STOP.FT                              8800.0 : STOP DEPTH
STEP.FT                            50.00000 : STEP LENGTH
NULL.                               -999.25 : NULL VALUE
COMP. CANADA CITIES SERVICE PETROLEUM CORP. : COMPANY
WELL.          CS CPOG KNOB HILL 10-25-46-2 : WELL
FLD .                                       : FIELD
LOC .                                       : LOCATION
CTRY.                                CANADA : COUNTRY
SRVC.                               Unknown : SERVICE COMPANY
DATE.                           04-Jul-1966 : LOGDATE
PROV.                               Alberta : PROVINCE
UWI .                      100102504602W500 : UNIQUE WELL ID
SLAT.WGS84                         52.99806 : SURFACE LATITUDE
SLON.WGS84                        -114.1551 : SURFACE LONGITUDE
~Curve Information -----------------------------------------
DEPT  .FT    : Depth Curve
CALSED.IN    : CALIPER FROM SONIC LOG
CALWS .IN    : CALIPER [CALSED]
CILDED.MMHO  : CONDUCTIVITY FROM RESISTIVITY LOG
CONDWS.MMHO  : CONDUCTIVITY [1000/DRESWS]
DRESWS.OHMM  : DEEP RESISTIVITY [1000/CILDED, IF ILDED<5, ILDED]
DTED  .US/F  : DELTA TIME FROM SONIC LOG
DTWS  .US/F  : COMPRESSIONAL SONIC [DTED]
GRSED .GAPI  : GAMMA RAY FROM SONIC LOG
GRWS  .GAPI  : GAMMA RAY [GRSED]
ILDED .OHMM  : INDUCTION LOG DEEP RESISTIVITY FROM RESISTIVITY LOG
SNED  .OHMM  : 16 INCH SHORT NORMAL RESISTIVITY FROM RESISTIVITY LOG
SPRED .MV    : SPONTANEOUS POTENTIAL FROM RESISTIVITY LOG
SPWS  .MV    : SPONTANEOUS POTENTIAL [BASELINE 0 MV, SPRED]
SRESWS.OHMM  : SHALLOW RESISTIVITY [SNED]
~Params ----------------------------------------------------
PD  .                     GL : PERMANENT DATUM
EPD .FT                 3004 : ELEVATION PERMANENT DATUM
LMF .                     KB : LOG MEASURED FROM
DAPD.FT                   12 : FEET ABOVE PERMANENT DATUM
EKB .FT                 3016 : KELLY BUSHING
EGL .FT                 3004 : GROUND LEVEL
DATE.               07/30/66 : RUN DATE
RUN .                      2 : RUN NUMBER
DD  .FT                 8828 : DEPTH DRILLER
DL  .FT                 8829 : DEPTH LOGGER
BLI .FT                 8828 : BOTTOM LOG INTERVAL
TLI .FT                 5750 : TOP LOG INTERVAL
CBD .FT                  911 : CASING BOTTOM DRILLER
CBL .FT                  913 : CASING BOTTOM LOGGER
BS  .IN                7.875 : BIT SIZE
BSD .FT                 8828 : BIT SIZE AT DEPTH
DFT .                    GEL : DRILLING FLUID TYPE
DFD .                    9.6 : DRILLING FLUID DENSITY
DFV .                     98 : DRILLING FLUID VISCOSITY
DFPH.                    0.5 : DRILLING FLUID PH
DFL .                    8.0 : DRILLING FLUID LOSS
RMS .OHMM               1.02 : RESISTIVITY MUD SAMPLE
MST .DEGF                 76 : MUD SAMPLE TEMPERATURE
RMF .OHMM               0.71 : RESISTIVITY MUD FILTRATE SAMPLE
MFST.DEGF                 72 : MUD FILTRATE SAMPLE TEMPERATURE
RMC .OHMM               1.27 : RESISTIVITY MUD CAKE
MCST.DEGF                 76 : MUD CAKE SAMPLE TEMPERATURE
RMB .OHMM               0.52 : RESISTIVITY MUD AT BHT
TCS .HRS                   2 : TIME CIRCULATED STOPPED
LUN .                   3534 : LOGGING UNIT NUMBER
LUL .                     SL : LOGGING UNIT LOCATION
ENGI.                  DUFFY : RECORDING ENGINEER
WITN.      DEGEMHARDT MOONEY : WITNESSED BY
CLNT.                A2DTECH : CLIENT CODE
ORIG.       2" 5" 2.5" PRINT : ORIGIN OF DATA
UWI .       100102504602W500 : UNIQUE WELL ID
DICO. A2D Technologies, Inc. : DIGITIZING COMPANY
~Other -----------------------------------------------------
IEL-BHC SONIC TOOL RUN
~ASCII -----------------------------------------------------
# ...
 5850.00000    7.61070    7.61070   29.51420   30.18590   33.12810   55.15720   55.15720   29.61540   29.61540   33.12810   46.98400  -70.81820  -39.40320   46.98400
 5900.00000    7.93160    7.93160   28.79210   27.67250   36.13700   56.44680   56.44680   32.74040   32.74040   36.13700   40.03600  -79.87420  -48.51360   40.03600
 5950.00000    8.01240    8.01240   19.70970   16.10170   62.10580   55.92460   55.92460   22.84570   22.84570   62.10580   48.28880  -80.26650  -48.96060   48.28880
 6000.00000    7.88710    7.88710   27.77660   25.83730   38.70380   56.64190   56.64190   31.18880   31.18880   38.70380   37.23410  -81.43430  -50.18280   37.23410
 6050.00000    7.82460    7.82460   18.97310   14.34780   69.69690   55.70830   55.70830   40.53430   40.53430   69.69690   59.28520  -73.62060  -42.42350   59.28520
 6100.00000    7.80870    7.80870   11.38450    8.19070  122.08980   54.01710   54.01710   34.92520   34.92520  122.08980   87.28720  -69.59560  -38.45320   87.28720
 6150.00000    7.52290    7.52290   10.22830    6.06220  164.95550   56.57130   56.57130   46.78610   46.78610  164.95550   90.83720  -63.31920  -32.23120   90.83720
 6200.00000    8.21270    8.21270   26.74010   24.57960   40.68510   72.74370   72.74370  135.38460  135.38460   40.68510   41.74110  -58.66420  -27.63090   41.74110
 6250.00000    7.43390    7.43390   21.81800   17.91240   55.82740   53.32180   53.32180   25.53410   25.53410   55.82740   68.31750 -139.87480 -108.89590   68.31750
 6300.00000    7.29460    7.29460   18.47680   14.80790   67.53140   50.51580   50.51580   25.28430   25.28430   67.53140   77.48690 -127.32450  -96.39990   77.48690
 6350.00000    7.78720    7.78720    1.44510    1.59930  625.26030   49.69320   49.69320   20.68470   20.68470  625.26030  182.44250  -94.51150  -63.64170  182.44250
 6400.00000    7.75020    7.75020    9.67390    4.71060  212.28520   49.44730   49.44730   25.97230   25.97230  212.28520  133.53040  -94.45870  -63.64320  133.53040
 6450.00000    7.78040    7.78040    5.93600    2.24590  449.66300   49.15050   49.15050   30.43000   30.43000  449.66300  152.16020 -108.56950  -77.80880  152.16020
 6500.00000    7.94680    7.94680    8.72800    6.05630  165.11630   49.90420   49.90420   27.09830   27.09830  165.11630  106.72670  -73.83340  -43.12700  106.72670
 6550.00000    8.11450    8.11450    5.93580    2.39100  418.23730   47.70510   47.70510   20.38000   20.38000  418.23730  131.00510  -84.68700  -54.03500  131.00510
 6600.00000    7.77550    7.77550    4.86230    1.60950  621.31440   46.99830   46.99830   22.34720   22.34720  621.31440  170.93880 -137.83290 -107.23570  170.93880
 6650.00000    7.63310    7.63310    5.58150    2.56440  389.96040   48.13330   48.13330   20.29670   20.29670  389.96040  196.53930 -140.27240 -109.72950  196.53930
 6700.00000    7.61340    7.61340    7.65240    4.44290  225.18480   47.94550   47.94550   17.87880   17.87880  225.18480  168.46430 -124.23220  -93.74410  168.46430
 6750.00000    8.06380    8.06380    3.37330    1.60700  622.26820   49.83930   49.83930   18.98310   18.98310  622.26820  189.58750  -76.81970  -46.38590  189.58750
 6800.00000    7.95020    7.95020    3.83100    1.61000  621.13320   47.62690   47.62690   23.04800   23.04800  621.13320  219.38310 -113.09330  -82.71390  219.38310
 6850.00000    7.87190    7.87190   22.32160   20.56910   48.61670   49.51280   49.51280   33.30480   33.30480   48.61670   71.40360  -90.08170  -59.75700   71.40360
 6900.00000    7.73070    7.73070   56.22170   56.10440   17.82390   52.09040   52.09040   39.30210   39.30210   17.82390   30.67550 -102.80220  -72.53190   30.67550
 6950.00000    7.94660    7.94660   76.34000   70.89320   14.15760   59.42500   59.42500   94.93360   94.93360   14.15760   17.56530  -82.52110  -52.30550   17.56530
 7000.00000    7.76310    7.76310   15.44780   12.70870   78.68650   48.11890   48.11890   31.16270   31.16270   78.68650   81.63570 -130.51920 -100.35800   81.63570
 7050.00000    7.48920    7.48920   19.01780   18.44060   54.22820   49.02730   49.02730   25.99880   25.99880   54.22820   63.15780 -118.08130  -87.97450   63.15780
 7100.00000    7.56390    7.56390   10.62790    7.57420  132.02750   47.71340   47.71340   24.97800   24.97800  132.02750   92.12800 -119.93030  -89.87820   92.12800
 7150.00000    7.80860    7.80860   44.46140   41.42660   24.13910   60.17540   60.17540   68.78190   68.78190   24.13910   31.27640  -50.49780  -20.50010   31.27640
 7200.00000    7.86130    7.86130   48.10110   48.23290   20.73810   54.60250   54.60250   53.72310   53.72310   20.73810   25.00670  -39.76130   -9.81830   25.00670
 7250.00000    7.73870    7.73870   76.42290   80.52630   12.41830   67.98790   67.98790   92.06940   92.06940   12.41830   21.04990  -43.77320  -13.88460   21.04990
 7300.00000    8.92910    8.92910  141.84880  141.56890    7.06370   72.13790   72.13790   99.56490   99.56490    7.06370   11.17800  -45.96250  -16.12830   11.17800
 7350.00000    7.89860    7.89860   90.16100   88.74300   11.26850   67.90390   67.90390   81.02780   81.02780   11.26850   14.24320  -39.83670  -10.05720   14.24320
 7400.00000    7.86720    7.86720   88.65110   88.91180   11.24710   67.55490   67.55490  100.84120  100.84120   11.24710   14.34170  -41.68670  -11.96160   14.34170
 7450.00000    7.94400    7.94400  100.79420  100.06470    9.99360   69.41560   69.41560   98.14290   98.14290    9.99360   12.91970  -41.94230  -12.27190   12.91970
 7500.00000    7.88560    7.88560  110.84110  110.71870    9.03190   70.09280   70.09280   95.21310   95.21310    9.03190   11.98980  -39.03210   -9.41610   11.98980
 7550.00000    7.84570    7.84570  111.34430  112.36330    8.89970   70.61410   70.61410  109.60650  109.60650    8.89970   11.97830  -38.18540   -8.62370   11.97830
 7600.00000    7.93480    7.93480  108.59640  108.00890    9.25850   69.52940   69.52940   90.11530   90.11530    9.25850   12.15440  -40.58970  -11.08280   12.15440
 7650.00000    7.76750    7.76750   83.30320   86.12150   11.61150   68.05600   68.05600   70.16460   70.16460   11.61150   15.85240  -39.13170   -9.67920   15.85240
 7700.00000    7.82480    7.82480   96.51190   95.06730   10.51890   69.96890   69.96890  105.99800  105.99800   10.51890   13.17770  -39.24070   -9.84290   13.17770
 7750.00000    7.90080    7.90080   98.03710   98.59210   10.14280   72.00410   72.00410   87.25970   87.25970   10.14280   13.48860  -37.83240   -8.48900   13.48860
 7800.00000    7.86770    7.86770   54.74970   53.04560   18.85170   62.28470   62.28470   72.42790   72.42790   18.85170   21.63930  -39.75640  -10.46730   21.63930
 7850.00000    8.09090    8.09090   68.47180   67.18080   14.88520   64.24270   64.24270   87.47250   87.47250   14.88520   18.41910  -41.64230  -12.40800   18.41910
 7900.00000    8.00320    8.00320   14.47460   12.58840   79.43810   52.51180   52.51180   44.93270   44.93270   79.43810   63.43160  -42.80380  -13.62380   63.43160
 7950.00000    8.10150    8.10150   38.22210   34.26310   29.64850   72.31100   72.31100  123.65830  123.65830   29.64850   35.92390  -37.13690   -8.01170   35.92390
 8000.00000    7.96040    7.96040    6.15830    2.00000  500.00000   70.39340   70.39340  111.35470  111.35470  500.00000  143.44740  -38.83300   -9.76210  143.44740
 8050.00000    7.98630    7.98630    2.97270    1.59360  627.50060   66.09930   66.09930   69.93640   69.93640  627.50060  126.76590  -42.56760  -13.55110  126.76590
 8100.00000    8.07120    8.07120    7.06250    5.25860  190.16510   58.02820   58.02820   45.59660   45.59660  190.16510   97.70250  -39.90310  -10.94130   97.70250
 8150.00000    7.26170    7.26170   32.91140   29.49580   33.90310   52.77370   52.77370   21.90020   21.90020   33.90310   68.82140 -131.39660 -102.48920   68.82140
 8200.00000    7.70820    7.70820    2.89450    1.99520  501.21480   49.42680   49.42680   20.23070   20.23070  501.21480  119.09660  -42.88860  -14.03590  119.09660
 8250.00000    7.87470    7.87470    4.73780    1.60010  624.97490   49.21830   49.21830   14.54930   14.54930  624.97490  127.03860  -36.49090   -7.79200  127.03860
