~Version ---------------------------------------------------
VERS.      2.0 : CWLS log ASCII Standard -VERSION 2.0
WRAP.       NO : One line per depth step
CREA. 12/07/17 : LAS Creation Date
~Well ------------------------------------------------------
STRT.FT                     1150.0 : START DEPTH
STOP.FT                    11250.0 : STOP DEPTH
STEP.FT                   50.00000 : STEP LENGTH
NULL.                      -999.25 : NULL VALUE
COMP. PAN AMERICAN PETROLEUM CORP. : COMPANY
WELL. PAN AM MOBIL ANTE 10-5-65-23 : WELL
FLD .                              : FIELD
LOC .                              : LOCATION
CTRY.                       CANADA : COUNTRY
SRVC.                        Welex : SERVICE COMPANY
DATE.                  21-Nov-1966 : LOGDATE
PROV.                      Alberta : PROVINCE
UWI .             100100506523W500 : UNIQUE WELL ID
SLAT.WGS84                54.59785 : SURFACE LATITUDE
SLON.WGS84               -117.4379 : SURFACE LONGITUDE
~Curve Information -----------------------------------------
DEPT  .FT    : Depth Curve
CALWS .IN    : CALIPER [MCALED]
CILDED.MMHO  : CONDUCTIVITY FROM RESISTIVITY LOG
CONDWS.MMHO  : CONDUCTIVITY [1000/DRESWS]
DRESWS.OHMM  : DEEP RESISTIVITY [1000/CILDED IF ILDED<1, ILDED]
DT1ED .US/F  : DELTA TIME (1' SPAN) FROM SONIC LOG [ADJ. TO RESISTIVITY LOG]
DTED  .US/F  : DELTA TIME (3' SPAN) FROM SONIC LOG [ADJ. TO RESISTIVITY LOG]
DTWS  .US/F  : COMPRESSIONAL SONIC [DTED]
GRED  .CU    : GAMMA RAY FROM GR LOG [ADJ. TO RESISTIVITY LOG]
GRSED .GAPI  : GAMMA RAY FROM SONIC LOG [ADJ. TO RESISTIVITY LOG]
GRWS  .GAPI  : GAMMA RAY [GRSED SPL. TO GRED @ 11256']
ILDED .OHMM  : DEEP INDUCTION FROM RESISTIVITY LOG
LT16ED.OHMM  : LATERAL 16' FROM RESISTIVITY LOG
MCALED.IN    : CALIPER FROM MICROLOG
SNED  .OHMM  : 18 INCH SHORT NORMAL RESISTIVITY FROM RESISTIVITY LOG
SPRED .MV    : SPONTANEOUS POTENTIAL FROM RESISTIVITY LOG
SPWS  .MV    : SPONTANEOUS POTENTIAL [BASELINE 0 MV, SPRED]
SRESWS.OHMM  : SHALLOW RESISTIVITY [SNED]
~Params ----------------------------------------------------
PD  .                     GL : PERMANENT DATUM
EPD .FT                 2595 : ELEVATION PERMANENT DATUM
LMF .                     KB : LOG MEASURED FROM
DAPD.FT                14.25 : FEET ABOVE PERMANENT DATUM
DMF .                     KB : DRILLING MEASURED FROM
EKB .FT              2609.25 : KELLY BUSHING
EGL .FT                 2595 : GROUND LEVEL
DATE.               10/21/66 : RUN DATE
RUN .                      1 : RUN NUMBER
DD  .FT                11278 : DEPTH DRILLER
DL  .FT                11279 : DEPTH LOGGER
BLI .FT                11274 : BOTTOM LOG INTERVAL
TLI .FT                 1125 : TOP LOG INTERVAL
CS  .IN                9.625 : CASING SIZE
CBD .FT                 1138 : CASING BOTTOM DRILLER
CBL .FT                 1125 : CASING BOTTOM LOGGER
BS  .IN                7.875 : BIT SIZE
BSD .FT                11278 : BIT SIZE AT DEPTH
DFT .             WATER BASE : DRILLING FLUID TYPE
DFD .                     10 : DRILLING FLUID DENSITY
DFV .                     94 : DRILLING FLUID VISCOSITY
DFPH.                     12 : DRILLING FLUID PH
DFL .                    9.6 : DRILLING FLUID LOSS
MSS .                   CIRC : MUD SAMPLE SOURCE
RMS .OHMM               1.48 : RESISTIVITY MUD SAMPLE
MST .DEGF                 84 : MUD SAMPLE TEMPERATURE
RMF .OHMM               1.35 : RESISTIVITY MUD FILTRATE SAMPLE
MFST.DEGF                 71 : MUD FILTRATE SAMPLE TEMPERATURE
RMC .OHMM                1.3 : RESISTIVITY MUD CAKE
MCST.DEGF                 61 : MUD CAKE SAMPLE TEMPERATURE
MFSS.                   MEAS : MUD FILTRATE SAMPLE SOURCE
MCSS.                   MEAS : MUD CAKE SAMPLE SOURCE
RMB .OHMM               0.72 : RESISTIVITY MUD AT BHT
TCS .HRS                   5 : TIME CIRCULATED STOPPED
ENGI.                 RLSTON : RECORDING ENGINEER
WITN.                WOOTTON : WITNESSED BY
CLNT.                A2DTECH : CLIENT CODE
ORIG.            2" 5" PRINT : ORIGIN OF DATA
UWI .       100100506523W500 : UNIQUE WELL ID
DICO. A2D Technologies, Inc. : DIGITIZING COMPANY
~Other -----------------------------------------------------
~ASCII -----------------------------------------------------
# ...
 7300.00000    8.37650    7.59340    2.14660  465.85070    -999.25   46.31950   46.31950    -999.25   32.28790   32.28790  465.85070  290.54880    8.37650  188.39800 -132.74590  -95.42880  188.39800
 7350.00000    8.43980    7.74050    1.99800  500.51090    -999.25   46.46320   46.46320    -999.25   20.56390   20.56390  500.51090  808.55820    8.43980  193.52710 -116.80350  -79.93210  193.52710
 7400.00000    8.66140   33.72440   32.42030   30.84490    -999.25   58.08120   58.08120    -999.25   22.86520   22.86520   30.84490   51.47400    8.66140   60.09130 -157.19280 -120.76700   60.09130
 7450.00000    8.10440   10.74710    6.82720  146.47250    -999.25   52.58400   52.58400    -999.25   24.68050   24.68050  146.47250   13.43290    8.10440   70.79130 -119.33250  -83.35240   70.79130
 7500.00000    8.10740  126.17150  139.04920    7.19170    -999.25   56.84580   56.84580    -999.25   22.17960   22.17960    7.19170    9.36710    8.10740   38.36610 -164.40440 -128.87000   38.36610
 7550.00000    8.07030  108.26880  118.42590    8.44410    -999.25   60.44570   60.44570    -999.25   29.19620   29.19620    8.44410   29.33990    8.07030   22.88550 -128.34880  -93.26000   22.88550
 7600.00000    8.73860    5.85270    2.23070  448.29900    -999.25   51.92850   51.92850    -999.25   25.23060   25.23060  448.29900  225.38780    8.73860  105.24290  -91.37260  -56.72950  105.24290
 7650.00000   10.51220    4.69540    2.00800  498.00230    -999.25   51.28450   51.28450    -999.25   26.18030   26.18030  498.00230   62.09590   10.51220  121.96320  -55.16830  -20.97090  121.96320
 7700.00000    9.71740   41.22000   39.08830   25.58310    -999.25   55.73250   55.73250    -999.25   26.01980   26.01980   25.58310   68.35680    9.71740   30.10370 -121.26720  -87.49890   30.10370
 7750.00000    9.66400   70.52150   76.55330   13.06280    -999.25   56.38440   56.38440    -999.25   27.84860   27.84860   13.06280   13.56590    9.66400   33.92840 -128.38640  -95.02710   33.92840
 7800.00000    8.22710   31.37680   29.48940   33.91050    -999.25   51.64980   51.64980    -999.25   32.48830   32.48830   33.91050   12.30070    8.22710   44.18630 -106.69210  -73.74180   44.18630
 7850.00000    9.05120   12.85220   12.58850   79.43730    -999.25   54.08100   54.08100    -999.25   35.75480   35.75480   79.43730  145.15500    9.05120   88.59440  -70.27540  -37.73410   88.59440
 7900.00000    8.06740    8.35550    2.22020  450.40950    -999.25   49.15540   49.15540    -999.25   14.98200   14.98200  450.40950  426.30710    8.06740  273.48610 -138.99590 -106.86360  273.48610
 7950.00000    8.28610    8.75250    6.46900  154.58450    -999.25   48.95650   48.95650    -999.25   14.97270   14.97270  154.58450  258.01840    8.28610  149.46890 -163.30620 -131.58290  149.46890
 8000.00000    8.40980    9.76280    8.09460  123.53880    -999.25   50.98540   50.98540    -999.25   13.50660   13.50660  123.53880  392.27450    8.40980  108.46140 -152.57980 -121.26540  108.46140
 8050.00000    8.25590  134.09130  142.76540    7.00450    -999.25   67.03870   67.03870    -999.25   79.46190   79.46190    7.00450   89.51620    8.25590   19.81830  -75.65440  -44.74900   19.81830
 8100.00000    8.14610  166.45790  187.53990    5.33220    -999.25   62.33630   62.33630    -999.25   60.79180   60.79180    5.33220   10.71420    8.14610   17.22320  -87.14580  -56.64940   17.22320
 8150.00000   11.26350  106.17660  112.60630    8.88050    -999.25   67.73150   67.73150    -999.25   72.80490   72.80490    8.88050    6.91880   11.26350   15.45630  -41.59960  -11.51220   15.45630
 8200.00000    8.41870   39.82470   43.07040   23.21780    -999.25   65.87190   65.87190    -999.25   71.01120   71.01120   23.21780  121.22730    8.41870   34.63540  -45.87370  -16.19530   34.63540
 8250.00000    8.02350   14.79150   18.88770   52.94450    -999.25   52.71690   52.71690    -999.25   26.69940   26.69940   52.94450  528.66470    8.02350   79.69070  -50.99490  -21.72550   79.69070
 8300.00000    7.82780    9.48980   12.42920   80.45570    -999.25   55.57660   55.57660    -999.25   33.77190   33.77190   80.45570   90.46580    7.82780   91.69710  -48.96880  -20.10830   91.69710
 8350.00000    8.04640   23.20450   25.70760   38.89900    -999.25   60.50760   60.50760    -999.25   66.15250   66.15250   38.89900  105.61890    8.04640   37.48660  -48.35420  -19.90270   37.48660
 8400.00000    7.78120    2.36260    4.61040  216.89940    -999.25   54.95380   54.95380    -999.25   35.32460   35.32460  216.89940  446.44990    7.78120  157.46690  -52.29900  -24.25650  157.46690
 8450.00000    7.62450    6.38090    7.06670  141.50900    -999.25   56.17510   56.17510    -999.25   43.15910   43.15910  141.50900  515.81740    7.62450  131.96130  -47.06860  -19.43510  131.96130
 8500.00000    7.72870    6.50460    8.78830  113.78790    -999.25   54.68590   54.68590    -999.25   38.25910   38.25910  113.78790  243.27060    7.72870  119.49070  -54.27210  -27.04760  119.49070
 8550.00000    7.62640    5.00680    6.57220  152.15640    -999.25   55.27940   55.27940    -999.25   36.83900   36.83900  152.15640  274.14580    7.62640  135.13090  -51.74010  -24.92460  135.13090
 8600.00000    7.68980   16.05320   16.59800   60.24830    -999.25   62.45670   62.45670    -999.25   73.79600   73.79600   60.24830  330.42730    7.68980   46.40540  -46.39430  -19.98770   46.40540
 8650.00000   11.63160    2.85130    3.90090  256.34950    -999.25   51.01620   51.01620    -999.25   18.43720   18.43720  256.34950  116.81380   11.63160  130.52280  -57.05900  -31.06140  130.52280
 8700.00000    7.51160    2.51460    3.00940  332.29200    -999.25   86.87750   86.87750    -999.25  238.44280  238.44280  332.29200   33.15260    7.51160  252.56690  -69.58910  -44.00050  252.56690
 8750.00000    7.83770    1.00610    3.57140  279.99950    -999.25   47.80950   47.80950    -999.25   14.01800   14.01800  279.99950 1131.68970    7.83770  276.69080  -87.60900  -62.42940  276.69080
 8800.00000    8.92180    3.40850    3.51050  284.85850    -999.25   49.51630   49.51630    -999.25   18.68200   18.68200  284.85850  981.63620    8.92180  246.77570  -60.14760  -35.37700  246.77570
 8850.00000    8.46060    1.63810    3.28910  304.03670    -999.25   49.06350   49.06350    -999.25   10.14210   10.14210  304.03670  955.49860    8.46060  209.45890  -86.94160  -62.58000  209.45890
 8900.00000   10.75620    3.16890    2.23110  448.20750    -999.25   48.81230   48.81230    -999.25   15.29380   15.29380  448.20750  778.82920   10.75620  190.42370  -83.63620  -59.68350  190.42370
 8950.00000    9.69320    2.49070    2.11030  473.86720    -999.25   52.70060   52.70060    -999.25   13.67850   13.67850  473.86720  786.41690    9.69320  270.40900  -91.26520  -67.72150  270.40900
 9000.00000    8.86000    5.07650    6.88260  145.29410    -999.25   41.02380   41.02380    -999.25    9.33880    9.33880  145.29410 1143.53140    8.86000   94.89930 -120.52500  -97.39030   94.89930
 9050.00000   11.55050    2.98040    2.18740  457.17110    -999.25   51.48290   51.48290    -999.25   15.51300   15.51300  457.17110  641.81050   11.55050  212.62310 -119.85630  -97.13060  212.62310
 9100.00000   10.75190    2.69400    3.88580  257.34630    -999.25   50.71420   50.71420    -999.25   35.13180   35.13180  257.34630  676.93250   10.75190  221.24280 -101.70800  -79.39130  221.24280
 9150.00000    9.62840    1.33560    4.39480  227.54360    -999.25   51.00510   51.00510    -999.25   30.66330   30.66330  227.54360  841.77830    9.62840  129.66830 -103.56810  -81.66040  129.66830
 9200.00000   11.01500    2.41210    2.59960  384.67980    -999.25   50.92290   50.92290    -999.25   13.04800   13.04800  384.67980  797.73070   11.01500  211.03830 -101.33500  -79.83620  211.03830
 9250.00000    9.69910    1.84650    2.26680  441.14800    -999.25   50.06680   50.06680    -999.25   17.82010   17.82010  441.14800  728.46970    9.69910  152.49330 -111.39570  -90.30590  152.49330
 9300.00000    9.81790    2.22080    2.00130  499.67690    -999.25   51.70910   51.70910    -999.25   17.36640   17.36640  499.67690  710.01580    9.81790  140.80140 -123.85770 -103.17690  140.80140
