~Version ---------------------------------------------------
VERS.      2.0 : CWLS log ASCII Standard -VERSION 2.0
WRAP.       NO : One line per depth step
CREA. 01/09/18 : LAS Creation Date
~Well ------------------------------------------------------
STRT.FT                          1150.0 : START DEPTH
STOP.FT                         12100.0 : STOP DEPTH
STEP.FT                        50.00000 : STEP LENGTH
NULL.                           -999.25 : NULL VALUE
COMP. HUDSONS BAY OIL & GAS COMPANY LTD : COMPANY
WELL. HB ET AL EAST MARLBORO 7-15-55-18 : WELL
FLD .                                   : FIELD
LOC .                                   : LOCATION
CTRY.                            CANADA : COUNTRY
SRVC.            Schlumberger of Canada : SERVICE COMPANY
DATE.                       14-Sep-1968 : LOGDATE
PROV.                           Alberta : PROVINCE
UWI .                  100071505518W500 : UNIQUE WELL ID
SLAT.WGS84                     53.74917 : SURFACE LATITUDE
SLON.WGS84                    -116.5848 : SURFACE LONGITUDE
~Curve Information -----------------------------------------
DEPT    .FT    : Depth Curve
CALDED  .IN    : CALIPER FROM DENSITY LOG, DEPTH ADJUSTED WITH [SPRED]
CALSED  .IN    : CALIPER FROM SONIC LOG, DEPTH ADJUSTED WITH [SPRED]
CALWS   .IN    : CALIPER [CALSED]
CONDWS  .MMHO  : CONDUCTIVITY [1000/DRESWS]
DCORED  .G/C3  : DENSITY CORRECTION FROM DENSITY LOG, DEPTH ADJUSTED WITH [SPRED]
DCORWS  .G/C3  : DENSITY CORRECTION [DCORED]
DENWS   .G/C3  : BULK DENSITY [RHOBED]
DPOLSWS .V/V   : DENITY POROSITY LIMESTONE [CALCULATED FROM DENWS]
DRESWS  .OHMM  : DEEP RESISTIVITY [ILDED]
DTED    .US/F  : DELTA TIME FROM SONIC LOG, DEPTH ADJUSTED WITH [SPRED]
DTWS    .US/F  : DELTA TIME [DTED]
GRNED   .GAPI  : GAMMA RAY FROM NEUTRON LOG, DEPTH ADJUSTED WITH [SPRED]
GRSED   .GAPI  : GAMMA RAY FROM SONIC LOG, DEPTH ADJUSTED WITH [SPRED]
GRWS    .GAPI  : GAMMA RAY [GRSED], SPLICED WITH [GRNED] FROM 8632'-8667'
ILDED   .OHMM  : INDUCTION LOG DEEP RESISTIVITY
ILMED   .OHMM  : INDUCTION LOG MEDIUM RESISTIVITY
LL8ED   .OHMM  : 8 INCH LATEROLOG RESISTIVITY
MRESWS  .OHMM  : MEDIUM RESISTIVITY [ILMED]
NEUTED  .NAPI  : NEUTRON FROM NEUTRON LOG, DEPTH ADJUSTED WITH [SPRED]
NEUTWS  .NAPI  : NEUTRON [NEUTED]
NPOLSWS .V/V   : NEITRON POROSITY LIMESTONE [SNPLSED]
PORLSED .V/V   : DENITY POROSITY LIMESTONE FROM DENSITY LOG, DEPTH ADJUSTED WITH [SPRED]
PORSDMED.V/V   : DENITY POROSITY DOLOMITE FROM DENSITY LOG, DEPTH ADJUSTED WITH [SPRED]
RHOBED  .G/C3  : BULK DENSITY FROM DENSITY LOG, DEPTH ADJUSTED WITH [SPRED]
SNPLSED .V/V   : SIDEWALL NEUTRON POROSITY LIMESTONE FROM DENSITY LOG, DEPTH ADJUSTED WITH [SPRED]
SPRED   .MV    : SPONTANEOUS POTENTIAL FROM RESISTIVITY LOG
SPWS    .MV    : SPONTANEOUS POTENTIAL [BASELINE 0 MV] [SPRED]
SRESWS  .OHMM  : SHALLOW RESISTIVITY [LL8ED]
~Params ----------------------------------------------------
PD  .                     GL : PERMANENT DATUM
EPD .FT                 3167 : ELEVATION PERMANENT DATUM
LMF .                     KB : LOG MEASURED FROM
DAPD.FT                   15 : FEET ABOVE PERMANENT DATUM
EKB .FT                 3182 : KELLY BUSHING
EGL .FT                 3167 : GROUND LEVEL
DATE.               09/14/68 : RUN DATE
RUN .                      3 : RUN NUMBER
DD  .FT                12110 : DEPTH DRILLER
DL  .FT                12109 : DEPTH LOGGER
BLI .FT                12105 : BOTTOM LOG INTERVAL
TLI .FT                11350 : TOP LOG INTERVAL
CBD .FT                 1265 : CASING BOTTOM DRILLER
BS  .IN                 8.75 : BIT SIZE
BSD .FT                12110 : BIT SIZE AT DEPTH
DFT .                    GEL : DRILLING FLUID TYPE
DFD .                   11.1 : DRILLING FLUID DENSITY
DFV .                    300 : DRILLING FLUID VISCOSITY
DFPH.                   11.5 : DRILLING FLUID PH
DFL .                    4.2 : DRILLING FLUID LOSS
MSS .             CIRCULATED : MUD SAMPLE SOURCE
RMS .OHMM               1.59 : RESISTIVITY MUD SAMPLE
MST .DEGF                 52 : MUD SAMPLE TEMPERATURE
RMF .OHMM               0.86 : RESISTIVITY MUD FILTRATE SAMPLE
MFST.DEGF                 58 : MUD FILTRATE SAMPLE TEMPERATURE
RMC .OHMM               1.69 : RESISTIVITY MUD CAKE
MCST.DEGF                 56 : MUD CAKE SAMPLE TEMPERATURE
RMB .OHMM               0.25 : RESISTIVITY MUD AT BHT
TCS .HRS                   4 : TIME CIRCULATED STOPPED
LUN .                   7501 : LOGGING UNIT NUMBER
LUL .                    EDM : LOGGING UNIT LOCATION
ENGI.               STUEHMER : RECORDING ENGINEER
WITN.                 WALKER : WITNESSED BY
CLNT.                A2DTECH : CLIENT CODE
ORIG.            2" 5" PRINT : ORIGIN OF DATA
UWI .       100071505518W500 : UNIQUE WELL ID
DICO. A2D Technologies, Inc. : DIGITIZING COMPANY
~Other -----------------------------------------------------
~ASCII -----------------------------------------------------
# ...
 6150.00000    -999.25    9.62290    9.62290   94.67720    -999.25    -999.25    -999.25    -999.25   10.56220   80.29920   80.29920    -999.25   81.02030   81.02030   10.56220   10.21790   12.30940   10.21790    -999.25    -999.25    -999.25    -999.25    -999.25    -999.25    -999.25  -58.69600   -1.68040   12.30940
 6200.00000    -999.25    9.49350    9.49350   78.86550    -999.25    -999.25    -999.25    -999.25   12.68290   79.53090   79.53090    -999.25   75.66220   75.66220   12.68290   11.90190   15.10670   11.90190    -999.25    -999.25    -999.25    -999.25    -999.25    -999.25    -999.25  -58.22740   -1.87100   15.10670
 6250.00000    -999.25    9.86240    9.86240  106.97250    -999.25    -999.25    -999.25    -999.25    9.34820   89.19410   89.19410    -999.25   87.50980   87.50980    9.34820    8.51700   11.78690    8.51700    -999.25    -999.25    -999.25    -999.25    -999.25    -999.25    -999.25  -56.82410   -1.12030   11.78690
 6300.00000    -999.25    9.50320    9.50320   72.35470    -999.25    -999.25    -999.25    -999.25   13.82080   89.04780   89.04780    -999.25   92.40750   92.40750   13.82080   13.42210   18.56270   13.42210    -999.25    -999.25    -999.25    -999.25    -999.25    -999.25    -999.25  -56.23480   -1.18690   18.56270
 6350.00000    -999.25    9.55420    9.55420   76.89940    -999.25    -999.25    -999.25    -999.25   13.00400   87.13090   87.13090    -999.25   91.59950   91.59950   13.00400   12.64190   17.06240   12.64190    -999.25    -999.25    -999.25    -999.25    -999.25    -999.25    -999.25  -55.69470   -1.30270   17.06240
 6400.00000    -999.25    9.41750    9.41750   58.63140    -999.25    -999.25    -999.25    -999.25   17.05570   85.18090   85.18090    -999.25   88.82620   88.82620   17.05570   16.55590   22.93460   16.55590    -999.25    -999.25    -999.25    -999.25    -999.25    -999.25    -999.25  -54.88540   -1.14930   22.93460
 6450.00000    -999.25    9.36110    9.36110   64.88870    -999.25    -999.25    -999.25    -999.25   15.41110   87.72030   87.72030    -999.25   90.55620   90.55620   15.41110   15.00000   20.46580   15.00000    -999.25    -999.25    -999.25    -999.25    -999.25    -999.25    -999.25  -56.47510   -3.03010   20.46580
 6500.00000    -999.25    9.23090    9.23090   64.03160    -999.25    -999.25    -999.25    -999.25   15.61730   87.68750   87.68750    -999.25   93.42460   93.42460   15.61730   15.19640   22.60000   15.19640    -999.25    -999.25    -999.25    -999.25    -999.25    -999.25    -999.25  -56.14750   -2.79580   22.60000
 6550.00000    -999.25    9.28520    9.28520   40.05010    -999.25    -999.25    -999.25    -999.25   24.96870   85.47690   85.47690    -999.25  101.38060  101.38060   24.96870   22.56850   38.97430   22.56850    -999.25    -999.25    -999.25    -999.25    -999.25    -999.25    -999.25  -56.25010   -2.99230   38.97430
 6600.00000    -999.25    9.74610    9.74610   56.97520    -999.25    -999.25    -999.25    -999.25   17.55150   83.05600   83.05600    -999.25   78.87580   78.87580   17.55150   14.59480   22.52380   14.59480    -999.25    -999.25    -999.25    -999.25    -999.25    -999.25    -999.25  -54.98540   -1.82140   22.52380
 6650.00000    -999.25    9.46980    9.46980   47.93380    -999.25    -999.25    -999.25    -999.25   20.86210   93.26350   93.26350    -999.25  139.04710  139.04710   20.86210   19.71830   32.54750   19.71830    -999.25    -999.25    -999.25    -999.25    -999.25    -999.25    -999.25  -57.04480   -3.97460   32.54750
 6700.00000    -999.25    9.70780    9.70780   98.76080    -999.25    -999.25    -999.25    -999.25   10.12560   78.80880   78.80880    -999.25   76.27470   76.27470   10.12560    9.85110   12.62010    9.85110    -999.25    -999.25    -999.25    -999.25    -999.25    -999.25    -999.25  -55.42390   -2.44810   12.62010
 6750.00000    -999.25   10.25620   10.25620  115.59090    -999.25    -999.25    -999.25    -999.25    8.65120   79.48670   79.48670    -999.25   81.07030   81.07030    8.65120    8.36180   11.16400    8.36180    -999.25    -999.25    -999.25    -999.25    -999.25    -999.25    -999.25  -55.26380   -2.38130   11.16400
 6800.00000    -999.25   10.76990   10.76990  134.95460    -999.25    -999.25    -999.25    -999.25    7.40990   83.93210   83.93210    -999.25   78.66710   78.66710    7.40990    7.07610    9.91380    7.07610    -999.25    -999.25    -999.25    -999.25    -999.25    -999.25    -999.25  -55.37540   -2.58680    9.91380
 6850.00000    -999.25    9.60980    9.60980   88.25890    -999.25    -999.25    -999.25    -999.25   11.33030   73.87140   73.87140    -999.25   71.09380   71.09380   11.33030   10.94700   14.69700   10.94700    -999.25    -999.25    -999.25    -999.25    -999.25    -999.25    -999.25  -57.42950   -4.73470   14.69700
 6900.00000    -999.25    9.27180    9.27180   89.88680    -999.25    -999.25    -999.25    -999.25   11.12510   74.32790   74.32790    -999.25   81.46570   81.46570   11.12510   11.64730   15.55810   11.64730    -999.25    -999.25    -999.25    -999.25    -999.25    -999.25    -999.25  -56.41410   -3.81310   15.55810
 6950.00000    -999.25    9.79640    9.79640  110.76760    -999.25    -999.25    -999.25    -999.25    9.02800   79.30760   79.30760    -999.25   75.49820   75.49820    9.02800    8.77340   11.78230    8.77340    -999.25    -999.25    -999.25    -999.25    -999.25    -999.25    -999.25  -55.80100   -3.29440   11.78230
 7000.00000    -999.25    9.80060    9.80060  106.73270    -999.25    -999.25    -999.25    -999.25    9.36920   86.74900   86.74900    -999.25   90.75750   90.75750    9.36920    8.58080   12.53540    8.58080    -999.25    -999.25    -999.25    -999.25    -999.25    -999.25    -999.25  -55.00510   -2.59180   12.53540
 7050.00000    -999.25   11.00660   11.00660  203.59140    -999.25    -999.25    -999.25    -999.25    4.91180   88.85090   88.85090    -999.25   82.00190   82.00190    4.91180    4.67880    6.26820    4.67880    -999.25    -999.25    -999.25    -999.25    -999.25    -999.25    -999.25  -53.30960   -0.99010    6.26820
 7100.00000    -999.25    9.56060    9.56060  104.60250    -999.25    -999.25    -999.25    -999.25    9.56000   81.71600   81.71600    -999.25   89.14990   89.14990    9.56000   10.06380   11.21030   10.06380    -999.25    -999.25    -999.25    -999.25    -999.25    -999.25    -999.25  -53.94460   -1.71900   11.21030
 7150.00000    -999.25    8.84360    8.84360   39.84490    -999.25    -999.25    -999.25    -999.25   25.09730   67.48340   67.48340    -999.25   57.53430   57.53430   25.09730   27.81480   31.61880   27.81480    -999.25    -999.25    -999.25    -999.25    -999.25    -999.25    -999.25  -59.77200   -7.80240   31.61880
 7200.00000    -999.25   10.81430   10.81430  372.98670    -999.25    -999.25    -999.25    -999.25    2.68130   96.98380   96.98380    -999.25   78.77920   78.77920    2.68130    2.54660    3.16480    2.54660    -999.25    -999.25    -999.25    -999.25    -999.25    -999.25    -999.25  -54.38900   -2.71490    3.16480
 7250.00000    -999.25    9.17600    9.17600  101.48470    -999.25    -999.25    -999.25    -999.25    9.85370   72.10300   72.10300    -999.25   58.23130   58.23130    9.85370    9.29980   18.20580    9.29980    -999.25    -999.25    -999.25    -999.25    -999.25    -999.25    -999.25  -60.63880   -9.25730   18.20580
 7300.00000    -999.25   10.54540   10.54540  128.78130    -999.25    -999.25    -999.25    -999.25    7.76510   83.55300   83.55300    -999.25   70.85120   70.85120    7.76510    6.36740    7.96510    6.36740    -999.25    -999.25    -999.25    -999.25    -999.25    -999.25    -999.25  -58.00510   -6.91760    7.96510
 7350.00000    -999.25    9.20800    9.20800   72.44430    -999.25    -999.25    -999.25    -999.25   13.80370   68.17520   68.17520    -999.25   59.92800   59.92800   13.80370   14.44440   22.23520   14.44440    -999.25    -999.25    -999.25    -999.25    -999.25    -999.25    -999.25  -61.27750  -10.48410   22.23520
