~Version ---------------------------------------------------
VERS.      2.0 : CWLS log ASCII Standard -VERSION 2.0
WRAP.       NO : One line per depth step
CREA. 11/03/17 : LAS Creation Date
~Well ------------------------------------------------------
STRT.FT                              1050.0 : START DEPTH
STOP.FT                              9550.0 : STOP DEPTH
STEP.FT                            50.00000 : STEP LENGTH
NULL.                               -999.25 : NULL VALUE
COMP.                       PEYTO OILS LTD. : COMPANY
WELL. PEYTO UNION ET AL MAHASKA 11-26-57-13 : WELL
FLD .                                    WC : FIELD
LOC .                                       : LOCATION
CTRY.                                CANADA : COUNTRY
SRVC.                          Schlumberger : SERVICE COMPANY
DATE.                           21-Mar-1971 : LOGDATE
PROV.                               Alberta : PROVINCE
UWI .                      100112605713W500 : UNIQUE WELL ID
SLAT.WGS84                         53.95807 : SURFACE LATITUDE
SLON.WGS84                        -115.8253 : SURFACE LONGITUDE
~Curve Information -----------------------------------------
DEPT  .FT    : Depth Curve
CALSED.IN    : CALIPER FROM SONIC LOG [ADJ. TO RESISTIVITY LOG]
CALWS .IN    : CALIPER [CALSED]
CILDED.MMHO  : DEEP INDUCTION CONDUCTIVITY FROM RESISTIVITY LOG
CONDWS.MMHO  : CONDUCTIVITY [1000/DRESWS]
DRESWS.OHMM  : DEEP RESISTIVITY [ILDED]
DTED  .US/F  : DELTA T FROM SONIC LOG [ADJ. TO RESISTIVITY LOG]
DTWS  .US/F  : COMPRESSIONAL SONIC [DTED]
GRSED .GAPI  : GAMMA RAY FROM SONIC LOG [ADJ. TO RESISTIVITY LOG]
GRWS  .GAPI  : GAMMA RAY [GRSED]
ILDED .OHMM  : DEEP INDUCTION RESISTIVITY FROM RESISTIVITY LOG
SNED  .OHMM  : SHORT NORMAL 16" RESISTIVITY FROM RESISTIVITY LOG
SPRED .MV    : SPONTANEOUS POTENTIAL FROM RESISTIVITY LOG
SPWS  .MV    : SPONTANEOUS POTENTIAL [BASELINE 0 MV, SPRED]
SRESWS.OHMM  : SHALLOW RESISTIVITY [SNED]
~Params ----------------------------------------------------
PD  .                     GL : PERMANENT DATUM
EPD .FT                 2640 : ELEVATION PERMANENT DATUM
LMF .                     KB : LOG MEASURED FROM
DAPD.FT                 18.2 : FEET ABOVE PERMANENT DATUM
EKB .FT               2658.2 : KELLY BUSHING
EGL .FT                 2640 : GROUND LEVEL
DATE.               03/21/71 : RUN DATE
RUN .                      1 : RUN NUMBER
DD  .FT                 9555 : DEPTH DRILLER
DL  .FT                 9554 : DEPTH LOGGER
BLI .FT                 9552 : BOTTOM LOG INTERVAL
TLI .FT                 2200 : TOP LOG INTERVAL
CBD .FT                 1033 : CASING BOTTOM DRILLER
CBL .FT                 1033 : CASING BOTTOM LOGGER
BS  .IN                 8.75 : BIT SIZE
BSD .FT                 9555 : BIT SIZE AT DEPTH
DFT .               GEL CHEM : DRILLING FLUID TYPE
DFD .                    9.1 : DRILLING FLUID DENSITY
DFV .                    118 : DRILLING FLUID VISCOSITY
DFPH.                      9 : DRILLING FLUID PH
DFL .                    8.6 : DRILLING FLUID LOSS
RMS .OHMM               2.34 : RESISTIVITY MUD SAMPLE
MST .DEGF                 60 : MUD SAMPLE TEMPERATURE
RMF .OHMM               2.03 : RESISTIVITY MUD FILTRATE SAMPLE
MFST.DEGF                 60 : MUD FILTRATE SAMPLE TEMPERATURE
RMC .OHMM               2.53 : RESISTIVITY MUD CAKE
MCST.DEGF                 59 : MUD CAKE SAMPLE TEMPERATURE
RMB .OHMM               0.79 : RESISTIVITY MUD AT BHT
TCS .HRS                 4.5 : TIME CIRCULATED STOPPED
LUN .                   7014 : LOGGING UNIT NUMBER
LUL .                     RD : LOGGING UNIT LOCATION
ENGI.             MCLAFFERTY : RECORDING ENGINEER
WITN.               CHRISTIE : WITNESSED BY
CLNT.                A2DTECH : CLIENT CODE
ORIG.               5" PRINT : ORIGIN OF DATA
UWI .       100112605713W500 : UNIQUE WELL ID
DICO. A2D Technologies, Inc. : DIGITIZING COMPANY
~Other -----------------------------------------------------
IEL-BHC LOG RUN
ALL DATA FROM IEL LOG VERIFIED UPTO (TOP- 5000') FROM 2" SCALE SECTION
~ASCII -----------------------------------------------------
# ...
 3500.00000    -999.25    -999.25  129.16580  145.66640    6.86500    -999.25    -999.25    -999.25    -999.25    6.86500    8.68500 -170.70000   -3.40390    8.68500
 3550.00000    -999.25    -999.25  122.07030  136.05440    7.35000    -999.25    -999.25    -999.25    -999.25    7.35000    9.52500 -170.16000   -2.82160    9.52500
 3600.00000    -999.25    -999.25   86.05190   93.85270   10.65500    -999.25    -999.25    -999.25    -999.25   10.65500   16.65500 -168.32000   -0.93900   16.65500
 3650.00000    -999.25    -999.25  118.12040  132.27510    7.56000    -999.25    -999.25    -999.25    -999.25    7.56000   10.31000 -168.40000   -0.97660   10.31000
 3700.00000    -999.25    -999.25  117.94430  131.57890    7.60000    -999.25    -999.25    -999.25    -999.25    7.60000    9.91000 -169.14000   -1.85020    9.91000
 3750.00000    -999.25    -999.25  123.84750  137.36260    7.28000    -999.25    -999.25    -999.25    -999.25    7.28000    8.28500 -169.72000   -2.56290    8.28500
 3800.00000    -999.25    -999.25  106.68950  117.64710    8.50000    -999.25    -999.25    -999.25    -999.25    8.50000   10.29000 -170.92000   -3.89560   10.29000
 3850.00000    -999.25    -999.25  138.94810  159.10900    6.28500    -999.25    -999.25    -999.25    -999.25    6.28500    7.98000 -167.76000   -0.86920    7.98000
 3900.00000    -999.25    -999.25  114.97420  128.53470    7.78000    -999.25    -999.25    -999.25    -999.25    7.78000    9.82500 -168.88000   -2.12190    9.82500
 3950.00000    -999.25    -999.25  139.13390  160.64260    6.22500    -999.25    -999.25    -999.25    -999.25    6.22500    8.04500 -168.88000   -2.25550    8.04500
 4000.00000    9.97590    9.97590  107.93530  121.28560    8.24500    -999.25    -999.25   81.01840   81.01840    8.24500    8.84500 -167.60000   -1.10820    8.84500
 4050.00000    9.69920    9.69920  106.94650  120.12010    8.32500   84.02170   84.02170   81.22500   81.22500    8.32500   10.21000 -168.48000   -2.12090   10.21000
 4100.00000   10.38370   10.38370  134.22740  154.79880    6.46000   87.19950   87.19950   86.76090   86.76090    6.46000    8.04500 -167.76000   -1.68000    8.04500
 4150.00000   10.22410   10.22410  101.11530  108.63660    9.20500   84.70890   84.70890   86.11220   86.11220    9.20500   11.01500 -166.64000   -1.08770   11.01500
 4200.00000   10.08220   10.08220  103.91780  117.02750    8.54500   79.10130   79.10130   75.95530   75.95530    8.54500   10.33000 -167.16000   -2.13890   10.33000
 4250.00000   10.22640   10.22640  124.24530  139.08210    7.19000   87.59880   87.59880   85.83010   85.83010    7.19000    8.90000 -166.72000   -2.22660    8.90000
 4300.00000    9.53020    9.53020  118.22520  131.92610    7.58000   88.79540   88.79540   96.72560   96.72560    7.58000    9.81000 -166.40000   -2.43440    9.81000
 4350.00000    -999.25    -999.25  136.73240  151.51520    6.60000    -999.25    -999.25    -999.25    -999.25    6.60000    9.06500 -165.02000   -1.58560    9.06500
 4400.00000    -999.25    -999.25  132.27370  148.36800    6.74000    -999.25    -999.25    -999.25    -999.25    6.74000    9.20500 -163.84000   -0.91000    9.20500
 4450.00000    -999.25    -999.25  110.61890  123.07690    8.12500    -999.25    -999.25    -999.25    -999.25    8.12500   12.41500 -164.30000   -1.78970   12.41500
 4500.00000    -999.25    -999.25  106.04220  113.70100    8.79500    -999.25    -999.25    -999.25    -999.25    8.79500   13.21500 -163.74000   -1.64660   13.21500
 4550.00000    -999.25    -999.25  103.45310  113.57180    8.80500    -999.25    -999.25    -999.25    -999.25    8.80500   13.81500 -163.58000   -1.90360   13.81500
 4600.00000    -999.25    -999.25   86.14190   87.26000   11.46000    -999.25    -999.25    -999.25    -999.25   11.46000   18.72500 -163.18000   -1.92320   18.72500
 4650.00000    -999.25    -999.25  102.28820  112.93050    8.85500    -999.25    -999.25    -999.25    -999.25    8.85500   15.31000 -163.20000   -2.36020   15.31000
 4700.00000    -999.25    -999.25  123.87840  131.75230    7.59000    -999.25    -999.25    -999.25    -999.25    7.59000   10.24500 -162.74000   -2.31990   10.24500
 4750.00000    -999.25    -999.25  147.57880  165.97510    6.02500    -999.25    -999.25    -999.25    -999.25    6.02500    8.39500 -161.98000   -1.97680    8.39500
 4800.00000    -999.25    -999.25  151.33460  166.52790    6.00500    -999.25    -999.25    -999.25    -999.25    6.00500    8.35500 -161.98000   -2.39380    8.35500
 4850.00000    -999.25    -999.25  178.00690  214.13280    4.67000    -999.25    -999.25    -999.25    -999.25    4.67000    7.04000 -160.62000   -1.45350    7.04000
 4900.00000    -999.25    -999.25  159.79960  177.30500    5.64000    -999.25    -999.25    -999.25    -999.25    5.64000    7.94500 -161.18000   -2.43040    7.94500
 4950.00000    -999.25    -999.25  168.77080  193.42360    5.17000    -999.25    -999.25    -999.25    -999.25    5.17000    8.06000 -161.02000   -2.40260    8.06000
 5000.00000   10.79010   10.79010  331.45710  485.43690    2.06000    -999.25    -999.25   80.71820   80.71820    2.06000    3.96500 -162.14000   -3.63840    3.96500
 5050.00000   10.52310   10.52310  321.00720  427.35040    2.34000  103.80310  103.80310   89.57780   89.57780    2.34000    3.44000 -160.98000   -3.20450    3.44000
 5100.00000   11.27100   11.27100  279.15990  357.14290    2.80000   92.17720   92.17720   81.58690   81.58690    2.80000    3.96000 -158.82000   -1.86330    3.96000
 5150.00000    9.03030    9.03030   72.09070   74.85030   13.36000   71.06870   71.06870   58.66950   58.66950   13.36000   20.62000 -170.92000  -14.84850   20.62000
 5200.00000    9.24810    9.24810   68.71390   70.57160   14.17000   70.61910   70.61910   50.09150   50.09150   14.17000   19.23000 -164.02000   -8.73510   19.23000
 5250.00000    9.64960    9.64960  233.88660  295.42100    3.38500   93.56160   93.56160   50.76130   50.76130    3.38500    4.46500 -159.82000   -5.31660    4.46500
 5300.00000   10.25770   10.25770  127.19470  143.16390    6.98500   85.29480   85.29480   68.87230   68.87230    6.98500   12.83500 -158.02000   -4.29800   12.83500
 5350.00000    9.97820    9.97820   61.79720   61.78560   16.18500   70.91460   70.91460   58.88410   58.88410   16.18500   22.13000 -160.22000   -7.28470   22.13000
 5400.00000    9.98810    9.98810   73.32260   77.48930   12.90500   72.98220   72.98220   68.26870   68.26870   12.90500   16.92500 -161.00000   -8.84610   16.92500
 5450.00000    9.67590    9.67590   85.71120   91.99630   10.87000   71.73890   71.73890   75.72340   75.72340   10.87000   18.84000 -154.02000   -2.76390   18.84000
 5500.00000    9.63570    9.63570   90.69680   95.78540   10.44000   73.04890   73.04890   60.24710   60.24710   10.44000   16.11500 -160.46000  -10.49720   16.11500
 5550.00000    9.68940    9.68940  102.91200  108.87320    9.18500   72.80160   72.80160   62.95590   62.95590    9.18500   14.06000 -161.16000  -12.49050   14.06000
 5600.00000    9.83400    9.83400   91.33480   98.47370   10.15500   82.65040   82.65040   72.04570   72.04570   10.15500   18.20000 -152.44000   -5.07230   18.20000
 5650.00000    9.68710    9.68710   89.76430   96.29270   10.38500   70.25160   70.25160   43.02140   43.02140   10.38500   23.21000 -178.36000  -32.07930   23.21000
 5700.00000    9.91250    9.91250   86.71800   89.76660   11.14000   71.94400   71.94400   55.92570   55.92570   11.14000   13.88500 -157.86000  -11.89750   13.88500
 5750.00000    9.80320    9.80320   99.50920  104.82180    9.54000   74.34010   74.34010   79.42250   79.42250    9.54000   13.81500 -148.36000   -2.71350   13.81500
 5800.00000    9.77220    9.77220   95.05390  101.47130    9.85500   76.31150   76.31150   77.64180   77.64180    9.85500   14.36500 -148.20000   -2.87680   14.36500
 5850.00000   12.34110   12.34110  144.76030  166.94490    5.99000   80.32960   80.32960   77.39280   77.39280    5.99000    9.78000 -146.52000   -1.52660    9.78000
 5900.00000    9.46400    9.46400   58.68420   58.96230   16.96000   76.57010   76.57010   85.70140   85.70140   16.96000   30.71000 -148.70000   -5.54250   30.71000
