~Version ---------------------------------------------------
VERS.      2.0 : CWLS log ASCII Standard -VERSION 2.0
WRAP.       NO : One line per depth step
CREA. 01/04/18 : LAS Creation Date
~Well ------------------------------------------------------
STRT.FT                     1950.0 : START DEPTH
STOP.FT                    11350.0 : STOP DEPTH
STEP.FT                   50.00000 : STEP LENGTH
NULL.                      -999.25 : NULL VALUE
COMP.     CHEVRON STANDARD LIMITED : COMPANY
WELL. CHEVRON CLARK NO 10-15-59-18 : WELL
FLD .                              : FIELD
LOC .                              : LOCATION
CTRY.                       CANADA : COUNTRY
SRVC.                Dresser Atlas : SERVICE COMPANY
DATE.                  26-Oct-1968 : LOGDATE
PROV.                      Alberta : PROVINCE
UWI .             100101505918W500 : UNIQUE WELL ID
SLAT.WGS84                54.10291 : SURFACE LATITUDE
SLON.WGS84               -116.6105 : SURFACE LONGITUDE
~Curve Information -----------------------------------------
DEPT    .FT        : Depth Curve
ACED    .US/F      : DELTA TIME (ACOUSTIC) FROM SONIC LOG [DEPTH ADJ. TO ILDED]
CALSED  .IN        : CALIPER FROM SONIC LOG [DEPTH ADJ. TO ILDED]
CALWS   .IN        : CALIPER [CALSED]
CILED   .MMHO      : CONDUCTIVITY FROM RESISTIVITY LOG
CONDWS  .MMHO      : CONDUCTIVITY [1000/DRESWS]
DRESWS  .OHMM      : DEEP RESISTIVITY [IF ILED<1;1000/CILED;ELSE ILED]
DTWS    .US/F      : DELTA TIME [ACED]
GRSED   .GAPI      : GAMMA RAY FROM SONIC LOG [DEPTH ADJ. TO ILDED]
GRTED   .GAPI      : GAMMA RAY FROM TDT LOG [DEPTH ADJ. TO ILDED]
GRWS    .GAPI      : GAMMA RAY [GRSED]
ILED    .OHMM      : INDUCTION LOG RESISTIVITY
NPHIED  .V/V       : NEUTRON POROSITY FROM DENSITY LOG [DEPTH ADJ. TO ILDED]
NPOWS   .V/V       : NEUTRON POROSITY [NPHIED]
RATIO1ED.UNITLESS  : ATIO FROM TDT LOG  [DEPTH ADJ. TO ILDED]
RATIOED .UNITLESS  : RATIO FROM TDT LOG  [DEPTH ADJ. TO ILDED]
SIGMED  .CU        : NEUTRON CAPTURE CROSS SECTION FROM TDT LOG [DEPTH ADJ. TO ILDED]
SNED    .OHMM      : 16 INCH SHORT NORMAL RESISTIVITY FROM IEL
SPRED   .MV        : SPONTANEOUS POTENTIAL FROM RESISTIVITY LOG
SPWS    .MV        : SPONTANEOUS POTENTIAL [BASELINE 0 MV] [SPRED]
SRESWS  .OHMM      : SHALLOW RESISTIVITY [SNED]
TAUED   .ms        : THERMAL DECAY TIME FROM TDT LOG [DEPTH ADJ. TO ILDED]
~Params ----------------------------------------------------
PD  .                     GL : PERMANENT DATUM
EPD .FT               3420.5 : ELEVATION PERMANENT DATUM
LMF .                     KB : LOG MEASURED FROM
DAPD.FT                 15.5 : FEET ABOVE PERMANENT DATUM
DMF .                     KB : DRILLING MEASURED FROM
EKB .FT                 3436 : KELLY BUSHING
EGL .FT               3420.5 : GROUND LEVEL
DATE.               10/26/68 : RUN DATE
RUN .                      1 : RUN NUMBER
DD  .FT                11393 : DEPTH DRILLER
DL  .FT                11390 : DEPTH LOGGER
BLI .FT                11386 : BOTTOM LOG INTERVAL
TLI .FT                 2028 : TOP LOG INTERVAL
CS  .IN                9.625 : CASING SIZE
CBD .FT                 2028 : CASING BOTTOM DRILLER
CBL .FT                 2028 : CASING BOTTOM LOGGER
BS  .IN                 8.75 : BIT SIZE
BSD .FT                11393 : BIT SIZE AT DEPTH
DFT .                MUD GEL : DRILLING FLUID TYPE
DFD .                    9.6 : DRILLING FLUID DENSITY
DFV .                    100 : DRILLING FLUID VISCOSITY
DFPH.                     11 : DRILLING FLUID PH
DFL .                    8.2 : DRILLING FLUID LOSS
MSS .                   CIRC : MUD SAMPLE SOURCE
RMS .OHMM                1.7 : RESISTIVITY MUD SAMPLE
MST .DEGF                 44 : MUD SAMPLE TEMPERATURE
RMF .OHMM                1.4 : RESISTIVITY MUD FILTRATE SAMPLE
MFST.DEGF                 44 : MUD FILTRATE SAMPLE TEMPERATURE
RMC .OHMM                1.8 : RESISTIVITY MUD CAKE
MCST.DEGF                 44 : MUD CAKE SAMPLE TEMPERATURE
MFSS.                   MEAS : MUD FILTRATE SAMPLE SOURCE
MCSS.                   MEAS : MUD CAKE SAMPLE SOURCE
RMB .OHMM               0.35 : RESISTIVITY MUD AT BHT
TCS .HRS                   4 : TIME CIRCULATED STOPPED
LUN .                   6002 : LOGGING UNIT NUMBER
LUL .                    EDM : LOGGING UNIT LOCATION
ENGI.                  BLAND : RECORDING ENGINEER
WITN.     HOUDEBO JOYCE LEOD : WITNESSED BY
CLNT.                A2DTECH : CLIENT CODE
ORIG.            2" 5" PRINT : ORIGIN OF DATA
UWI .       100101505918W500 : UNIQUE WELL ID
DICO. A2D Technologies, Inc. : DIGITIZING COMPANY
~Other -----------------------------------------------------
~ASCII -----------------------------------------------------
# ...
 3600.00000   96.56500   11.26200   11.26200  213.42120  198.77950    5.03070   96.56500   90.31970    -999.25   90.31970    5.03070    -999.25    -999.25    -999.25    -999.25    -999.25    5.95000  -27.78340   -3.09570    5.95000    -999.25
 3650.00000   85.69260    9.13880    9.13880  118.58200  112.01470    8.92740   85.69260   61.22140    -999.25   61.22140    8.92740    -999.25    -999.25    -999.25    -999.25    -999.25   11.28430  -31.17630   -6.46800   11.28430    -999.25
 3700.00000   86.69480   10.28800   10.28800  151.27430  147.19090    6.79390   86.69480   72.27940    -999.25   72.27940    6.79390    -999.25    -999.25    -999.25    -999.25    -999.25    8.52000  -29.52590   -4.79690    8.52000    -999.25
 3750.00000   62.64490    9.45970    9.45970   63.29580   57.05870   17.52580   62.64490   40.32670    -999.25   40.32670   17.52580    -999.25    -999.25    -999.25    -999.25    -999.25   25.46460  -36.13190  -11.38240   25.46460    -999.25
 3800.00000   90.22500   11.39630   11.39630  189.89580  186.24400    5.36930   90.22500   77.14420    -999.25   77.14420    5.36930    -999.25    -999.25    -999.25    -999.25    -999.25    5.89160  -27.39870   -2.62860    5.89160    -999.25
 3850.00000   80.68940   10.19700   10.19700  128.02280  122.72950    8.14800   80.68940   58.41670    -999.25   58.41670    8.14800    -999.25    -999.25    -999.25    -999.25    -999.25   11.33360  -29.47970   -4.68900   11.33360    -999.25
 3900.00000   85.02840    8.82080    8.82080  155.95740  148.93360    6.71440   85.02840   68.31670    -999.25   68.31670    6.71440    -999.25    -999.25    -999.25    -999.25    -999.25    8.97970  -28.85610   -4.04480    8.97970    -999.25
 3950.00000   95.76740    8.85420    8.85420  213.31720  206.62440    4.83970   95.76740   62.69880    -999.25   62.69880    4.83970    -999.25    -999.25    -999.25    -999.25    -999.25    6.00690  -29.32150   -4.48950    6.00690    -999.25
 4000.00000  109.82360   10.24670   10.24670  200.07180  190.60330    5.24650  109.82360   60.73020    -999.25   60.73020    5.24650    -999.25    -999.25    -999.25    -999.25    -999.25    6.01210  -26.69290   -1.84040    6.01210    -999.25
 4050.00000   83.54240   10.70060   10.70060  128.07750  121.91110    8.20270   83.54240   57.66100    -999.25   57.66100    8.20270    -999.25    -999.25    -999.25    -999.25    -999.25   11.11360  -28.42470   -3.55160   11.11360    -999.25
 4100.00000   91.63260   10.89600   10.89600  172.11880  154.29960    6.48090   91.63260   66.60360    -999.25   66.60360    6.48090    -999.25    -999.25    -999.25    -999.25    -999.25    7.16360  -28.10950   -3.21580    7.16360    -999.25
 4150.00000   89.69850   10.78030   10.78030  145.05860  138.12150    7.24000   89.69850   66.51870    -999.25   66.51870    7.24000    -999.25    -999.25    -999.25    -999.25    -999.25    8.70010  -29.89390   -4.97960    8.70010    -999.25
 4200.00000   93.42210    9.17100    9.17100  184.63350  174.66030    5.72540   93.42210   57.59100    -999.25   57.59100    5.72540    -999.25    -999.25    -999.25    -999.25    -999.25    8.68910  -29.95530   -5.02040    8.68910    -999.25
 4250.00000  109.55470   10.95830   10.95830  192.55320  190.16830    5.25850  109.55470   68.13610    -999.25   68.13610    5.25850    -999.25    -999.25    -999.25    -999.25    -999.25    7.29150  -29.75640   -4.80090    7.29150    -999.25
 4300.00000  139.79970   11.29300   11.29300  212.94960  195.39260    5.11790  139.79970   51.97760    -999.25   51.97760    5.11790    -999.25    -999.25    -999.25    -999.25    -999.25    7.03460  -26.18480   -1.20870    7.03460    -999.25
 4350.00000   76.10370    9.66520    9.66520   82.88120   78.39330   12.75620   76.10370   40.28590    -999.25   40.28590   12.75620    -999.25    -999.25    -999.25    -999.25    -999.25   18.30120  -47.71850  -22.72190   18.30120    -999.25
 4400.00000   91.69940   10.47490   10.47490  175.77440  176.89720    5.65300   91.69940   71.10800    -999.25   71.10800    5.65300    -999.25    -999.25    -999.25    -999.25    -999.25    6.33330  -26.20340   -1.18620    6.33330    -999.25
 4450.00000   78.80590   10.38180   10.38180  107.38520  101.12860    9.88840   78.80590   76.96600    -999.25   76.96600    9.88840    -999.25    -999.25    -999.25    -999.25    -999.25   12.68080  -28.69830   -3.66030   12.68080    -999.25
 4500.00000   85.02890   10.81640   10.81640  142.17590  133.82400    7.47250   85.02890   79.63170    -999.25   79.63170    7.47250    -999.25    -999.25    -999.25    -999.25    -999.25    8.99960  -26.68420   -1.62580    8.99960    -999.25
 4550.00000   87.15090   11.04260   11.04260  151.18220  142.50900    7.01710   87.15090   93.25440    -999.25   93.25440    7.01710    -999.25    -999.25    -999.25    -999.25    -999.25    7.57330  -28.27840   -3.14670    7.57330    -999.25
 4600.00000   88.98500   10.80320   10.80320  156.20350  148.55530    6.73150   88.98500  100.10220    -999.25  100.10220    6.73150    -999.25    -999.25    -999.25    -999.25    -999.25    7.93970  -31.14700   -5.85620    7.93970    -999.25
 4650.00000   88.08880   10.88290   10.88290  139.25690  132.86210    7.52660   88.08880  110.03040    -999.25  110.03040    7.52660    -999.25    -999.25    -999.25    -999.25    -999.25    8.90340  -30.75640   -5.30650    8.90340    -999.25
 4700.00000   90.12300   10.97660   10.97660  145.93130  139.13430    7.18730   90.12300  111.51480    -999.25  111.51470    7.18730    -999.25    -999.25    -999.25    -999.25    -999.25    9.10960  -30.15630   -4.54650    9.10960    -999.25
 4750.00000   83.61980   10.51180   10.51180   95.18940   91.58770   10.91850   83.61980  111.57420    -999.25  111.57420   10.91850    -999.25    -999.25    -999.25    -999.25    -999.25   15.40330  -32.07300   -6.30490   15.40330    -999.25
 4800.00000   84.36780   10.36870   10.36870  121.58520  115.53610    8.65530   84.36780  107.49410    -999.25  107.49410    8.65530    -999.25    -999.25    -999.25    -999.25    -999.25   11.15670  -28.98210   -3.05490   11.15670    -999.25
 4850.00000   88.22910   10.20850   10.20850  133.20840  127.90340    7.81840   88.22910  104.74080    -999.25  104.74080    7.81840    -999.25    -999.25    -999.25    -999.25    -999.25    9.93640  -28.60990   -2.52360    9.93640    -999.25
 4900.00000   91.20330   10.54680   10.54680  160.65610  151.39360    6.60530   91.20330  101.84440    -999.25  101.84440    6.60530    -999.25    -999.25    -999.25    -999.25    -999.25    7.17120  -29.18430   -2.93890    7.17120    -999.25
 4950.00000   84.32060   10.08330   10.08330  140.26350  134.07070    7.45870   84.32060  101.51680    -999.25  101.51680    7.45880    -999.25    -999.25    -999.25    -999.25    -999.25    8.62360  -31.21520   -4.80980    8.62360    -999.25
 5000.00000   82.85620   10.06730   10.06730  133.70450  126.79900    7.88650   82.85620   96.14750    -999.25   96.14750    7.88650    -999.25    -999.25    -999.25    -999.25    -999.25    9.79370  -33.70630   -7.14270    9.79370    -999.25
 5050.00000   80.95840   10.53070   10.53070  133.62700  126.57750    7.90030   80.95840   99.82190    -999.25   99.82190    7.90030    -999.25    -999.25    -999.25    -999.25    -999.25    9.62220  -36.28230   -9.55960    9.62220    -999.25
 5100.00000   87.20250    9.98230    9.98230  145.90930  139.75650    7.15530   87.20250  108.73170    -999.25  108.73170    7.15530    -999.25    -999.25    -999.25    -999.25    -999.25    8.81220  -32.37810   -5.49630    8.81220    -999.25
 5150.00000   88.23850   10.80690   10.80690  158.39790  152.96130    6.53760   88.23850  110.00960    -999.25  110.00960    6.53760    -999.25    -999.25    -999.25    -999.25    -999.25    7.94060  -33.11340   -6.07250    7.94060    -999.25
 5200.00000   88.79780   10.31030   10.31030  165.61670  156.51780    6.38900   88.79780  107.37660    -999.25  107.37660    6.38910    -999.25    -999.25    -999.25    -999.25    -999.25    7.77670  -31.01930   -3.81850    7.77670    -999.25
