~Version ---------------------------------------------------
VERS.      2.0 : CWLS log ASCII Standard -VERSION 2.0
WRAP.       NO : One line per depth step
CREA. 12/19/14 : LAS Creation Date
~Well ------------------------------------------------------
STRT.FT                            1100.0 : START DEPTH
STOP.FT                           10850.0 : STOP DEPTH
STEP.FT                          50.00000 : STEP LENGTH
NULL.                             -999.25 : NULL VALUE
COMP.        PAN AMERICAN PETROLEUM CORP. : COMPANY
WELL. PAN AM ET AL E-3 KAYBOBS 6-26-59-18 : WELL
FLD .                        KAYBOB SOUTH : FIELD
LOC .                                     : LOCATION
CTRY.                              CANADA : COUNTRY
SRVC.                        Schlumberger : SERVICE COMPANY
DATE.                         16-Jul-1969 : LOGDATE
PROV.                             Alberta : PROVINCE
UWI .                    100062605918W500 : UNIQUE WELL ID
SLAT.WGS84                       54.12901 : SURFACE LATITUDE
SLON.WGS84                       -116.593 : SURFACE LONGITUDE
~Curve Information -----------------------------------------
DEPT .FT    : DEPTH FEET
CALS .IN    : CALIPER FROM SONIC LOG
DT   .US/F  : DELTA-T FROM SONIC LOG
GRS  .GAPI  : GAMMA RAY FROM SONIC LOG
GRT  .GAPI  : THEORETICAL GAMMA RAY VALUE TDT FROM TDT LOG
ILD  .OHMM  : DEEP INDUCTION RESISTIVITY FROM RESISTIVITY LOG
ILM  .OHMM  : MEDIUM INDUCTION RESISTIVITY FROM RESISTIVITY LOG
LL8  .OHMM  : LATEROLOG 8 FROM RESISTIVITY LOG
RATIO.N/A   : RATIO FROM TDT LOG
SIGM .CU    : FORMATION SIGMA (NEUTRON CAPTURE CROSS SECTION) FROM TDT LOG
SIGMA.OHMM  : CORRECTED SHALLOW SHORT GUARD LOG RESISTIVITY FROM TDT LOG
SPR  .MV    : SPONTANEOUS POTENTIAL FROM RESISTIVITY LOG
TAU  .HR    : NEUTRON DECAY TIME FROM TDT LOG
TRAT .N/A   : NEAR/FAR CAPTURE RATIO FROM TDT LOG
~Params ----------------------------------------------------
PD  .              2" OUTLET : PERMANENT DATUM
EPD .FT               2964.7 : ELEVATION PERMANENT DATUM
LMF .                     KB : LOG MEASURED FROM
DAPD.FT                 14.3 : FEET ABOVE PERMANENT DATUM
EKB .FT               2979.0 : KELLY BUSHING
EGL .FT               2964.7 : GROUND LEVEL
DATE.               07/16/69 : RUN DATE
RUN .                      1 : RUN NUMBER
DD  .FT                10855 : DEPTH DRILLER
DL  .FT                10862 : DEPTH LOGGER
BLI .FT                10858 : BOTTOM LOG INTERVAL
TLI .FT                 1104 : TOP LOG INTERVAL
CBD .FT                 1104 : CASING BOTTOM DRILLER
CBL .FT                 1104 : CASING BOTTOM LOGGER
BS  .IN                 8.75 : BIT SIZE
BSD .FT                10855 : BIT SIZE AT DEPTH
DFT .               GEL CHEM : DRILLING FLUID TYPE
DFD .                    9.3 : DRILLING FLUID DENSITY
DFV .                     90 : DRILLING FLUID VISCOSITY
DFPH.                    9.0 : DRILLING FLUID PH
DFL .                    9.2 : DRILLING FLUID LOSS
MSS .                   CIRC : MUD SAMPLE SOURCE
RMS .OHMM                1.6 : RESISTIVITY MUD SAMPLE
MST .DEGF                 62 : MUD SAMPLE TEMPERATURE
RMF .OHMM               1.29 : RESISTIVITY MUD FILTRATE SAMPLE
MFST.DEGF                 67 : MUD FILTRATE SAMPLE TEMPERATURE
RMC .OHMM               1.35 : RESISTIVITY MUD CAKE
MCST.DEGF                 62 : MUD CAKE SAMPLE TEMPERATURE
TCS .HRS                   2 : TIME CIRCULATED STOPPED
LUN .                   7502 : LOGGING UNIT NUMBER
LUL .                    EDM : LOGGING UNIT LOCATION
ENGI.                 EDGSON : RECORDING ENGINEER
WITN.                  REMUS : WITNESSED BY
CLNT.                A2DTECH : CLIENT CODE
ORIG.            2" 5" PRINT : ORIGIN OF DATA
UWI .       100062605918W500 : UNIQUE WELL ID
DICO. A2D Technologies, Inc. : DIGITIZING COMPANY
~Other -----------------------------------------------------
~ASCII -----------------------------------------------------
# ...
 8900.00000    9.59520   50.48670    8.53660    -999.25  364.44950 1433.09360  487.51510    -999.25    -999.25    -999.25 -161.73540    -999.25    -999.25
 8950.00000    9.42530   54.02790   10.41040    -999.25  517.31710 1300.66960  402.96140    -999.25    -999.25    -999.25 -166.74010    -999.25    -999.25
 9000.00000    8.97150   49.64850   12.31350    -999.25 1613.42540 1537.08530 2262.01270    -999.25    -999.25    -999.25 -154.86130    -999.25    -999.25
 9050.00000    9.60350   57.28700   66.99820    -999.25   19.60830   17.53840   81.40640    -999.25    -999.25    -999.25  -89.67650    -999.25    -999.25
 9100.00000    9.04400   48.48290   12.30240    -999.25 1576.10140 1698.83760 2270.05400    -999.25    -999.25    -999.25 -144.52380    -999.25    -999.25
 9150.00000    9.62120   50.85840   11.83810    -999.25  190.95830  401.62330  296.07630    -999.25    -999.25    -999.25 -150.11440    -999.25    -999.25
 9200.00000    9.66480   56.57690   25.85240    -999.25   39.52630   28.82480   31.08110    -999.25    -999.25    -999.25 -136.53120    -999.25    -999.25
 9250.00000    8.96300   51.49810   32.73860    -999.25  174.80880  181.55400  164.54300    -999.25    -999.25    -999.25  -77.26490    -999.25    -999.25
 9300.00000    8.95250   53.33400   35.78420    -999.25  165.86910  203.84140  153.37530    -999.25    -999.25    -999.25  -49.27100    -999.25    -999.25
 9350.00000    9.57980   52.73120   27.71970    -999.25  416.44820  457.55880  343.41410    -999.25    -999.25    -999.25  -50.49040    -999.25    -999.25
 9400.00000    9.58000   51.71810   25.26050    -999.25  184.02640  189.78010  204.58680    -999.25    -999.25    -999.25  -52.49610    -999.25    -999.25
 9450.00000    9.02880   53.90790   26.37290    -999.25  136.01140  120.10130  142.64920    -999.25    -999.25    -999.25  -50.07810    -999.25    -999.25
 9500.00000    9.01790   53.73230   30.95890    -999.25   98.65150   92.38090  116.33790    -999.25    -999.25    -999.25  -46.30180    -999.25    -999.25
 9550.00000    9.25100   58.28330   42.16050    -999.25   29.85870   33.24760   41.79360    -999.25    -999.25    -999.25  -40.25380    -999.25    -999.25
 9600.00000   10.98950   69.25120   61.72750    -999.25    9.74660   10.78620   13.99480    -999.25    -999.25    -999.25  -40.86070    -999.25    -999.25
 9650.00000    9.28800   64.90400   59.34140    -999.25   15.59000   17.13330   23.07510    -999.25    -999.25    -999.25  -40.73720    -999.25    -999.25
 9700.00000    9.11540   62.33570   63.50850    -999.25   17.93700   19.93900   24.65070    -999.25    -999.25    -999.25  -45.71280    -999.25    -999.25
 9750.00000    9.14270   68.19280   82.82020    -999.25   19.09860   19.51300   27.75530    -999.25    -999.25    -999.25  -48.59210    -999.25    -999.25
 9800.00000    9.56390   67.08540   61.26100    -999.25   13.83550   15.75450   17.74070    -999.25    -999.25    -999.25  -47.45980    -999.25    -999.25
 9850.00000   10.73410   73.94310   75.83650    -999.25    8.26280    8.65470   11.67330    -999.25    -999.25    -999.25  -50.47880    -999.25    -999.25
 9900.00000    9.22770   68.66240   77.30070    -999.25   18.08380   21.21280   29.12210    -999.25    -999.25    -999.25  -43.56820    -999.25    -999.25
 9950.00000    9.13190   65.54100   65.93590    -999.25   17.99050   20.57120   25.88790    -999.25    -999.25    -999.25  -45.27010    -999.25    -999.25
 10000.00000    9.10860   66.68790   90.70360    -999.25   15.24770   17.28360   23.04370    -999.25    -999.25    -999.25  -45.04710    -999.25    -999.25
 10050.00000    9.11370   68.69680   94.09330    -999.25   11.13820   12.21760   17.04600    -999.25    -999.25    -999.25  -46.09610    -999.25    -999.25
 10100.00000    9.24620   68.14150   73.52960    -999.25   11.91670   13.21070   18.51700    -999.25    -999.25    -999.25  -45.39940    -999.25    -999.25
 10150.00000    9.20610   69.20200   86.41870    -999.25   11.06780   13.16740   21.93830    -999.25    -999.25    -999.25  -47.20220    -999.25    -999.25
 10200.00000    8.97310   57.34110   41.71880    -999.25   32.67930   43.53180   72.30840    -999.25    -999.25    -999.25  -48.41750    -999.25    -999.25
 10250.00000    8.91720   74.93440  131.80950    -999.25 1459.12920 1606.56760 2224.01610    -999.25    -999.25    -999.25  -68.19500    -999.25    -999.25
 10300.00000    8.91740   76.98900  144.29100    -999.25 1521.30630 1654.27030 2226.59990    -999.25    -999.25    -999.25  -63.98000    -999.25    -999.25
 10350.00000    9.00400   68.27400   88.39350   86.27050 1441.74540 1541.58440 2189.36870    3.39380   28.48190   33.27140  -51.90820  157.54260    3.06720
 10400.00000    9.26470   80.37560  120.55020   90.00520   26.69810   28.78810   43.84990    4.94940   45.81950   44.83330  -44.80940   98.82120    4.24950
 10450.00000    8.84070   50.53370   21.50020   34.79560 1494.82090 1608.08970 2191.10860    1.82340   15.90270   14.82020  -91.44930  286.60750    1.55320
 10500.00000    8.48590   49.82720    8.87730   21.70010 1474.64700 1553.41250 2208.50100    1.61180   12.20890   13.37980 -132.66980  375.26820    1.52290
 10550.00000    8.60100   62.60150    5.59320   20.56340 1463.98270 1597.88340 2219.09010    1.62710   12.41540   12.89440 -166.83600  367.37240    1.47930
 10600.00000    8.40150   58.44810    8.26270   16.23840 1470.16560 1586.74070 2206.26420    1.84980   12.10130   12.99180 -181.09990  377.70400    1.52040
 10650.00000    8.45000   65.34990    7.72490   22.05880 1475.68680 1614.38400 2201.78710    1.72500   10.50400   10.85110 -182.71410  434.61360    1.37590
 10700.00000    8.46590   56.55990    9.98820   27.47460 1464.32350 1578.97400 2232.38670    1.75110   16.41230   11.65870 -184.04500  275.65150    2.13970
 10750.00000    8.36340   49.82410   10.20400    -999.25 1397.99740 1491.19810  441.98300    -999.25    -999.25    -999.25 -182.73050    -999.25    -999.25
 10800.00000    8.74570   46.31600   13.07150    -999.25  156.07480  185.31330  793.64230    -999.25    -999.25    -999.25 -162.60380    -999.25    -999.25
 10850.00000    8.81670   66.23730    0.52480    -999.25   60.96830  100.40720  117.29410    -999.25    -999.25    -999.25  -43.11900    -999.25    -999.25
