~Version ---------------------------------------------------
VERS. 2.0 : CWLS log ASCII Standard -VERSION 2.0
WRAP.  NO : ONE LINE PER DEPTH STEP
~Well ------------------------------------------------------
STRT.FT                            600.0 : START DEPTH
STOP.FT                           5750.0 : STOP DEPTH
STEP.FT                         50.00000 : STEP LENGTH
NULL.                            -999.25 : NULL VALUE
COMP. CANADIAN NATURAL RESOURCES LIMITED : COMPANY
WELL.       SHELL ET AL NIPISI 4-14-78-8 : WELL
FLD .                                    : FIELD
LOC .                                    : LOCATION
CTRY.                             CANADA : COUNTRY
SRVC.                       Schlumberger : SERVICE COMPANY
DATE.                        09-Sep-1967 : LOGDATE
PROV.                            Alberta : PROVINCE
UWI .                   100041407808W500 : UNIQUE WELL ID
SLAT.WGS84                  55.754074781 : SURFACE LATITUDE
SLON.WGS84               -115.1363126814 : SURFACE LONGITUDE
~Curve Information -----------------------------------------
DEPT.FT    : DEPTH FEET
GRS .GAPI  : GAMMA RAY FROM SONIC LOG
DT  .US/F  : DELTA TIME FROM SONIC LOG
CALS.IN    : CALIPER FROM SONIC LOG
CILD.MMHO  : CONDUCTIVITY FROM RESISTIVITY LOG
ILD .OHMM  : INDUCTION LOG DEEP RESISTIVITY
SN  .OHMM  : 16 INCH SHORT NORMAL RESISTIVITY FROM IEL
SPR .MV    : SPONTANEOUS POTENTIAL FROM RESISTIVITY LOG
GR  .GAPI  : GAMMA RAY FROM CASING COLLAR LOG
~Params ----------------------------------------------------
PD  .                     GL : PERMANENT DATUM
EPD .FT                 2183 : ELEVATION PERMANENT DATUM
LMF .                     KB : LOG MEASURED FROM
EKB .FT                 2195 : KELLY BUSHING
EGL .FT                 2183 : GROUND LEVEL
DATE.               09/09/67 : RUN DATE
RUN .                      1 : RUN NUMBER
DD  .FT                 5775 : DEPTH DRILLER
DL  .FT                 5774 : DEPTH LOGGER
BLI .FT                 5773 : BOTTOM LOG INTERVAL
TLI .FT                  607 : TOP LOG INTERVAL
CBD .FT                  607 : CASING BOTTOM DRILLER
CBL .FT                  607 : CASING BOTTOM LOGGER
BS  .IN                7.875 : BIT SIZE
BSD .FT                 5775 : BIT SIZE AT DEPTH
DFT .                    GEL : DRILLING FLUID TYPE
DFD .                    9.7 : DRILLING FLUID DENSITY
DFV .                     90 : DRILLING FLUID VISCOSITY
DFPH.                    9.5 : DRILLING FLUID PH
DFL .                      7 : DRILLING FLUID LOSS
RMS .OHMM               1.69 : RESISTIVITY MUD SAMPLE
MST .DEGF                 59 : MUD SAMPLE TEMPERATURE
RMF .OHMM               1.24 : RESISTIVITY MUD FILTRATE SAMPLE
MFST.DEGF                 62 : MUD FILTRATE SAMPLE TEMPERATURE
RMC .OHMM               1.94 : RESISTIVITY MUD CAKE
MCST.DEGF                 62 : MUD CAKE SAMPLE TEMPERATURE
TCS .HRS                   3 : TIME CIRCULATED STOPPED
LUN .                   7501 : LOGGING UNIT NUMBER
LUL .                     SL : LOGGING UNIT LOCATION
ENGI.                  MOORE : RECORDING ENGINEER
WITN.                  MOORE : WITNESSED BY
CLNT.                A2DTECH : CLIENT CODE
ORIG.            2" 5" PRINT : ORIGIN OF DATA
UWI .       100041407808W500 : UNIQUE WELL ID
DICO. A2D Technologies, Inc. : DIGITIZING COMPANY
~Other -----------------------------------------------------
~ASCII -----------------------------------------------------
  600.00000    -999.25    -999.25    9.59600    -999.25    -999.25    -999.25    -999.25    -999.25
  650.00000    -999.25    -999.25    -999.25  254.75410    4.31020    4.47500 -109.56440    -999.25
  700.00000    -999.25    -999.25   15.01050  161.11560    6.62460    5.83970 -117.06670    -999.25
  750.00000    -999.25    -999.25   14.50070  155.50770    6.84290    5.81620 -107.74200    -999.25
  800.00000    -999.25    -999.25   14.72950  173.34050    6.08060    5.39240  -98.08330    -999.25
  850.00000    -999.25    -999.25    -999.25  208.45890    4.77970    5.07860  -91.38870    -999.25
  900.00000    -999.25    -999.25   15.00950  187.92220    5.54100    5.16950  -83.81880    -999.25
  950.00000    -999.25    -999.25   14.99840  171.58140    6.40310    4.47480  -81.69170    -999.25
 1000.00000    -999.25    -999.25   13.69530  293.40050    3.91620    4.30410  -81.88650    -999.25
 1050.00000    -999.25    -999.25   14.97720  357.58040    2.89870    3.13370  -81.93390    -999.25
 1100.00000    -999.25    -999.25   12.65210  316.29580    3.27260    3.64240  -79.61430    -999.25
 1150.00000    -999.25    -999.25   12.50120  288.68110    3.73370    4.11680  -79.92030    -999.25
 1200.00000    -999.25    -999.25   14.90250  539.09010    1.85500    2.26690  -76.91740    -999.25
 1250.00000    -999.25    -999.25    8.07780  203.14660    5.32460    7.39600 -102.97700    -999.25
 1300.00000    -999.25    -999.25    8.24980  198.69400    5.41100    8.40900 -105.18600    -999.25
 1350.00000    -999.25    -999.25    8.57740  212.35370    5.14440    5.71380  -90.39420    -999.25
 1400.00000    -999.25    -999.25    8.28290  144.53470    7.31440   13.76760 -103.61780    -999.25
 1450.00000    -999.25    -999.25    8.76980  129.30400    8.00480   16.86100 -110.73060    -999.25
 1500.00000    -999.25    -999.25    9.90570  193.16890    5.72270    6.43500  -96.16100    -999.25
 1550.00000    -999.25    -999.25    9.17540  229.29920    4.95560    5.94290  -98.63270    -999.25
 1600.00000    -999.25    -999.25   10.13010  208.43640    5.33770    6.39930  -87.87190    -999.25
 1650.00000    -999.25    -999.25    8.84680   94.94930   11.01060   23.42930  -90.57710    -999.25
 1700.00000    -999.25    -999.25    9.30900  188.01820    5.80690    9.87240 -109.39900    -999.25
 1750.00000    6.76910    -999.25   11.24500  209.70200    4.79960    5.47820  -81.26800    -999.25
 1800.00000   52.99450  140.61980   11.36280  212.48170    5.00850    5.41710  -83.60430    -999.25
 1850.00000   53.27880   87.49580    9.49860  115.06030    8.96570   10.98000  -90.75100    -999.25
 1900.00000   63.83150   85.15920   10.46880  110.86850    9.45870   10.89910  -93.90730    -999.25
 1950.00000   39.50370   71.80470    9.11100  100.36960    9.47890   14.70130  -89.70230    -999.25
 2000.00000   43.63820  106.30110   11.23350  201.26700    5.72850    6.78310  -90.28490    -999.25
 2050.00000   46.15350   92.48230   10.87870   80.18520   12.86310   15.79980  -93.79650    -999.25
 2100.00000   35.64350   76.30160    9.62400   28.15090   41.62900   46.67680  -95.06620    -999.25
 2150.00000   19.16020   61.01870    9.33940  133.30840    7.87590   13.87510  -93.96030    -999.25
 2200.00000   24.44050   67.75740    9.32950   46.96080   23.92130   31.18260  -92.09220    -999.25
 2250.00000   45.20610   83.81010   10.45540  179.66240    6.13540    6.86450  -83.55680    -999.25
 2300.00000   31.64110   61.28760    8.88260   63.95530   15.39230   30.32820  -76.45110    -999.25
 2350.00000   28.49040   94.86250   10.15400  212.75890    5.32520    6.12170  -74.23540    -999.25
 2400.00000   29.36060   87.95870   10.65700  185.70450    6.04720    6.60270  -73.86020    -999.25
 2450.00000   24.61340   68.06990    8.67620   79.48010   12.81600   15.49330  -82.32250    -999.25
 2500.00000   26.86780   69.96550    8.86410   79.26290   12.80650   15.43360  -79.98610    -999.25
 2550.00000   35.24630   74.20070    9.45830  178.23990    6.07860    7.57100  -70.97430    -999.25
 2600.00000   21.58540   68.18720    9.20970   62.24370   16.18020   19.40720  -78.93800    -999.25
 2650.00000   21.22750   59.83260    8.44830   51.45600   19.55430   30.87000  -83.61060    -999.25
 2700.00000   42.70850   85.68420    8.86990  169.65620    6.66010    9.19360  -70.86370    -999.25
 2750.00000  175.18350  114.75560   11.43120  260.61870    4.53850    5.14210  -74.46970    -999.25
 2800.00000   21.99710   57.61710    8.87930   40.37390   24.87360   34.35140  -85.29990    -999.25
 2850.00000   16.44450   49.05870    9.06980   42.67940   22.51960   67.11890 -140.94840    -999.25
 2900.00000   11.98230   56.89620    8.96170   47.17360   21.23330   64.94540 -146.29010    -999.25
 2950.00000   15.95890   59.02290    8.98760   32.03500   30.85770   86.17940 -147.27260    -999.25
 3000.00000   19.21510   56.53860    8.89140   32.02380   30.80950   62.02980 -133.37430    -999.25
 3050.00000   14.73610   62.61770    8.88550   42.38850   23.99890  112.20390 -174.35350    -999.25
 3100.00000   14.51180   63.63770    8.95900   52.49620   19.65700  111.05390 -173.88300    -999.25
 3150.00000   16.18680   54.35650    8.51090   20.98010   54.49290   76.61000 -120.18370    -999.25
 3200.00000   11.25540   61.19510    8.97780   94.30190   10.77310   64.85020 -170.21190    -999.25
 3250.00000   13.92860   57.18280    8.82480   32.78370   29.74080   87.64310 -163.07480    -999.25
 3300.00000   12.98540   54.71240    8.65670   27.50770   35.11860   86.90020 -152.87770    -999.25
 3350.00000   12.03160   51.82160    8.74230   15.37120   70.06750   82.92680 -131.11630    -999.25
 3400.00000   12.91130   55.23310    9.16750   26.94980   36.17570   85.38680 -150.14210    -999.25
 3450.00000   10.18350   54.53310    8.72630   20.55290   47.12710  105.66800 -152.32840    -999.25
 3500.00000    9.12640   51.13530    8.42950   13.00380   82.46120  132.64650 -152.17320    -999.25
 3550.00000   12.50070   51.11990    8.64240   17.44720   58.50210  113.43490 -152.52690    -999.25
 3600.00000   14.56640   57.72970    8.41040   66.15480   14.34770   62.96630 -176.56720    -999.25
 3650.00000   68.83170   88.25760   11.70520  353.25760    3.29370    3.78840  -99.87850    -999.25
 3700.00000   20.73620   51.34380    8.17700   44.46290   23.10440   67.12320 -142.12700    -999.25
 3750.00000   20.20850   48.15180    8.44280   11.09360   88.91880  139.54690 -130.92790    -999.25
 3800.00000   20.94130   51.83970    8.79930   44.79070   22.90900   45.33590 -114.32410    -999.25
 3850.00000   35.33690   61.91980    8.76710   91.91260   12.06610   20.02020 -122.41480    -999.25
 3900.00000   28.73830   57.08480    8.61460   28.83090   33.15250   38.91250 -108.26340    -999.25
 3950.00000   30.24740   55.14650    9.31460   21.02940   46.26130   49.21830 -108.38730    -999.25
 4000.00000   14.99730   56.53960    9.08480   56.35050   18.44690   29.58120 -121.04780    -999.25
 4050.00000   36.01500   60.25850    8.70880   47.70450   21.47200   27.18930  -85.04610    -999.25
 4100.00000   60.59070  104.95100   13.01130  403.99310    2.83500    3.25120  -97.42880    -999.25
 4150.00000   59.38340   84.53760   10.56450  252.60730    4.27270    4.67040 -103.17610    -999.25
 4200.00000   67.08580   92.64210   11.33900  305.93210    3.66910    3.97090 -100.01480    -999.25
 4250.00000   61.40820   94.95600   13.32380  365.31310    2.95380    3.25580  -97.83910    -999.25
 4300.00000   63.58080   93.24140   11.32770  319.81360    3.47430    3.77540 -105.72450    -999.25
 4350.00000   56.11860  105.26170   13.42130  420.63290    2.64050    2.94250  -95.11510    -999.25
 4400.00000   52.53330   79.02120    8.56070  217.15760    4.81760    6.34630  -81.19760    -999.25
 4450.00000   54.81730  104.08950   13.44550  403.75830    2.75090    3.05210  -98.81640    -999.25
 4500.00000   22.70810   62.40940    8.34930   55.67600   17.92230   23.52140  -83.67220    -999.25
 4550.00000   26.48540   61.22460    8.61420  156.96660    6.90670   10.07970  -91.18800    -999.25
