~Version ---------------------------------------------------
VERS.      2.0 : CWLS log ASCII Standard -VERSION 2.0
WRAP.       NO : One line per depth step
CREA. 11/28/17 : LAS Creation Date
~Well ------------------------------------------------------
STRT.FT                         1150.0 : START DEPTH
STOP.FT                        10350.0 : STOP DEPTH
STEP.FT                       50.00000 : STEP LENGTH
NULL.                          -999.25 : NULL VALUE
COMP.           QUINTANA PETROLEUM LTD : COMPANY
WELL. QUINTANA ET AL HSOUND 6-33-61-17 : WELL
FLD .                                  : FIELD
LOC .                                  : LOCATION
CTRY.                           CANADA : COUNTRY
SRVC.                     Schlumberger : SERVICE COMPANY
DATE.                      09-Sep-1973 : LOGDATE
PROV.                          Alberta : PROVINCE
UWI .                 100063306117W500 : UNIQUE WELL ID
SLAT.WGS84                    54.31664 : SURFACE LATITUDE
SLON.WGS84                   -116.4934 : SURFACE LONGITUDE
~Curve Information -----------------------------------------
DEPT  .FT    : Depth Curve
CALSED.IN    : CALIPER FROM SONIC LOG
CALWS .IN    : CALIPER [CALSED]
CILDED.MMHO  : DEEP INDUCTION CONDUCTIVITY FROM RESISTIVITY LOG
CONDWS.MMHO  : CONDUCTIVITY [1000/DRESWS]
DRESWS.OHMM  : DEEP RESISTIVITY [1000/CILDED IF ILDED <=5, ILDED]
DTED  .US/F  : DELTA-TIME FROM SONIC LOG
DTWS  .US/F  : COMPRESSIONAL SONIC [DTED]
GRSED .GAPI  : GAMMA RAY FROM SONIC LOG
GRWS  .GAPI  : GAMMA RAY [GRSED]
ILDED .OHMM  : DEEP INDUCTION RESISTIVITY FROM RESISTIVITY LOG
ILMED .OHMM  : MEDIUM INDUCTION RESISTIVITY FROM RESISTIVITY LOG
LL8ED .OHMM  : 8 INCH LATEROLOG FROM RESWISTIVITY LOG
MRESWS.OHMM  : MEDIUM RESISTIVITY [ILMED]
SPRED .MV    : SPONTANEOUS POTENTIAL FROM RESISTIVITY LOG
SPWS  .MV    : SPONTANEOUS POTENTIAL [BASELINE 0 MV, SPRED]
SRESWS.OHMM  : SHALLOW RESISTIVITY [LL8ED]
~Params ----------------------------------------------------
PD  .                     GL : PERMANENT DATUM
EPD .FT               2958.7 : ELEVATION PERMANENT DATUM
LMF .                     KB : LOG MEASURED FROM
DAPD.FT                 17.5 : FEET ABOVE PERMANENT DATUM
EKB .FT               2976.2 : KELLY BUSHING
EGL .FT               2958.7 : GROUND LEVEL
DATE.               09/09/73 : RUN DATE
RUN .                      1 : RUN NUMBER
DD  .FT                10370 : DEPTH DRILLER
DL  .FT                10364 : DEPTH LOGGER
BLI .FT                10358 : BOTTOM LOG INTERVAL
TLI .FT                 1130 : TOP LOG INTERVAL
CBD .FT                 1130 : CASING BOTTOM DRILLER
CBL .FT                 1130 : CASING BOTTOM LOGGER
BS  .IN                 8.75 : BIT SIZE
BSD .FT                10370 : BIT SIZE AT DEPTH
DFT .               GEL CHEM : DRILLING FLUID TYPE
DFD .                    9.2 : DRILLING FLUID DENSITY
DFV .                    125 : DRILLING FLUID VISCOSITY
DFPH.                   10.5 : DRILLING FLUID PH
DFL .                    9.8 : DRILLING FLUID LOSS
MSS .             CIRCULATED : MUD SAMPLE SOURCE
RMS .OHMM               2.45 : RESISTIVITY MUD SAMPLE
MST .DEGF                 66 : MUD SAMPLE TEMPERATURE
RMF .OHMM               2.33 : RESISTIVITY MUD FILTRATE SAMPLE
MFST.DEGF                 65 : MUD FILTRATE SAMPLE TEMPERATURE
RMB .OHMM               0.85 : RESISTIVITY MUD AT BHT
TCS .HRS                 2.5 : TIME CIRCULATED STOPPED
LUN .                   7502 : LOGGING UNIT NUMBER
LUL .                    RDM : LOGGING UNIT LOCATION
ENGI.                  LEITH : RECORDING ENGINEER
WITN.                  FEDOR : WITNESSED BY
CLNT.                A2DTECH : CLIENT CODE
ORIG.            2" 5" PRINT : ORIGIN OF DATA
UWI .       100063306117W500 : UNIQUE WELL ID
DICO. A2D Technologies, Inc. : DIGITIZING COMPANY
~Other -----------------------------------------------------
~ASCII -----------------------------------------------------
# ...
 7600.00000    8.66690    8.66690    -999.25    0.92670 1079.06040   51.56300   51.56300   24.40530   24.40530 1079.06040 1423.86510 1581.72860 1423.86510  -59.07290  -16.94870 1581.72860
 7650.00000    9.53630    9.53630    -999.25    5.28490  189.21700   52.25410   52.25410   20.01810   20.01810  189.21700  207.39250 1478.83980  207.39250  -67.14270  -25.69120 1478.83980
 7700.00000    9.04810    9.04810    -999.25    1.38260  732.40030   49.28870   49.28870   17.85590   17.85590  732.40030 1584.81290 1520.46750 1584.81290  -79.50050  -38.72610 1520.46750
 7750.00000    8.81260    8.81260    -999.25    1.91440  522.36570   50.44900   50.44900   14.83010   14.83010  522.36570 1397.99130 1004.99440 1397.99130 -146.21020 -106.10840 1004.99440
 7800.00000    9.21430    9.21430    -999.25    3.21670  310.88220   49.46130   49.46130   16.86130   16.86130  310.88220  533.05300  837.00230  533.05300 -138.91100  -99.48190  837.00230
 7850.00000    9.32080    9.32080    -999.25    2.39960  416.73220   49.21490   49.21490   12.40490   12.40490  416.73220 1022.59830  879.65640 1022.59830 -169.16180 -130.40970  879.65640
 7900.00000    9.42440    9.42440    -999.25    3.91100  255.69180   48.66350   48.66350   12.13920   12.13920  255.69180  438.76880  522.24580  438.76880 -180.99000 -142.91060  522.24580
 7950.00000    9.06990    9.06990    -999.25    9.60640  104.10150   51.20360   51.20360   11.57560   11.57560  104.10150  120.90140  215.36600  120.90140 -190.31490 -152.91260  215.36600
 8000.00000    9.82780    9.82780    -999.25    6.09590  164.04500   49.57490   49.57490    8.13370    8.13370  164.04500  197.24580  172.54560  197.24580 -186.42040 -149.69070  172.54560
 8050.00000    9.29040    9.29040    -999.25   11.99550   83.36490   49.27980   49.27980   11.97440   11.97440   83.36490   92.81990  113.05130   92.81990 -186.40880 -150.35180  113.05130
 8100.00000    9.52120    9.52120    -999.25    1.71130  584.34560   49.93720   49.93720   10.53250   10.53250  584.34560  507.55090 1229.08920  507.55090 -187.90730 -152.52730 1229.08920
 8150.00000    9.59160    9.59160    -999.25    2.06820  483.51360   49.88000   49.88000   22.56100   22.56100  483.51360  583.74310 1041.22140  583.74310 -189.04070 -154.33340 1041.22140
 8200.00000    9.75240    9.75240    -999.25    1.63920  673.62770   49.70290   49.70290   13.63400   13.63400  673.62770 1534.00250 1449.31240 1534.00250 -180.30730 -146.27710 1449.31240
 8250.00000    9.40770    9.40770    -999.25    6.52360  153.28970   50.03480   50.03480    8.81120    8.81120  153.28970  116.20570  197.45940  116.20570 -195.96590 -162.60830  197.45940
 8300.00000    9.36280    9.36280    -999.25    7.73250  129.32410   50.80100   50.80100    9.90350    9.90350  129.32410  135.75190  143.41270  135.75190 -192.01280 -159.32790  143.41270
 8350.00000    9.29890    9.29890    -999.25   10.55930   94.70320   49.86240   49.86240   15.02030   15.02030   94.70320  120.09140  194.75890  120.09140 -197.70580 -165.69790  194.75890
 8400.00000    8.89100    8.89100    -999.25    0.71990 1389.13830   48.07120   48.07120   12.85110   12.85110 1389.13830 1574.30870 1489.67870 1574.30870 -159.70370 -128.36850 1489.67870
 8450.00000    9.04000    9.04000    -999.25  106.54290    9.52540   51.98190   51.98190   34.10560   34.10560    9.52540   10.88280   18.12910   10.88280 -146.69870 -116.04060   18.12910
 8500.00000    9.50150    9.50150    -999.25    2.14650  465.86730   51.33300   51.33300   21.95700   21.95700  465.86730  145.47750  741.47810  145.47750 -170.26220 -140.27670  741.47810
 8550.00000    9.58110    9.58110    -999.25    9.34840  106.97000   50.58420   50.58420   25.42980   25.42980  106.97000   97.50980  131.17600   97.50980 -161.71420 -132.40140  131.17600
 8600.00000    8.76370    8.76370    -999.25    1.32530  754.53950   49.25300   49.25300   22.06850   22.06850  754.53950 1551.24620 1386.99240 1551.24620 -114.17750  -85.54170 1386.99240
 8650.00000    8.73290    8.73290    -999.25    5.49480  181.99000   51.77280   51.77280   35.18400   35.18400  181.99000  196.31530  312.27840  196.31530  -86.23000  -58.26690  312.27840
 8700.00000    8.65140    8.65140    -999.25    1.68650  592.97350   50.74800   50.74800   31.20090   31.20090  592.97350  739.05550  587.40660  739.05550  -87.75600  -60.46990  587.40660
 8750.00000    8.67870    8.67870    -999.25    2.22010  450.42790   50.78640   50.78640   22.84260   22.84260  450.42790  314.61110  557.65120  314.61110  -93.00220  -66.38880  557.65120
 8800.00000    8.84720    8.84720    -999.25    3.69620  270.55100   51.29830   51.29830   26.22260   26.22260  270.55100  327.75040  543.87410  327.75040  -87.28110  -61.34030  543.87410
 8850.00000    8.95610    8.95610    -999.25   24.81510   40.29810   54.14250   54.14250   33.84900   33.84900   40.29810   43.89660   59.44110   43.89660  -82.24780  -56.98410   59.44110
 8900.00000    9.04270    9.04270    -999.25   50.58660   19.76810   57.20550   57.20550   37.49030   37.49030   19.76810   22.17810   26.83710   22.17810  -79.92580  -55.33480   26.83710
 8950.00000    9.51840    9.51840    -999.25  133.18750    7.51350   66.78910   66.78910   65.67880   65.67880    7.51350    8.16040   12.56790    8.16040  -75.31660  -51.40260   12.56790
 9000.00000    8.96290    8.96290    -999.25  109.45110    9.13650   64.08470   64.08470   57.96240   57.96240    9.13650    9.81830   13.33750    9.81830  -70.17110  -46.92980   13.33750
 9050.00000    9.00330    9.00330    -999.25  105.50080    9.47860   65.03700   65.03700   66.49620   66.49620    9.47860   10.33090   14.07630   10.33090  -72.66020  -50.09150   14.07630
 9100.00000    9.06420    9.06420    -999.25  141.90840    7.04680   66.47610   66.47610   62.07760   62.07760    7.04680    7.56630   11.43960    7.56630  -75.70150  -53.80990   11.43960
 9150.00000    8.98750    8.98750    -999.25   24.01570   41.63950   68.61160   68.61160   80.93220   80.93220   41.63950   47.58820   66.93240   47.58820  -74.40260  -53.18370   66.93240
 9200.00000    9.03550    9.03550    -999.25   99.14470   10.11660   70.90310   70.90310   80.46350   80.46350   10.11660   11.27870   17.37330   11.27870  -71.22930  -50.68740   17.37330
 9250.00000   11.59360   11.59360    -999.25  234.57660    4.26300   81.19350   81.19350   95.46880   95.46880    4.26300    4.71250    7.14500    4.71250  -91.56200  -71.69280    7.14500
 9300.00000    9.04970    9.04970    -999.25   66.64050   15.00590   64.47520   64.47520   69.99800   69.99800   15.00590   16.34370   28.00180   16.34370  -57.67040  -38.47380   28.00180
 9350.00000    8.94890    8.94890    -999.25   97.56860   10.24920   67.05200   67.05200   81.60640   81.60640   10.24920   11.00700   15.77230   11.00700  -54.28660  -35.76710   15.77230
 9400.00000    8.99960    8.99960    -999.25  119.97310    8.33520   67.74500   67.74500   84.52000   84.52000    8.33520    8.68570   12.22090    8.68570  -49.69930  -31.85250   12.22090
 9450.00000    9.42950    9.42950    -999.25  133.77260    7.48590   74.80730   74.80730   92.42010   92.42010    7.48590    8.94410   15.06130    8.94410  -51.59040  -34.42060   15.06130
 9500.00000    9.05890    9.05890    -999.25  119.95440    8.33650   69.42100   69.42100   95.69600   95.69600    8.33650    8.96090   13.08200    8.96090  -44.19450  -27.69740   13.08200
 9550.00000    9.05020    9.05020    -999.25  134.21920    7.45050   68.91710   68.91710   80.48770   80.48770    7.45050    8.04900   12.21390    8.04900  -44.62350  -28.79900   12.21390
 9600.00000    9.11770    9.11770    -999.25  138.19030    7.23640   69.95410   69.95410   82.88340   82.88340    7.23640    7.73210   11.09220    7.73210  -48.50490  -33.35750   11.09220
 9650.00000    8.82440    8.82440    -999.25    7.89680  126.63320   64.42940   64.42940   77.90990   77.90990  126.63320  138.72060  250.00120  138.72060  -34.98830  -20.51360  250.00120
 9700.00000    8.79020    8.79020    -999.25    0.75480 1324.80900   75.33230   75.33230  201.33810  201.33810 1324.80900 1554.03810 1458.45510 1554.03810  -25.37400  -11.57630 1458.45510
