~Version ---------------------------------------------------
VERS.      2.0 : CWLS log ASCII Standard -VERSION 2.0
WRAP.       NO : One line per depth step
CREA. 11/16/17 : LAS Creation Date
~Well ------------------------------------------------------
STRT.FT                       700.0 : START DEPTH
STOP.FT                      7200.0 : STOP DEPTH
STEP.FT                    50.00000 : STEP LENGTH
NULL.                       -999.25 : NULL VALUE
COMP.           GULF CANADA LIMITED : COMPANY
WELL. B.A. RICHARDS STETW 6-6-37-20 : WELL
FLD .                               : FIELD
LOC .                               : LOCATION
CTRY.                        CANADA : COUNTRY
SRVC.                  Schlumberger : SERVICE COMPANY
DATE.                   06-Nov-1960 : LOGDATE
PROV.                       Alberta : PROVINCE
UWI .              100060603720W400 : UNIQUE WELL ID
SLAT.WGS84                 52.14843 : SURFACE LATITUDE
SLON.WGS84                -112.8522 : SURFACE LONGITUDE
~Curve Information -----------------------------------------
DEPT  .FT    : Depth Curve
CALWS .IN    : CALIPER [MCALED]
CILDED.MMHO  : CONDUCTIVITY FROM RESISTIVITY LOG
CONDWS.MMHO  : CONDUCTIVITY [1000/DRESWS]
DRESWS.OHMM  : DEEP RESISTIVITY [CALC FROM 1000/CILDED, IF ILDED<1, ILDED]
DTED  .US/F  : SONIC INTERVAL TRANSIT TIME FROM SONIC LOG
DTWS  .US/F  : COMPRESSIONAL SONIC [DTED]
GRSED .GAPI  : GAMMA RAY FROM SONIC LOG
GRWS  .GAPI  : GAMMA RAY [GRSED]
ILDED .OHMM  : DEEP INDUCTION RESISTIVITY FROM RESISTIVITY LOG
MCALED.IN    : MLT [MICROLOG] CALIPER
SNED  .OHMM  : SHORT NORMAL FROM RESISTIVITY LOG
SPRED .MV    : SPONTANEOUS POTENTIAL FROM RESISTIVITY
SPWS  .MV    : SPONTANEOUS POTENTIAL [BASELINE 0 MV, SPRED]
SRESWS.OHMM  : SHALLOW RESISTIVITY [SNED]
~Params ----------------------------------------------------
EKB .FT                 2773 : KELLY BUSHING
EGL .FT                 2762 : GROUND LEVEL
DATE.               11/06/60 : RUN DATE
RUN .                      3 : RUN NUMBER
DD  .FT                 7241 : DEPTH DRILLER
DL  .FT                 7236 : DEPTH LOGGER
BLI .FT                 7230 : BOTTOM LOG INTERVAL
TLI .FT                 4616 : TOP LOG INTERVAL
CBD .FT                  743 : CASING BOTTOM DRILLER
CBL .FT                  743 : CASING BOTTOM LOGGER
BS  .IN                 8.75 : BIT SIZE
BSD .FT                 7241 : BIT SIZE AT DEPTH
DFT .               OIL EMUL : DRILLING FLUID TYPE
DFD .                     10 : DRILLING FLUID DENSITY
DFV .                     72 : DRILLING FLUID VISCOSITY
DFPH.                    7.6 : DRILLING FLUID PH
DFL .                    4.6 : DRILLING FLUID LOSS
RMS .OHMM               1.06 : RESISTIVITY MUD SAMPLE
MST .DEGF                 68 : MUD SAMPLE TEMPERATURE
RMF .OHMM               0.65 : RESISTIVITY MUD FILTRATE SAMPLE
MFST.DEGF                 60 : MUD FILTRATE SAMPLE TEMPERATURE
RMC .OHMM               1.59 : RESISTIVITY MUD CAKE
MCST.DEGF                 60 : MUD CAKE SAMPLE TEMPERATURE
RMB .OHMM               0.53 : RESISTIVITY MUD AT BHT
TCS .HRS                   4 : TIME CIRCULATED STOPPED
LUN .                   3815 : LOGGING UNIT NUMBER
LUL .                      C : LOGGING UNIT LOCATION
ENGI.               SHABBITS : RECORDING ENGINEER
WITN.               HANNEGAN : WITNESSED BY
CLNT.                A2DTECH : CLIENT CODE
ORIG.            2" 5" PRINT : ORIGIN OF DATA
UWI .       100060603720W400 : UNIQUE WELL ID
DICO. A2D Technologies, Inc. : DIGITIZING COMPANY
~Other -----------------------------------------------------
~ASCII -----------------------------------------------------
  700.00000    -999.25    -999.25    -999.25    -999.25    -999.25    -999.25    3.16890   52.28680    -999.25    -999.25    -999.25    -999.25    -999.25    -999.25
  750.00000   10.04110  145.53840  162.84520    6.14080  115.82720  115.82720    3.88630   64.12390    6.14080   10.04110    7.80820 -135.97900   -4.95480    7.80820
  800.00000    9.32910  140.46310  160.88290    6.21570  140.01100  140.01100    4.10940   67.80510    6.21570    9.32910    9.94760 -142.97750  -11.76960    9.94760
  850.00000    8.76860   63.66920   60.77000   16.45550  140.09660  140.09660    3.55360   58.63440   16.45550    8.76860   18.15220 -149.03960  -17.64680   18.15220
  900.00000    9.65060  172.07420  188.24950    5.31210  120.64610  120.64610    4.53960   74.90340    5.31210    9.65060    9.21430 -139.67480   -8.09830    9.21430
  950.00000    9.63950  193.28830  195.78670    5.10760  132.34120  132.34120    5.20470   85.87750    5.10760    9.63950    9.28750 -140.50310   -8.74170    9.28750
 1000.00000    9.48540  125.92590  134.02310    7.46140  102.01500  102.01500    3.91050   64.52330    7.46140    9.48540    8.47350 -138.54050   -6.59550    8.47350
 1050.00000    9.59200  125.18290  124.03100    8.06250  111.52670  111.52670    4.71150   77.73980    8.06250    9.59200    9.75900 -142.20630  -10.07760    9.75900
 1100.00000    9.93130  186.57040  208.77700    4.78980  114.97960  114.97960    4.58050   75.57820    4.78980    9.93130    6.66560 -135.71990   -3.40630    6.66560
 1150.00000    9.96530  235.14990  243.74790    4.10260  117.87860  117.87860    5.67810   93.68860    4.10260    9.96530    5.15070 -135.42700   -3.06210    5.15070
 1200.00000    9.25000  169.56530  191.86490    5.21200  104.46840  104.46840    4.28320   70.67280    5.21200    9.25000    5.75360 -134.81230   -2.63760    5.75360
 1250.00000    9.51000  278.75750  270.27760    3.69990  138.63950  138.63950    5.26650   86.89730    3.69990    9.51000    4.28040 -134.53880   -1.96950    4.28040
 1300.00000    9.31370  199.51360  219.81400    4.54930  138.00370  138.00370    5.07690   83.76890    4.54930    9.31370    5.83130 -142.95910   -8.62620    5.83130
 1350.00000    9.06290  216.39970  229.18430    4.36330  110.05770  110.05770    4.66240   76.92960    4.36330    9.06290    4.80200 -142.45550   -6.34290    4.80200
 1400.00000    9.16010  182.44300  195.33920    5.11930  106.17650  106.17650    4.13820   68.28030    5.11930    9.16010    5.90640 -143.69870   -5.81800    5.90640
 1450.00000    9.61330  216.10580  232.60680    4.29910  123.17380  123.17380    4.08300   67.36950    4.29910    9.61330    5.15580 -143.17670   -3.51630    5.15580
 1500.00000   10.83220  212.05940  208.76390    4.79010  112.86200  112.86200    4.03660   66.60390    4.79010   10.83220    6.10010 -142.98150   -2.19310    6.10010
 1550.00000    9.73420  154.51090  166.25100    6.01500  107.74200  107.74200    5.78340   95.42610    6.01500    9.73420    7.06940 -142.79500   -2.86810    7.06940
 1600.00000    8.74710  110.07550  117.77310    8.49090  103.39510  103.39510    2.73420   45.11430    8.49090    8.74710    9.99010 -164.43970  -25.37990    9.99010
 1650.00000   11.01550  234.48650  248.70670    4.02080  137.06260  137.06260    3.91300   64.56450    4.02080   11.01550    5.55140 -141.71570   -3.51740    5.55140
 1700.00000   10.42020  222.88400  229.58950    4.35560  120.58280  120.58280    3.81880   63.01020    4.35560   10.42020    5.48280 -140.22720   -2.89610    5.48280
 1750.00000    9.44460  187.28050  192.73390    5.18850  107.94060  107.94060    3.56100   58.75650    5.18850    9.44460    6.57080 -140.00830   -3.53870    6.57080
 1800.00000    9.69880  178.98800  183.02620    5.46370  106.29700  106.29700    4.02940   66.48510    5.46370    9.69880    7.62110 -139.00130   -3.39310    7.62110
 1850.00000    9.15370  121.01090  131.33870    7.61390  104.20760  104.20760    3.35130   55.29650    7.61390    9.15370    8.46150 -142.83640   -8.09540    8.46150
 1900.00000    8.70860  130.63230  141.62900    7.06070  104.14470  104.14470    3.36510   55.52410    7.06070    8.70860    8.59530 -152.18870  -18.30920    8.59530
 1950.00000    9.23350  153.94090  167.70360    5.96290  109.16640  109.16640    3.14580   51.90570    5.96290    9.23350    7.24350 -137.18310   -4.07970    7.24350
 2000.00000    9.01080  180.38200  196.74200    5.08280   99.27320   99.27320    3.70940   61.20510    5.08280    9.01080    6.63700 -136.52950   -3.88040    6.63700
 2050.00000    9.47770  194.65110  214.61990    4.65940  110.86550  110.86550    3.12810   51.61370    4.65940    9.47770    6.03860 -134.84360   -2.64890    6.03860
 2100.00000    9.78830  181.13640  202.03240    4.94970  120.59510  120.59510    3.37410   55.67260    4.94970    9.78830    6.10700 -135.69550   -3.84490    6.10700
 2150.00000   11.19610  176.07860  177.82200    5.62360  140.09960  140.09960    3.25950   53.78180    5.62360   11.19610   10.98690 -134.53000   -3.01410   10.98690
 2200.00000    9.13740  198.99850  212.04860    4.71590  107.28960  107.28960    3.20020   52.80330    4.71590    9.13740    5.90110 -135.45670   -4.27780    5.90110
 2250.00000    9.02640  159.24880  161.95910    6.17440  101.10070  101.10070    3.61940   59.72010    6.17440    9.02640    8.54410 -136.68990   -5.84570    8.54410
 2300.00000    9.30640  207.43310  220.16730    4.54200  112.54330  112.54330    4.07580   67.25070    4.54200    9.30640    5.83780 -134.22540   -3.71600    5.83780
 2350.00000    9.95910  260.56000  251.02920    3.98360  112.04240  112.04240    4.41210   72.79970    3.98360    9.95910    5.18300 -132.68650   -2.51410    5.18300
 2400.00000    9.47640  112.83950  120.00910    8.33270   95.14080   95.14080    5.11160   84.34140    8.33270    9.47640   10.08910 -134.95490   -4.89920   10.08910
 2450.00000   10.67930  132.72110  142.48670    7.01820  107.30880  107.30880    5.44820   89.89530    7.01820   10.67930    8.98830 -135.91060   -5.85490    8.98830
 2500.00000    9.96080  135.81990  144.76180    6.90790  104.49060  104.49060    5.64880   93.20520    6.90790    9.96080    8.64500 -135.53890   -5.48320    8.64500
 2550.00000    9.88880  129.48500  137.27780    7.28450  103.69870  103.69870    5.56320   91.79280    7.28450    9.88880    9.17850 -134.85920   -4.80350    9.17850
 2600.00000   10.59710  128.11060  137.54020    7.27060   96.75460   96.75460    5.47030   90.26000    7.27060   10.59710    9.12170 -133.68630   -3.63060    9.12170
 2650.00000   10.36420  115.19010  122.45300    8.16640   96.95300   96.95300    6.01610   99.26560    8.16640   10.36420   10.04450 -134.41710   -4.36140   10.04450
 2700.00000   10.25970  124.23650  131.68290    7.59400  102.91530  102.91530    6.03130   99.51640    7.59400   10.25970   10.08030 -138.26520   -8.20950   10.08030
 2750.00000    9.46300   92.87300   93.32710   10.71500  107.58140  107.58140    8.53380  140.80770   10.71500    9.46300   15.58810 -135.11790   -5.06220   15.58810
 2800.00000    9.66540  101.11310  100.76990    9.92360   95.22480   95.22480    6.11980  100.97670    9.92360    9.66540   13.78090 -141.30570  -11.25000   13.78090
 2850.00000   10.17320  142.33250  154.66230    6.46570  105.76930  105.76930    6.44380  106.32270    6.46570   10.17320    9.30270 -140.08200  -10.02630    9.30270
 2900.00000    9.94940  130.24660  141.52480    7.06590   97.42800   97.42800    5.89980   97.34670    7.06590    9.94940    8.97140 -141.17410  -11.11840    8.97140
 2950.00000    9.92530  134.72630  144.60270    6.91550   98.45740   98.45740    5.65590   93.32240    6.91550    9.92530    9.25350 -140.14000  -10.08430    9.25350
 3000.00000    9.74280  115.94340  122.03750    8.19420   95.02120   95.02120    6.14360  101.36940    8.19420    9.74280   10.54410 -137.18120   -7.12550   10.54410
 3050.00000    9.66360  110.24170  114.90820    8.70260   94.01130   94.01130    5.74030   94.71500    8.70260    9.66360   11.06410 -135.69960   -5.64390   11.06410
 3100.00000    9.42130  137.91270  145.61550    6.86740   98.15070   98.15070    6.09540  100.57410    6.86740    9.42130    9.12080 -134.00170   -3.94600    9.12080
