~Version ---------------------------------------------------
VERS. 2.0 : CWLS log ASCII Standard -VERSION 2.0
WRAP.  NO : ONE LINE PER DEPTH STEP
~Well ------------------------------------------------------
STRT.F                                950.0 : START DEPTH
STOP.F                               9500.0 : STOP DEPTH
STEP.F                             50.00000 : STEP LENGTH
NULL.                               -999.25 : NULL VALUE
COMP.                 TEXACO CANADA LIMITED : COMPANY
WELL. TEXACO AMERADA SNIPE LAKE 14-29-69-19 : WELL
FLD .                                       : FIELD
LOC .                                       : LOCATION
CTRY.                                CANADA : COUNTRY
SRVC.                Schlumberger of Canada : SERVICE COMPANY
DATE.                           13-Mar-1960 : LOGDATE
PROV.                               Alberta : PROVINCE
UWI .                      100142906919W500 : UNIQUE WELL ID
SLAT.WGS84                         55.00866 : SURFACE LATITUDE
SLON.WGS84                        -116.8632 : SURFACE LONGITUDE
~Curve Information -----------------------------------------
DEPT .F                 : 
NEUT .NAPI 35 330 01 00 : NEUTRON
GRN  .GAPI 35 310 01 00 : GAMMA RAY FROM GRN LOG
MCAL .IN   15 280 01 00 : MLT (MICROLOG) CALIPER
DT   .US/F 60 500 33 00 : DELTA-T (INTERVAL TRANSIT TIME)
CILD .MMHO 05 110 46 00 : INDUCTION DEEP CONDUCTIVITY
ILD  .OHMM 05 120 46 00 : INDUCTION DEEP RESISTIVITY
SN   .OHMM 05 040 16 00 : SHORT NORMAL RESISTIVITY
SPR  .MV   05 010 01 00 : SPONTANEOUS POTENTIAL FROM RESISTIVITY LOG
GRN1 .GAPI 15 310 01 00 : GAMMA RAY FROM MICROLOG
NEUT1.DEC  35 330 01 00 : NEUTRON POROSITY IN SELECTED LITHOLOGY SANDSTONE
GR   .GAPI 30 310 01 00 : GAMMA RAY
~Params ----------------------------------------------------
LMF .                     KB : LOG MEASURED FROM
DMF .                     KB : DRILLING MEASURED FROM
EKB .FT                 2397 : KELLY BUSHING
DATE.               03/13/60 : RUN DATE
RUN .                      1 : RUN NUMBER
DD  .FT                 9513 : DEPTH DRILLER
DL  .FT                 9508 : DEPTH LOGGER
BLI .FT                 9503 : BOTTOM LOG INTERVAL
TLI .FT                  945 : TOP LOG INTERVAL
CBD .FT                  948 : CASING BOTTOM DRILLER
CBL .FT                  945 : CASING BOTTOM LOGGER
BS  .IN                    9 : BIT SIZE
BSD .FT                 9513 : BIT SIZE AT DEPTH
DFT .                    GEL : DRILLING FLUID TYPE
DFD .                   10.6 : DRILLING FLUID DENSITY
DFV .                    110 : DRILLING FLUID VISCOSITY
DFPH.                   10.5 : DRILLING FLUID PH
DFL .                    5.2 : DRILLING FLUID LOSS
RMS .OHMM                  3 : RESISTIVITY MUD SAMPLE
MST .DEGF                 60 : MUD SAMPLE TEMPERATURE
RMF .OHMM                1.3 : RESISTIVITY MUD FILTRATE SAMPLE
MFST.DEGF                 70 : MUD FILTRATE SAMPLE TEMPERATURE
RMC .OHMM                3.1 : RESISTIVITY MUD CAKE
MCST.DEGF                 70 : MUD CAKE SAMPLE TEMPERATURE
RMB .OHMM               0.95 : RESISTIVITY MUD AT BHT
TCS .HRS                   4 : TIME CIRCULATED STOPPED
LUN .                   2742 : LOGGING UNIT NUMBER
LUL .                     VV : LOGGING UNIT LOCATION
ENGI.                    GAU : RECORDING ENGINEER
WITN.                  IRVIN : WITNESSED BY
CLNT.                A2DTECH : CLIENT CODE
ORIG.            2" 5" PRINT : ORIGIN OF DATA
UWI .       100142906919W500 : UNIQUE WELL ID
DICO. A2D Technologies, Inc. : DIGITIZING COMPANY
~Other -----------------------------------------------------
~ASCII -----------------------------------------------------
# ...
 7050.00000    -999.25    -999.25    9.37580   51.40590   18.65820  274.53950  100.57000 -190.53320    -999.25    -999.25    -999.25
 7100.00000    -999.25    -999.25    9.15560   53.99550   31.23750   62.41920   78.77690 -208.31300    -999.25    -999.25    -999.25
 7150.00000    -999.25    -999.25    9.34140   51.72620   16.16930  471.38630  124.44820 -216.03000    -999.25    -999.25    -999.25
 7200.00000    -999.25    -999.25    8.64470   52.50300   30.75210   64.73960   90.52070 -272.50580    -999.25    -999.25    -999.25
 7250.00000    -999.25    -999.25    8.53740   50.67900   24.54150   97.36310   84.82900 -254.77900    -999.25    -999.25    -999.25
 7300.00000    -999.25    -999.25    9.55230   55.33390  155.30020    7.00160   22.17080 -193.04240    -999.25    -999.25    -999.25
 7350.00000    -999.25    -999.25    8.99270   71.92320  255.20330    3.55990   20.49470 -212.86290    -999.25    -999.25    -999.25
 7400.00000    -999.25    -999.25    9.01420   50.63110   20.36060  169.56800  112.80020 -255.00260    -999.25    -999.25    -999.25
 7450.00000    -999.25    -999.25    9.14910   57.47310  120.87960    8.69020   18.52140 -172.96480    -999.25    -999.25    -999.25
 7500.00000    -999.25    -999.25    9.10000   53.84120   26.08910   85.39080   64.45460 -138.00640    -999.25    -999.25    -999.25
 7550.00000    -999.25    -999.25    9.57660   70.21780  110.61150    9.82930   13.47760 -130.00050    -999.25    -999.25    -999.25
 7600.00000    -999.25    -999.25    9.11410   53.00700   16.44500  254.77340   85.50090 -154.19070    -999.25    -999.25    -999.25
 7650.00000    -999.25    -999.25    9.25250   57.27860   58.77350   20.79290   27.56160 -112.27970    -999.25    -999.25    -999.25
 7700.00000    -999.25    -999.25    9.80410   75.45250   81.28480   13.83980   16.83380 -111.71440    -999.25    -999.25    -999.25
 7750.00000    -999.25    -999.25   14.18110   82.82290  199.46750    5.03350    6.80290 -106.30180    -999.25    -999.25    -999.25
 7800.00000    -999.25    -999.25   16.73580   87.79180  277.86400    3.30220    4.38170 -133.98750    -999.25    -999.25    -999.25
 7850.00000    -999.25    -999.25   16.73630   77.75240  277.53350    3.48110    4.55820 -130.82590    -999.25    -999.25    -999.25
 7900.00000    -999.25    -999.25   16.75430   82.64800  276.52310    3.60720    4.67010 -132.25420    -999.25    -999.25    -999.25
 7950.00000    -999.25    -999.25   16.76530   82.96020  269.43700    3.59480    4.71040 -118.59910    -999.25    -999.25    -999.25
 8000.00000    -999.25    -999.25   16.78370   84.91530  324.94520    2.90590    4.03840 -117.34220    -999.25    -999.25    -999.25
 8050.00000    -999.25    -999.25   16.76530   84.36150  342.60510    2.63900    3.90290 -133.76840    -999.25    -999.25    -999.25
 8100.00000    -999.25    -999.25   16.78300   89.98200  323.61030    2.89830    4.16360 -124.31660    -999.25    -999.25    -999.25
 8150.00000    -999.25    -999.25    9.80190   65.44360  109.79260    9.62930   13.39020  -92.42450    -999.25    -999.25    -999.25
 8200.00000    -999.25    -999.25    9.33870   67.54600  116.08680    9.21960   13.16180  -95.23340    -999.25    -999.25    -999.25
 8250.00000    -999.25    -999.25   10.63720   72.82200  168.16420    6.23940    8.65920 -128.36170    -999.25    -999.25    -999.25
 8300.00000    -999.25    -999.25   10.02300   74.28360  124.43280    8.52820   11.47550 -122.29210    -999.25    -999.25    -999.25
 8350.00000    -999.25    -999.25   11.40110   69.64150  143.70200    7.36480   10.58850 -106.19380    -999.25    -999.25    -999.25
 8400.00000    -999.25    -999.25   13.05950   70.21760  160.56350    6.68760    9.86400  -81.85530    -999.25    -999.25    -999.25
 8450.00000    -999.25    -999.25   11.95380   69.96440  163.13140    6.33290    9.40630  -87.24690    -999.25    -999.25    -999.25
 8500.00000  535.22240    6.94280   10.97620   67.82060  139.12020    7.51100   10.34260 -101.79370    -999.25    -999.25    -999.25
 8550.00000  414.69430    7.95990   14.24370   72.70140  213.46590    4.76700    6.92440 -108.47160    -999.25    -999.25    -999.25
 8600.00000  506.14770   13.24680   10.36470   80.47430   85.40590   17.37200   25.74500  -95.83670    -999.25    -999.25    -999.25
 8650.00000  781.83510    5.82410   10.21390   75.27570   64.58640   19.41460   22.09030  -92.75990    -999.25    -999.25    -999.25
 8700.00000  586.33650   10.51700   10.31860   84.65110   36.59940   44.59450   44.26960  -94.20400    -999.25    -999.25    -999.25
 8750.00000 1582.29910    5.69110   10.84690   51.55240   14.70530  357.12390  157.96300 -123.72920    -999.25    -999.25    -999.25
 8800.00000  801.79910    6.36340   12.50650   54.19760   29.35900   63.73410   45.06730 -104.16530    -999.25    -999.25    -999.25
 8850.00000 1737.28600    5.00550   10.62340   52.04200   21.63820  123.08440   79.49380 -169.70020    -999.25    -999.25    -999.25
 8900.00000 1448.18480    3.82720   10.10180   52.58690   26.29210   77.35110   66.59310 -168.65660    -999.25    -999.25    -999.25
 8950.00000 1503.77210    4.83780    9.69220   52.37700   20.78450  137.99790   90.25810 -132.24630    -999.25    -999.25    -999.25
 9000.00000 1513.47550    6.76240    9.88890   53.52770   19.42070  198.77820  135.60010  -96.21060    -999.25    -999.25    -999.25
 9050.00000    -999.25    -999.25    9.34490   52.11790   25.27080   76.30430   72.10810 -127.08590    -999.25    -999.25    -999.25
 9100.00000    -999.25    -999.25    8.22370   72.37780 1083.96560    0.89170    8.24710 -184.16050    -999.25    -999.25    -999.25
 9150.00000    -999.25    -999.25    9.18650   73.74870  167.66930    6.14490    9.82970  -36.50580    -999.25    -999.25    -999.25
 9200.00000    -999.25    -999.25    8.26160   69.47210  394.79360    2.27230   12.34560 -131.84960    -999.25    -999.25    -999.25
 9250.00000    -999.25    -999.25    9.24020   59.39050   90.05830   11.79650   16.12330 -110.78260    -999.25    -999.25    -999.25
 9300.00000    -999.25    -999.25    8.88550   66.12790  959.38040    1.12000    6.19890 -224.06020    -999.25    -999.25    -999.25
 9350.00000    -999.25    -999.25    8.23280   80.61160 1998.16330    0.29140    1.06780 -225.05950    -999.25    -999.25    -999.25
 9400.00000    -999.25    -999.25    8.21030   72.64330 1211.34750    0.69460    3.82050 -224.19100    -999.25    -999.25    -999.25
 9450.00000    -999.25    -999.25    8.13700   72.42490 1320.56840    0.65220    3.62430 -225.24960    -999.25    -999.25    -999.25
 9500.00000    -999.25    -999.25    8.53100   69.78620  659.59970    1.23430    3.48640 -176.65910    -999.25    -999.25    -999.25
