~Version ---------------------------------------------------
VERS.      2.0 : CWLS log ASCII Standard -VERSION 2.0
WRAP.       NO : One line per depth step
CREA. 11/17/17 : LAS Creation Date
~Well ------------------------------------------------------
STRT.FT                                1400.0 : START DEPTH
STOP.FT                               13450.0 : STOP DEPTH
STEP.FT                              50.00000 : STEP LENGTH
NULL.                                 -999.25 : NULL VALUE
COMP. SUPERTEST PETROLEUM CORPORATION LIMITED : COMPANY
WELL.    SUPTST ALMINEX MED FERRIERW 8-9-39-9 : WELL
FLD .                                         : FIELD
LOC .                                         : LOCATION
CTRY.                                  CANADA : COUNTRY
SRVC.                  Schlumberger of Canada : SERVICE COMPANY
DATE.                             01-Oct-1960 : LOGDATE
PROV.                                 Alberta : PROVINCE
UWI .                        100080903909W500 : UNIQUE WELL ID
SLAT.WGS84                           52.33911 : SURFACE LATITUDE
SLON.WGS84                          -115.2267 : SURFACE LONGITUDE
~Curve Information -----------------------------------------
DEPT  .FT         : Depth Curve
CALWS .IN         : CALIPER [MCALED]
CILDED.MMHO       : CONDUCTIVITY FROM RESISTIVITY LOG
CONDWS.MMHO       : CONDUCTIVITY [1000/DRESWS]
DRESWS.OHMM       : DEEP RESISTIVITY [ILDED]
DTED  .US/F       : DELTA-TIME FROM SONIC LOG
DTWS  .US/F       : CPOMPRESSIONAL SONIC [DTED]
GRSED .UgRa-Eq/T  : GAMMA RAY FROM SONIC LOG
GRWS  .GAPI       : GAMMA RAY [GRSED*16.5]
ILDED .OHMM       : DEEP INDUCTION 40"  RESISTIVITY FROM RESISTIVITY LOG
MCALED.IN         : MICRO CALIPER FROM ML LOG
SNED  .OHMM       : SHORT NORMAL 16"  RESISTIVITY FROM RESISTIVITY LOG
SPRED .MV         : SPONTANEOUS POTENTIAL FROM RESISTIVITY LOG
SPWS  .MV         : SPONTANEOUS POTENTIAL [BASELINE 0 MV, SPRED]
SRESWS.OHMM       : SHALLOW RESISTIVITY [SNED]
~Params ----------------------------------------------------
LMF .                     KB : LOG MEASURED FROM
DMF .                     KB : DRILLING MEASURED FROM
EKB .FT                 3787 : KELLY BUSHING
EGL .FT                 3770 : GROUND LEVEL
DATE.               10/01/60 : RUN DATE
RUN .                      2 : RUN NUMBER
DD  .FT                13500 : DEPTH DRILLER
DL  .FT                13492 : DEPTH LOGGER
BLI .FT                13486 : BOTTOM LOG INTERVAL
TLI .FT                10594 : TOP LOG INTERVAL
BS  .IN                 8.75 : BIT SIZE
BSD .FT                13500 : BIT SIZE AT DEPTH
DFT .              LIME BASE : DRILLING FLUID TYPE
DFD .                    9.6 : DRILLING FLUID DENSITY
DFV .                    194 : DRILLING FLUID VISCOSITY
DFPH.                   13.5 : DRILLING FLUID PH
DFL .                      7 : DRILLING FLUID LOSS
MSS .            CIRCULATION : MUD SAMPLE SOURCE
RMS .OHMM               0.59 : RESISTIVITY MUD SAMPLE
MST .DEGF                 70 : MUD SAMPLE TEMPERATURE
RMF .OHMM               0.43 : RESISTIVITY MUD FILTRATE SAMPLE
MFST.DEGF                 70 : MUD FILTRATE SAMPLE TEMPERATURE
RMC .OHMM               0.91 : RESISTIVITY MUD CAKE
MCST.DEGF                 70 : MUD CAKE SAMPLE TEMPERATURE
RMB .OHMM               0.18 : RESISTIVITY MUD AT BHT
TCS .HRS                   6 : TIME CIRCULATED STOPPED
LUN .                   1575 : LOGGING UNIT NUMBER
LUL .                      C : LOGGING UNIT LOCATION
ENGI.                 YUNKER : RECORDING ENGINEER
CLNT.                A2DTECH : CLIENT CODE
ORIG.            2" 5" PRINT : ORIGIN OF DATA
UWI .       100080903909W500 : UNIQUE WELL ID
DICO. A2D Technologies, Inc. : DIGITIZING COMPANY
~Other -----------------------------------------------------
IE-BCS-ML LOGS RUN
ALL RESISTIVITY DATA FROM SMALL SECTION @ TOP-7980'
~ASCII -----------------------------------------------------
 1400.00000    -999.25  109.14890   89.96690   11.11520    -999.25    -999.25    -999.25    -999.25   11.11520    -999.25   19.27720 -100.61950   -4.08010   19.27720
 1450.00000    -999.25  116.89460  129.52030    7.72080    -999.25    -999.25    -999.25    -999.25    7.72080    -999.25   12.85490 -102.99370   -4.91980   12.85490
 1500.00000    -999.25  133.75700  143.04920    6.99060    -999.25    -999.25    -999.25    -999.25    6.99060    -999.25   11.78000 -100.92580   -5.11890   11.78000
 1550.00000    -999.25  141.60990  164.08060    6.10080    -999.25    -999.25    -999.25    -999.25    6.10080    -999.25   10.59390  -97.49590   -4.83440   10.59390
 1600.00000    -999.25  151.92640  165.02190    6.05980    -999.25    -999.25    -999.25    -999.25    6.05980    -999.25   10.04280  -93.98610   -4.50150   10.04280
 1650.00000    -999.25   58.54970   69.13530   14.46440    -999.25    -999.25    -999.25    -999.25   14.46440    -999.25   21.73140  -95.58570   -7.29040   21.73140
 1700.00000    -999.25  262.18180  270.87790    3.69170    -999.25    -999.25    -999.25    -999.25    3.69170    -999.25    8.48660  -92.79490   -4.53080    8.48660
 1750.00000    -999.25  126.11150  125.90020    7.94280    -999.25    -999.25    -999.25    -999.25    7.94280    -999.25   15.37560  -94.93740   -6.70450   15.37560
 1800.00000    -999.25   61.35550   75.98210   13.19440    -999.25    -999.25    -999.25    -999.25   13.19440    -999.25   17.82800  -91.74370   -3.54170   17.82800
 1850.00000    -999.25  177.33760  197.05600    5.07470    -999.25    -999.25    -999.25    -999.25    5.07470    -999.25   10.55060  -93.13530   -5.05780   10.55060
 1900.00000    -999.25   69.84600   77.84710   12.84570    -999.25    -999.25    -999.25    -999.25   12.84570    -999.25   19.76460  -92.47890   -4.54470   19.76460
 1950.00000    -999.25  201.70290  195.57990    5.11300    -999.25    -999.25    -999.25    -999.25    5.11300    -999.25   10.84340  -91.10040   -3.30940   10.84340
 2000.00000    -999.25  120.64460  135.33080    7.38930    -999.25    -999.25    -999.25    -999.25    7.38930    -999.25   13.38140  -90.94140   -3.29370   13.38140
 2050.00000    -999.25   77.51750   80.78270   12.38870    -999.25    -999.25    -999.25    -999.25   12.38870    -999.25   20.07990  -95.84390   -8.33880   20.07990
 2100.00000    -999.25   85.18140   89.52470   11.17010    -999.25    -999.25    -999.25    -999.25   11.17010    -999.25   20.51940  -96.73440   -9.37330   20.51940
 2150.00000    -999.25   99.11440  114.74860    8.71470    -999.25    -999.25    -999.25    -999.25    8.71470    -999.25   14.62370  -94.04210   -6.82430   14.62370
 2200.00000    -999.25  205.07370  244.46290    4.09060    -999.25    -999.25    -999.25    -999.25    4.09060    -999.25    8.82480  -94.59200   -7.51740    8.82480
 2250.00000    -999.25  225.28250  238.33360    4.19580    -999.25    -999.25    -999.25    -999.25    4.19580    -999.25    9.64670  -92.78520   -5.85390    9.64670
 2300.00000    -999.25  112.32430  124.92750    8.00510    -999.25    -999.25    -999.25    -999.25    8.00510    -999.25   12.14670  -91.63370   -4.84490   12.14670
 2350.00000    -999.25  269.87700  297.61900    3.36000    -999.25    -999.25    -999.25    -999.25    3.36000    -999.25    6.72070  -93.44950   -6.47290    6.72070
 2400.00000    -999.25   48.27660   52.74480   18.95920    -999.25    -999.25    -999.25    -999.25   18.95920    -999.25   27.69870  -98.63260  -10.98970   27.69870
 2450.00000    -999.25  120.91000  133.63620    7.48300    -999.25    -999.25    -999.25    -999.25    7.48300    -999.25   11.82210  -94.62370   -6.31460   11.82210
 2500.00000    -999.25   50.91110   56.47290   17.70760    -999.25    -999.25    -999.25    -999.25   17.70760    -999.25   26.15680  -98.81320   -9.71020   26.15680
 2550.00000    -999.25   85.84110   89.32420   11.19840    -999.25    -999.25    -999.25    -999.25   11.19840    -999.25   16.94910  -97.64650   -7.61030   16.94910
 2600.00000    -999.25   62.47900   70.43490   14.19750    -999.25    -999.25    -999.25    -999.25   14.19750    -999.25   22.24030 -103.72930  -12.75040   22.24030
 2650.00000    -999.25   34.43450   38.10240   26.24510    -999.25    -999.25    -999.25    -999.25   26.24510    -999.25   41.28570 -131.08780  -39.17100   41.28570
 2700.00000    -999.25  110.87210  126.13840    7.92780    -999.25    -999.25    -999.25    -999.25    7.92780    -999.25   14.05490  -95.58800   -2.80320   14.05490
 2750.00000    -999.25  122.64500  129.69500    7.71040    -999.25    -999.25    -999.25    -999.25    7.71040    -999.25   17.83710  -98.05060   -5.55710   17.83710
 2800.00000    -999.25   95.20670   93.59410   10.70580    -999.25    -999.25    -999.25    -999.25   10.70580    -999.25   27.91360  -97.14960   -4.95000   27.91360
 2850.00000    -999.25  149.38270  145.90230    6.85390    -999.25    -999.25    -999.25    -999.25    6.85390    -999.25   17.77440  -97.08540   -5.18260   17.77440
 2900.00000    -999.25  118.66310  129.44650    7.72520    -999.25    -999.25    -999.25    -999.25    7.72520    -999.25   17.13340  -96.28730   -4.67990   17.13340
 2950.00000    -999.25  158.65960  154.24240    6.48330    -999.25    -999.25    -999.25    -999.25    6.48330    -999.25   22.39780  -96.73170   -5.41970   22.39780
 3000.00000    -999.25  139.13680  147.55570    6.77710    -999.25    -999.25    -999.25    -999.25    6.77710    -999.25   16.36890  -96.08880   -4.95410   16.36890
 3050.00000    -999.25  102.05460   98.34300   10.18290    -999.25    -999.25    -999.25    -999.25   10.18290    -999.25   19.16950  -95.76630   -4.66450   19.16950
 3100.00000    -999.25   29.49820   37.24270   26.85090    -999.25    -999.25    -999.25    -999.25   26.85090    -999.25   36.25030 -101.48530  -10.41670   36.25030
 3150.00000    -999.25   73.72030   75.84720   13.18440    -999.25    -999.25    -999.25    -999.25   13.18440    -999.25   19.50140  -98.68560   -7.65000   19.50140
 3200.00000    -999.25  183.84420  215.27600    4.64520    -999.25    -999.25    -999.25    -999.25    4.64520    -999.25    8.24130  -95.58810   -4.58550    8.24130
 3250.00000    -999.25  124.81800  115.76080    8.63850    -999.25    -999.25    -999.25    -999.25    8.63850    -999.25   13.99780  -99.16900   -7.70630   13.99780
 3300.00000    -999.25   76.69040   71.58460   14.00230    -999.25    -999.25    -999.25    -999.25   14.00230    -999.25   34.55230  -97.15230   -4.60740   34.55230
 3350.00000    -999.25   91.00660   97.13830   10.29460    -999.25    -999.25    -999.25    -999.25   10.29460    -999.25   15.74330 -105.57600  -11.93790   15.74330
 3400.00000    -999.25   91.22790  104.59590    9.56060    -999.25    -999.25    -999.25    -999.25    9.56060    -999.25   13.35180 -101.10890   -6.38310   13.35180
 3450.00000    -999.25  140.89430  158.06280    6.32660    -999.25    -999.25    -999.25    -999.25    6.32660    -999.25   10.84680  -98.58530   -3.06100   10.84680
 3500.00000    -999.25   86.63900   90.18430   11.08840    -999.25    -999.25    -999.25    -999.25   11.08840    -999.25   16.68360 -103.36790   -8.27790   16.68360
 3550.00000    -999.25  118.30930  130.76210    7.64750    -999.25    -999.25    -999.25    -999.25    7.64750    -999.25   11.90090  -99.70500   -5.04710   11.90090
 3600.00000    -999.25  118.60880  126.76360    7.88870    -999.25    -999.25    -999.25    -999.25    7.88870    -999.25   11.65010  -99.78050   -5.55910   11.65010
 3650.00000    -999.25   74.45130   83.95320   11.91140    -999.25    -999.25    -999.25    -999.25   11.91140    -999.25   17.49890 -101.60160   -7.81450   17.49890
 3700.00000    -999.25   66.54140   75.52870   13.24000    -999.25    -999.25    -999.25    -999.25   13.24000    -999.25   19.79340 -109.62920  -15.67870   19.79340
 3750.00000    -999.25  260.03300  262.57750    3.80840    -999.25    -999.25    -999.25    -999.25    3.80840    -999.25    6.92320  -99.80560   -5.35540    6.92320
 3800.00000    -999.25   59.80910   76.13700   13.18690    -999.25    -999.25    -999.25    -999.25   13.18690    -999.25   20.84420 -110.50260  -15.55530   20.84420
