~Version ---------------------------------------------------
VERS.      2.0 : CWLS log ASCII Standard -VERSION 2.0
WRAP.       NO : One line per depth step
CREA. 01/03/18 : LAS Creation Date
~Well ------------------------------------------------------
STRT.FT                     900.0 : START DEPTH
STOP.FT                    8900.0 : STOP DEPTH
STEP.FT                  50.00000 : STEP LENGTH
NULL.                     -999.25 : NULL VALUE
COMP.        MOBIL OIL CANADA LTD : COMPANY
WELL. MOBIL PINE RIDGE 16-9-62-12 : WELL
FLD .                             : FIELD
LOC .                             : LOCATION
CTRY.                      CANADA : COUNTRY
SRVC.      Schlumberger of Canada : SERVICE COMPANY
DATE.                 07-Apr-1960 : LOGDATE
PROV.                     Alberta : PROVINCE
UWI .            100160906212W500 : UNIQUE WELL ID
SLAT.WGS84               54.35402 : SURFACE LATITUDE
SLON.WGS84              -115.7285 : SURFACE LONGITUDE
~Curve Information -----------------------------------------
DEPT  .FT         : Depth Curve
CALMED.IN         : CALIPER FROM MICROLOG
CALWS .IN         : CALIPER (CALMED)
CILDED.MMHO       : CONDUCTIVITY FROM LOG
CONDWS.MMHO       : CONDUCTIVITY (1000/DRESWS)
DRESWS.OHMM       : DEEP RESISTIVITY (IF ILDED<4, THEN 1000/CILDED)
DTED  .US/F       : DELTA TIME  (ADJ TO RES.)
DTWS  .US/F       : DELTA TIME  (DTED)
GRSED .UgRa-Eq/T  : GAMMA RAY SONIC (ADJ TO RES.)
GRWS  .GAPI       : GAMMA RAY (GRSED*16.5)
ILDED .OHMM       : DEEP INDUCTION RESISTIVITY
SNED  .OHMM       : SHORT NORMAL 16"
SPRED .MV         : Spontaneous Potential  IELOG
SPWS  .MV         : SPONTANEOUS POTENTIAL BASELINE 0 MV (SPRED)
SRESWS.OHMM       : SHALLOW RESISTIVITY (SNED)
~Params ----------------------------------------------------
LMF .                     KB : LOG MEASURED FROM
DMF .                     KB : DRILLING MEASURED FROM
EKB .FT                 2909 : KELLY BUSHING
EGL .FT               2897.6 : GROUND LEVEL
DATE.               04/07/60 : RUN DATE
RUN .                      2 : RUN NUMBER
DD  .FT                 8932 : DEPTH DRILLER
DL  .FT                 8932 : DEPTH LOGGER
BLI .FT                 8926 : BOTTOM LOG INTERVAL
TLI .FT                 1700 : TOP LOG INTERVAL
BS  .IN                    9 : BIT SIZE
BSD .FT                 8932 : BIT SIZE AT DEPTH
DFT .               OIL FMUL : DRILLING FLUID TYPE
DFD .                   10.4 : DRILLING FLUID DENSITY
DFV .                     86 : DRILLING FLUID VISCOSITY
MSS .            CURCULATION : MUD SAMPLE SOURCE
RMS .OHMM                4.8 : RESISTIVITY MUD SAMPLE
MST .DEGF                 52 : MUD SAMPLE TEMPERATURE
RMF .OHMM                  2 : RESISTIVITY MUD FILTRATE SAMPLE
MFST.DEGF                 72 : MUD FILTRATE SAMPLE TEMPERATURE
RMC .OHMM                3.8 : RESISTIVITY MUD CAKE
MCST.DEGF                 72 : MUD CAKE SAMPLE TEMPERATURE
RMB .OHMM                0.8 : RESISTIVITY MUD AT BHT
TCS .HRS                   4 : TIME CIRCULATED STOPPED
LUN .                   1574 : LOGGING UNIT NUMBER
LUL .                    SKW : LOGGING UNIT LOCATION
ENGI.                   GRAY : RECORDING ENGINEER
WITN.              MADELENER : WITNESSED BY
CLNT.                A2DTECH : CLIENT CODE
ORIG.            2" 5" PRINT : ORIGIN OF DATA
UWI .       100160906212W500 : UNIQUE WELL ID
DICO. A2D Technologies, Inc. : DIGITIZING COMPANY
~Other -----------------------------------------------------
~ASCII -----------------------------------------------------
# ...
 3350.00000    -999.25    -999.25  158.46860  159.46670    6.27090   98.69920   98.69920    5.89270   97.22950    6.27090    7.67910  -42.29920   -6.23290    7.67910
 3400.00000    -999.25    -999.25  159.87100  160.20090    6.24230  100.77500  100.77500    5.70620   94.15310    6.24230    7.46580  -42.04840   -5.85340    7.46580
 3450.00000    -999.25    -999.25  158.92300  159.40570    6.27330  102.54410  102.54410    5.73210   94.57970    6.27330    7.77340  -41.33870   -5.01380    7.77340
 3500.00000    -999.25    -999.25  180.00940  178.20860    5.61140  103.50130  103.50130    5.57350   91.96280    5.61140    6.80600  -43.35070   -6.89660    6.80600
 3550.00000    -999.25    -999.25  119.33960  122.45820    8.16610   89.65740   89.65740    5.47760   90.38040    8.16610    9.37070  -44.56690   -7.98420    9.37070
 3600.00000    -999.25    -999.25  148.51520  149.53940    6.68720   95.00790   95.00790    5.50160   90.77640    6.68720    8.19860  -45.86310   -9.15050    8.19860
 3650.00000    -999.25    -999.25  136.12470  137.27730    7.28460   92.38340   92.38340    5.62390   92.79520    7.28460    8.79880  -45.94690   -9.10570    8.79880
 3700.00000    -999.25    -999.25  158.20310  157.04500    6.36760   95.77150   95.77150    5.98300   98.71950    6.36760    8.34830  -44.69740   -7.72630    8.34830
 3750.00000    -999.25    -999.25  157.42360  158.18280    6.32180  102.43620  102.43620    6.09470  100.56250    6.32180    8.44980  -43.26010   -6.15970    8.44980
 3800.00000    -999.25    -999.25  151.57770  154.25220    6.48290  103.60510  103.60510    6.36780  105.06870    6.48290    9.06480  -44.42460   -7.19560    9.06480
 3850.00000    -999.25    -999.25  168.02490  166.78900    5.99560  102.08720  102.08720    6.39280  105.48120    5.99560    8.09000  -42.93280   -5.57390    8.09000
 3900.00000    -999.25    -999.25  120.81410  121.98370    8.19880   97.59730   97.59730    6.82430  112.60180    8.19880   13.18840  -45.20870   -7.72120   13.18840
 3950.00000    -999.25    -999.25  127.76860  131.46310    7.60670  110.86350  110.86350    9.36530  154.52740    7.60670   10.10770  -44.25460   -6.63720   10.10770
 4000.00000    -999.25    -999.25  199.54510  201.56820    4.96110   97.00020   97.00020    5.81880   96.01020    4.96110    6.45040  -44.76910   -7.02240    6.45040
 4050.00000    -999.25    -999.25  124.26580  128.71740    7.77080   92.75390   92.75390    4.69620   77.48650    7.77080    9.66860  -57.99850  -20.12320    9.66860
 4100.00000    -999.25    -999.25  202.82930  194.33700    5.14570   93.93380   93.93380    5.64340   93.11610    5.14570    6.39460  -42.95350   -4.94830    6.39460
 4150.00000    -999.25    -999.25  176.17090  174.64060    5.72610   89.01330   89.01330    5.42390   89.49520    5.72610    7.47820  -45.07250   -6.93860    7.47820
 4200.00000    -999.25    -999.25  220.50450  204.49060    4.89020   94.04110   94.04110    5.76440   95.11260    4.89020    5.95480  -44.04690   -5.78320    5.95480
 4250.00000    -999.25    -999.25  218.89450  205.00630    4.87790   95.45260   95.45260    6.27860  103.59690    4.87790    6.41090  -43.78920   -5.39620    6.41090
 4300.00000    -999.25    -999.25  348.62750  348.62750    2.86840  103.50410  103.50410    6.18070  101.98160    3.44750    3.97940  -41.98520   -3.46360    3.97940
 4350.00000    -999.25    -999.25  482.28730  482.28730    2.07350  112.62070  112.62070    6.43330  106.14950    2.86950    3.16730  -43.53990   -5.11390    3.16730
 4400.00000    -999.25    -999.25  291.78870  291.78870    3.42730   98.64040   98.64040    6.90450  113.92430    3.93850    4.45290  -47.65080   -9.36980    4.45290
 4450.00000    -999.25    -999.25  210.68730  203.10750    4.92350   94.20060   94.20060    6.00850   99.14020    4.92350    6.08680  -47.31540   -9.18080    6.08680
 4500.00000    -999.25    -999.25   85.02750   87.57870   11.41830   77.86300   77.86300    2.90800   47.98200   11.41830   16.22560  -86.42160  -48.43280   16.22560
 4550.00000    -999.25    -999.25  645.60550  645.60550    1.54910  129.54230  129.54230    5.40390   89.16520    2.39040    2.60420  -45.80380   -7.95990    2.60420
 4600.00000    -999.25    -999.25   97.52740  101.13060    9.88820   77.93410   77.93410    3.28130   54.14140    9.88820   13.57170  -67.96700  -30.26960   13.57170
 4650.00000    -999.25    -999.25  107.01810  105.31970    9.50740   80.71020   80.71020    4.23430   69.86600    9.50740   16.21390  -69.68080  -32.12840   16.21390
 4700.00000    -999.25    -999.25  107.39890  108.44110    9.22160   78.19790   78.19790    3.83700   63.31050    9.22160   14.29410  -58.22550  -20.81950   14.29410
 4750.00000    -999.25    -999.25  116.71570  119.13270    8.39400   92.31480   92.31480    4.60140   75.92310    8.39400   16.33170  -43.96120   -6.70100   16.33170
 4800.00000    -999.25    -999.25  138.68730  139.10760    7.18910   70.10240   70.10240    5.05370   83.38610    7.18910   10.24330  -44.70540   -7.59020   10.24330
 4850.00000    -999.25    -999.25   92.04140   92.94110   10.75950   79.37500   79.37500    3.70660   61.15890   10.75950   18.18260  -99.38990  -62.42110   18.18260
 4900.00000    -999.25    -999.25  106.43320  108.76650    9.19640   99.73450   99.73450    3.21530   53.05330    9.19640   12.92380  -69.43990  -32.61610   12.92380
 4950.00000    -999.25    -999.25  117.56260  120.86640    8.27360   86.71380   86.71380    4.91680   81.12720    8.27360   10.25350  -58.43710  -21.75980   10.25350
 5000.00000    -999.25    -999.25  116.23330  114.72760    8.71630   82.25900   82.25900    5.35050   88.28330    8.71630   11.16390  -45.10460   -8.57300   11.16390
 5050.00000    -999.25    -999.25  125.07680  124.78300    8.01540   79.46220   79.46220    5.15210   85.00960    8.01540   10.15240  -44.13760   -7.75090   10.15240
 5100.00000    -999.25    -999.25  226.64840  208.35500    4.79950   88.46000   88.46000    4.51250   74.45620    4.79950    5.47510  -40.76600   -4.52580    5.47510
 5150.00000    -999.25    -999.25  112.44170  112.64820    8.87760   78.39250   78.39250    4.52100   74.59730    8.87760   11.27830  -42.08130   -5.98610   11.27830
 5200.00000    -999.25    -999.25   70.28200   72.79870   13.73650   75.13830   75.13830    4.64540   76.64910   13.73650   18.44110  -45.28710   -9.33840   18.44110
 5250.00000    -999.25    -999.25   61.90470   65.36890   15.29780   73.49710   73.49710    4.32790   71.41030   15.29780   22.52250  -42.47710   -6.67410   22.52250
 5300.00000    -999.25    -999.25   78.35450   78.70000   12.71370   75.42690   75.42690    4.03010   66.49750   12.71370   21.01120  -58.17570  -22.51770   21.01120
 5350.00000    -999.25    -999.25  104.81650  108.01470    9.25800   75.60680   75.60680    5.78860   95.51190    9.25800   12.59400  -43.23150   -7.71990   12.59400
 5400.00000    -999.25    -999.25   18.13370   19.96210   50.09560   58.20540   58.20540    2.31830   38.25190   50.09560  128.22820  -56.78150  -21.41500  128.22820
 5450.00000    -999.25    -999.25   16.32080   16.05950   62.26840   69.94040   69.94040    5.74300   94.75950   62.26840  124.03950  -42.86840   -7.64830  124.03950
 5500.00000    -999.25    -999.25   17.79580   17.43690   57.34960   54.40980   54.40980    0.95620   15.77730   57.34960  143.90100 -154.47290 -119.39850  143.90100
 5550.00000    -999.25    -999.25   18.99030   17.98720   55.60210   53.41760   53.41760    0.88240   14.55960   55.60210  136.89800 -161.28410 -126.35460  136.89800
 5600.00000    -999.25    -999.25   81.67270   80.91920   12.35800   57.11910   57.11910    2.17630   35.90890   12.35800   31.56010  -77.91850  -43.13550   31.56010
 5650.00000    -999.25    -999.25  134.05950  134.02530    7.46130   65.48950   65.48950    4.99110   82.35320    7.46130   11.92240  -60.65500  -26.01700   11.92240
 5700.00000    -999.25    -999.25  372.18440  372.18440    2.68680   70.21830   70.21830    2.22530   36.71740    3.59070    7.33770  -98.92180  -64.43030    7.33770
 5750.00000    -999.25    -999.25   22.06420   22.18150   45.08270   50.33820   50.33820    1.11840   18.45360   45.08270   87.10140  -89.50830  -55.16250   87.10140
