~Version ---------------------------------------------------
VERS. 2.0 : CWLS log ASCII Standard -VERSION 2.0
WRAP.  NO : ONE LINE PER DEPTH STEP
~Well ------------------------------------------------------
STRT.F                                   347.3 : START DEPTH
STOP.F                                  9458.8 : STOP DEPTH
STEP.F                                 0.50000 : STEP LENGTH
NULL.                                  -999.25 : NULL VALUE
COMP. THE BRITISH AMERICAN OIL COMPANY LIMITED : COMPANY
WELL.              B.A. GOOSE RIVER 4-32-66-18 : WELL
FLD .                                          : FIELD
LOC .                                          : LOCATION
CTRY.                                   CANADA : COUNTRY
SRVC.                             Schlumberger : SERVICE COMPANY
DATE.                              02-Dec-1964 : LOGDATE
PROV.                                  Alberta : PROVINCE
UWI .                         100043206618W500 : UNIQUE WELL ID
SLAT.WGS84                            54.75185 : SURFACE LATITUDE
SLON.WGS84                           -116.6939 : SURFACE LONGITUDE
~Curve Information -----------------------------------------
DEPT.F    0   1   0  0 : 1 MEASURED DEPTH
GRN .GAPI 35 310 01 00 : GAMMA RAY FROM GRN LOG
NEUT.NAPI 35 330 01 00 : NEUTRON
GR  .GAPI 30 310 00 00 : GAMMA RAY
CILD.MMHO 05 110 46 00 : INDUCTION DEEP CONDUCTIVITY
ILD .OHMM 05 120 46 00 : INDUCTION DEEP RESISTIVITY
SN  .OHMM 05 040 16 00 : SHORT NORMAL RESISTIVITY
SPR .MV   05 010 01 00 : SPONTANEOUS POTENTIAL FROM RESISTIVITY LOG
GRS .GAPI 60 310 01 00 : GAMMA RAY FROM SONIC LOG
DT  .US/F 60 500 00 00 : DELTA-T (INTERVAL TRANSIT TIME)
CALS.IN   60 280 50 00 : CALIPER FROM SONIC LOG
DT_1.US/F 60 500 31 00 : DELTA-T (INTERVAL TRANSIT TIME)
~Params ----------------------------------------------------
PD  .                     GL : PERMANENT DATUM
EPD .FT                 2485 : ELEVATION PERMANENT DATUM
LMF .                     KB : LOG MEASURED FROM
DAPD.FT                   15 : FEET ABOVE PERMANENT DATUM
EKB .FT                 2500 : KELLY BUSHING
EGL .FT                 2485 : GROUND LEVEL
DATE.               12/02/64 : RUN DATE
RUN .                      1 : RUN NUMBER
DD  .FT                 9461 : DEPTH DRILLER
DL  .FT                 9460 : DEPTH LOGGER
BLI .FT                 9459 : BOTTOM LOG INTERVAL
TLI .FT                  781 : TOP LOG INTERVAL
CBD .FT                  784 : CASING BOTTOM DRILLER
CBL .FT                  781 : CASING BOTTOM LOGGER
BS  .IN                7.625 : BIT SIZE
BSD .FT                 9461 : BIT SIZE AT DEPTH
DFT .               GEL CHEM : DRILLING FLUID TYPE
DFD .                    9.8 : DRILLING FLUID DENSITY
DFV .                     95 : DRILLING FLUID VISCOSITY
DFPH.                    9.5 : DRILLING FLUID PH
DFL .                    7.4 : DRILLING FLUID LOSS
RMS .OHMM               2.38 : RESISTIVITY MUD SAMPLE
MST .DEGF                 64 : MUD SAMPLE TEMPERATURE
RMF .OHMM                2.1 : RESISTIVITY MUD FILTRATE SAMPLE
MFST.DEGF                 66 : MUD FILTRATE SAMPLE TEMPERATURE
RMC .OHMM               2.32 : RESISTIVITY MUD CAKE
MCST.DEGF                 66 : MUD CAKE SAMPLE TEMPERATURE
RMB .OHMM               0.84 : RESISTIVITY MUD AT BHT
TCS .HRS                   6 : TIME CIRCULATED STOPPED
LUN .                   3534 : LOGGING UNIT NUMBER
LUL .                    V V : LOGGING UNIT LOCATION
ENGI.               CHENOSKY : RECORDING ENGINEER
WITN.                  WEISS : WITNESSED BY
CLNT.                A2DTECH : CLIENT CODE
ORIG.            2" 5" PRINT : ORIGIN OF DATA
UWI .       100043206618W500 : UNIQUE WELL ID
DICO. A2D Technologies, Inc. : DIGITIZING COMPANY
~Other -----------------------------------------------------
~ASCII -----------------------------------------------------
# ...
 6538.80000    -999.25    -999.25    -999.25   14.30110   76.88070   68.88810  -29.60230   46.59900   55.90020    8.15350    -999.25
 6539.30000    -999.25    -999.25    -999.25   14.90330   76.25940   68.60420  -29.51470   46.07390   56.05240    8.17640    -999.25
 6539.80000    -999.25    -999.25    -999.25   15.08040   76.13630   68.32020  -29.36820   49.71390   56.17810    8.19930    -999.25
 6540.30000    -999.25    -999.25    -999.25   15.12280   76.38250   68.03630  -29.51210   48.82580   56.32110    8.22220    -999.25
 6540.80000    -999.25    -999.25    -999.25   14.89630   76.62870   67.75230  -29.64170   48.84370   56.46410    8.24510    -999.25
 6541.30000    -999.25    -999.25    -999.25   14.92420   77.37380   67.46830  -29.93000   49.36550   56.57210    8.26700    -999.25
 6541.80000    -999.25    -999.25    -999.25   14.73010   78.66890   67.18440  -29.77510   47.48550   56.65880    8.26170    -999.25
 6542.30000    -999.25    -999.25    -999.25   14.67000   79.96410   67.95350  -30.15270   50.26450   56.67920    8.25340    -999.25
 6542.80000    -999.25    -999.25    -999.25   14.07570   81.25920   69.17560  -30.39450   51.03760   56.64840    8.26900    -999.25
 6543.30000    -999.25    -999.25    -999.25   13.94480   83.18050   70.39770  -30.52670   49.70540   56.61790    8.28220    -999.25
 6543.80000    -999.25    -999.25    -999.25   13.57880   85.61210   71.61980  -30.72950   46.70220   56.58020    8.27460    -999.25
 6544.30000    -999.25    -999.25    -999.25   12.82360   90.36590   72.84190  -30.90090   50.22720   56.52260    8.27250    -999.25
 6544.80000    -999.25    -999.25    -999.25   12.54500   94.03810   74.11780  -31.08710   53.72840   56.46500    8.27560    -999.25
 6545.30000    -999.25    -999.25    -999.25   11.83630   99.85150   75.59190  -31.37860   51.33700   56.40730    8.26840    -999.25
 6545.80000    -999.25    -999.25    -999.25   11.42590  106.06900   78.01550  -31.66500   48.23270   56.34970    8.23430    -999.25
 6546.30000    -999.25    -999.25    -999.25   11.08930  112.28660   79.47800  -31.97520   47.92640   56.37830    8.20690    -999.25
 6546.80000    -999.25    -999.25    -999.25   10.45910  118.50410   81.90470  -32.30810   50.47060   56.41600    8.19650    -999.25
 6547.30000    -999.25    -999.25    -999.25    9.93170  124.72170   84.19800  -32.63210   47.85320   56.32250    8.18610    -999.25
 6547.80000    -999.25    -999.25    -999.25    9.25990  132.49380   86.16410  -33.05730   42.75810   56.22890    8.17580    -999.25
 6548.30000    -999.25    -999.25    -999.25    8.82480  139.16680   88.37430  -33.58280   44.05840   56.13540    8.16540    -999.25
 6548.80000    -999.25    -999.25    -999.25    8.47830  145.72240   90.41640  -33.78790   44.76310   55.99960    8.15500    -999.25
 6549.30000    -999.25    -999.25    -999.25    8.24290  155.26010   92.44460  -34.16800   44.29020   55.87130    8.14460    -999.25
 6549.80000    -999.25    -999.25    -999.25    8.15840  160.15300   94.23480  -34.22590   42.70940   55.75300    8.13420    -999.25
 6550.30000    -999.25    -999.25    -999.25    7.69390  166.11430   96.27760  -34.98200   41.00740   55.63900    8.12380    -999.25
 6550.80000    -999.25    -999.25    -999.25    7.23130  173.83010   98.47630  -35.24940   38.98120   55.52500    8.10990    -999.25
 6551.30000    -999.25    -999.25    -999.25    7.17020  177.60240  100.15460  -35.56230   37.21180   55.41100    8.09360    -999.25
 6551.80000    -999.25    -999.25    -999.25    6.94340  185.11000  101.61120  -35.93770   39.53110   55.29700    8.07730    -999.25
 6552.30000    -999.25    -999.25    -999.25    6.37960  191.12090  103.43090  -36.24170   38.78680   55.18950    8.06090    -999.25
 6552.80000    -999.25    -999.25    -999.25    6.21320  194.12710  104.48800  -36.56090   40.87300   55.08220    8.04460    -999.25
 6553.30000    -999.25    -999.25    -999.25    6.15810  193.98010  105.26230  -36.73240   43.80780   54.97490    8.02830    -999.25
 6553.80000    -999.25    -999.25    -999.25    6.09480  194.13110  105.68670  -36.91200   42.58140   54.86760    8.01200    -999.25
 6554.30000    -999.25    -999.25    -999.25    6.09390  192.50040  106.08880  -37.09020   40.94800   54.76030    7.99560    -999.25
 6554.80000    -999.25    -999.25    -999.25    6.10800  188.42490  106.49090  -37.46680   40.54830   54.65670    7.99740    -999.25
 6555.30000    -999.25    -999.25    -999.25    6.35120  184.34930  106.73350  -37.70030   38.77770   54.64950    7.99950    -999.25
 6555.80000    -999.25    -999.25    -999.25    6.96320  180.27380  106.81580  -37.71590   35.35830   54.65390    8.00150    -999.25
 6556.30000    -999.25    -999.25    -999.25    6.71450  176.19830  105.49870  -37.97490   31.93880   54.65830    8.00360    -999.25
 6556.80000    -999.25    -999.25    -999.25    6.91360  172.15490  105.07810  -38.18770   30.40970   54.62670    8.00570    -999.25
 6557.30000    -999.25    -999.25    -999.25    7.07740  168.12040  104.82230  -38.37030   35.43830   54.60350    8.00770    -999.25
 6557.80000    -999.25    -999.25    -999.25    7.25810  164.08590  103.98370  -38.87760   42.26910   54.60270    8.01750    -999.25
 6558.30000    -999.25    -999.25    -999.25    7.20070  160.23510  102.68210  -39.26540   42.21870   54.61650    8.03040    -999.25
 6558.80000    -999.25    -999.25    -999.25    7.67450  156.64210  102.06150  -39.29700   35.66600   54.61620    8.04330    -999.25
 6559.30000    -999.25    -999.25    -999.25    7.81200  153.04910  101.82720  -39.29370   37.26010   54.61590    8.05610    -999.25
 6559.80000    -999.25    -999.25    -999.25    7.55470  151.74330  102.24460  -39.27170   38.97400   54.66090    8.06900    -999.25
 6560.30000    -999.25    -999.25    -999.25    7.83720  150.73600  101.07040  -39.25250   38.64700   54.70570    8.06850    -999.25
 6560.80000    -999.25    -999.25    -999.25    7.90390  151.05100  101.25780  -39.33740   38.17120   54.70670    8.06280    -999.25
 6561.30000    -999.25    -999.25    -999.25    7.89390  151.36610  101.41400  -39.41130   37.69550   54.70770    8.05710    -999.25
 6561.80000    -999.25    -999.25    -999.25    7.87800  152.74900  100.95010  -39.36090   37.47870   54.70870    8.05150    -999.25
 6562.30000    -999.25    -999.25    -999.25    7.80310  155.64910  101.31570  -39.47500   37.51580   54.73980    8.04580    -999.25
 6562.80000    -999.25    -999.25    -999.25    7.70590  158.54910  101.75070  -39.51670   38.32850   54.69670    8.04010    -999.25
 6563.30000    -999.25    -999.25    -999.25    7.53800  161.44910  101.86020  -39.52620   39.55150   54.56960    8.03450    -999.25
 6563.80000    -999.25    -999.25    -999.25    7.01410  165.05510  101.92280  -39.76500   40.69330   54.52560    8.02880    -999.25
 6564.30000    -999.25    -999.25    -999.25    6.86320  165.55030  101.95970  -39.90450   41.75880   54.51930    8.02320    -999.25
 6564.80000    -999.25    -999.25    -999.25    6.73200  166.91790  101.98890  -39.92170   43.85610   54.51290    8.01750    -999.25
 6565.30000    -999.25    -999.25    -999.25    6.70710  168.36000  102.27820  -40.10810   45.71710   54.50660    8.01180    -999.25
 6565.80000    -999.25    -999.25    -999.25    6.68220  171.29170  102.84340  -40.26250   41.13730   54.50020    8.00780    -999.25
 6566.30000    -999.25    -999.25    -999.25    6.58430  173.48470  103.28540  -40.33400   40.51840   54.49390    8.00780    -999.25
 6566.80000    -999.25    -999.25    -999.25    6.50020  177.22710  103.50840  -40.20300   40.27860   54.48760    8.00780    -999.25
 6567.30000    -999.25    -999.25    -999.25    6.60740  179.93810  103.62430  -40.29940   41.73890   54.49510    8.00780    -999.25
 6567.80000    -999.25    -999.25    -999.25    6.52220  182.53710  104.09390  -40.17180   41.80840   54.51200    8.00780    -999.25
 6568.30000    -999.25    -999.25    -999.25    6.46540  185.13620  104.93560  -40.19160   39.92160   54.55130    8.00780    -999.25
 6568.80000    -999.25    -999.25    -999.25    6.45150  187.27490  105.02560  -40.22950   38.67840   54.63430    8.00780    -999.25
