~Version ---------------------------------------------------
VERS.      2.0 : CWLS log ASCII Standard -VERSION 2.0
WRAP.       NO : One line per depth step
CREA. 08/02/17 : LAS Creation Date
~Well ------------------------------------------------------
STRT.FT                  1250.0 : START DEPTH
STOP.FT                 11600.0 : STOP DEPTH
STEP.FT                50.00000 : STEP LENGTH
NULL.                   -999.25 : NULL VALUE
COMP.           SUN OIL COMPANY : COMPANY
WELL. SUN PAN AM TONY 6-5-63-22 : WELL
FLD .                        WC : FIELD
LOC .                           : LOCATION
CTRY.                    CANADA : COUNTRY
SRVC.              Schlumberger : SERVICE COMPANY
DATE.               27-Jan-1962 : LOGDATE
PROV.                   Alberta : PROVINCE
UWI .          100060506322W500 : UNIQUE WELL ID
SLAT.WGS84             54.41969 : SURFACE LATITUDE
SLON.WGS84            -117.2926 : SURFACE LONGITUDE
~Curve Information -----------------------------------------
DEPT  .FT    : Depth Curve
CALSED.IN    : CALIPER FROM SL-GR-CAL LOG
CALWS .IN    : CALIPER [CALSED]
CILDED.MMHO  : DEEP INDUCTION CONDUCTIVITY FROM IEL LOG
CONDWS.MMHO  : CONDUCTIVITY [CILDED]
DRESWS.OHMM  : DEEP RESISTIVITY [CALCULATED FROM 1000/CILDED, IF ILDED<1, ILDED]
DTED  .US/F  : DELTA-T (INTERVAL TRANSIT TIME) FROM SL-GR-CAL LOG
DTWS  .US/F  : COMPRESSIONAL  SONIC [DTED]
GRNED .GAPI  : GAMMA RAY FROM GRN LOG [ADJ. TO GRSED]
GRSED .GAPI  : GAMMA RAY FROM SL-GR-CAL LOG
GRWS  .GAPI  : GAMMA RAY [GRSED, GRWS+14 FOR DEPTH 7054'TO 7101']
ILDED .OHMM  : DEEP INDUCTION FROM IEL LOG
MCALED.IN    : MLT (MICROLOG) CALIPER FROM ML-CAL LOG [ADJ. TO CALSED]
NEUTED.NAPI  : NEUTRON FROM GRN LOG [ADJ. TO GRSED]
NEUTWS.NAPI  : NEUTRON [NEUTED]
SNED  .OHMM  : SHORT NORMAL INDUCTION FROM IEL LOG
SPRED .MV    : SPONTANEOUS POTENTIAL FROM IEL LOG
SPWS  .MV    : SPONTANEOUS POTENTIAL [BASELINE 0 MV, SPRED]
SRESWS.OHMM  : SHALLOW RESISTIVITY [SNED]
~Params ----------------------------------------------------
PD  .                     GL : PERMANENT DATUM
EPD .FT                 2875 : ELEVATION PERMANENT DATUM
LMF .                     KB : LOG MEASURED FROM
DAPD.FT                   15 : FEET ABOVE PERMANENT DATUM
EKB .FT                 2890 : KELLY BUSHING
EGL .FT                 2875 : GROUND LEVEL
DATE.               03/09/62 : RUN DATE
RUN .                      2 : RUN NUMBER
DD  .FT                11625 : DEPTH DRILLER
DL  .FT                11622 : DEPTH LOGGER
BLI .FT                11621 : BOTTOM LOG INTERVAL
TLI .FT                 7100 : TOP LOG INTERVAL
BS  .IN                 8.75 : BIT SIZE
BSD .FT                11625 : BIT SIZE AT DEPTH
DFT .               EMUL GEL : DRILLING FLUID TYPE
DFD .                    9.8 : DRILLING FLUID DENSITY
DFV .                    120 : DRILLING FLUID VISCOSITY
DFPH.                      9 : DRILLING FLUID PH
DFL .                      8 : DRILLING FLUID LOSS
RMS .OHMM               2.62 : RESISTIVITY MUD SAMPLE
MST .DEGF                 88 : MUD SAMPLE TEMPERATURE
RMF .OHMM               2.52 : RESISTIVITY MUD FILTRATE SAMPLE
MFST.DEGF                 72 : MUD FILTRATE SAMPLE TEMPERATURE
RMC .OHMM               2.97 : RESISTIVITY MUD CAKE
MCST.DEGF                 76 : MUD CAKE SAMPLE TEMPERATURE
RMB .OHMM               1.13 : RESISTIVITY MUD AT BHT
TCS .HRS                   5 : TIME CIRCULATED STOPPED
LUN .                   3534 : LOGGING UNIT NUMBER
LUL .                    WCT : LOGGING UNIT LOCATION
ENGI.                   GRAY : RECORDING ENGINEER
WITN.                SANFORD : WITNESSED BY
CLNT.                A2DTECH : CLIENT CODE
ORIG.            2" 5" PRINT : ORIGIN OF DATA
UWI .       100060506322W500 : UNIQUE WELL ID
DICO. A2D Technologies, Inc. : DIGITIZING COMPANY
~Other -----------------------------------------------------
~ASCII -----------------------------------------------------
# ...
 5150.00000    9.00520    9.00520   77.77030   77.77030   13.55130   97.07420   97.07420   46.24660  129.23670  129.23670   13.55130    9.78820  542.85000  542.85000   23.99110 -120.67870   -4.00420   23.99110
 5200.00000    9.25740    9.25740   85.61990   85.61990   12.50280   93.36200   93.36200   37.85300  108.01540  108.01540   12.50280   10.73010  531.37730  531.37730   19.05720 -120.56500   -4.24970   19.05720
 5250.00000    9.01940    9.01940   51.19270   51.19270   22.59900  102.32030  102.32030   45.76310  147.85060  147.85060   22.59900    9.27530  550.27180  550.27180   38.35250 -118.04920   -2.09080   38.35250
 5300.00000    8.76890    8.76890  100.72790  100.72790   11.42690   68.14240   68.14240   27.31060   82.62030   82.62030   11.42690    9.35650  570.49680  570.49680   15.46570 -127.16890  -11.37300   15.46570
 5350.00000    9.53060    9.53060   92.95010   92.95010   11.12190   76.74620   76.74620   28.45080   78.78220   78.78220   11.12190   10.60950  571.53080  571.53080   14.43330 -124.99510   -9.32250   14.43330
 5400.00000    9.52530    9.52530  132.15080  132.15080    7.90070   90.16490   90.16490   34.61120  100.47730  100.47730    7.90070   11.08400  531.20930  531.20930   10.90530 -120.96960   -5.41940   10.90530
 5450.00000    9.29020    9.29020   74.73250   74.73250   14.33810   68.17100   68.17100   24.72810   61.83480   61.83480   14.33810    9.89980  801.26900  801.26900   18.98650 -127.09090  -11.66400   18.98650
 5500.00000    9.90090    9.90090  124.18050  124.18050    8.30690   96.65320   96.65320   37.30350  103.13440  103.13440    8.30690   12.19530  570.94360  570.94360   11.12740 -120.75240   -5.44800   11.12740
 5550.00000    9.03560    9.03560   88.24130   88.24130   12.15010   85.52360   85.52360   35.99780   96.01860   96.01860   12.15010   10.04160  648.49570  648.49570   15.16860 -120.90720   -5.72520   15.16860
 5600.00000   10.05440   10.05440  152.35360  152.35360    6.63440   82.52950   82.52950   39.83300   97.23800   97.23800    6.63440   11.41390  524.03600  524.03600    9.16580 -119.04960   -3.99090    9.16580
 5650.00000    9.39740    9.39740  122.10070  122.10070    8.53270   81.53290   81.53290   37.45570   91.83680   91.83680    8.53270   11.31830  553.32730  553.32730   11.19540 -117.73270   -2.79650   11.19540
 5700.00000   10.68490   10.68490  159.66550  159.66550    6.48860   89.88930   89.88930   36.75190  102.88970  102.88970    6.48860   12.95780  478.62290  478.62290    9.16760 -117.21310   -2.40010    9.16760
 5750.00000   10.82960   10.82960  247.76770  247.76770    4.35360   87.30280   87.30280   43.47120  110.91340  110.91340    4.35360   11.66580  540.06810  540.06810    6.06040 -116.56920   -1.87870    6.06040
 5800.00000   11.39190   11.39190  270.00740  270.00740    4.07500  103.30170  103.30170   40.65900  104.83660  104.83660    4.07500   13.47740  540.10270  540.10270    5.31540 -116.63230   -2.06430    5.31540
 5850.00000    9.97240    9.97240  209.48580  209.48580    5.03410   92.83840   92.83840   35.13310   93.27860   93.27860    5.03410   13.77400  564.86910  564.86910    6.57350 -115.67960   -1.23480    6.57350
 5900.00000   10.07140   10.07140  148.89550  148.89550    7.18220   84.66560   84.66560   36.35450   93.94920   93.94920    7.18220   11.68230  530.73610  530.73610    9.47670 -116.66350   -2.34120    9.47670
 5950.00000    9.11730    9.11730   75.13370   75.13370   14.58920   61.90190   61.90190   28.28730   89.80780   89.80780   14.58920    9.91820  675.46750  675.46750   19.74270 -118.25160   -4.05260   19.74270
 6000.00000   10.00980   10.00980  161.63190  161.63190    6.25850   82.19010   82.19010   25.64630   77.14880   77.14880    6.25850   15.47580  537.80350  537.80350    9.84100 -120.25320   -6.17660    9.84100
 6050.00000   10.30310   10.30310   87.47460   87.47460   11.99210   83.96390   83.96390   23.37400   76.98020   76.98020   11.99210   11.18840  469.35200  469.35200   16.57760 -116.67060   -3.21820   16.57760
 6100.00000    9.17700    9.17700   58.95880   58.95880   18.99630   72.68950   72.68950   18.64320   48.15980   48.15980   18.99630    9.55300  842.39810  842.39810   34.04920 -158.07650  -47.14630   34.04920
 6150.00000    9.08760    9.08760   33.04620   33.04620   33.49160   63.82460   63.82460   12.99660   40.99910   40.99910   33.49160    9.52730  986.99480  986.99480   50.25800 -136.81720  -28.39270   50.25800
 6200.00000    9.58580    9.58580   68.82250   68.82250   15.67850   81.89370   81.89370   30.59940   92.24810   92.24810   15.67850   10.15370  624.68060  624.68060   25.28880 -115.75050   -9.84810   25.28880
 6250.00000    9.22390    9.22390   90.20680   90.20680   11.92440   54.67590   54.67590   22.87200   61.97190   61.97190   11.92440    9.82720  761.65650  761.65650   19.98860 -113.02190   -9.62520   19.98860
 6300.00000    9.30200    9.30200   60.59900   60.59900   17.25320   78.59090   78.59090   25.35500   70.28780   70.28780   17.25320    9.75570  663.20100  663.20100   23.67950 -115.97400  -15.08300   23.67950
 6350.00000    8.77380    8.77380   81.50460   81.50460   14.22200   70.27390   70.27390   22.83080   69.63500   69.63500   14.22200    9.17560  797.89720  797.89720   18.40780 -116.72850  -18.35960   18.40780
 6400.00000    8.90130    8.90130   83.24750   83.24750   12.91180   82.69410   82.69410   30.27240   92.41950   92.41950   12.91180    9.22930  558.12730  558.12730   22.15350 -102.68340   -6.82020   22.15350
 6450.00000    9.22610    9.22610   42.37480   42.37480   25.75800  131.56510  131.56510   23.74650   67.05510   67.05510   25.75800   10.04770  444.57260  444.57260   48.25000 -101.34010   -7.99910   48.25000
 6500.00000    9.34890    9.34890   72.25650   72.25650   14.73580   77.32290   77.32290   27.77730   80.04300   80.04300   14.73580   10.23530  567.75620  567.75620   24.02860  -93.66490   -2.82960   24.02860
 6550.00000    9.26520    9.26520   60.03120   60.03120   17.94560   65.48770   65.48770   31.94150  103.99260  103.99260   17.94560    9.77460  567.26240  567.26240   33.58960  -98.51370   -9.48310   33.58960
 6600.00000    8.93200    8.93200   88.90370   88.90370   11.71270   68.65340   68.65340   19.88400   53.74820   53.74820   11.71270    9.31490  703.35190  703.35190   20.18620 -126.02440  -38.46460   20.18620
 6650.00000    8.44340    8.44340   80.38170   80.38170   13.73290   70.61840   70.61840   13.28620   51.03220   51.03220   13.73290    8.62630  825.08440  825.08440   41.46980 -183.77780  -97.67910   41.46980
 6700.00000    9.08480    9.08480   57.84250   57.84250   19.17590   70.43850   70.43850   23.60490   76.73660   76.73660   19.17590    9.21850  590.53140  590.53140   23.47990 -105.68340  -21.05550   23.47990
 6750.00000    8.91860    8.91860   46.87080   46.87080   23.18030   69.53110   69.53110   36.89090   94.24940   94.24940   23.18030    9.26320  702.86050  702.86050   32.73600 -101.68260  -18.51580   32.73600
 6800.00000    9.61800    9.61800   67.28380   67.28380   15.86700   70.74830   70.74830   24.73700   79.17150   79.17150   15.86700   10.40900  557.71330  557.71330   24.90610 -103.18710  -21.48140   24.90610
 6850.00000    9.38430    9.38430   78.97140   78.97140   14.14770   75.16370   75.16370   21.93560   64.39020   64.39020   14.14770    9.56010  615.78610  615.78610   18.46630 -110.23850  -30.00360   18.46630
 6900.00000    8.87390    8.87390   15.21670   15.21670   84.61350   56.78540   56.78540   19.30440   49.14640   49.14640   84.61350    9.20190  774.78210  774.78210  101.12110 -103.58880  -24.81500  101.12110
 6950.00000    9.22260    9.22260   21.34590   21.34590   48.20330   64.49690   64.49690   28.00090   77.28260   77.28260   48.20330    9.52170  783.68940  783.68940   98.59910 -101.71530  -24.41230   98.59910
 7000.00000    8.91930    8.91930   36.03700   36.03700   32.01330   66.69060   66.69060   31.52030   82.26380   82.26380   32.01330    9.26370  559.84270  559.84270   54.80170  -88.73600  -12.89410   54.80170
 7050.00000    8.92270    8.92270   50.81390   50.81390   21.17950   88.21320   88.21320   35.06720  104.65160  104.65160   21.17950    9.31970  482.08180  482.08180   37.78290  -80.57020   -6.18950   37.78290
