~Version ---------------------------------------------------
VERS.      2.0 : CWLS log ASCII Standard -VERSION 2.0
WRAP.       NO : One line per depth step
CREA. 11/22/17 : LAS Creation Date
~Well ------------------------------------------------------
STRT.FT                            750.0 : START DEPTH
STOP.FT                           7050.0 : STOP DEPTH
STEP.FT                         50.00000 : STEP LENGTH
NULL.                            -999.25 : NULL VALUE
COMP.            QUINTANA EXPLORATION CO : COMPANY
WELL. QUINTANA ET AL FOLEY LAKE 6-3-65-6 : WELL
FLD .                                    : FIELD
LOC .                                    : LOCATION
CTRY.                             CANADA : COUNTRY
SRVC.                       Schlumberger : SERVICE COMPANY
DATE.                        02-Feb-1973 : LOGDATE
PROV.                            Alberta : PROVINCE
UWI .                   100060306506W500 : UNIQUE WELL ID
SLAT.WGS84                      54.59282 : SURFACE LATITUDE
SLON.WGS84                     -114.8253 : SURFACE LONGITUDE
~Curve Information -----------------------------------------
DEPT  .FT    : Depth Curve
CALSED.IN    : CALIPER FROM SONIC LOG
CALWS .IN    : CALIPER [CALSED]
CILDED.MMHO  : CONDUCTIVITY FROM RESISTIVITY LOG
CONDWS.MMHO  : CONDUCTIVITY [1000/DRESWS]
DRESWS.OHMM  : DEEP RESISTIVITY [1000/CILDED, IF ILDED <5, ILDED]
DTED  .US/F  : INTERVAL TRANSIT TIME FROM SONIC LOG
DTWS  .US/F  : COMPRESSIONAL SONIC [DTED]
GRSED .GAPI  : GAMMA RAY FROM SONIC LOG
GRWS  .GAPI  : GAMMA RAY [GRSED]
ILDED .OHMM  : DEEP INDUCTION RESISTIVITY FROM RESISTIVITY LOG
SNED  .OHMM  : SHORT NORMAL FROM RESISTIVITY LOG
SPRED .MV    : SPONTANEOUS POTENTIAL FROM RESISTIVITY LOG
SPWS  .MV    : SPONTANEOUS POTENTIAL [BASELINE 0 MV,SPRED]
SRESWS.OHMM  : SHALLOW RESISTIVITY [SNED]
~Params ----------------------------------------------------
PD  .                     GL : PERMANENT DATUM
EPD .FT                 2548 : ELEVATION PERMANENT DATUM
LMF .                     KB : LOG MEASURED FROM
DAPD.FT                   14 : FEET ABOVE PERMANENT DATUM
EKB .FT                 2562 : KELLY BUSHING
EGL .FT                 2548 : GROUND LEVEL
DATE.               02/02/73 : RUN DATE
RUN .                      1 : RUN NUMBER
DD  .FT                 7095 : DEPTH DRILLER
DL  .FT                 7094 : DEPTH LOGGER
BLI .FT                 7098 : BOTTOM LOG INTERVAL
TLI .FT                  719 : TOP LOG INTERVAL
CBD .FT                  717 : CASING BOTTOM DRILLER
CBL .FT                  717 : CASING BOTTOM LOGGER
BS  .IN                7.875 : BIT SIZE
BSD .FT                 7095 : BIT SIZE AT DEPTH
DFT .               GEL CHEM : DRILLING FLUID TYPE
DFD .                    9.8 : DRILLING FLUID DENSITY
DFV .                    107 : DRILLING FLUID VISCOSITY
DFPH.                    9.5 : DRILLING FLUID PH
DFL .                      8 : DRILLING FLUID LOSS
RMS .OHMM               1.38 : RESISTIVITY MUD SAMPLE
MST .DEGF                104 : MUD SAMPLE TEMPERATURE
RMF .OHMM               0.25 : RESISTIVITY MUD FILTRATE SAMPLE
MFST.DEGF                 75 : MUD FILTRATE SAMPLE TEMPERATURE
RMC .OHMM               2.14 : RESISTIVITY MUD CAKE
MCST.DEGF                 66 : MUD CAKE SAMPLE TEMPERATURE
TCS .HRS                 2.5 : TIME CIRCULATED STOPPED
LUN .                   5628 : LOGGING UNIT NUMBER
LUL .                    EDM : LOGGING UNIT LOCATION
ENGI.                  BOYKO : RECORDING ENGINEER
WITN.            BLAKE SMITH : WITNESSED BY
CLNT.                A2DTECH : CLIENT CODE
ORIG.            2" 5" PRINT : ORIGIN OF DATA
UWI .       100060306506W500 : UNIQUE WELL ID
DICO. A2D Technologies, Inc. : DIGITIZING COMPANY
~Other -----------------------------------------------------
IEL- BHC LOG RUN
BHC LOG FROM 6680' TO 6700' IT LOOKS INVALID
~ASCII -----------------------------------------------------
# ...
 5650.00000   12.29810   12.29810  234.26490  234.37870    4.26660   76.99200   76.99200   66.66990   66.66990    4.26660    5.75250  -50.26650  -20.10120    5.75250
 5700.00000   13.73490   13.73490  317.97850  299.42960    3.33980   85.62520   85.62520   75.62930   75.62930    3.33980    4.61650  -37.49730   -9.53880    4.61650
 5750.00000   14.94330   14.94330  355.74530  377.04550    2.65220   84.77450   84.77450   76.20620   76.20620    2.65220    4.24170  -36.62810  -10.85440    4.24170
 5800.00000    -999.25    -999.25  350.36500  346.42830    2.88660   88.79950   88.79950   60.20130   60.20130    2.88660    3.89660  -45.21710  -21.63930    3.89660
 5850.00000    9.28900    9.28900  119.38720  116.80670    8.56260   68.70060   68.70060   54.28740   54.28740    8.56260   13.19650  -26.31420   -4.94320   13.19650
 5900.00000    8.91140    8.91140   94.67230   93.88610   10.65120   62.52810   62.52810   45.13230   45.13230   10.65120   16.37540  -28.11120   -8.52100   16.37540
 5950.00000    8.64050    8.64050   43.45040   40.83090   24.49130   55.69250   55.69250   33.44900   33.44900   24.49130   41.66750  -28.40170   -9.61830   41.66750
 6000.00000    9.30510    9.30510  105.01790  102.99300    9.70940   67.52170   67.52170   60.14190   60.14190    9.70940   12.81540  -37.26840  -19.28370   12.81540
 6050.00000    9.08610    9.08610   38.52550   36.43930   27.44290   62.27490   62.27490   46.56140   46.56140   27.44290   36.37200  -24.62210   -7.38470   36.37200
 6100.00000    8.69230    8.69230   72.08780   70.57590   14.16920   60.55750   60.55750   41.95890   41.95890   14.16920   18.22130  -25.00000   -8.01280   18.22130
 6150.00000    8.35220    8.35220   61.05230   58.45660   17.10670   59.50040   59.50040   36.40740   36.40740   17.10670   21.30170  -24.60860   -7.86900   21.30170
 6200.00000   11.03410   11.03410  195.40730  195.82850    5.10670   92.89580   92.89580   98.10560   98.10560    5.10670    6.98330  -33.47190  -17.00530    6.98330
 6250.00000   13.73100   13.73100  288.05920  289.12600    3.45870   84.10890   84.10890   82.89980   82.89980    3.45870    4.36470  -49.94340  -33.79220    4.36470
 6300.00000   10.85820   10.85820  197.02970  201.97530    4.95110   73.79830   73.79830   69.22790   69.22790    4.95110    7.18080  -35.16620  -19.33200    7.18080
 6350.00000   13.05370   13.05370  267.24830  261.73650    3.82080   80.44720   80.44720   82.97540   82.97540    3.82080    5.00590  -46.56550  -31.04990    5.00590
 6400.00000    9.50640    9.50640  165.05200  163.69290    6.10900   80.20400   80.20400   79.98200   79.98200    6.10900    9.16180  -27.90130  -12.70120    9.16180
 6450.00000    9.26220    9.26220   66.91440   64.94120   15.48400   57.61910   57.61910   30.55740   30.55740   15.48400   22.87940  -30.50420  -13.43400   22.87940
 6500.00000    8.73190    8.73190   77.18570   76.73070   13.03260   62.84420   62.84420   40.46270   40.46270   13.03260   21.72950  -24.26100   -3.96520   21.72950
 6550.00000    8.77520    8.77520   57.81240   55.06760   18.15950   56.04080   56.04080   25.46400   25.46400   18.15950   28.09520  -23.82850   -4.79900   28.09520
 6600.00000    9.08140    9.08140  147.01800  152.55510    6.55580   69.81470   69.81470   56.81800   56.81800    6.55580   10.24130  -21.84990   -4.09310   10.24130
 6650.00000    8.56180    8.56180   13.43910   12.11590   82.53590   51.23140   51.23140   18.07490   18.07490   82.53590   93.66720  -40.95370  -23.90170   93.66720
 6700.00000    9.43290    9.43290  109.71320  112.14160    8.91730   65.46100   65.46100   60.90710   60.90710    8.91730   11.81200  -25.98910   -9.33790   11.81200
 6750.00000    9.07510    9.07510   86.98390   87.96160   11.36860   64.05410   64.05410   58.64490   58.64490   11.36860   16.10290  -19.66130   -3.40690   16.10290
 6800.00000    8.43160    8.43160   31.44650   29.84520   33.50620   55.73540   55.73540   20.32570   20.32570   33.50620   49.40790  -23.42590   -7.57030   49.40790
 6850.00000    8.42840    8.42840   21.46680   18.01440   55.53640   56.95870   56.95870   31.18630   31.18630   55.53640   67.92450  -26.29380  -10.83900   67.92450
 6900.00000    8.62310    8.62310  138.21010  134.52610    7.43350   70.12460   70.12460   79.03470   79.03470    7.43350   11.00150  -17.64550   -2.58750   11.00150
 6950.00000    8.24730    8.24730   12.31110   10.48110   95.42300   52.33290   52.33290   18.01790   18.01790   95.42300  119.25170  -29.80340  -15.28030  119.25170
 7000.00000    8.41130    8.41130   86.97680   80.62890   12.40250   63.56530   63.56530   92.00680   92.00680   12.40250   24.63130  -22.06000   -8.24760   24.63130
 7050.00000    8.96070    8.96070  245.11640  248.17590    4.02940   86.56550   86.56550  171.84500  171.84500    4.02940    8.75030  -33.16970  -19.75830    8.75030
