~Version ---------------------------------------------------
VERS.      2.0 : CWLS log ASCII Standard -VERSION 2.0
WRAP.       NO : One line per depth step
CREA. 12/20/17 : LAS Creation Date
~Well ------------------------------------------------------
STRT.FT                    300.0 : START DEPTH
STOP.FT                   9750.0 : STOP DEPTH
STEP.FT                 50.00000 : STEP LENGTH
NULL.                    -999.25 : NULL VALUE
COMP.     PHILLIPS PETROLEUM CO. : COMPANY
WELL. PHILLIPS KAYBOB 2-15-64-19 : WELL
FLD .                            : FIELD
LOC .                            : LOCATION
CTRY.                     CANADA : COUNTRY
SRVC.                    Unknown : SERVICE COMPANY
DATE.                28-Jul-1959 : LOGDATE
PROV.                    Alberta : PROVINCE
UWI .           100021506419W500 : UNIQUE WELL ID
SLAT.WGS84              54.53255 : SURFACE LATITUDE
SLON.WGS84             -116.7821 : SURFACE LONGITUDE
~Curve Information -----------------------------------------
DEPT  .FT    : Depth Curve
CALWS .IN    : CALIPER [MCALED]
CONDWS.MMHO  : CONDUCTIVITY [1000/DRESWS]
DRESWS.OHMM  : DEEP RESISTIVITY [LAT9ED]
GRED  .CU    : GAMMA RAY FROM GR LOG, DEPTH ADJUSTED WITH [SPRED]
GRNED .CPS   : GAMMA RAY FROM NEUTRON LOG, DEPTH ADJUSTED WITH [SPRED]
GRWS  .CPS   : GAMMA RAY [GRNED], SPLICED WITH [GRED] FROM TOP-1186'
LAT9ED.OHMM  : LATERAL 9' FROM RES. LOG
LT16ED.OHMM  : LATERAL 16' FROM RES. LOG
MCALED.IN    : CALIPER FROM MICROLOG
NEUTED.CPS   : NEUTRON FROM NEUTRON LOG, DEPTH ADJUSTED WITH [SPRED]
NEUTWS.CPS   : NEUTRON [NEUED]
SNED  .OHMM  : 16 INCH SHORT NORMAL RESISTIVITY FROM IEL
SPRED .MV    : SPONTANEOUS POTENTIAL FROM RESISTIVITY LOG
SPWS  .MV    : SPONTANEOUS POTENTIAL [BASELINE 0 MV] [SPRED]
SRESWS.OHMM  : SHALLOW RESISTIVITY [SNED]
~Params ----------------------------------------------------
PD  .                    CSG : PERMANENT DATUM
LMF .                     KB : LOG MEASURED FROM
DMF .                     KB : DRILLING MEASURED FROM
EKB .FT                 2446 : KELLY BUSHING
EDF .FT                 2443 : DRILLING FLOOR
EGL .FT                 2433 : GROUND LEVEL
DATE.               07/28/59 : RUN DATE
RUN .                      1 : RUN NUMBER
DD  .FT                 9800 : DEPTH DRILLER
DL  .FT                 9799 : DEPTH LOGGER
BLI .FT                 9798 : BOTTOM LOG INTERVAL
TLI .FT                 1276 : TOP LOG INTERVAL
CS  .IN                9.625 : CASING SIZE
CBD .FT                 1266 : CASING BOTTOM DRILLER
CBL .FT                 1276 : CASING BOTTOM LOGGER
BS  .IN                7.875 : BIT SIZE
BSD .FT                 9800 : BIT SIZE AT DEPTH
DFT .   OIL EMULSION AQUAGEL : DRILLING FLUID TYPE
DFD .                   10.7 : DRILLING FLUID DENSITY
DFV .                    110 : DRILLING FLUID VISCOSITY
DFPH.                   10.5 : DRILLING FLUID PH
DFL .                    4.6 : DRILLING FLUID LOSS
RMS .OHMM                2.6 : RESISTIVITY MUD SAMPLE
MST .DEGF                 58 : MUD SAMPLE TEMPERATURE
RMF .OHMM                2.1 : RESISTIVITY MUD FILTRATE SAMPLE
MFST.DEGF                 58 : MUD FILTRATE SAMPLE TEMPERATURE
RMC .OHMM                3.4 : RESISTIVITY MUD CAKE
MCST.DEGF                 58 : MUD CAKE SAMPLE TEMPERATURE
RMB .OHMM               0.84 : RESISTIVITY MUD AT BHT
LUN .                   6101 : LOGGING UNIT NUMBER
ENGI.                 FOWLER : RECORDING ENGINEER
WITN.        HANKINS JACKSON : WITNESSED BY
CLNT.                A2DTECH : CLIENT CODE
ORIG.            2" 5" PRINT : ORIGIN OF DATA
UWI .       100021506419W500 : UNIQUE WELL ID
DICO. A2D Technologies, Inc. : DIGITIZING COMPANY
~Other -----------------------------------------------------
~ASCII -----------------------------------------------------
# ...
 7200.00000    8.20380    9.12670  109.57040    -999.25   65.13500   65.13500  109.57040   91.66720    8.20380  588.54800  588.54800   53.59010  -34.62320  -19.36340   53.59010
 7250.00000    8.38890    3.41490  292.83840    -999.25   38.03700   38.03700  292.83840  136.48780    8.38890  506.46410  506.46410  153.34660  -40.61600  -25.31600  153.34660
 7300.00000    8.37480    1.11560  896.39690    -999.25   43.87140   43.87140  896.39690  603.72540    8.37480  754.17300  754.17300  241.97160  -40.63320  -25.29280  241.97160
 7350.00000    8.44290    1.69110  591.33740    -999.25   28.59200   28.59200  591.33740 1048.05440    8.44290  814.37310  814.37310  219.60020  -91.92690  -76.54600  219.60020
 7400.00000    8.56360    1.44340  692.82790    -999.25   28.36140   28.36140  692.82790 1061.53120    8.56360  836.10980  836.10980  249.28080  -76.98510  -61.56380  249.28080
 7450.00000    8.47260    1.50310  665.29980    -999.25   31.00800   31.00800  665.29980 1049.09910    8.47260  841.01610  841.01610  253.29620  -91.38440  -75.92250  253.29620
 7500.00000    8.42680    1.95220  512.23850    -999.25   31.67430   31.67430  512.23850 1134.53360    8.42680  792.76560  792.76560  222.87810 -102.60990  -87.10780  222.87810
 7550.00000    8.68160    1.09080  916.76220    -999.25   24.50550   24.50550  916.76220 1590.65220    8.68160  697.10220  697.10220  305.12010 -111.47050  -95.92790  305.12010
 7600.00000    8.99900    1.44730  690.94730    -999.25   27.18590   27.18590  690.94730 1797.96510    8.99900  831.24690  831.24690  427.43520 -135.46390 -119.88090  427.43520
 7650.00000    8.66150    1.85820  538.16390    -999.25   27.60480   27.60480  538.16390  987.62170    8.66150  773.71670  773.71670  225.08960 -122.56580 -106.94240  225.08960
 7700.00000    8.59090    1.28850  776.11830    -999.25   27.54980   27.54980  776.11830 1419.57160    8.59090  796.49180  796.49180  346.22690 -130.51220 -114.84810  346.22690
 7750.00000    8.65960    1.30690  765.16240    -999.25   26.85920   26.85920  765.16240 1745.19420    8.65960  772.45290  772.45290  343.97950 -130.54030 -114.83600  343.97950
 7800.00000    8.79920    1.43520  696.76390    -999.25   30.02320   30.02320  696.76390 1551.02170    8.79920  783.75130  783.75130  516.06230 -118.33750 -102.59280  516.06230
 7850.00000    8.86550    1.09580  912.59980    -999.25   28.24040   28.24040  912.59980 2404.67920    8.86550  797.52510  797.52510  378.98520 -141.33660 -125.55150  378.98520
 7900.00000    8.76010    1.71860  581.88550    -999.25   29.23810   29.23810  581.88550 1176.34730    8.76010  802.96070  802.96070  182.86700 -153.14120 -137.31560  182.86700
 7950.00000    8.52780    1.57940  634.34340    -999.25   21.02920   21.02920  634.34340 1002.75390    8.52780  757.32780  757.32780   91.23300 -186.75980 -170.89360   91.23300
 8000.00000    8.50680    2.44170  409.54830    -999.25   28.31700   28.31700  409.54830  649.79560    8.50680  698.57430  698.57430   97.47310 -148.77460 -132.86820   97.47310
 8050.00000    8.42790    2.42230  412.83440    -999.25   47.07590   47.07590  412.83440  735.34030    8.42790  682.64530  682.64530  141.22770 -131.84740 -115.90060  141.22770
 8100.00000    8.49440    2.68080  373.02660    -999.25   28.44940   28.44940  373.02660  428.77170    8.49440  584.56890  584.56890   84.55930 -140.78000 -124.79270   84.55930
 8150.00000    8.49180   22.44330   44.55670    -999.25   42.03090   42.03090   44.55670   40.00020    8.49180  670.18570  670.18570   16.76200 -105.56310  -89.53540   16.76200
 8200.00000    8.49330    1.67460  597.18530    -999.25   43.23220   43.23220  597.18530  653.31540    8.49330  673.29510  673.29510  226.59340  -67.92980  -51.86150  226.59340
 8250.00000    8.42370    1.86690  535.64490    -999.25   42.65730   42.65730  535.64490  770.32460    8.42370  711.00180  711.00180   42.77680  -93.81850  -77.70990   42.77680
 8300.00000    9.11960   16.42180   60.89470    -999.25   45.87190   45.87190   60.89470   56.86100    9.11960  578.22950  578.22950   27.30150  -57.83910  -41.69010   27.30150
 8350.00000    8.32130    3.23870  308.77000    -999.25   42.15370   42.15370  308.77000  252.48720    8.32130  590.26570  590.26570  124.70220  -70.85750  -54.66810  124.70220
 8400.00000    8.23430   16.79340   59.54720    -999.25   69.77500   69.77500   59.54720   51.40050    8.23430  547.59700  547.59700   32.49330  -89.17150  -72.94170   32.49330
 8450.00000    8.29240   52.24910   19.15630    -999.25   63.89630   63.89630   19.15630   12.16780    8.29240  542.01840  542.01840   17.41330  -88.78750  -72.51700   17.41330
 8500.00000    8.21730   10.20490   97.99170    -999.25   49.56730   49.56730   97.99170   49.04530    8.21730  581.48300  581.48300   76.45330  -69.79180  -53.48110   76.45330
 8550.00000    8.19840   61.63520   16.22450    -999.25   61.00060   61.00060   16.22450   16.17510    8.19840  543.17440  543.17440   14.65220  -61.14540  -44.79430   14.65220
 8600.00000    8.35730   46.21540   21.63780    -999.25   55.10400   55.10400   21.63780   14.48620    8.35730  554.26920  554.26920   14.65850  -39.15660  -22.76510   14.65850
 8650.00000    8.42280   11.22820   89.06180    -999.25   50.90810   50.90810   89.06180   42.50720    8.42280  381.43160  381.43160   50.55640  -42.65450  -26.22250   50.55640
 8700.00000   10.05300  275.60290    3.63040    -999.25   81.14800   81.14800    3.63040    2.14210   10.05300  327.56020  327.56020    2.60220  -48.47200  -31.99930    2.60220
 8750.00000   12.56640  404.71080    2.47090    -999.25   89.93720   89.93720    2.47090    3.09730   12.56640  316.12960  316.12960    3.13610  -50.80810  -34.29530    3.13610
 8800.00000   11.19000  369.83620    2.70390    -999.25   91.93960   91.93960    2.70390    2.59290   11.19000  324.86890  324.86890    3.55700  -30.08430  -13.53100    3.55700
 8850.00000   13.08740  296.04190    3.37790    -999.25   91.14370   91.14370    3.37790    2.92910   13.08740  301.54790  301.54790    2.18600  -58.14830  -41.55460    2.18600
 8900.00000   12.02670  355.55560    2.81250    -999.25   88.96720   88.96720    2.81250    2.94370   12.02670  493.77900  493.77900    2.84930  -39.00860  -22.37450    2.84930
 8950.00000    8.33960   68.69640   14.56220    -999.25   79.05840   79.05840   14.56220   13.37810    8.33960  428.28960  428.28960   11.08280  -71.52120  -54.84640   11.08280
 9000.00000    8.31450  103.95770    9.61930    -999.25  100.68410  100.68410    9.61930    8.05500    8.31450  432.71760  432.71760   11.02280  -39.49290  -22.77790   11.02280
 9050.00000    8.26220  116.73920    8.56610    -999.25   80.24850   80.24850    8.56610    7.52360    8.26220  393.00000  393.00000   11.51470  -44.93330  -28.17790   11.51470
 9100.00000    8.47130  154.40920    6.47630    -999.25  114.33340  114.33340    6.47630    5.99220    8.47130  350.60630  350.60630    5.73590  -82.38720  -65.59140    5.73590
 9150.00000    9.45160  209.67000    4.76940    -999.25  114.13780  114.13780    4.76940    4.61160    9.45160  339.40390  339.40390    5.73850  -78.53930  -61.70300    5.73850
 9200.00000    8.30460  173.06560    5.78200    -999.25   85.35010   85.35010    5.78200    4.98410    8.30460  375.23100  375.23100    9.04640  -45.35640  -28.47950    9.04640
 9250.00000    8.40090  173.03730    5.77910    -999.25   94.73980   94.73980    5.77910    4.87800    8.40090  396.31770  396.31770    9.35700  -59.66630  -42.74920    9.35700
 9300.00000    8.14780    7.47650  133.75240    -999.25  116.91950  116.91950  133.75240   24.80920    8.14780  462.84200  462.84200  169.49350  -44.30550  -27.34800  169.49350
 9350.00000    8.13550    1.31770  758.89160    -999.25  111.42180  111.42180  758.89160  879.91610    8.13550  390.36190  390.36190   85.36050   -1.64660   15.35140   85.36050
 9400.00000    8.08800    3.09160  323.45470    -999.25   54.86230   54.86230  323.45470  163.90210    8.08800  350.21050  350.21050  129.95870  -49.38910  -32.35070  129.95870
 9450.00000    8.85440    7.54130  133.72810    -999.25  119.48890  119.48890  133.72810   86.17770    8.85440  540.67270  540.67270   23.75030  -32.68640  -15.60740   23.75030
