~Version ---------------------------------------------------
VERS.      2.0 : CWLS log ASCII Standard -VERSION 2.0
WRAP.       NO : One line per depth step
CREA. 11/16/17 : LAS Creation Date
~Well ------------------------------------------------------
STRT.FT                       1050.0 : START DEPTH
STOP.FT                      11200.0 : STOP DEPTH
STEP.FT                     50.00000 : STEP LENGTH
NULL.                        -999.25 : NULL VALUE
COMP.         CALIFORNIA STANDARD CO : COMPANY
WELL. CALSTAN B.A. KAYBOB 2-18-62-18 : WELL
FLD .                             WC : FIELD
LOC .                                : LOCATION
CTRY.                         CANADA : COUNTRY
SRVC.                   Schlumberger : SERVICE COMPANY
DATE.                    31-Mar-1959 : LOGDATE
PROV.                        Alberta : PROVINCE
UWI .               100021806218W500 : UNIQUE WELL ID
SLAT.WGS84                  54.35781 : SURFACE LATITUDE
SLON.WGS84                 -116.6847 : SURFACE LONGITUDE
~Curve Information -----------------------------------------
DEPT  .FT         : Depth Curve
CALWS .IN         : CALIPER [MCALED]
CILDED.MMHO       : CONDUCTIVITY FROM RESISTIVITY LOG
CONDWS.MMHO       : CONDUCTIVITY [1000/DRESWS]
DRESWS.OHMM       : DEEP RESISTIVITY [1000/CILDED IF ILDED < 1, ILDED]
DT1ED .US/F       : SONIC FROM SONIC LOG [ADJ TO RESISTIVITY LOG]
DTED  .US/F       : SONIC FROM SONIC LOG [ADJ TO RESISTIVITY LOG]
DTWS  .US/F       : COMPRESSIONAL SONIC [DTED]
GRSED .UgRa-Eq/T  : GAMMA RAY FROM SONIC LOG [ADJ TO RESISTIVITY LOG]
GRWS  .GAPI       : GAMMA RAY [GRSED*16.50]
ILDED .OHMM       : INDUCTION DEEP FROM RESISTIVITY LOG
MCALED.IN         : CALIPER FROM MICROLOG [ADJ TO RESISTIVITY LOG]
SNED  .OHMM       : SHORT NORMAL FROM RESISTIVITY LOG
SPRED .MV         : SPONTANEOUS POTENTIAL FROM RESISTIVITY LOG
SPWS  .MV         : SPONTANEOUS POTENTIAL [BASELINE 0 MV, SPRED]
SRESWS.OHMM       : SHALLOW RESISTIVITY [SNED]
~Params ----------------------------------------------------
LMF .                     KB : LOG MEASURED FROM
DMF .                     KB : DRILLING MEASURED FROM
EKB .FT                 2888 : KELLY BUSHING
EGL .FT                 2876 : GROUND LEVEL
DATE.               03/31/59 : RUN DATE
RUN .                      2 : RUN NUMBER
DD  .FT                11256 : DEPTH DRILLER
DL  .FT                11246 : DEPTH LOGGER
BLI .FT                11241 : BOTTOM LOG INTERVAL
TLI .FT                 2250 : TOP LOG INTERVAL
BS  .IN                    9 : BIT SIZE
BSD .FT                11256 : BIT SIZE AT DEPTH
DFT .               OIL EMUL : DRILLING FLUID TYPE
DFD .                   10.6 : DRILLING FLUID DENSITY
DFV .                    112 : DRILLING FLUID VISCOSITY
DFPH.                    9.5 : DRILLING FLUID PH
DFL .                    5.4 : DRILLING FLUID LOSS
RMS .OHMM                  3 : RESISTIVITY MUD SAMPLE
MST .DEGF                 64 : MUD SAMPLE TEMPERATURE
RMF .OHMM                  2 : RESISTIVITY MUD FILTRATE SAMPLE
MFST.DEGF                 77 : MUD FILTRATE SAMPLE TEMPERATURE
RMC .OHMM                3.3 : RESISTIVITY MUD CAKE
MCST.DEGF                 77 : MUD CAKE SAMPLE TEMPERATURE
RMB .OHMM               0.96 : RESISTIVITY MUD AT BHT
TCS .HRS                 7.5 : TIME CIRCULATED STOPPED
LUN .                   1573 : LOGGING UNIT NUMBER
LUL .                    W C : LOGGING UNIT LOCATION
ENGI.               SHERRIFF : RECORDING ENGINEER
WITN.                  SMITH : WITNESSED BY
CLNT.                A2DTECH : CLIENT CODE
ORIG.            2" 5" PRINT : ORIGIN OF DATA
UWI .       100021806218W500 : UNIQUE WELL ID
DICO. A2D Technologies, Inc. : DIGITIZING COMPANY
~Other -----------------------------------------------------
~ASCII -----------------------------------------------------
 1050.00000    9.07880  147.63920  140.14830    7.13530    -999.25    -999.25    -999.25    -999.25    -999.25    7.13530    9.07880   11.50940 -180.89370   -4.84980   11.50940
 1100.00000   11.01430  187.38460  190.66140    5.24490    -999.25    -999.25    -999.25    7.04690  116.27390    5.24490   11.01430    6.34780 -181.59080   -5.94580    6.34780
 1150.00000   10.81930  178.88670  177.69560    5.62760    -999.25    -999.25    -999.25    6.76960  111.69840    5.62760   10.81930    6.96230 -180.24870   -5.00010    6.96230
 1200.00000    8.88240  189.83240  187.01030    5.34730    -999.25    -999.25    -999.25    7.41910  122.41520    5.34730    8.88240    6.65660 -179.02880   -4.17910    6.65660
 1250.00000    9.67420  115.67600  103.41050    9.67020    -999.25   98.78880   98.78880    6.95530  114.76250    9.67020    9.67420   11.12050 -178.88440   -4.43100   11.12050
 1300.00000   11.94230  251.88430  269.07760    3.71640    -999.25  134.50970  134.50970    7.01010  115.66670    3.71640   11.94230    5.33020 -178.51280   -4.45580    5.33020
 1350.00000    8.86720   59.02790   55.59260   17.98800    -999.25   90.94320   90.94320    5.89290   97.23280   17.98800    8.86720   20.03710 -182.37190   -8.71380   20.03710
 1400.00000   10.28620  119.72750  104.61350    9.55900    -999.25   97.58300   97.58300    6.71830  110.85200    9.55900   10.28620   11.56380 -178.04040   -4.77860   11.56380
 1450.00000    9.23170   96.53030   91.58680   10.91860    -999.25  103.45320  103.45320    6.13400  101.21100   10.91860    9.23170   11.96540 -178.73370   -5.87090   11.96540
 1500.00000    9.29590  163.01260  165.16910    6.05440    -999.25  104.07880  104.07880    8.72820  144.01530    6.05440    9.29590    7.01210 -177.61360   -5.14710    7.01210
 1550.00000    8.76370  119.80240  118.54940    8.43530    -999.25   96.61750   96.61750    5.90620   97.45230    8.43530    8.76370    9.54340 -177.44090   -5.37070    9.54340
 1600.00000   10.36190   43.44480   35.60440   28.08640    -999.25   71.45790   71.45790    4.48880   74.06520   28.08640   10.36190   31.07910 -178.41210   -6.74080   31.07910
 1650.00000    9.84400  241.36690  256.69990    3.89560    -999.25   94.93120   94.93120    7.12060  117.48990    3.89560    9.84400    5.35720 -176.78340   -5.50850    5.35720
 1700.00000   10.79500  224.00250  228.43050    4.37770    -999.25  115.12700  115.12700    7.51340  123.97110    4.37770   10.79500    6.10770 -176.28840   -5.41240    6.10770
 1750.00000    8.86890  196.74840  195.12580    5.12490    -999.25  103.05560  103.05560    6.68550  110.31080    5.12490    8.86890    6.61330 -176.11420   -5.63450    6.61330
 1800.00000   10.43850  148.97760  150.41440    6.64830    -999.25   95.16580   95.16580    6.15140  101.49810    6.64830   10.43850    9.74770 -175.50010   -5.41680    9.74770
 1850.00000   10.29750  194.33160  209.19190    4.78030    -999.25  119.11860  119.11860    7.16490  118.22090    4.78030   10.29750    6.29040 -174.73730   -5.05290    6.29040
 1900.00000   11.74470  226.92060  279.72030    3.57500    -999.25  109.25960  109.25960    6.91060  114.02490    3.57500   11.74470    3.73070 -173.01730   -3.72920    3.73070
 1950.00000   10.26600  125.98480  135.83080    7.36210    -999.25  120.07500  120.07500    5.16190   85.17140    7.36210   10.26600    7.17720 -173.48600   -4.59690    7.17720
 2000.00000   10.18320  162.58210  170.32000    5.87130    -999.25  100.95640  100.95640    6.91620  114.11730    5.87130   10.18320    6.66790 -172.54700   -4.05420    6.66790
 2050.00000    9.85630  219.48840  245.78480    4.06860    -999.25  113.55340  113.55340    7.66550  126.48080    4.06860    9.85630    4.78550 -172.30940   -4.21290    4.78550
 2100.00000   10.61420  335.74490  450.65340    2.21900    -999.25  113.35510  113.35510    9.49850  156.72520    2.21900   10.61420    4.08940 -171.48530   -3.78770    4.08940
 2150.00000   10.60770  165.76650  168.22560    5.94440    -999.25  100.12370  100.12370    7.41450  122.33930    5.94440   10.60770    7.78150 -172.17490   -4.87370    7.78150
 2200.00000   10.57100  286.83710  356.98990    2.80120    -999.25  108.46280  108.46280    8.75290  144.42290    2.80120   10.57100    4.19140 -171.05020   -4.14790    4.19140
 2250.00000    8.97020  228.30880  282.86940    3.53520    -999.25   93.96270   93.96270    5.42960   89.58840    3.53520    8.97020    5.21120 -147.55880   -7.75230    5.21120
 2300.00000    8.42770  134.54620  137.99190    7.24680    -999.25   94.51400   94.51400    7.68160  126.74640    7.24680    8.42770    8.86240 -162.07190  -21.92290    8.86240
 2350.00000    9.76330  294.13660  348.01980    2.87340    -999.25  120.79170  120.79170    7.02390  115.89440    2.87340    9.76330    4.11030 -148.31630   -7.82250    4.11030
 2400.00000   10.92140  270.53410  313.43050    3.19050    -999.25   96.72360   96.72360    8.80990  145.36340    3.19050   10.92140    4.72920 -149.51070   -8.67450    4.72920
 2450.00000   10.45230  252.24910  299.25780    3.34160    -999.25  103.91710  103.91710    7.10200  117.18300    3.34160   10.45230    4.83900 -149.55220   -8.37120    4.83900
 2500.00000   10.59140  738.19800  925.58310    1.08040    -999.25  127.96990  127.96990   10.51890  173.56180    1.08040   10.59140    1.78870 -146.76320   -5.23970    1.78870
 2550.00000    9.89250  138.68000  157.60190    6.34510    -999.25   95.33700   95.33700    6.74670  111.32060    6.34510    9.89250    8.61350 -158.11820  -16.09890    8.61350
 2600.00000    8.71150   90.79560   89.91510   11.12160    -999.25   97.73000   97.73000    4.70610   77.65060   11.12160    8.71150   14.18040 -164.94460  -22.30760   14.18040
 2650.00000    8.95140  170.70240  192.99430    5.18150    -999.25   96.78890   96.78890    6.01100   99.18150    5.18150    8.95140    7.87760 -149.92970   -6.67910    7.87760
 2700.00000    8.83970   66.68090   62.54380   15.98880    -999.25   94.04640   94.04640    3.89950   64.34180   15.98880    8.83970   18.17340 -177.84810  -13.28270   18.17340
 2750.00000    9.00680   70.70710   67.19840   14.88130    -999.25   89.10470   89.10470    4.92320   81.23280   14.88130    9.00680   18.30030 -172.00060   -4.34860   18.30030
 2800.00000    8.96240  157.06840  140.67270    7.10870    -999.25   91.74050   91.74050    5.95620   98.27730    7.10870    8.96240    9.57610 -170.02550   -3.31980    9.57610
 2850.00000   10.27930  167.10480  198.62160    5.03470    -999.25  101.97990  101.97990    5.30320   87.50280    5.03470   10.27930    7.44170 -168.90080   -3.14770    7.44170
 2900.00000   11.16310  202.07540  234.31830    4.26770    -999.25   98.30100   98.30100    5.36420   88.50930    4.26770   11.16310    6.47300 -168.96650   -4.15970    6.47300
 2950.00000    9.80630  199.12250  185.78730    5.38250    -999.25   85.79520   85.79520    5.94150   98.03470    5.38250    9.80630    7.28600 -168.02430   -4.17000    7.28600
 3000.00000    9.06990   65.52500   60.65610   16.48640    -999.25   85.99120   85.99120    4.72720   77.99880   16.48640    9.06990   18.43800 -170.26130   -7.35330   18.43800
 3050.00000    9.32640  178.33300  192.00120    5.20830    -999.25  118.02340  118.02340    6.28080  103.63320    5.20830    9.32640    6.72560 -167.17610   -5.21440    6.72560
 3100.00000    8.87800   54.66800   50.12380   19.95060    -999.25   97.36730   97.36730    4.70200   77.58300   19.95060    8.87800   24.17720 -181.32310  -20.31390   24.17720
 3150.00000    9.71280  172.69650  179.38830    5.57450    -999.25   86.13940   86.13940    5.34570   88.20400    5.57450    9.71280    7.66320 -165.20100  -19.64520    7.66320
 3200.00000   10.12550  180.22320  209.52500    4.77270    -999.25  120.32080  120.32080    6.00900   99.14850    4.77270   10.12550    6.38170 -146.76530   -5.09310    6.38170
 3250.00000   11.06350  243.07450  296.19100    3.37620    -999.25  123.71200  123.71200    6.14750  101.43380    3.37620   11.06350    5.58970 -146.44570   -4.77350    5.58970
 3300.00000    8.98790   42.01230   40.18320   24.88600    -999.25   75.78100   75.78100    4.51620   74.51730   24.88600    8.98790   27.38280 -160.13860  -18.46640   27.38280
