~Version ---------------------------------------------------
VERS.      2.0 : CWLS log ASCII Standard -VERSION 2.0
WRAP.       NO : One line per depth step
CREA. 09/13/14 : LAS Creation Date
~Well ------------------------------------------------------
STRT.FT                       1500.0 : START DEPTH
STOP.FT                      10400.0 : STOP DEPTH
STEP.FT                     50.00000 : STEP LENGTH
NULL.                        -999.25 : NULL VALUE
COMP.   MERLAND EXPLORATIONS LIMITED : COMPANY
WELL. MERLAND ET AL GIROUXLUX 10-11- : WELL
FLD .                                : FIELD
LOC .                                : LOCATION
CTRY.                         CANADA : COUNTRY
SRVC.                        Unknown : SERVICE COMPANY
DATE.                    26-Feb-1978 : LOGDATE
PROV.                        Alberta : PROVINCE
UWI .               100101106622W500 : UNIQUE WELL ID
SLAT.WGS84                  54.70081 : SURFACE LATITUDE
SLON.WGS84                 -117.2093 : SURFACE LONGITUDE
~Curve Information -----------------------------------------
DEPT   .FT    : DEPTH FEET
CALD   .IN    : CALIPER FROM DENSITY LOG
CALS   .IN    : CALIPER FROM SONIC LOG
DCOR   .G/C3  : DENSITY CORRECTION FROM DENSITY LOG
DPHI_LS.DEC   : DENSITY POROSITY LIMESTONE [M=2.71, F=1.0] FROM DENSITY LOG
DPHI_SS.DEC   : DENSITY POROSITY SANDSTONE [M=2.65, F=1.0] FROM DENSITY LOG
DT     .US/F  : DELTA-T FROM SONIC LOG
GRD    .GAPI  : GAMMA RAY FROM DENSITY LOG
GRS    .GAPI  : GAMMA RAY FROM SONIC LOG
ILD    .OHMM  : DEEP INDUCTION  RESISTIVITY FROM RESISTIVITY LOG
ILM    .OHMM  : MEDIUM INDUCTION RESISTIVITY FROM RESISTIVITY LOG
LL8    .OHMM  : LATEROLOG 8 FROM RESISTIVITY LOG
NPHI_LS.DEC   : NEUTRON POROSITY LIMESTONE FROM DENSITY LOG
NPHI_SS.DEC   : NEUTRON POROSITY SANDSTONE FROM DENSITY LOG
RHOB   .G/C3  : BULK DENSITY FROM DENSITY LOG
SPR    .MV    : SPONTANEOUS POTENTIAL FROM RESISTIVITY LOG
~Params ----------------------------------------------------
PD  .                     GL : PERMANENT DATUM
EPD .FT                 2391 : ELEVATION PERMANENT DATUM
LMF .                     KB : LOG MEASURED FROM
DAPD.FT                   16 : FEET ABOVE PERMANENT DATUM
DMF .                     KB : DRILLING MEASURED FROM
EKB .FT                 2407 : KELLY BUSHING
EGL .FT                 2391 : GROUND LEVEL
DATE.               02/26/78 : RUN DATE
RUN .                      2 : RUN NUMBER
DD  .FT                10409 : DEPTH DRILLER
DL  .FT                10410 : DEPTH LOGGER
BLI .FT                10404 : BOTTOM LOG INTERVAL
TLI .FT                 8200 : TOP LOG INTERVAL
CBD .FT                 1515 : CASING BOTTOM DRILLER
CBL .FT                 1514 : CASING BOTTOM LOGGER
BS  .IN                 8.75 : BIT SIZE
BSD .FT                10409 : BIT SIZE AT DEPTH
DFT .               GEL CHEM : DRILLING FLUID TYPE
DFD .                    9.3 : DRILLING FLUID DENSITY
DFV .                     75 : DRILLING FLUID VISCOSITY
DFPH.                    9.5 : DRILLING FLUID PH
DFL .                    9.2 : DRILLING FLUID LOSS
MSS .               FLOWLINE : MUD SAMPLE SOURCE
RMS .OHMM               2.47 : RESISTIVITY MUD SAMPLE
MST .DEGF                 51 : MUD SAMPLE TEMPERATURE
RMF .OHMM               3.21 : RESISTIVITY MUD FILTRATE SAMPLE
MFST.DEGF                 60 : MUD FILTRATE SAMPLE TEMPERATURE
RMB .OHMM               1.02 : RESISTIVITY MUD AT BHT
TCS .HRS                 3.5 : TIME CIRCULATED STOPPED
LUN .                   7730 : LOGGING UNIT NUMBER
LUL .                    EDM : LOGGING UNIT LOCATION
ENGI.               ACKERMAN : RECORDING ENGINEER
WITN.                  GAWNE : WITNESSED BY
CLNT.                A2DTECH : CLIENT CODE
ORIG.            2" 5" PRINT : ORIGIN OF DATA
UWI .       100101106622W500 : UNIQUE WELL ID
DICO. A2D Technologies, Inc. : DIGITIZING COMPANY
~Other -----------------------------------------------------
~ASCII -----------------------------------------------------
# ...
 6100.00000   10.23960   11.24680    0.00860    0.03720   -0.02290   59.74010   77.47150   85.37960   22.72340   26.85360   31.41570    0.07290    0.11220    2.67770  -32.89920
 6150.00000   10.85430   11.39020    0.01130    0.03680    0.00060   63.35360   99.35750  101.22000   17.71090   18.53980   21.31660    0.11360    0.15140    2.63350  -32.52060
 6200.00000    9.92640   11.00320   -0.00320    0.02070   -0.00620   60.29820   83.98830   85.26240   25.49190   30.67930   35.08400    0.10440    0.14000    2.64910  -33.52630
 6250.00000   10.98140   11.88090    0.00580    0.04630    0.00750   64.18320  126.59500  116.60960   17.83880   19.75660   21.91200    0.17560    0.21640    2.62620  -19.49410
 6300.00000    9.00120    8.60240    0.03140    0.12240    0.05830   57.88250   28.11210   32.52350    3.90840    6.62050   41.88490    0.10270    0.13090    2.53950 -129.94490
 6350.00000    9.98820   10.33840    0.00940   -0.01780   -0.06210   55.86370   76.13590   66.75620   19.51230   21.24110   25.39910    0.10650    0.13400    2.73370  -46.51470
 6400.00000    9.59800    9.94910    0.05850    0.00210   -0.09200   48.95750   22.47940   26.87180   56.76370   77.04510  180.71680    0.08050    0.10550    2.77990 -122.25400
 6450.00000    9.99590   10.37320    0.11810    0.06110    -999.25   49.93760   39.12910   34.03300    3.70630    4.51170   10.19990    0.12180    -999.25    2.62770 -104.66780
 6500.00000   10.11360   10.30890    0.00050    0.02750    -999.25   53.74520   55.09140   25.79130    8.19840    9.26700   13.77890    0.16230    -999.25    2.64060  -93.31390
 6550.00000    8.96140    9.94650    0.19330    0.17350    -999.25   50.29580   25.60810   24.11870    2.68420    4.74890   23.72150    0.22370    -999.25    2.41120 -115.74190
 6600.00000    9.57930    9.44010    0.08200    0.06260    -999.25   66.06660   35.46150   45.30110    1.20020    1.43060    6.56910    0.23850    -999.25    2.58820  -98.51800
 6650.00000    9.05020    9.85750    0.00820    0.02750    -999.25   49.57700   14.70220   20.02990  137.03530  180.61320 1191.39110    0.00330    -999.25    2.66110  -64.25620
 6700.00000   10.52340   11.04490    0.03410    0.07470    -999.25   56.46390   66.19840   88.66420   26.26650   26.24720   28.25640    0.06160    -999.25    2.60300  -24.36690
 6750.00000   10.61140    9.65300    0.12050    0.09430    -999.25   62.75260   24.53880   44.96460    2.71470    4.39910   48.08370    0.14730    -999.25    2.56870 -121.40310
 6800.00000    9.97030   10.46700    0.01470    0.03620    -999.25   57.43430   56.76300   44.61670    3.21680    3.45200    8.31680    0.19450    -999.25    2.64220  -75.61590
 6850.00000    9.85550   10.35110    0.00890    0.05540    -999.25   52.47920   35.41890   29.27370    5.97820    6.77110   17.35860    0.12330    -999.25    2.60230  -71.59100
 6900.00000   10.26580   10.66470   -0.00920    0.01750    -999.25   52.07150   79.46820   33.41290   20.01920   24.09080   28.03810    0.07810    -999.25    2.67470  -27.59500
 6950.00000    9.40300    9.85780    0.00710    0.00140    -999.25   51.21580   16.26180   14.99990   51.28040   54.81680  124.18530    0.01600    -999.25    2.69770 -126.01190
 7000.00000    9.94470   10.54450    0.01250   -0.00830    -999.25   50.32220   12.30380   17.02910   55.34390   64.70660  146.96650    0.01040    -999.25    2.71600 -115.60770
 7050.00000    9.93470   10.08990    0.00470    0.00860    -999.25   53.83630   16.77030   16.76660   53.34940   62.44010  180.47680    0.01080    -999.25    2.68810 -114.79850
 7100.00000    8.99340    9.95070    0.00790    0.02440    -999.25   64.55080   61.54020   97.30510   14.62770   21.54990  168.38130    0.03630    -999.25    2.65120  -31.67190
 7150.00000    9.93930   10.55000    0.03770    0.05090    -999.25   61.21330   80.76640   70.25130    3.70830    5.10420    8.54940    0.17640    -999.25    2.62720  -60.52370
 7200.00000   10.10720   10.89740    0.01070    0.03220    -999.25   63.69360   88.11880   67.54420    4.74130    5.07280    7.20410    0.20590    -999.25    2.64910  -23.45650
 7250.00000    9.79450   10.53050    0.02160   -0.00210    -999.25   62.88980   45.20710   72.70510   18.36590   23.74290  106.31080    0.03900    -999.25    2.68330  -15.11840
 7300.00000   10.01110   10.47260    0.01630    0.00240    -999.25   57.01740   38.78480   42.25490   24.45420   26.92920   51.82900    0.06520    -999.25    2.70990  -22.33680
 7350.00000    9.00380    9.95880    0.00260    0.02020    -999.25   53.60920   28.57850   32.07660   39.75210   43.16530   67.03710    0.03050    -999.25    2.66790  -51.38310
 7400.00000    8.75210    9.65030    0.00270    0.01600    -999.25   54.85610   44.00770   47.39440   43.80790   49.55100   79.15830    0.03720    -999.25    2.67770  -18.26340
 7450.00000    8.79320    9.74960    0.00130    0.01030    -999.25   50.44940   26.17740   23.06770  128.36470  137.64790  236.80900    0.01410    -999.25    2.67620  -53.89330
 7500.00000    8.77390    9.72300    0.01480   -0.01740    -999.25   51.99000   34.27270   36.86470  112.46110  120.36460  165.73420    0.01910    -999.25    2.74340   -5.67410
 7550.00000    8.76500    9.75350   -0.00140    0.01700    -999.25   52.70570   42.19100   35.70150  101.20250  111.95280  164.79480    0.02400    -999.25    2.68310    1.78360
 7600.00000    8.77010    9.55940    0.01710    0.01810    -999.25   54.70110   48.14170   51.39740   66.80100   78.92350   87.76130    0.03930    -999.25    2.70030   11.36900
 7650.00000    8.72960    9.58280   -0.00410    0.02660    -999.25   54.85300   51.78290   53.80620   49.13920   56.10700   67.63200    0.05070    -999.25    2.65930   19.72250
 7700.00000    8.75900    9.56540    0.00080    0.02710    -999.25   55.23080   49.15070   58.61730   60.82590   67.29260   80.07210    0.04700    -999.25    2.65900   20.90560
 7750.00000    9.03560    9.96830    0.01970    0.02300    -999.25   58.01100   91.95790  100.91470   19.99100   22.88730   26.86200    0.08170    -999.25    2.67230   23.70660
 7800.00000   10.13390    9.72490    0.21320    0.04860    -999.25   47.67320   17.62650   20.26690 1646.93420 1452.93430 1372.38350    0.00220    -999.25    2.62630  -96.99350
 7850.00000    8.82490    9.63950   -0.00190    0.01070    -999.25   48.80700   12.61930   17.61530  413.18010  305.92520  348.77670    0.00730    -999.25    2.69090  -71.08680
 7900.00000    9.37000    9.70050    0.13600    0.01120    -999.25   48.01650   17.60530   20.87470  323.82320  276.68640  363.74180    0.00820    -999.25    2.67960  -63.04270
 7950.00000    9.29560    9.71270    0.02820    0.02760    -999.25   48.67210   11.54630   12.08760  293.24160  201.37800  267.04620   -0.00010    -999.25    2.66360  -81.14680
 8000.00000    8.70960    9.47210    0.01910    0.00500    -999.25   47.24630   12.11370   11.72190  512.19510  474.94580  776.44460    0.00410    -999.25    2.69780  -77.98160
 8050.00000   10.53460    9.98470    0.23250    0.13420    -999.25   48.00060    8.56830   16.06820  350.36910  567.17550  794.67910   -0.00100    -999.25    2.49480  -91.24420
 8100.00000    8.78160    8.83820    0.06470    0.00520    -999.25   52.54370   10.98650   13.89690   41.20630   35.62390   66.56930    0.01830    -999.25    2.71060  -81.09870
 8150.00000    8.84570    9.53820    0.10500    0.00090    -999.25   49.03640    9.93790   17.15240  185.41410  167.41600  167.68860    0.00770    -999.25    2.70490  -78.99810
 8200.00000    9.07030    9.80670    0.17540    0.02460    -999.25   48.20800   12.10230   17.29330  956.39660  654.45400  603.65050    0.00250    -999.25    2.66260  -96.86630
 8250.00000    8.94020    9.77620    0.12960    0.04110    -999.25   49.24380   14.70670   20.73670 1042.14380  915.01190  713.77550    0.00420    -999.25    2.63540  -83.60540
 8300.00000    -999.25    9.39410    -999.25    -999.25    -999.25   48.78330    -999.25   14.82700  880.50820  539.25760 1226.74870    -999.25    -999.25    -999.25 -124.45050
 8350.00000    -999.25    9.03160    -999.25    -999.25    -999.25   47.70050    -999.25   16.03780  756.54950  409.53670  984.13810    -999.25    -999.25    -999.25 -145.80260
