~Version ---------------------------------------------------
VERS.      2.0 : CWLS log ASCII Standard -VERSION 2.0
WRAP.       NO : One line per depth step
CREA. 08/31/17 : LAS Creation Date
~Well ------------------------------------------------------
STRT.FT                          1500.0 : START DEPTH
STOP.FT                         11900.0 : STOP DEPTH
STEP.FT                        50.00000 : STEP LENGTH
NULL.                           -999.25 : NULL VALUE
COMP.  AMOCO CANADA PETROLEUM CO., LTD. : COMPANY
WELL. AMOCO HB FINA FIR S-I  7-26-59-20 : WELL
FLD .                                   : FIELD
LOC .                                   : LOCATION
CTRY.                            CANADA : COUNTRY
SRVC.            Schlumberger of Canada : SERVICE COMPANY
DATE.                       07-Jan-1978 : LOGDATE
PROV.                           Alberta : PROVINCE
UWI .                  100072605920W500 : UNIQUE WELL ID
SLAT.WGS84                     54.12779 : SURFACE LATITUDE
SLON.WGS84                    -116.8825 : SURFACE LONGITUDE
~Curve Information -----------------------------------------
DEPT    .FT    : Depth Curve
CALDED  .IN    : CALIPER FROM CNFD LOG
CALSED  .IN    : CALIPER FROM BCS LOG [ADJ. TO GRDED]
CALWS   .IN    : CALIPER [CALSED]
CONDWS  .MMHO  : CONDUCTIVITY [1000/DRESWS]
DCORED  .G/C3  : DENSITY CORRECTION FROM CNFD LOG
DCORWS  .G/C3  : DENSITY CORRECTION [DCORED]
DENWS   .G/C3  : FORMATION BULK DENSITY [RHOBED]
DPHILSED.V/V   : DENSITY POROSITY LIMESTONE [M=2.71, F=1.0] FROM CNFD LOG [ADJ. TO RHOBED]
DPHISSED.V/V   : DENSITY POROSITY SANDSTONE [M=2.65, F=1.0] FROM CNFD LOG [ADJ. TO RHOBED]
DPOLSWS .V/V   : DENSITY POROSITY LIMESTONE [CALCULATED FROM DENWS, M=2.71, F=1.0]
DRESWS  .OHMM  : DEEP RESISTIVITY [ILDED]
DTED    .US/F  : ACOUSTIC TRANSIT TIME SLOWNESS, DELTA T FROM BCS LOG [ADJ. TO GRDED]
DTWS    .US/F  : COMPRESSIONAL SONIC [DTED]
GRDED   .GAPI  : GAMMA RAY FROM CNFD LOG
GRSED   .GAPI  : GAMMA RAY FROM BCS LOG [ADJ. TO GRDED]
GRWS    .GAPI  : GAMMA RAY [GRSED]
ILDED   .OHMM  : DEEP INDUCTION FROM DILL LOG
ILMED   .OHMM  : MEDIUM INDUCTION FROM DILL LOG
LL8ED   .OHMM  : LATEROLOG RESISTIVITY FROM DILL LOG
MRESWS  .OHMM  : MEDIUM RESISTIVITY [ILMED]
NPHILSED.V/V   : NEUTRON POROSITY LIMESTONE FROM CNFD LOG [ADJ. TO RHOBED]
NPHISSED.V/V   : NEUTRON POROSITY SANDSTONE FROM CNFD LOG [ADJ. TO RHOBED]
NPOLSWS .V/V   : NEUTRON POROSITY LIMESTONE [NPHISSED CONVERTED TO LIMESTONE MATRIX, SPL. TO NPHILSED @ 2468.27M]
RHOBED  .G/C3  : HRDD HIGH RESOLUTION FORMATION DENSITY FROM CNFD LOG
SPRED   .MV    : SPONTANEOUS POTENTIAL FROM DILL LOG
SRESWS  .OHMM  : SHALLOW RESISTIVITY [LL8ED]
~Params ----------------------------------------------------
PD  .                     GL : PERMANENT DATUM
EPD .FT              3289.04 : ELEVATION PERMANENT DATUM
LMF .                     KB : LOG MEASURED FROM
DAPD.FT                 21.2 : FEET ABOVE PERMANENT DATUM
EKB .FT              3310.24 : KELLY BUSHING
EGL .FT              3289.04 : GROUND LEVEL
DATE.               01/07/78 : RUN DATE
RUN .                      1 : RUN NUMBER
DD  .FT                11910 : DEPTH DRILLER
DL  .FT                11919 : DEPTH LOGGER
BLI .FT                11913 : BOTTOM LOG INTERVAL
TLI .FT                 1534 : TOP LOG INTERVAL
CBD .FT                 1534 : CASING BOTTOM DRILLER
CBL .FT                 1534 : CASING BOTTOM LOGGER
BS  .IN                 8.75 : BIT SIZE
BSD .FT                11910 : BIT SIZE AT DEPTH
DFT .                    GEL : DRILLING FLUID TYPE
DFD .                    9.5 : DRILLING FLUID DENSITY
DFV .                    105 : DRILLING FLUID VISCOSITY
DFPH.                    9.5 : DRILLING FLUID PH
DFL .                    9.0 : DRILLING FLUID LOSS
MSS .               FLOWLINE : MUD SAMPLE SOURCE
RMS .OHMM               1.78 : RESISTIVITY MUD SAMPLE
MST .DEGF                 85 : MUD SAMPLE TEMPERATURE
RMF .OHMM               1.74 : RESISTIVITY MUD FILTRATE SAMPLE
MFST.DEGF                 54 : MUD FILTRATE SAMPLE TEMPERATURE
TCS .HRS                   5 : TIME CIRCULATED STOPPED
LUN .                   7730 : LOGGING UNIT NUMBER
LUL .                    EDM : LOGGING UNIT LOCATION
ENGI.   ACKERMAN STEENBERGEN : RECORDING ENGINEER
CLNT.                A2DTECH : CLIENT CODE
ORIG.            2" 5" PRINT : ORIGIN OF DATA
UWI .       100072605920W500 : UNIQUE WELL ID
DICO. A2D Technologies, Inc. : DIGITIZING COMPANY
~Other -----------------------------------------------------
~ASCII -----------------------------------------------------
# ...
 10950.00000    8.43810    9.25640    9.25640   51.24320    0.00680    0.00680    2.69330    0.00270    -999.25    0.00980   19.51480   61.10440   61.10440   66.61930   89.91520   89.91520   23.69840   23.69840   31.91170   23.69840    0.11610    -999.25    0.11610    2.69330  -55.40410   31.91170
 11000.00000    8.34830    9.15560    9.15560   94.39930    0.01970    0.01970    2.70240    0.00390    -999.25    0.00440   10.59330   68.32750   68.32750  108.55790  134.59280  134.59280   12.06730   12.06730   16.11090   12.06730    0.19720    -999.25    0.19720    2.70240  -50.86090   16.11090
 11050.00000    8.34500    9.10250    9.10250   95.07840    0.00230    0.00230    2.66940    0.02560    -999.25    0.02380   10.51780   69.94210   69.94210  102.88500  129.42130  129.42130   12.77890   12.77890   20.55110   12.77890    0.20200    -999.25    0.20200    2.66940  -47.60210   20.55110
 11100.00000    8.36640    9.24130    9.24130   70.06040    0.02370    0.02370    2.67230    0.01330    -999.25    0.02200   14.27340   68.24970   68.24970   92.29460  113.22830  113.22830   17.86490   17.86490   19.39680   17.86490    0.19430    -999.25    0.19430    2.67230  -45.18120   19.39680
 11150.00000    8.26330    9.12450    9.12450   38.83020    0.03440    0.03440    2.63480    0.04510    -999.25    0.04390   25.75320   72.69710   72.69710   95.08940  120.95790  120.95790   29.72890   29.72890   45.12930   29.72890    0.17200    -999.25    0.17200    2.63480  -43.60210   45.12930
 11200.00000    8.21890    9.01820    9.01820   10.82730    0.01410    0.01410    2.55020    0.09590    -999.25    0.09350   92.35940   69.66740   69.66740   81.81300   96.84480   96.84480  176.79390  176.79390  149.97580  176.79390    0.14820    -999.25    0.14820    2.55020  -66.54430  149.97580
 11250.00000    8.16530    9.02470    9.02470    2.94930    0.00510    0.00510    2.44670    0.14250    -999.25    0.15400  339.06760   76.61050   76.61050  125.77680  172.32950  172.32950 1264.25670 1264.25670 1362.11620 1264.25670    0.16890    -999.25    0.16890    2.44670  -90.70410 1362.11620
 11300.00000    8.16650    8.88690    8.88690    2.02530    0.01610    0.01610    2.55780    0.09250    -999.25    0.08900  493.75960   62.58310   62.58310  101.24410  123.50370  123.50370 1279.92450 1279.92450 1410.88930 1279.92450    0.16140    -999.25    0.16140    2.55780 -104.08810 1410.88930
 11350.00000    8.52750    9.10200    9.10200    9.84340    0.13090    0.13090    2.63840    0.03020    -999.25    0.04190  101.59080   58.57110   58.57110   69.51070   80.70380   80.70380  169.61230  169.61230  219.63140  169.61230    0.13550    -999.25    0.13550    2.63840  -54.89280  219.63140
 11400.00000    8.12480    9.14480    9.14480    2.45370   -0.00160   -0.00160    2.58650    0.06800    -999.25    0.07220  407.68880   56.65980   56.65980   53.07350   74.14110   74.14110 1364.33440 1364.33440 1187.05200 1364.33440    0.04250    -999.25    0.04250    2.58650 -108.72440 1187.05200
 11450.00000    8.92270    9.25530    9.25530    1.35800    0.15570    0.15570    2.66230    0.02490    -999.25    0.02790  736.37260   47.77160   47.77160    9.72650   16.89570   16.89570 1449.75450 1449.75450 1367.11450 1449.75450    0.00470    -999.25    0.00470    2.66230 -174.59570 1367.11450
 11500.00000    7.61450    8.67360    8.67360   36.88760    0.18050    0.18050    2.55550    0.09010    -999.25    0.09040   27.10940   53.89440   53.89440   14.65170   15.70860   15.70860   51.51730   51.51730  241.90130   51.51730    0.11590    -999.25    0.11590    2.55550 -175.17640  241.90130
 11550.00000    8.62860    8.98890    8.98890   20.40430    0.20950    0.20950    2.51560    0.10780    -999.25    0.11370   49.78630   52.14520   52.14520   11.52600   17.90340   17.90340   77.98500   77.98500  196.47640   77.98500    0.07740    -999.25    0.07740    2.51560 -165.85690  196.47640
 11600.00000    9.34100    9.55590    9.55590    1.23900    0.17270    0.17270    2.50700    0.11940    -999.25    0.11870  807.10800   47.66520   47.66520    9.00070   14.44480   14.44480 1459.75170 1459.75170 1338.05190 1459.75170    0.00690    -999.25    0.00690    2.50700 -165.96680 1338.05190
 11650.00000   10.29370    9.64210    9.64210    0.69560    0.24270    0.24270    2.36930    0.19930    -999.25    0.19920 1437.66990   47.80200   47.80200   13.94650   20.16210   20.16210 1330.43450 1330.43450 1383.94400 1330.43450    0.00450    -999.25    0.00450    2.36930 -174.22710 1383.94400
 11700.00000    9.79190    9.63080    9.63080    0.68150    0.25440    0.25440    2.55300    0.09530    -999.25    0.09180 1467.45140   46.88800   46.88800   12.30000   15.96200   15.96200 1283.58650 1283.58650 1356.80180 1283.58650    0.00310    -999.25    0.00310    2.55300 -158.46810 1356.80180
 11750.00000    9.24130    9.35970    9.35970    0.66100    0.22170    0.22170    2.56300    0.08490    -999.25    0.08600 1512.96080   48.25670   48.25670   11.85510   15.34600   15.34600 1293.27750 1293.27750 1396.42580 1293.27750    0.00690    -999.25    0.00690    2.56300 -148.10580 1396.42580
 11800.00000   10.65780    9.68970    9.68970    0.79890    0.25310    0.25310    2.29370    0.23970    -999.25    0.24350 1252.04230   48.70340   48.70340   14.80600   19.03980   19.03980  880.67830  880.67830  519.01200  880.67830    0.05080    -999.25    0.05080    2.29370 -127.26150  519.01200
 11850.00000    9.22600    9.07260    9.07260   33.32000    0.26290    0.26290    2.39830    0.19530    -999.25    0.18230   30.01200   58.41200   58.41200   84.25700   93.33860   93.33860   38.46080   38.46080   41.08300   38.46080    0.03800    -999.25    0.03800    2.39830  -56.79560   41.08300
 11900.00000    8.17520    8.55760    8.55760  581.08810    0.17810    0.17810    2.37100    0.20090    -999.25    0.19820    1.72230   68.26630   68.26630    -999.25   62.24620   62.24620    2.27350    2.27350   14.20580    2.27350    0.06220    -999.25    0.06220    2.37100 -131.65660   14.20580
