~Version ---------------------------------------------------
VERS.      2.0 : CWLS log ASCII Standard -VERSION 2.0
WRAP.       NO : One line per depth step
CREA. 11/10/17 : LAS Creation Date
~Well ------------------------------------------------------
STRT.FT                         1200.0 : START DEPTH
STOP.FT                        11200.0 : STOP DEPTH
STEP.FT                       50.00000 : STEP LENGTH
NULL.                          -999.25 : NULL VALUE
COMP. AMOCO CANADA PETROLEUM CO., LTD. : COMPANY
WELL.    AMOCO A-1 NW ANTE 10-29-66-25 : WELL
FLD .                                  : FIELD
LOC .                                  : LOCATION
CTRY.                           CANADA : COUNTRY
SRVC.           Schlumberger of Canada : SERVICE COMPANY
DATE.                      20-Oct-1973 : LOGDATE
PROV.                          Alberta : PROVINCE
UWI .                 100102906625W500 : UNIQUE WELL ID
SLAT.WGS84                    54.74394 : SURFACE LATITUDE
SLON.WGS84                   -117.7384 : SURFACE LONGITUDE
~Curve Information -----------------------------------------
DEPT    .FT    : Depth Curve
CALDED  .IN    : CALIPER FROM DENSITY LOG
CALNED  .IN    : CALIPER FROM NEUTRON LOG
CALSED  .IN    : CALIPER FROM SONIC LOG
CALWS   .IN    : CALIPER [CALSED]
CONDWS  .MMHO  : CONDUCTIVITY [1000/DRESWS]
DCORWS  .G/C3  : DENSITY CORRECTION [DRHOED]
DENWS   .G/C3  : FORMATION BULK DENSITY [RHOBED]
DPHILSED.V/V   : DENSITY POROSITY LIME [M=2.71, F=1.00] FROM DENSITY LOG
DPOLSWS .V/V   : DENSITY POROSITY LIME [M=2.71, F=1.00] [CALCULATED FROM DENWS]
DRESWS  .OHMM  : DEEP RESISTIVITY [ILDED]
DRHOED  .G/C3  : BULK DENSITY CORRECTION FROM DENSITY LOG
DTED    .US/F  : DELTA-T (INTERVAL TRANSIT TIME) FROM SONIC LOG
DTWS    .US/F  : COMPRESSIONAL SONIC [DTED]
GRDED   .GAPI  : GAMMA RAY FROM DENSITY LOG
GRNED   .GAPI  : GAMMA RAY FROM NEUTRON LOG
GRSED   .GAPI  : GAMMA RAY FROM SONIC LOG
GRWS    .GAPI  : GAMMA RAY [GRSED]
ILDED   .OHMM  : DEEP INDUCTION FROM RESISTIVITY LOG
ILMED   .OHMM  : MEDIUM INDUCTION FROM RESISTIVITY LOG
LL8ED   .OHMM  : LATEROLOG8 FROM RESISTIVITY LOG
MRESWS  .OHMM  : MEDIUM RESISTIVITY [ILMED]
NPOLSWS .V/V   : NEUTRON POROSITY LIME [SNPLSED]
RHOBED  .G/C3  : BULK DENSITY FROM DENSITY LOG
SNPLSED .V/V   : SIDEWALL NEUTRON POROSITY LIME FROM NEUTRON LOG
SPRED   .MV    : SPONTANEOUS POTENTIAL FROM RESISTIVITY LOG
SPWS    .MV    : SPONTANEOUS POTENTIAL [BASE LINE 0 MV, SPRED]
SRESWS  .OHMM  : SHALLOW RESISTIVITY [LL8ED]
~Params ----------------------------------------------------
PD  .                     GL : PERMANENT DATUM
EPD .FT               2302.4 : ELEVATION PERMANENT DATUM
LMF .                     KB : LOG MEASURED FROM
DAPD.FT                 17.6 : FEET ABOVE PERMANENT DATUM
EKB .FT               2320.0 : KELLY BUSHING
EGL .FT               2302.4 : GROUND LEVEL
DATE.               10/20/73 : RUN DATE
RUN .                      1 : RUN NUMBER
DD  .FT                11236 : DEPTH DRILLER
DL  .FT                11235 : DEPTH LOGGER
BLI .FT                11234 : BOTTOM LOG INTERVAL
TLI .FT                 6400 : TOP LOG INTERVAL
CS  .IN                9.625 : CASING SIZE
CBD .FT                 1247 : CASING BOTTOM DRILLER
CBL .FT                 1247 : CASING BOTTOM LOGGER
BS  .IN                 8.75 : BIT SIZE
BSD .FT                11236 : BIT SIZE AT DEPTH
DFT .               GEL CHEM : DRILLING FLUID TYPE
DFD .                    9.2 : DRILLING FLUID DENSITY
DFV .                     62 : DRILLING FLUID VISCOSITY
DFPH.                    9.0 : DRILLING FLUID PH
DFL .                   10.2 : DRILLING FLUID LOSS
RMF .OHMM               1.15 : RESISTIVITY MUD FILTRATE SAMPLE
MFST.DEGF                 70 : MUD FILTRATE SAMPLE TEMPERATURE
RMB .OHMM                0.4 : RESISTIVITY MUD AT BHT
TCS .HRS                 4.5 : TIME CIRCULATED STOPPED
LUN .                   7667 : LOGGING UNIT NUMBER
LUL .                    EDM : LOGGING UNIT LOCATION
ENGI.               BENOWSKI : RECORDING ENGINEER
WITN.       SNYDMELLER FRAME : WITNESSED BY
CLNT.                A2DTECH : CLIENT CODE
ORIG.            2" 5" PRINT : ORIGIN OF DATA
UWI .       100102906625W500 : UNIQUE WELL ID
DICO. A2D Technologies, Inc. : DIGITIZING COMPANY
~Other -----------------------------------------------------
~ASCII -----------------------------------------------------
# ...
 9000.00000   10.42400   10.53740    9.13200    9.13200    0.58310    0.24470    2.70400   -0.00320    0.00350 1714.83530    0.24470   48.38610   48.38610   12.70760   10.24480   10.52130   10.52130 1714.83530 1781.45500 1574.94760 1781.45500    0.01800    2.70400    0.01800 -306.21180 -435.83360 1574.94760
 9050.00000   11.46850   11.93350    9.28850    9.28850    0.60290    0.25020    2.52970    0.10910    0.10540 1658.61430    0.25020   48.14850   48.14850   13.76380   14.12850   21.68340   21.68340 1658.61430 1561.82670 1774.26090 1561.82670    0.04900    2.52970    0.04900 -371.10050 -500.44190 1774.26090
 9100.00000   11.86860   12.28670    9.45450    9.45450    0.60510    0.25000    2.53890    0.10070    0.10010 1652.54030    0.25000   48.14770   48.14770   13.72360   13.42340   15.88120   15.88120 1652.54030 1518.83030 1828.45790 1518.83030    0.04660    2.53890    0.04660 -399.35100 -528.41200 1828.45790
 9150.00000   12.23650   12.51310    9.48520    9.48520    0.59950    0.25000    2.53160    0.10180    0.10430 1668.13310    0.25000   48.36080   48.36080   15.75020   13.33180   16.87630   16.87630 1668.13310 1552.57530 1825.62740 1552.57530    0.06490    2.53160    0.06490 -326.33610 -455.11670 1825.62740
 9200.00000   11.82450   12.55380    9.50050    9.50050    0.59360    0.25130    2.48660    0.13340    0.13060 1684.64080    0.25130   47.85160   47.85160   14.59860   15.52470   15.48370   15.48370 1684.64080 1534.53360 1874.43780 1534.53360    0.05190    2.48660    0.05190 -267.70170 -396.20050 1874.43780
 9250.00000   11.72300   12.13870    9.51340    9.51340    0.59190    0.22820    2.56450    0.08470    0.08510 1689.46460    0.22820   48.22240   48.22240   13.47960   14.00550   13.82540   13.82540 1689.46460 1501.21570 1859.94460 1501.21570    0.04550    2.56450    0.04550 -205.04970 -333.26940 1859.94460
 9300.00000   12.14460   12.55360    9.55410    9.55410    0.60530    0.25070    2.49770    0.11890    0.12420 1652.15380    0.25070   47.61780   47.61780   17.19190   13.22500   12.78700   12.78700 1652.15380 1544.67740 1826.12260 1544.67740    0.04220    2.49770    0.04220 -239.47590 -367.41520 1826.12260
 9350.00000   12.64350   13.23950    9.57510    9.57510    0.64790    0.25030    2.34550    0.21560    0.21320 1543.46090    0.25030   48.34070   48.34070   14.14870   11.51250   14.25470   14.25470 1543.46090 1322.11210 1659.48130 1322.11210    0.07830    2.34550    0.07830 -238.10780 -365.76670 1659.48130
 9400.00000   10.57930   10.93640    8.94870    8.94870   20.86630    0.18010    2.67860    0.01400    0.01840   47.92420    0.18010   48.89170   48.89170   13.62360   15.85400   11.10850   11.10850   47.92420   40.67690   98.04600   40.67690    0.07190    2.67860    0.07190 -234.37210 -361.75060   98.04600
 9450.00000   10.04130   10.84970    9.04850    9.04850    7.04980    0.11050    2.56840    0.08250    0.08280  144.86580    0.11050   51.36150   51.36150   14.57470   12.99530   15.96220   15.96220  144.86580  134.95680  290.31870  134.95680    0.06740    2.56840    0.06740 -192.12340 -319.22000  290.31870
 9500.00000    9.70660   10.35030    9.16570    9.16570    0.60070    0.06780    2.92950   -0.14120   -0.12840 1664.66310    0.06780   49.60370   49.60370   12.86360   11.77830   13.29680   13.29680 1664.66310 1521.20940 1835.30640 1521.20940   -0.00290    2.92950   -0.00290  -64.93710 -191.75480 1835.30640
 9550.00000    9.57750   10.06720    8.96170    8.96170   13.57850    0.04640    2.84860   -0.09250   -0.08110   73.64600    0.04640   49.90160   49.90160   26.77130   27.38280   26.69690   26.69690   73.64600   78.82670  116.89250   78.82670    0.04090    2.84860    0.04090   69.02260  -57.51460  116.89250
 9600.00000   12.48080   12.87510    9.46470    9.46470   21.83140    0.20780    2.43330    0.16770    0.16180   45.80550    0.20780   49.31120   49.31120   21.12700   19.58800   21.29190   21.29190   45.80550  320.62050  262.79190  320.62050    0.11980    2.43330    0.11980  106.76950  -19.48730  262.79190
 9650.00000   14.97680    -999.25    9.91730    9.91730    0.62020    0.19850    2.06280    0.38090    0.37850 1612.27880    0.19850   51.86860   51.86860   20.27870   21.05390   21.73350   21.73350 1612.27880 1914.33720 1657.19260 1914.33720    0.22510    2.06280    0.22510   60.72440  -65.01500 1657.19260
 9700.00000   10.95200   11.48420    9.06100    9.06100    0.69760    0.25060    2.73600   -0.02240   -0.01520 1434.60540    0.25060   46.60590   46.60590   22.92950   22.66900   21.40710   21.40710 1434.60540 1020.20810 1656.41870 1020.20810    0.07110    2.73600    0.07110   74.59030  -50.18650 1656.41870
 9750.00000    9.45600   10.06030    9.02850    9.02850    1.37160    0.19430    2.69550    0.00280    0.00850  729.05700    0.19430   49.48770   49.48770   24.38630   20.42840   26.47430   26.47430  729.05700 1039.55760 1457.64160 1039.55760    0.16620    2.69550    0.16620    -999.25    -999.25 1457.64160
 9800.00000   13.83810   14.15660    9.51290    9.51290    0.68720    0.24420    2.40360    0.18140    0.17920 1455.08720    0.24420   51.02580   51.02580   26.76750   25.87500   26.91830   26.91830 1455.08720 1607.87070 1667.22390 1607.87070    0.11730    2.40360    0.11730  -54.45220 -177.31840 1667.22390
 9850.00000   14.73340   14.68010    9.25960    9.25960   31.00630    0.23150    2.26990    0.26880    0.25740   32.25150    0.23150   54.02020   54.02020   30.44720   28.93550   33.30650   33.30650   32.25150   33.43750   46.79880   33.43750    0.17190    2.26990    0.17190  -90.84010 -212.74860   46.79880
 9900.00000    9.80990   10.36070    9.22160    9.22160   25.30120    0.04090    2.66960    0.01900    0.02360   39.52380    0.04090   54.08900   54.08900   30.15710   33.49710   34.43120   34.43120   39.52380   42.89340   54.89360   42.89340    0.05960    2.66960    0.05960 -215.62770 -336.57850   54.89360
 9950.00000    9.50470   10.25920    9.12900    9.12900   11.17170    0.02740    2.71230   -0.00770   -0.00130   89.51680    0.02740   53.48850   53.48850   34.24350   30.08100   34.78210   34.78210   89.51680   69.43230  114.57810   69.43230    0.01970    2.71230    0.01970 -178.62110 -298.60950  114.57810
 10000.00000    9.61760   10.25310    9.04500    9.04500    8.90930    0.00900    2.72190   -0.01370   -0.00700  112.24190    0.00900   52.49280   52.49280   28.10290   29.23520   30.28780   30.28780  112.24190   83.37300  197.58860   83.37300    0.01310    2.72190    0.01310  -89.02780 -208.06320  197.58860
 10050.00000    9.55090   10.27980    9.04990    9.04990   15.39480    0.00260    2.70650   -0.00310    0.00200   64.95710    0.00260   53.80530   53.80530   31.32880   30.16810   35.31880   35.31880   64.95710   55.79840  103.76770   55.79840    0.01740    2.70650    0.01740  -69.61060 -187.68830  103.76770
 10100.00000    9.59230    9.97580    9.00570    9.00570   22.11470    0.06750    2.67860    0.01740    0.01840   45.21870    0.06750   63.65460   63.65460   31.29840   34.27090   32.62930   32.62930   45.21870   37.18930   74.36270   37.18930    0.07680    2.67860    0.07680 -150.39310 -267.51310   74.36270
 10150.00000   13.83430   15.27310   10.02260   10.02260   83.39100    0.22270    2.20050    0.31110    0.29800   11.99170    0.22270   79.53270   79.53270  103.94020   93.69000   95.55400   95.55400   11.99170   11.24330   17.03920   11.24330    0.35550    2.20050    0.35550 -225.41130 -341.57360   17.03920
 10200.00000    -999.25    -999.25   13.12560   13.12560  269.12110    0.23570    2.19590    0.30420    0.30060    3.71600    0.23570   80.36940   80.36940   87.46940   84.81890   90.15140   90.15140    3.71600    3.29650    4.87300    3.29650    0.40740    2.19590    0.40740 -485.30920 -600.50900    4.87300
 10250.00000   11.75650   13.01620   10.00350   10.00350  135.69260    0.20080    2.39070    0.19330    0.18670    7.36960    0.20080   48.24860   48.24860   55.59460   56.43100   57.65990   57.65990    7.36960    6.46690    9.96990    6.46690    0.25380    2.39070    0.25380 -640.51060 -754.75750    9.96990
