~Version ---------------------------------------------------
VERS. 2.0 : CWLS log ASCII Standard -VERSION 2.0
WRAP.  NO : ONE LINE PER DEPTH STEP
~Well ------------------------------------------------------
STRT.F                           1500.0 : START DEPTH
STOP.F                          11900.0 : STOP DEPTH
STEP.F                         50.00000 : STEP LENGTH
NULL.                           -999.25 : NULL VALUE
COMP.  AMOCO CANADA PETROLEUM CO., LTD. : COMPANY
WELL. AMOCO HB FINA FIR S-I  7-26-59-20 : WELL
FLD .                                   : FIELD
LOC .                                   : LOCATION
CTRY.                            CANADA : COUNTRY
SRVC.            Schlumberger of Canada : SERVICE COMPANY
DATE.                       07-Jan-1978 : LOGDATE
PROV.                           Alberta : PROVINCE
UWI .                  100072605920W500 : UNIQUE WELL ID
SLAT.WGS84                     54.12779 : SURFACE LATITUDE
SLON.WGS84                    -116.8825 : SURFACE LONGITUDE
~Curve Information -----------------------------------------
DEPT   .F                 : 
GRS    .GAPI 60 310 01 01 : GAMMA RAY FROM SONIC LOG
CALS   .IN   60 280 50 00 : CALIPER FROM SONIC LOG
DT     .US/F 60 520 00 00 : DELTA TIME FROM SONIC LOG
GRD    .GAPI 45 310 01 01 : GAMMA RAY FROM DENSITY LOG
RHOB   .G/C3 45 350 01 00 : BULK DENSITY
CALD   .IN   45 280 60 00 : CALIPER FROM DENSITY LOG
DCOR   .G/C3 45 356 01 00 : DENSITY CORRECTION
NPHI_SS.DEC  42 890 03 00 : NEUTRON POROSITY SANDSTONE
DPHI_SS.DEC  45 890 12 00 : DENSITY POROSITY SANDSTONE
DPHI_LS.DEC  45 890 10 00 : DENSITY POROSITY
NPHI_LS.DEC  42 890 01 00 : NEUTRON POROSITY LIMESTONE
ILD    .OHMM 06 121 12 00 : INDUCTION LOG RESISTIVITY
ILM    .OHMM 07 120 44 00 : INDUCTION LOG MEDIUM RESISTIVITY
LL8    .OHMM 07 220 01 00 : DIGITAL FOCUSED LATEROLOG
SPR    .MV   07 010 01 01 : SELF POTENTIAL
~Params ----------------------------------------------------
PD  .                     GL : PERMANENT DATUM
EPD .FT              3289.04 : ELEVATION PERMANENT DATUM
LMF .                     KB : LOG MEASURED FROM
DAPD.FT                 21.2 : FEET ABOVE PERMANENT DATUM
EKB .FT              3310.24 : KELLY BUSHING
EGL .FT              3289.04 : GROUND LEVEL
DATE.               01/07/78 : RUN DATE
RUN .                      1 : RUN NUMBER
DD  .FT                11910 : DEPTH DRILLER
DL  .FT                11919 : DEPTH LOGGER
BLI .FT                11913 : BOTTOM LOG INTERVAL
TLI .FT                 1534 : TOP LOG INTERVAL
CBD .FT                 1534 : CASING BOTTOM DRILLER
CBL .FT                 1534 : CASING BOTTOM LOGGER
BS  .IN                 8.75 : BIT SIZE
BSD .FT                11910 : BIT SIZE AT DEPTH
DFT .                    GEL : DRILLING FLUID TYPE
DFD .                    9.5 : DRILLING FLUID DENSITY
DFV .                    105 : DRILLING FLUID VISCOSITY
DFPH.                    9.5 : DRILLING FLUID PH
DFL .                    9.0 : DRILLING FLUID LOSS
MSS .               FLOWLINE : MUD SAMPLE SOURCE
RMS .OHMM               1.78 : RESISTIVITY MUD SAMPLE
MST .DEGF                 85 : MUD SAMPLE TEMPERATURE
RMF .OHMM               1.74 : RESISTIVITY MUD FILTRATE SAMPLE
MFST.DEGF                 54 : MUD FILTRATE SAMPLE TEMPERATURE
TCS .HRS                   5 : TIME CIRCULATED STOPPED
LUN .                   7730 : LOGGING UNIT NUMBER
LUL .                    EDM : LOGGING UNIT LOCATION
ENGI.   ACKERMAN STEENBERGEN : RECORDING ENGINEER
CLNT.                A2DTECH : CLIENT CODE
ORIG.            2" 5" PRINT : ORIGIN OF DATA
UWI .       100072605920W500 : UNIQUE WELL ID
DICO. A2D Technologies, Inc. : DIGITIZING COMPANY
~Other -----------------------------------------------------
~ASCII -----------------------------------------------------
 1500.00000   43.60410    -999.25    -999.25   49.37030    -999.25    -999.25    -999.25    0.70130    -999.25    -999.25    -999.25    -999.25    -999.25    -999.25    -999.25
 1550.00000  102.82460   10.90560  107.06840   81.47900    2.24760   12.22720    0.19650    0.39920    0.25170    -999.25    -999.25    4.53600    4.18150    5.15310 -126.29400
 1600.00000   68.84550   10.95680   85.18210   52.64220    2.46430   10.31290    0.06550    0.29480    0.12790    -999.25    -999.25   18.89940   16.38610   13.64640 -128.45390
 1650.00000   84.39110   11.02030   89.49040   74.61560    1.94660   11.87090    0.19460    0.38960    0.44730    -999.25    -999.25    6.21410    5.98030    5.52160 -123.98400
 1700.00000  129.28580   11.38290  112.49260  100.30340    2.22460   10.47320    0.06580    0.59480    0.26300    -999.25    -999.25    3.05460    2.91210    3.18450 -122.14770
 1750.00000  117.64490   11.90190  131.29190   73.23680    2.38220   10.81840    0.08220    0.41440    0.15240    -999.25    -999.25    5.06830    4.60060    6.59860 -122.60730
 1800.00000  114.11350   11.31860   99.77830   82.12440    2.30080   10.93440    0.03230    0.41970    0.18330    -999.25    -999.25    4.84500    4.44480    5.52510 -123.37100
 1850.00000  104.56250   11.84140  119.56240   65.94570    1.97490   11.28340    0.06570    0.54870    0.34880    -999.25    -999.25    4.65290    4.11600    7.95470 -120.91830
 1900.00000   82.40440   12.31550   89.56060   58.15340    2.21010   12.00700    0.09580    0.41790    0.27050    -999.25    -999.25   11.92550   10.48370    9.85500 -125.41860
 1950.00000  107.99890   12.43320   90.79660   80.12580    2.27630   11.42040    0.15170    0.39210    0.22240    -999.25    -999.25    6.96480    6.64620    6.44320 -119.86410
 2000.00000   82.79480   13.62840   86.73710   49.82030    2.21470   12.57140    0.06530    0.41990    0.23640    -999.25    -999.25   11.85240   10.38110    9.35490 -125.66900
 2050.00000   88.03430   12.06990   83.46630   62.16660    2.27130   12.37720    0.07820    0.42250    0.22610    -999.25    -999.25    9.33240    8.12660    7.65040 -122.39810
 2100.00000   69.61680   10.92900   71.11090   53.73760    2.33840   11.25840    0.06250    0.35220    0.19670    -999.25    -999.25    9.64900    8.76790    8.13470 -121.52410
 2150.00000   71.76690   10.74910   83.18910   62.33000    2.46470    9.86380    0.02040    0.28710    0.14000    -999.25    -999.25   10.54770    9.43060    7.98910 -122.65440
 2200.00000   82.13610   11.56370   88.84160   71.97430    2.31700   12.13440    0.15380    0.34550    0.20870    -999.25    -999.25    7.70350    7.38020    7.06740 -124.24410
 2250.00000  138.30760   10.50360  114.55440   86.97330    2.21100   12.92830    0.08640    0.35450    0.27020    -999.25    -999.25    3.84200    4.04990    4.83120 -120.64870
 2300.00000  117.72440   10.60010  118.85860   80.16960    1.86900   12.70970    0.01480    0.47950    0.42590    -999.25    -999.25    3.44930    2.95140    3.82430 -120.19830
 2350.00000   66.99270    9.64130   84.31510   53.76550    2.47570   10.39110    0.04760    0.26770    0.13590    -999.25    -999.25   21.20960   20.39230   18.19190 -131.20790
 2400.00000   62.97670   10.69280  132.37500   92.36470    2.29850   12.18240    0.11740    0.48040    0.21800    -999.25    -999.25    5.12520    4.71590    6.40060 -120.72030
 2450.00000   95.32430   10.01230  106.54840   79.47270    2.29500   13.64030    0.06400    0.39290    0.21940    -999.25    -999.25    4.69590    4.24940    5.23930 -119.20690
 2500.00000   91.64510   10.99180   86.70370   68.21490    2.43350   13.19220    0.11700    0.26570    0.12900    -999.25    -999.25   10.00960    9.49500    8.62650 -119.67160
 2550.00000  111.33220   10.08980  113.69290   91.89660    2.31340   13.18120    0.07710    0.44640    0.21980    -999.25    -999.25    3.35230    3.09500    3.68400 -117.03790
 2600.00000  108.62340   10.62510  116.63420   87.30890    2.23390   14.54170    0.07260    0.36460    0.23060    -999.25    -999.25    2.78620    2.44850    3.14560 -117.81260
 2650.00000   85.06110   11.05270   86.42790   68.32810    2.43520   13.21380    0.09610    0.29620    0.14110    -999.25    -999.25    5.27580    5.03810    5.92890 -116.63830
 2700.00000   91.03530   11.14770   85.90690   60.14010    2.37680   11.62570    0.04870    0.30850    0.15080    -999.25    -999.25   11.96510   11.16630   11.13610 -118.94330
 2750.00000  118.14020   10.59580  123.21000   82.04180    2.43990   10.07310    0.05460    0.45180    0.18330    -999.25    -999.25    3.18380    3.07180    3.75720 -118.76680
 2800.00000  109.00590   10.35670   94.73240   76.47880    2.31940   10.97650    0.10910    0.38400    0.19220    -999.25    -999.25    4.81940    4.51260    4.44160 -119.18710
 2850.00000   91.85680   10.38620   87.68210   60.33500    1.79640   11.70340    0.16050    0.52440    0.42640    -999.25    -999.25    7.37390    6.40780   10.68070 -118.66920
 2900.00000  109.41960    9.97110  110.32610   82.74310    2.41050   10.40190    0.24380    0.36740    0.18030    -999.25    -999.25    4.67570    4.38640    5.07930 -118.91840
 2950.00000  117.50900   10.07770   88.57340  105.21950    2.05660   10.85220    0.18520    0.46010    0.38770    -999.25    -999.25    2.35520    2.21920    2.84440 -118.36110
 3000.00000  124.54050   10.58210   94.19960   89.04880    2.19560   10.23280    0.25170    0.41220    0.31280    -999.25    -999.25    4.51380    4.05280    4.20840 -118.23950
 3050.00000  130.92730   10.04470  105.01980   74.21260    2.36480   10.66660    0.22830    0.22990    0.12510    -999.25    -999.25    7.33630    6.84520    7.93160 -116.99200
 3100.00000   88.18120   10.36260   82.04350   60.56090    2.29060   11.12000    0.17460    0.28480    0.18650    -999.25    -999.25    9.11600    7.93770   10.18740 -113.36200
 3150.00000  124.04870    9.55420  101.91960   85.57590    1.79520   10.74280    0.14010    0.60590    0.52900    -999.25    -999.25    4.69130    4.06290    8.59600 -111.30090
 3200.00000  116.79950   10.53680   98.18440   89.16290    2.22440   11.21080    0.21840    0.33560    0.22090    -999.25    -999.25    5.63230    5.16500    4.94170 -112.64160
 3250.00000  115.96520   10.55720   83.41860   90.30990    2.12750    9.85490    0.23540    0.38580    0.31040    -999.25    -999.25    6.61190    6.36350    5.76030 -114.49910
 3300.00000  101.91960   11.03250   83.29490   64.65800    2.35250   11.20940    0.13500    0.34410    0.19040    -999.25    -999.25    7.39590    7.13350    8.10790 -114.37350
 3350.00000  106.01020   11.53130   93.43620   87.65940    2.14290   11.91530    0.08360    0.45400    0.31670    -999.25    -999.25    3.79240    3.42380    3.97980 -116.94330
 3400.00000   65.80110   11.29050   86.28050   49.39100    2.19830   10.06590    0.10380    0.41210    0.25830    -999.25    -999.25   12.43190   11.76440   10.54850 -127.18010
 3450.00000   85.10930   11.62710   81.64250   54.27960    2.21180   10.22890    0.22390    0.34640    0.25830    -999.25    -999.25   10.47940   10.02330    9.08780 -122.92960
 3500.00000  116.68310   11.20370   92.20870   81.43150    2.27240   10.88870    0.14230    0.38340    0.25190    -999.25    -999.25    4.65130    4.44060    3.80580 -115.03230
 3550.00000  108.65770    9.09410   89.22040   75.15000    2.21990    9.96160    0.19670    0.37520    0.23430    -999.25    -999.25    5.57870    6.14780    5.79480 -112.84890
 3600.00000   70.94650   11.01240   82.07670   41.97080    2.41180   10.35190    0.05200    0.31230    0.15410    -999.25    -999.25   18.91670   16.35300   17.05910 -125.31710
 3650.00000   85.24000   12.26820   78.11040   55.51870    2.28400   11.62810    0.13990    0.35530    0.23740    -999.25    -999.25    9.38560    9.97460   10.27660 -115.29390
 3700.00000   69.33100   10.17730   81.50080   46.05120    2.18860   10.62210    0.19610    0.29420    0.25680    -999.25    -999.25   16.61140   15.77480   13.88970 -123.18090
 3750.00000   86.25220   12.68150   87.32600   65.62260    2.24760   11.88870    0.21020    0.44090    0.26020    -999.25    -999.25    7.25850    7.04650    7.78890 -114.54040
