~Version ---------------------------------------------------
VERS.      2.0 : CWLS log ASCII Standard -VERSION 2.0
WRAP.       NO : One line per depth step
CREA. 08/21/13 : LAS Creation Date
~Well ------------------------------------------------------
STRT.m                      450.0 : START DEPTH
STOP.m                     3300.0 : STOP DEPTH
STEP.m                   50.00000 : STEP LENGTH
NULL.                     -999.25 : NULL VALUE
COMP.   GULF CANADA RESOURCES INC : COMPANY
WELL. GULF AEC STURLS 14-20-68-25 : WELL
FLD .                             : FIELD
LOC .                             : LOCATION
CTRY.                      CANADA : COUNTRY
SRVC.                     Unknown : SERVICE COMPANY
DATE.                 26-Sep-1985 : LOGDATE
PROV.                     Alberta : PROVINCE
UWI .            100142006825W500 : UNIQUE WELL ID
SLAT.WGS84               54.90528 : SURFACE LATITUDE
SLON.WGS84              -117.7801 : SURFACE LONGITUDE
~Curve Information -----------------------------------------
DEPT     .m      : Depth Curve
C2ED     .MM     : CALIPER 2 CNLD (ADJ TO RES.)
CALDED   .MM     : CALIPER  CNLD (ADJ TO RES.)
CALSED   .MM     : CALIPER  SONIC (ADJ TO RES.)
CALWS    .MM     : CALIPER (CALDED)
CONDWS   .MMHO   : CONDUCTIVITY (1000/DRESWS)
DCORWS   .KG/M3  : DENSITY CORRECTION (DRHOED)
DENWS    .KG/M3  : BULK DENSITY  (RHOBED)
DPHI_LSED.V/V    : DENSITY POROSITY LIMESTONE  (ADJ TO RES.)
DPHI_SSED.V/V    : DENSITY POROSITY SANDSTONE  (ADJ TO RES.)
DPOLSWS  .V/V    : DENSITY POROSITY (M=2710 F=1000 FROM DENWS)
DRESWS   .OHMM   : DEEP RESISTIVITY (ILDED)
DRHOED   .KG/M3  : DENSITY CORRECTION (ADJ TO RES.)
DTED     .US/M   : DELTA TIME  (ADJ TO RES.)
DTWS     .US/M   : DELTA TIME  (DTED)
GRDED    .GAPI   : GAMMA RAY  CNLD (ADJ TO RES.)
GRRED    .GAPI   : GAMMA RAY  DIL
GRSED    .GAPI   : GAMMA RAY  SONIC (ADJ TO RES.)
GRWS     .GAPI   : GAMMA RAY (GRRED/GRDED @ 451.5) ADJUSTED IN CASING
ILDED    .OHMM   : INDUCTION DEEP RESISTIVITY
ILMED    .OHMM   : INDUCTION MEDIUM RESISTIVITY
MRESWS   .OHMM   : MEDIUM RESISTIVITY (ILMED)
NPHI_LSED.V/V    : NEUTRON POROSITY LIMESTONE (ADJ TO RES.)
NPHI_SSED.V/V    : NEUTRON POROSITY SANDSTONE (ADJ TO RES.)
NPOLSWS  .V/V    : NEUTRON POROSITY LIMESTONE (NPHI_SSED CONVERTED TO LS/NPHI_LSED)
RHOBED   .KG/M3  : BULK DENSITY (ADJ TO RES.)
SFLUED   .OHMM   : SHALLOW FOCUSED RESISTIVITY (UNAVERAGED)
SPRED    .MV     : SPONTANEOUS POTENTIAL DIL
SPWS     .MV     : SPONTANEOUS POTENTIAL (SPRED) BASELINE 0 MV (PARTIALLY REVERSED)
SRESWS   .OHMM   : SHALLOW RESISTIVITY (SFLUED)
TENDED   .N      : TENSION  CNLD (ADJ TO RES.)
TENRED   .N      : TENSION  DIL
TENSED   .N      : TENSION  SONIC (ADJ TO RES.)
~Params ----------------------------------------------------
PD  .                         GL : PERMANENT DATUM
EPD .M                     681.5 : ELEVATION PERMANENT DATUM
LMF .                         KB : LOG MEASURED FROM
DAPD.M                       6.8 : FEET ABOVE PERMANENT DATUM
DMF .                         KB : DRILLING MEASURED FROM
EKB .M                     688.3 : KELLY BUSHING
EDF .M                     687.9 : DRILLING FLOOR
EGL .M                     681.5 : GROUND LEVEL
DATE.                   09/26/85 : RUN DATE
RUN .                          1 : RUN NUMBER
DD  .M                      3321 : DEPTH DRILLER
DL  .M                      3322 : DEPTH LOGGER
BLI .M                      3320 : BOTTOM LOG INTERVAL
TLI .M                       454 : TOP LOG INTERVAL
CS  .MM                    244.5 : CASING SIZE
CBD .M                       455 : CASING BOTTOM DRILLER
CBL .M                       454 : CASING BOTTOM LOGGER
BS  .MM                      222 : BIT SIZE
BSD .M                      3321 : BIT SIZE AT DEPTH
DFT .                   GEL CHEM : DRILLING FLUID TYPE
DFV .                         66 : DRILLING FLUID VISCOSITY
DFPH.                       10.5 : DRILLING FLUID PH
DFL .                         10 : DRILLING FLUID LOSS
MSS .                   FLOWLINE : MUD SAMPLE SOURCE
RMS .OHMM                   1.35 : RESISTIVITY MUD SAMPLE
MST .DEGC                     21 : MUD SAMPLE TEMPERATURE
RMF .OHMM                   1.01 : RESISTIVITY MUD FILTRATE SAMPLE
MFST.DEGC                     23 : MUD FILTRATE SAMPLE TEMPERATURE
RMC .OHMM                  0.376 : RESISTIVITY MUD CAKE
MCST.DEGC                     98 : MUD CAKE SAMPLE TEMPERATURE
MFSS.                       MEAS : MUD FILTRATE SAMPLE SOURCE
RMB .OHMM                  0.481 : RESISTIVITY MUD AT BHT
TCS .HRS                     100 : TIME CIRCULATED STOPPED
TLAB.HRS                     730 : TIME LOGGER AT BOTTOM
LUN .                       8204 : LOGGING UNIT NUMBER
LUL .                         GP : LOGGING UNIT LOCATION
ENGI.                       BELL : RECORDING ENGINEER
WITN.                     WAGNER : WITNESSED BY
CLNT.                    A2DTECH : CLIENT CODE
ORIG. 6.5"/100M 16.5"/100M PRINT : ORIGIN OF DATA
UWI .           100142006825W500 : UNIQUE WELL ID
DICO.     A2D Technologies, Inc. : DIGITIZING COMPANY
~Other -----------------------------------------------------
~ASCII -----------------------------------------------------
  450.00000    -999.25    -999.25    -999.25    -999.25    -999.25    -999.25    -999.25    -999.25    -999.25    -999.25    -999.25    -999.25    -999.25    -999.25    -999.25   36.87480   36.87310   51.87480    -999.25    -999.25    -999.25    -999.25    -999.25    -999.25    -999.25    -999.25    -999.25    -999.25    -999.25    -999.25    -999.25    -999.25
  500.00000  245.51310  265.22310  247.67880  265.22310  210.76150  167.29140 2129.75050    -999.25    0.31260    0.33930    4.74470  167.29140  364.28740  364.28740   55.76190   59.79710   58.38680   55.76190    4.74470    4.21470    4.21470    -999.25    0.45490    0.47890 2129.75050    3.90480  -92.00420   -3.16920    3.90480 7002.67480 5618.79960 5567.52650
  550.00000  246.28110  245.06760  225.82660  245.06760  131.86000   20.80750 2359.30150    -999.25    0.17490    0.20510    7.58380   20.80750  314.13750  314.13750   50.21410   46.66530   46.47010   50.21410    7.58380    6.92910    6.92910    -999.25    0.32710    0.37600 2359.30150    6.74880  -90.67580   -2.59990    6.74880 7613.42510 6168.30830 6066.39860
  600.00000  243.25520  294.88490  246.08450  294.88490  159.69340  235.05820 2124.28220    -999.25    0.30450    0.34250    6.26200  235.05820  329.50570  329.50570   68.41310   64.11360   63.17020   68.41310    6.26200    5.60320    5.60320    -999.25    0.39340    0.42710 2124.28220    5.15000  -93.31540   -3.41940    5.15000 7668.11190 6403.10400 6389.57480
  650.00000  329.54750  245.35160  243.89490  245.35160  104.15470   92.17660 2251.02830    -999.25    0.23970    0.26840    9.60110   92.17660  344.48900  344.48900   98.27770   97.76660   96.80520   98.27770    9.60110    8.20260    8.20260    -999.25    0.46290    0.48590 2251.02830    8.82590  -99.56370   -3.93170    8.82590 8031.65710 6737.79720 6757.29770
  700.00000  393.78170  266.57890  332.89730  266.57890  134.54240    7.47010 1989.52090    -999.25    0.44730    0.42130    7.43260    7.47010  342.56040  342.56040   75.77700   77.41440   77.40930   75.77700    7.43260    5.50080    5.50080    -999.25    0.55950    0.57280 1989.52090    6.22050 -104.92300   -5.50540    6.22050 8242.43440 7075.56470 7081.04560
  750.00000  195.62660  200.93980  182.68030  200.93980  138.98540   19.72610 2119.25420    -999.25    0.33220    0.34550    7.19500   19.72610  330.72610  330.72610  101.29150   93.78050   93.69290  101.29150    7.19500    5.82080    5.82080    -999.25    0.50430    0.52260 2119.25420    6.48080 -102.61790   -5.29570    6.48080 8826.34590 7253.32590 7348.09830
  800.00000  226.89170  250.36160  225.61250  250.36160   75.78460   84.47750 2287.77050    -999.25    0.21620    0.24690   13.19530   84.47750  290.84630  290.84630   95.56980   87.61600   87.23520   95.56980   13.19530   11.31230   11.31230    -999.25    0.34570    0.39010 2287.77050   11.88320 -103.26260   -6.35010   11.88320 9116.12750 7491.28130 7632.21460
  850.00000  184.07250  311.73570  234.45360  311.73570  102.95690   49.27470 2450.54960    -999.25    0.11840    0.15170    9.71280   49.27470  306.88830  306.88830   99.30610   99.05370   97.98140   99.30610    9.71280    8.59060    8.59060    -999.25    0.35970    0.40060 2450.54960    8.83110 -101.43020   -6.34300    8.83110 8970.05940 7920.77240 7854.41860
  900.00000  249.75990  301.90110  256.50020  301.90110  122.25390   31.41070 2464.26540    -999.25    0.11260    0.14370    8.17970   31.41070  331.02040  331.02040   99.50340  100.75940  101.11130   99.50340    8.17970    7.69810    7.69810    -999.25    0.42280    0.45140 2464.26540    8.40990 -100.28760   -6.63150    8.40990 9121.95850 7951.39760 7835.10250
  950.00000  239.98630  237.96120  248.78700  237.96120  102.40240   17.88900 2505.48340    -999.25    0.08720    0.11960    9.76540   17.88900  317.38850  317.38850   94.79110   94.37880   94.52070   94.79110    9.76540    9.09480    9.09480    -999.25    0.37630    0.41340 2505.48340   10.30000 -100.22000   -7.38070   10.30000 9982.49600 8066.55700 7954.20030
 1000.00000  245.72960  242.89740  227.51650  242.89740   94.61010  153.13760 2300.10770    -999.25    0.20670    0.23970   10.56970  153.13760  298.13400  298.13400  106.74340  107.52400  106.97260  106.74340   10.56970   10.11800   10.11800    -999.25    0.41130    0.44180 2300.10770   10.76570  -95.40710   -6.05660   10.76570 9974.36430 8460.56570 8411.42360
 1050.00000  244.19430  226.71150  228.68530  226.71150  118.77900  125.18060 2366.32400    -999.25    0.16560    0.20100    8.41900  125.18060  283.29310  283.29310   90.28220   92.70100   92.27830   90.28220    8.41900    8.24930    8.24930    -999.25    0.32320    0.37290 2366.32400    7.68720  -97.35710   -6.81060    7.68720 10229.52840 8812.34490 8659.11410
 1100.00000  240.83390  227.94620  228.22780  227.94620  120.36740  138.08940 2440.51440    -999.25    0.12130    0.15760    8.30790  138.08940  277.73170  277.73170   84.64830   79.95940   80.27610   84.64830    8.30790    7.98490    7.98490    -999.25    0.33210    0.37980 2440.51440    8.86680  -93.92360   -5.25740    8.86680 10996.92230 9234.53490 9040.33680
 1150.00000  262.94120  222.72240  237.85260  222.72240  126.17980  118.51810 2469.30540    -999.25    0.10340    0.14080    7.92520  118.51810  285.03060  285.03060   95.85190   90.81930   90.68210   95.85190    7.92520    7.80550    7.80550    -999.25    0.36610    0.40550 2469.30540    8.31660  -93.01770   -4.78750    8.31660 11228.46910 9545.97260 9266.35460
 1200.00000  286.27520  218.84560  240.47840  218.84560  222.34080  123.38300 2348.28150    -999.25    0.18130    0.21150    4.49760  123.38300  351.36650  351.36650   88.41080   85.50920   85.49630   88.41080    4.49760    4.15030    4.15030    -999.25    0.44960    0.47430 2348.28150    4.21190  -90.48260   -3.61930    4.21190 11226.30380 9399.13960 9547.58870
 1250.00000  289.86420  225.59800  238.58120  225.59800  176.34510   72.40990 2485.75610    -999.25    0.09790    0.13110    5.67070   72.40990  299.46180  299.46180  104.40480  105.85060  104.84840  104.40480    5.67070    5.47270    5.47270    -999.25    0.36080    0.40150 2485.75610    5.94330  -90.33450   -3.47410    5.94330 11542.74580 10048.91640 9924.88880
 1300.00000  255.43850  242.53670  241.96970  242.53670  242.98380  117.76970 2281.33370    -999.25    0.22650    0.25070    4.11550  117.76970  314.29430  314.29430   84.63120   78.13950   79.04510   84.63120    4.11550    3.86850    3.86850    -999.25    0.42610    0.45420 2281.33370    4.24210  -91.03200   -3.69130    4.24210 11999.34140 10150.82320 10399.61500
 1350.00000  251.34540  228.12690  231.69680  228.12690  116.26560   29.56020 2351.74020    -999.25    0.17640    0.20950    8.60100   29.56020  261.70880  261.70880   70.95850   69.56350   69.76930   70.95850    8.60100    9.35690    9.35690    -999.25    0.30860    0.36160 2351.74020    8.25260  -96.22330   -5.83450    8.25260 12108.53950 10568.20700 10224.81050
 1400.00000  259.08540  280.93110  267.42270  280.93110   86.16010   28.24220 1650.09280    -999.25    0.58670    0.61980   11.60630   28.24220  388.70140  388.70140   56.93310   53.71640   53.84410   56.93310   11.60630   15.63590   15.63590    -999.25    0.60480    0.61490 1650.09280   29.19430  -94.40330   -4.97280   29.19430 12628.05460 10810.53710 10818.11180
 1450.00000  260.87920  227.82120  244.14690  227.82120   79.63940   52.02790 2230.12920    -999.25    0.35050    0.28060   12.55660   52.02790  345.81520  345.81520   40.44400   47.28810   46.71320   40.44400   12.55660   14.11190   14.11190    -999.25    0.31740    0.36850 2230.12920   16.45030 -122.57980  -17.10810   16.45030 12667.25960 10967.51910 10935.36010
 1500.00000  271.25070  246.61020  248.60640  246.61020   91.00260    7.32400 2575.67600    -999.25    0.04420    0.07860   10.98870    7.32400  253.19640  253.19640   72.88920   80.73290   81.06330   72.88920   10.98870   11.37340   11.37340    -999.25    0.29480    0.35070 2575.67600   12.12980  -89.80820   -3.49000   12.12980 13242.83250 11004.89320 11112.73200
