~Version ---------------------------------------------------
VERS.      2.0 : CWLS log ASCII Standard -VERSION 2.0
WRAP.       NO : One line per depth step
CREA. 11/21/17 : LAS Creation Date
~Well ------------------------------------------------------
STRT.FT                       1200.0 : START DEPTH
STOP.FT                      11400.0 : STOP DEPTH
STEP.FT                     50.00000 : STEP LENGTH
NULL.                        -999.25 : NULL VALUE
COMP.  THE ATLANTIC REFINING COMPANY : COMPANY
WELL. ATLANTIC ANTE CREEK 4-18-65-23 : WELL
FLD .                                : FIELD
LOC .                                : LOCATION
CTRY.                         CANADA : COUNTRY
SRVC.                   Schlumberger : SERVICE COMPANY
DATE.                    22-Mar-1963 : LOGDATE
PROV.                        Alberta : PROVINCE
UWI .               100041806523W500 : UNIQUE WELL ID
SLAT.WGS84                  54.61968 : SURFACE LATITUDE
SLON.WGS84                 -117.4756 : SURFACE LONGITUDE
~Curve Information -----------------------------------------
DEPT  .FT    : Depth Curve
CALMED.IN    : CALIPER FROM MICROLOG
CALWS .IN    : CALIPER [CALMED]
CILDED.MMHO  : CONDUCTIVITY FROM RESISTIVITY LOG
CONDWS.MMHO  : CONDUCTIVITY [1000/DRESWS]
DRESWS.OHMM  : DEEP RESISTIVITY [ILDED]
DTED  .US/F  : DELTA-T FROM SONIC LOG
DTWS  .US/F  : COMPRESSIONAL SONIC [DTED]
GRSED .GAPI  : GAMMA RAY FROM SONIC LOG
GRWS  .GAPI  : GAMMA RAY [GRSED]
ILDED .OHMM  : DEEP INDUCTION RESISTIVITY FROM RESISTIVITY LOG
NEUTED.NAPI  : NEUTRON FROM NEUTRON LOG
NEUTWS.NAPI  : NEUTRON [NEUTED]
SIGMED.CU    : NEUTRON CAPTURE CROSS SECTION FROM TDT LOG
SNED  .OHMM  : 16 INCH SHORT NORMAL RESISTIVITY FROM RESISTIVITY LOG
SPRED .MV    : SPONTANEOUS POTENTIAL FROM RESISTIVITY LOG
SPWS  .MV    : SPONTANEOUS POTENTIAL [BASELINE 0 MV,SPRED]
SRESWS.OHMM  : SHALLOW RESISTIVITY [SNED]
~Params ----------------------------------------------------
PD  .                     GL : PERMANENT DATUM
EPD .FT                 2813 : ELEVATION PERMANENT DATUM
LMF .                     KB : LOG MEASURED FROM
DAPD.FT                   14 : FEET ABOVE PERMANENT DATUM
EKB .FT                 2827 : KELLY BUSHING
EGL .FT                 2813 : GROUND LEVEL
DATE.               03/22/63 : RUN DATE
RUN .                      1 : RUN NUMBER
DD  .FT                11400 : DEPTH DRILLER
DL  .FT                11412 : DEPTH LOGGER
BLI .FT                11411 : BOTTOM LOG INTERVAL
TLI .FT                 1185 : TOP LOG INTERVAL
CBD .FT                 1185 : CASING BOTTOM DRILLER
CBL .FT                 1185 : CASING BOTTOM LOGGER
BS  .IN                8.625 : BIT SIZE
BSD .FT                11400 : BIT SIZE AT DEPTH
DFT .               GEL CHEM : DRILLING FLUID TYPE
DFD .                    9.9 : DRILLING FLUID DENSITY
DFV .                     90 : DRILLING FLUID VISCOSITY
DFPH.                      9 : DRILLING FLUID PH
DFL .                    7.4 : DRILLING FLUID LOSS
RMF .OHMM               2.02 : RESISTIVITY MUD FILTRATE SAMPLE
MFST.DEGF                 78 : MUD FILTRATE SAMPLE TEMPERATURE
RMC .OHMM               2.45 : RESISTIVITY MUD CAKE
MCST.DEGF                 78 : MUD CAKE SAMPLE TEMPERATURE
TCS .HRS                   4 : TIME CIRCULATED STOPPED
LUN .                   1534 : LOGGING UNIT NUMBER
LUL .                     VV : LOGGING UNIT LOCATION
ENGI.                  MILLS : RECORDING ENGINEER
WITN.            SCOTT COWRN : WITNESSED BY
CLNT.                A2DTECH : CLIENT CODE
ORIG.            2" 5" PRINT : ORIGIN OF DATA
UWI .       100041806523W500 : UNIQUE WELL ID
DICO. A2D Technologies, Inc. : DIGITIZING COMPANY
~Other -----------------------------------------------------
IEL-BHC-NEUTRON-TDT-MICRO LOG RUN.
IEL: ALL DATA VERYFIED FROM SMALL SCALE @ TOP TO 3418'
BHC-MICROLOG: ALL DATA VERYFIED FROM SMALL SCALE @ TOP TO 3829'
~ASCII -----------------------------------------------------
 1200.00000   12.70580   12.70580  248.83670  248.92340    4.01730  141.03750  141.03750   86.03870   86.03870    4.01730    -999.25    -999.25    -999.25    5.67590  -58.75090   -5.20580    5.67590
 1250.00000   16.28330   16.28330  204.40590  208.46800    4.79690  113.88160  113.88160   92.06560   92.06560    4.79690    -999.25    -999.25    -999.25    5.90790  -58.14020   -4.59510    5.90790
 1300.00000   16.59120   16.59120  207.02950  223.04840    4.48620  112.66120  112.66120   95.35370   95.35370    4.48620    -999.25    -999.25    -999.25    6.19720  -59.18210   -5.63700    6.19720
 1350.00000   10.44560   10.44560   56.24500   68.48140   14.60250  113.19710  113.19710   73.39130   73.39130   14.60250    -999.25    -999.25    -999.25   12.72450  -74.63180  -22.50650   12.72450
 1400.00000   12.22320   12.22320  263.53040  266.94430    3.74610  144.07330  144.07330   77.37200   77.37200    3.74610    -999.25    -999.25    -999.25    5.62020  -55.45970   -5.63280    5.62020
 1450.00000   14.31720   14.31720  258.14840  260.05770    3.84530  129.29970  129.29970   82.97180   82.97180    3.84530    -999.25    -999.25    -999.25    5.47080  -54.82210   -7.12980    5.47080
 1500.00000   13.56060   13.56060  111.28840  114.99800    8.69580  101.15980  101.15980   82.31970   82.31970    8.69580    -999.25    -999.25    -999.25    8.20260  -53.58740   -5.89510    8.20260
 1550.00000   13.60230   13.60230  141.85680  153.60990    6.51480  101.24280  101.24280   77.59430   77.59430    6.51480    -999.25    -999.25    -999.25    6.86020  -53.27900   -5.58670    6.86020
 1600.00000   11.14270   11.14270  127.51070  131.71760    7.59200   99.28560   99.28560   97.42820   97.42820    7.59200    -999.25    -999.25    -999.25    9.31300  -55.53710   -7.84480    9.31300
 1650.00000   10.12420   10.12420   86.99230   99.94300   10.00570  100.26110  100.26110   78.81060   78.81060   10.00570    -999.25    -999.25    -999.25   11.78500  -63.55690  -15.72150   11.78500
 1700.00000   11.91390   11.91390  263.36030  269.57810    3.70950  114.74000  114.74000   99.47270   99.47270    3.70950    -999.25    -999.25    -999.25    4.96370  -52.81500   -4.56650    4.96370
 1750.00000   10.42170   10.42170  117.61910  135.55830    7.37690   83.77430   83.77430   85.74440   85.74440    7.37690    -999.25    -999.25    -999.25    8.96220  -55.56030   -6.90140    8.96220
 1800.00000   13.58670   13.58670  230.86730  233.18800    4.28890   99.81290   99.81290  103.56070  103.56070    4.28890    -999.25    -999.25    -999.25    5.21200  -53.82860   -4.75920    5.21200
 1850.00000   13.13550   13.13550  261.57380  288.21770    3.46960  105.78300  105.78300   93.43810   93.43810    3.46960    -999.25    -999.25    -999.25    4.92340  -53.48260   -4.00010    4.92340
 1900.00000   16.26810   16.26810  469.56300  405.86060    2.46390  111.92020  111.92020  116.89900  116.89900    2.46390    -999.25    -999.25    -999.25    4.02870  -55.77080   -5.87790    4.02870
 1950.00000    9.96750    9.96750  122.70700  132.31360    7.55780  121.14200  121.14200  117.64670  117.64670    7.55780    -999.25    -999.25    -999.25    7.89040  -61.14500  -11.25490    7.89040
 2000.00000   14.17970   14.17970  267.95000  273.56790    3.65540  126.36340  126.36340   79.24820   79.24820    3.65540    -999.25    -999.25    -999.25    5.22520  -53.06500   -4.15660    5.22520
 2050.00000   10.19110   10.19110  170.17090  172.83630    5.79180  102.78640  102.78640   96.03510   96.03510    5.79180    -999.25    -999.25    -999.25    6.69040  -55.84980  -11.34830    6.69040
 2100.00000    8.82820    8.82820  120.95840  132.57500    7.54290  105.44900  105.44900   93.61190   93.61190    7.54290    -999.25    -999.25    -999.25    8.61800  -62.38820  -13.63570    8.61800
 2150.00000   16.05440   16.05440  420.30280  388.13850    2.57640  113.99610  113.99610  122.61610  122.61610    2.57640    -999.25    -999.25    -999.25    3.86240  -53.62350   -2.76790    3.86240
 2200.00000    8.31070    8.31070  111.76510  118.52130    8.43730  109.92670  109.92670   87.84520   87.84520    8.43730    -999.25    -999.25    -999.25    8.27000  -71.12730  -20.02540    8.27000
 2250.00000   14.14580   14.14580  234.70600  230.04900    4.34690  114.61050  114.61050   88.63750   88.63750    4.34690    -999.25    -999.25    -999.25    5.91970  -55.59870   -4.25210    5.91970
 2300.00000    8.53300    8.53300  123.06530  126.86920    7.88220   98.36230   98.36230   85.17700   85.17700    7.88220    -999.25    -999.25    -999.25    7.61580  -59.49510   -7.90380    7.61580
 2350.00000    8.34620    8.34620   52.82180   65.35990   15.29990  101.99470  101.99470   66.14800   66.14800   15.29990    -999.25    -999.25    -999.25   12.12350  -71.38400  -19.59220   12.12350
 2400.00000   15.88410   15.88410  324.93410  291.95380    3.42520  128.69170  128.69170   87.35070   87.35070    3.42520    -999.25    -999.25    -999.25    5.41060  -56.56560   -4.80890    5.41060
 2450.00000   12.96260   12.96260  217.35750  222.05440    4.50340  111.70660  111.70660   92.91490   92.91490    4.50340    -999.25    -999.25    -999.25    6.21050  -56.60030   -4.87900    6.21050
 2500.00000   10.57940   10.57940  128.88910  121.31950    8.24270   95.96810   95.96810   88.65360   88.65360    8.24270    -999.25    -999.25    -999.25    7.95710  -55.10120   -3.41500    7.95710
 2550.00000   15.76810   15.76810  287.53530  272.38340    3.67140  137.01190  137.01190   85.93350   85.93350    3.67140    -999.25    -999.25    -999.25    5.07770  -55.77170   -4.12060    5.07770
 2600.00000   10.02290   10.02290  158.23940  165.66170    6.03640  105.72330  105.72330   80.67810   80.67810    6.03640    -999.25    -999.25    -999.25    7.07490  -55.49290   -3.87720    7.07490
 2650.00000   11.18760   11.18760  261.72850  261.46530    3.82460  105.02600  105.02600   88.17910   88.17910    3.82460    -999.25    -999.25    -999.25    5.21250  -54.52620   -2.94560    5.21250
 2700.00000   13.41780   13.41780  228.97450  228.01380    4.38570  121.76340  121.76340   80.08030   80.08030    4.38570    -999.25    -999.25    -999.25    5.69550  -53.96280   -2.41750    5.69550
 2750.00000   17.99810   17.99810  246.28360  248.95440    4.01680  150.54420  150.54420   68.14780   68.14780    4.01680    -999.25    -999.25    -999.25    5.77160  -56.26640   -4.75630    5.77160
 2800.00000   13.48680   13.48680  235.49550  229.35550    4.36060   90.94890   90.94890   89.50840   89.50840    4.36060    -999.25    -999.25    -999.25    5.10080  -55.34680   -3.87180    5.10080
 2850.00000   12.45600   12.45600  138.51990  147.01340    6.80210   99.20170   99.20170   74.76170   74.76170    6.80210    -999.25    -999.25    -999.25    7.22470  -55.94950   -4.50980    7.22470
 2900.00000   12.45710   12.45710  235.72530  226.79340    4.40930   86.70600   86.70600   83.84630   83.84630    4.40930    -999.25    -999.25    -999.25    5.55670  -55.59530   -4.19080    5.55670
 2950.00000   12.91240   12.91240  236.14010  225.54530    4.43370  107.71890  107.71890   80.07550   80.07550    4.43370    -999.25    -999.25    -999.25    6.00070  -57.02150   -5.08940    6.00070
 3000.00000   14.99620   14.99620  213.71070  213.62500    4.68110  110.62320  110.62320   77.66390   77.66390    4.68110    -999.25    -999.25    -999.25    5.47710  -56.54810   -3.91340    5.47710
 3050.00000   10.58740   10.58740  116.37140  132.92670    7.53680  115.27980  115.27980   77.78520   77.78520    7.53680    -999.25    -999.25    -999.25    8.95030  -58.92970   -5.29220    8.95030
 3100.00000    9.96210    9.96210  182.04840  174.82210    5.72010   90.71570   90.71570   79.68390   79.68390    5.72010    -999.25    -999.25    -999.25    7.17750  -59.65610   -4.92210    7.17750
 3150.00000   10.68690   10.68690   92.43390  104.31660    9.58620   86.24340   86.24340   86.35530   86.35530    9.58620    -999.25    -999.25    -999.25   10.05040  -62.84410   -7.02080   10.05040
 3200.00000   12.15550   12.15550  123.84240  131.18020    7.62310   90.20600   90.20600   80.90480   80.90480    7.62310    -999.25    -999.25    -999.25    8.37740  -61.00950   -4.08970    8.37740
