~Version ---------------------------------------------------
VERS.      2.0 : CWLS log ASCII Standard -VERSION 2.0
WRAP.       NO : One line per depth step
CREA. 12/13/17 : LAS Creation Date
~Well ------------------------------------------------------
STRT.FT                        950.0 : START DEPTH
STOP.FT                      10700.0 : STOP DEPTH
STEP.FT                     50.00000 : STEP LENGTH
NULL.                        -999.25 : NULL VALUE
COMP.         CALIFORNIA STANDARD CO : COMPANY
WELL. CALSTAN B.A. KAYBOB 4-16-62-19 : WELL
FLD .                                : FIELD
LOC .                                : LOCATION
CTRY.                         CANADA : COUNTRY
SRVC.         Schlumberger of Canada : SERVICE COMPANY
DATE.                    22-Apr-1959 : LOGDATE
PROV.                        Alberta : PROVINCE
UWI .               100041606219W500 : UNIQUE WELL ID
SLAT.WGS84                  54.35778 : SURFACE LATITUDE
SLON.WGS84                  -116.797 : SURFACE LONGITUDE
~Curve Information -----------------------------------------
DEPT  .FT         : Depth Curve
CALWS .IN         : CALIPER [CALSED]
CILDED.MMHO       : CONDUCTIVITY FROM RESISTIVITY LOG
CONDWS.MMHO       : CONDUCTIVITY [1000/DRESWS]
DRESWS.OHMM       : DEEP RESISTIVITY [1000/CILDED IF ILDED <1.5,ILDED]
DTED  .US/F       : DELTA-T FROM SONIC LOG [ADJ. TO RESISTIVITY LOG]
DTWS  .US/F       : COMPRESSIONAL SONIC [DTED]
GRSED .UgRa-Eq/T  : GAMMA RAY FROM SONIC LOG [ADJ. TO RESISTIVITY LOG]
GRWS  .GAPI       : GAMMA RAY [GRSED*16.5]
ILDED .OHMM       : DEEP INDUCTION FROM RESISTIVITY LOG
MCALED.IN         : MLT CALIPER FROM ML LOG
SNED  .OHMM       : SHORT NORMAL FROM RESISTIVITY LOG
SPRED .MV         : SPONTANEOUS POTENTIAL FROM RESISTIVITY LOG
SPWS  .MV         : SPONTANEOUS POTENTIAL [BASELINE 0 MV, SPRED]
SRESWS.OHMM       : SHALLOW RESISTIVITY [SNED]
~Params ----------------------------------------------------
LMF .                     KB : LOG MEASURED FROM
DMF .                     KB : DRILLING MEASURED FROM
EKB .FT               2867.8 : KELLY BUSHING
DATE.               04/22/59 : RUN DATE
RUN .                      2 : RUN NUMBER
DD  .FT                10705 : DEPTH DRILLER
DL  .FT                10705 : DEPTH LOGGER
BLI .FT                10700 : BOTTOM LOG INTERVAL
TLI .FT                 7054 : TOP LOG INTERVAL
BS  .IN                    9 : BIT SIZE
BSD .FT                10705 : BIT SIZE AT DEPTH
DFT .               OIL EMUL : DRILLING FLUID TYPE
DFD .                   10.1 : DRILLING FLUID DENSITY
DFV .                    130 : DRILLING FLUID VISCOSITY
DFPH.                      9 : DRILLING FLUID PH
DFL .                    5.2 : DRILLING FLUID LOSS
RMS .OHMM                3.2 : RESISTIVITY MUD SAMPLE
MST .DEGF                 57 : MUD SAMPLE TEMPERATURE
RMF .OHMM               1.75 : RESISTIVITY MUD FILTRATE SAMPLE
MFST.DEGF                 79 : MUD FILTRATE SAMPLE TEMPERATURE
RMC .OHMM                2.9 : RESISTIVITY MUD CAKE
MCST.DEGF                 79 : MUD CAKE SAMPLE TEMPERATURE
RMB .OHMM                0.8 : RESISTIVITY MUD AT BHT
TCS .HRS                   3 : TIME CIRCULATED STOPPED
LUN .                   1573 : LOGGING UNIT NUMBER
LUL .                     WC : LOGGING UNIT LOCATION
ENGI.               SHERRIFF : RECORDING ENGINEER
WITN.                RITCHIE : WITNESSED BY
CLNT.                A2DTECH : CLIENT CODE
ORIG.            2" 5" PRINT : ORIGIN OF DATA
UWI .       100041606219W500 : UNIQUE WELL ID
DICO. A2D Technologies, Inc. : DIGITIZING COMPANY
~Other -----------------------------------------------------
IEL-BHC LOG RUN
ALL DATA VERIFY FROM IEL LOG FROM TOP - 4100' FROM 2" SCALE & ALL DATA VERIFY FROM BHC LOG FROM TOP - 4048' FROM 2" SCALE
~ASCII -----------------------------------------------------
# ...
 8300.00000   10.21140   13.27890    7.29300  137.18860   54.32030   54.32030    1.24010   20.46080  137.18860   10.21140  117.47270 -144.65640 -125.00340  117.47270
 8350.00000   11.24600   11.70930    7.93930  125.95560   52.86300   52.86300    1.21300   20.01450  125.95560   11.24600  100.42430 -147.97290 -128.43560  100.42430
 8400.00000   12.47970   10.28300    6.82450  146.53060   52.27270   52.27270    1.13960   18.80340  146.53060   12.47970  126.61630 -151.12020 -131.69790  126.61630
 8450.00000   10.52240   12.01820    6.83270  146.35450   51.58800   51.58800    0.90260   14.89290  146.35450   10.52240  103.11350 -166.76830 -147.46110  103.11350
 8500.00000   10.81720   12.06860    9.00690  111.02570   52.60540   52.60540    1.17380   19.36770  111.02570   10.81720   90.16350 -176.22570 -157.03350   90.16350
 8550.00000   11.39860   12.07770    7.32060  136.90460   53.03140   53.03140    1.57870   26.04860  136.90460   11.39860  130.05410 -174.74460 -155.66690  130.05410
 8600.00000   11.75820   12.65650    8.66380  115.42240   51.51600   51.51600    1.51210   24.94960  115.42240   11.75820  108.50330 -175.82010 -156.85800  108.50330
 8650.00000   11.54190   11.66190    4.90020  204.07380   54.32000   54.32000    1.35190   22.30640  204.07380   11.54190  106.91130 -171.35310 -152.50610  106.91130
 8700.00000   10.66130   13.11830   10.52460   95.01570   53.02000   53.02000    1.51920   25.06680   95.01570   10.66130   74.70380 -179.93230 -161.20030   74.70380
 8750.00000   10.35710   22.31330   18.67310   53.55300   52.17370   52.17370    1.31490   21.69590   53.55300   10.35710   53.05790 -176.01220 -157.39530   53.05790
 8800.00000    9.13980   18.84310   13.37950   74.83890   51.66030   51.66030    1.11050   18.32240   74.83890    9.13980   83.09610 -175.03600 -156.53360   83.09610
 8850.00000    8.98780  106.86510  117.51430    8.50960   53.51030   53.51030    1.28870   21.26350    8.50960    8.98780   30.38430 -165.75210 -147.36530   30.38430
 8900.00000    8.88910   19.91110   16.05300   62.29360   54.03730   54.03730    1.98010   32.67170   62.29360    8.88910   88.98630 -188.13530 -169.86350   88.98630
 8950.00000   10.13780   15.55150   11.06270   90.39370   55.47360   55.47360    1.53960   25.40340   90.39370   10.13780   90.09590 -177.90320 -159.74650   90.09590
 9000.00000   10.59290   19.76850   14.26490   70.10220   54.11050   54.11050    1.84260   30.40370   70.10220   10.59290   64.17710 -134.92000 -116.87830   64.17710
 9050.00000    9.25580   11.65550    6.32510  158.13260   54.75650   54.75650    2.20600   36.39900  158.13260    9.25580  119.82960  -94.08140  -76.15410  119.82960
 9100.00000    9.02540   13.84440   10.78790   92.69620   54.45030   54.45030    2.32830   38.41700   92.69620    9.02540   97.99320 -103.46230  -85.65070   97.99320
 9150.00000    8.94930   11.16340    7.76640  128.76020   53.51880   53.51880    1.92490   31.76090  128.76020    8.94930  136.26190 -112.76990  -95.07340  136.26190
 9200.00000    8.95740   11.11750    7.38990  135.31900   54.01070   54.01070    2.09330   34.53950  135.31900    8.95740  106.49540 -107.03800  -89.45650  106.49540
 9250.00000    8.96430   24.20860   22.43700   44.56930   57.05540   57.05540    2.61160   43.09140   44.56930    8.96430   49.06860  -82.53680  -65.07040   49.06860
 9300.00000    8.95160   44.77890   43.07240   23.22000   60.68630   60.68630    3.42810   56.56360   23.22000    8.95160   32.41690  -76.27730  -58.92530   32.41690
 9350.00000    8.96240   55.50630   54.73510   18.26980   61.11500   61.11500    3.37050   55.61320   18.26980    8.96240   25.91160  -84.17410  -66.93780   25.91160
 9400.00000    8.96840   57.91370   57.78610   17.30520   63.25630   63.25630    3.41680   56.37720   17.30520    8.96840   24.38710  -79.66210  -62.54080   24.38710
 9450.00000    9.00000   51.11860   52.68840   18.97950   59.54750   59.54750    3.01990   49.82840   18.97950    9.00000   27.81630  -82.32360  -65.31740   27.81630
 9500.00000    9.26910   60.25410   59.88130   16.69970   63.46580   63.46580    3.57110   58.92400   16.69970    9.26910   23.61440  -82.76150  -65.87030   23.61440
 9550.00000    9.35140   20.41690   16.04520   62.32600   73.44160   73.44160    5.08060   83.83030   62.32600    9.35140   59.46010 -100.54560  -83.76890   59.46010
 9600.00000    9.68580  137.48190  153.29900    6.52320   73.19590   73.19590    4.25560   70.21740    6.52320    9.68580   10.17910  -83.89220  -67.23110   10.17910
 9650.00000   12.34050  220.01190  239.01720    4.18380   78.29010   78.29010    5.42900   89.57850    4.18380   12.34050    6.37290  -84.06140  -67.51540    6.37290
 9700.00000   11.85570  239.82890  260.07800    3.84500   82.49080   82.49080    6.05440   99.89760    3.84500   11.85570    5.82270  -77.57850  -61.14750    5.82270
 9750.00000    9.23250   97.01900  104.53030    9.56660   69.70710   69.70710    4.49170   74.11310    9.56660    9.23250   15.03420  -83.23630  -66.92040   15.03420
 9800.00000    9.01500  100.99990  108.10220    9.25070   70.86740   70.86740    5.36300   88.48870    9.25070    9.01500   14.12710  -91.77290  -75.57140   14.12710
 9850.00000    9.01790   71.49930   74.46460   13.42920   64.72820   64.72820    4.22340   69.68610   13.42920    9.01790   18.76040  -94.64030  -78.55450   18.76040
 9900.00000    9.04630  127.58790  141.21300    7.08150   76.68300   76.68300    6.19350  102.19280    7.08150    9.04630   12.05560  -88.35140  -72.38060   12.05560
 9950.00000    8.98200  100.57560  110.33270    9.06350   68.52310   68.52310    4.65780   76.85370    9.06350    8.98200   14.38560  -76.31980  -60.46410   14.38560
 10000.00000    9.06530  120.55390  131.38710    7.61110   76.49890   76.49890    6.26360  103.34940    7.61110    9.06530   13.40620  -77.24450  -61.50380   13.40620
 10050.00000    9.27790   80.89520   84.60430   11.82530   84.02230   84.02230    7.03200  116.02800   11.82530    9.27790   15.86670  -83.56470  -67.93840   15.86670
 10100.00000    9.09350   15.76790   11.19090   89.35840   79.53110   79.53110    6.53820  107.88030   89.35840    9.09350   94.78940  -96.71940  -81.20880   94.78940
 10150.00000    8.96210   12.82770    8.25910  121.07910   81.82010   81.82010   11.57700  191.02050  121.07910    8.96210  109.61190  -94.86470  -79.46920  109.61190
 10200.00000    8.95470   19.69640   15.03460   66.51310   79.89660   79.89660    7.18430  118.54100   66.51310    8.95470   73.64380  -91.28000  -75.99950   73.64380
 10250.00000    9.00470   62.58020   60.77700   16.45360   78.47450   78.47450    6.12450  101.05430   16.45360    9.00470   26.10220  -79.73570  -64.57030   26.10220
 10300.00000    9.01600   25.04250   22.01620   45.46630   62.72320   62.72320    3.60740   59.52130   45.46630    9.01600   56.76420  -81.84230  -66.79130   56.76420
 10350.00000    9.01000   31.88140   30.40890   32.88510   59.30080   59.30080    2.97570   49.09900   32.88510    9.01000   36.81200  -74.03830  -59.10300   36.81200
 10400.00000    9.02940   51.78680   51.61260   19.37510   63.45380   63.45380    3.66990   60.55340   19.37510    9.02940   27.84800  -55.35210  -40.53180   27.84800
 10450.00000    8.96700   13.84870    4.22880  236.47130   53.17290   53.17290    1.51340   24.97110  236.47130    8.96700  103.54070  -48.65390  -33.94870  103.54070
 10500.00000    8.96260   13.61030    5.32870  187.66310   55.60010   55.60010    2.18160   35.99640  187.66310    8.96260  137.95790  -36.14690  -21.55670  137.95790
 10550.00000    8.97710   28.95640   26.82420   37.28660   58.29750   58.29750    4.38470   72.34750   37.28660    8.97710   43.88220  -24.31990   -9.84420   43.88220
 10600.00000    9.00840   13.18960    5.29520  188.84860   54.25650   54.25650    3.28770   54.24710  188.84860    9.00840  163.52460  -63.66300  -49.19250  163.52460
 10650.00000    9.01500   13.72320    5.68640  175.85940   48.97650   48.97650    1.72040   28.38660  175.85940    9.01500  141.71610 -127.51340 -113.04290  141.71610
 10700.00000    7.74950    -999.25    -999.25    -999.25    -999.25    -999.25    -999.25    -999.25    -999.25    7.74950    -999.25    -999.25    -999.25    -999.25
