~Version ---------------------------------------------------
VERS.      2.0 : CWLS log ASCII Standard -VERSION 2.0
WRAP.       NO : One line per depth step
CREA. 12/12/17 : LAS Creation Date
~Well ------------------------------------------------------
STRT.FT                        1050.0 : START DEPTH
STOP.FT                       10050.0 : STOP DEPTH
STEP.FT                      50.00000 : STEP LENGTH
NULL.                         -999.25 : NULL VALUE
COMP.        SKELLY OIL OF CANADA LTD : COMPANY
WELL. SKELLY A3 TWO CREEK 10-17-62-16 : WELL
FLD .                                 : FIELD
LOC .                                 : LOCATION
CTRY.                          CANADA : COUNTRY
SRVC.                         Unknown : SERVICE COMPANY
DATE.                     26-Aug-1976 : LOGDATE
PROV.                         Alberta : PROVINCE
UWI .                100101706216W500 : UNIQUE WELL ID
SLAT.WGS84                   54.36596 : SURFACE LATITUDE
SLON.WGS84                   -116.357 : SURFACE LONGITUDE
~Curve Information -----------------------------------------
DEPT    .FT    : Depth Curve
CALDED  .IN    : CALIPER FROM DENSITY LOG [ADJ. TO RESISTIVITY LOG]
CALSED  .IN    : CALIPER FROM SONIC LOG [ADJ. TO RESISTIVITY LOG]
CALWS   .IN    : CALIPER [CALSED SPL. TO CALDED @ 10018']
CILDED  .MMHO  : CONDUCTIVITY FROM RESISTIVITY LOG
CONDWS  .MMHO  : CONDUCTIVITY [1000/DRESWS]
DCORWS  .G/C3  : DENSITY CORRECTION [DRHOED]
DENWS   .G/C3  : FORMATION BULK DENSITY [RHOBED]
DPHILSED.V/V   : DENSITY POROSITY LIMESTONE [MATRIX ASSUMED, M=2.71, F=1.00] FROM DENSITY  [ADJ. TO RESISTIVITY LOG]
DPHISSED.V/V   : DENSITY POROSITY SANDSTONE [MATRIX ASSUMED, M=2.65, F=1.00] FROM DENSITY LOG [ADJ. TO RESISTIVITY LOG]
DPOLSWS .V/V   : DENSITY POROSITY LIMESTONE [CALC. FROM DENWS, M=2.71, F=1.00]
DRESWS  .OHMM  : DEEP RESUISTIVITY [1000/CILDED IF ILDED < 1, ILDED & SPL. TO ILDED @ 3970']
DRHOED  .G/C3  : DENSITY CORRECTION  FROM DENSITY LOG [ADJ. TO RESISTIVITY LOG]
DTED    .US/F  : DELTA-TIME FROM SONIC LOG [ADJ. TO RESISTIVITY LOG]
DTWS    .US/F  : COMPRESSIONAL SONIC [DTED]
GRDED   .GAPI  : GAMMA RAY FROM DENSITY LOG [ADJ. TO RESISTIVITY LOG]
GRSED   .GAPI  : GAMMA RAY FROM SONIC LOG [ADJ. TO RESISTIVITY LOG]
GRWS    .GAPI  : GAMMA RAY [GRSED SPL. TO GRDED @ 10023']
ILDED   .OHMM  : DEEP INDUCTION RESISTIVITY FROM RESISTIVITY LOG
ILMED   .OHMM  : MEDIUM INDUCTION RESISTIVITY FROM RESISTIVITY LOG
LL8ED   .OHMM  : LATEROLOG 8 RESISTIVITY FROM RESISTIVITY LOG
MRESWS  .OHMM  : MEDIUM RESISTIVITY [ILMED]
NPHILSED.V/V   : NEUTRON POROSITY LIMESTONE FROM DENSITY LOG [ADJ. TO RESISTIVITY LOG]
NPHISSED.V/V   : NEUTRON POROSITY SANDSTONE FROM DENSITY LOG [ADJ. TO RESISTIVITY LOG]
NPOLSWS .V/V   : NEUTRON POROSITY LIMESTONE [NPHISSED MATRIX CONVERSION FOR LIMESTONE, SPL. TO NPHILSED @ 6448']
RHOBED  .G/C3  : BULK DENSITY FROM DENSITY LOG [ADJ. TO RESISTIVITY LOG]
SPRED   .MV    : SPONTANEOUS POTENTIAL FROM RESISTIVITY LOG
SPWS    .MV    : SPONTANEOUS POTENTIAL [BASELINE 0 MV, SPRED]
SRESWS  .OHMM  : SHALLOW RESISTIVITY [LL8ED]
~Params ----------------------------------------------------
PD  .                     GL : PERMANENT DATUM
EPD .FT               3020.5 : ELEVATION PERMANENT DATUM
LMF .                     KB : LOG MEASURED FROM
DAPD.FT                 14.9 : FEET ABOVE PERMANENT DATUM
EKB .FT               3035.4 : KELLY BUSHING
EGL .FT               3020.5 : GROUND LEVEL
DATE.               08/26/76 : RUN DATE
RUN .                      1 : RUN NUMBER
DD  .FT                10065 : DEPTH DRILLER
DL  .FT                10059 : DEPTH LOGGER
BLI .FT                10053 : BOTTOM LOG INTERVAL
TLI .FT                 1048 : TOP LOG INTERVAL
CBD .FT                 1047 : CASING BOTTOM DRILLER
CBL .FT                 1048 : CASING BOTTOM LOGGER
BS  .IN                7.875 : BIT SIZE
BSD .FT                10065 : BIT SIZE AT DEPTH
DFT .               GEL CHEM : DRILLING FLUID TYPE
DFD .                    9.9 : DRILLING FLUID DENSITY
DFV .                    2.2 : DRILLING FLUID VISCOSITY
DFPH.                      9 : DRILLING FLUID PH
DFL .                    6.2 : DRILLING FLUID LOSS
MSS .             CIRCULATED : MUD SAMPLE SOURCE
RMS .OHMM               2.55 : RESISTIVITY MUD SAMPLE
MST .DEGF                 57 : MUD SAMPLE TEMPERATURE
RMF .OHMM               2.27 : RESISTIVITY MUD FILTRATE SAMPLE
MFST.DEGF                 60 : MUD FILTRATE SAMPLE TEMPERATURE
RMC .OHMM               2.87 : RESISTIVITY MUD CAKE
MCST.DEGF                 55 : MUD CAKE SAMPLE TEMPERATURE
RMB .OHMM               0.77 : RESISTIVITY MUD AT BHT
TCS .HRS                   3 : TIME CIRCULATED STOPPED
LUN .                   7691 : LOGGING UNIT NUMBER
LUL .                    WCT : LOGGING UNIT LOCATION
ENGI.              CROCKFORD : RECORDING ENGINEER
WITN.                   BALL : WITNESSED BY
CLNT.                A2DTECH : CLIENT CODE
ORIG.        2" 5" 10" PRINT : ORIGIN OF DATA
UWI .       100101706216W500 : UNIQUE WELL ID
DICO. A2D Technologies, Inc. : DIGITIZING COMPANY
~Other -----------------------------------------------------
DIL-LL-CNL-FDC-BCS LOG RUN
~ASCII -----------------------------------------------------
# ...
 8550.00000    8.37490    8.29160    8.29160    -999.25   24.05220    0.03540    2.71910   -0.01020    -999.25   -0.00530   41.57630    0.03540   55.22700   55.22700   40.66010   41.73120   41.73120   41.57630   39.92530   55.02800   39.92530    0.03020    -999.25    0.03020    2.71910  -99.61610   -3.43040   55.02800
 8600.00000    8.48140    8.44570    8.44570    -999.25   66.69020    0.01890    2.69000    0.01200    -999.25    0.01170   14.99470    0.01890   61.98130   61.98130   59.49320   58.47560   58.47560   14.99470   14.45180   19.72580   14.45180    0.07910    -999.25    0.07910    2.69000  -99.32230   -3.26860   19.72580
 8650.00000    8.50620    8.46220    8.46220    -999.25   76.23810    0.01680    2.70790    0.00380    -999.25    0.00120   13.11680    0.01680   62.64360   62.64360   59.21400   60.91770   60.91770   13.11680   12.59290   17.56620   12.59290    0.09270    -999.25    0.09270    2.70790 -102.52060   -7.12790   17.56620
 8700.00000    8.65710    8.68560    8.68560    -999.25  141.59420    0.00720    2.68110    0.01010    -999.25    0.01690    7.06250    0.00720   70.11750   70.11750   77.15000   76.99240   76.99240    7.06250    6.70010    9.15470    6.70010    0.15690    -999.25    0.15690    2.68110 -109.08270  -14.35530    9.15470
 8750.00000    8.44910    8.41190    8.41190    -999.25   96.38550    0.02620    2.73230   -0.01790    -999.25   -0.01300   10.37500    0.02620   65.12920   65.12920   70.54750   68.54660   68.54660   10.37500    9.84850   12.82160    9.84850    0.13380    -999.25    0.13380    2.73230 -112.99250  -18.92600   12.82160
 8800.00000   10.06540    9.25830    9.25830    -999.25  113.53060    0.18810    2.67240    0.04250    -999.25    0.02200    8.80820    0.18810   70.33060   70.33060   80.04830   83.46160   83.46160    8.80820    8.17400   10.85830    8.17400    0.17150    -999.25    0.17150    2.67240 -116.90080  -23.49530   10.85830
 8850.00000    8.55440    8.51200    8.51200    -999.25  103.54430    0.02520    2.65620    0.02500    -999.25    0.03150    9.65770    0.02520   71.72310   71.72310   99.13520   96.48980   96.48980    9.65770   10.20820   11.97600   10.20820    0.19310    -999.25    0.19310    2.65620 -114.01530  -21.27510   11.97600
 8900.00000    9.13220    8.60210    8.60210    -999.25   98.75080    0.05080    2.61170    0.06170    -999.25    0.05750   10.12650    0.05080   67.24060   67.24060   70.80960   74.14370   74.14370   10.12650    9.73850   14.55470    9.73850    0.13010    -999.25    0.13010    2.61170 -112.99200  -20.91280   14.55470
 8950.00000    9.12070    8.76780    8.76780    -999.25  114.12000    0.17490    2.54030    0.10750    -999.25    0.09920    8.80520    0.17490   71.77590   71.77590   69.47470   75.13440   75.13440    8.80520    7.84900   10.90290    7.84900    0.18920    -999.25    0.18920    2.54030 -113.15270  -21.73880   10.90290
 9000.00000    9.73120    9.36570    9.36570    -999.25  129.17230    0.15330    2.53970    0.09980    -999.25    0.09960    7.74160    0.15330   68.80400   68.80400   89.70360   82.88000   82.88000    7.74160    7.27690   13.29960    7.27690    0.16570    -999.25    0.16570    2.53970 -113.04980  -22.29680   13.29960
 9050.00000    8.74590    8.60540    8.60540    -999.25   82.29910    0.02100    2.64890    0.01650    -999.25    0.03570   12.15080    0.02100   62.75570   62.75570   76.24430   75.24220   75.24220   12.15080   12.66070   19.91780   12.66070    0.12430    -999.25    0.12430    2.64890 -100.25830  -10.36610   19.91780
 9100.00000    8.87980    8.59520    8.59520    -999.25   94.72930    0.12880    2.70760    0.00210    -999.25    0.00140   10.55640    0.12880   67.32910   67.32910   89.73510   88.08780   88.08780   10.55640   10.87980   14.22110   10.87980    0.16420    -999.25    0.16420    2.70760  -99.13970  -10.86790   14.22110
 9150.00000    8.62200    8.51650    8.51650    -999.25   76.85510    0.03000    2.67870    0.00480    -999.25    0.01830   13.01150    0.03000   63.33240   63.33240   73.80350   78.71370   78.71370   13.01150   13.52680   20.19640   13.52680    0.11480    -999.25    0.11480    2.67870  -95.24550   -8.58360   20.19640
 9200.00000   11.28490   10.14230   10.14230    -999.25  165.00290    0.22420    2.52410    0.10290    -999.25    0.10870    6.06050    0.22420   76.10700   76.10700  110.29120  110.08140  110.08140    6.06050    6.51210    8.66770    6.51210    0.23340    -999.25    0.23340    2.52410 -101.33290  -16.29140    8.66770
 9250.00000    8.95300    8.70730    8.70730    -999.25  125.74820    0.16460    2.67160    0.01820    -999.25    0.02250    7.95240    0.16460   70.64060   70.64060   96.17650   94.59390   94.59390    7.95240    8.38890   11.88270    8.38890    0.18740    -999.25    0.18740    2.67160  -90.96420   -7.53260   11.88270
 9300.00000    8.82920    8.56610    8.56610    -999.25  122.60910    0.11290    2.69250    0.00030    -999.25    0.01020    8.15600    0.11290   70.45770   70.45770   92.21120   88.88520   88.88520    8.15600    8.49490   11.37650    8.49490    0.18530    -999.25    0.18530    2.69250  -90.90060   -9.07890   11.37650
 9350.00000    8.62760    8.46180    8.46180    -999.25  112.95220    0.14600    2.67700    0.02090    -999.25    0.01930    8.85330    0.14600   71.31510   71.31510  106.73950  103.23340  103.23340    8.85330    9.29690   14.13930    9.29690    0.17530    -999.25    0.17530    2.67700  -91.39810  -11.19680   14.13930
 9400.00000    8.14930    8.18030    8.18030    -999.25    0.68740    0.00370    2.60890    0.05890    -999.25    0.05910 1454.70140    0.00370   60.11390   60.11390  128.27740  122.91020  122.91020 1454.70140 1402.67220 1522.28280 1402.67220    0.07090    -999.25    0.07090    2.60890 -128.72160  -50.29950 1522.28280
 9450.00000    8.12870    8.18550    8.18550    -999.25    0.67690    0.01510    2.52940    0.11600    -999.25    0.10560 1477.28810    0.01510   73.50600   73.50600  178.65430  176.49080  176.49080 1477.28810 1416.91450 1503.42170 1416.91450    0.17960    -999.25    0.17960    2.52940 -127.57510  -51.43080 1503.42170
 9500.00000    8.15710    8.22600    8.22600    -999.25    7.36040    0.01580    2.70060    0.01360    -999.25    0.00550  135.86160    0.01580   53.28310   53.28310   36.61350   35.54660   35.54660  135.86160  146.15400  237.17890  146.15400    0.02960    -999.25    0.02960    2.70060  -96.69090  -22.80950  237.17890
 9550.00000    8.69630    9.18020    9.18020    -999.25  105.36960    0.24860    2.63420    0.03480    -999.25    0.04430    9.49040    0.24860   80.15870   80.15870  127.11110  120.96980  120.96980    9.49040    8.76690   13.69090    8.76690    0.18270    -999.25    0.18270    2.63420  -89.04670  -17.42830   13.69090
 9600.00000    8.18340    8.03620    8.03620    -999.25    2.37140    0.00810    2.67990    0.01180    -999.25    0.01760  421.69770    0.00810   55.29840   55.29840   43.16940   42.62730   42.62730  421.69770  529.33640  923.45190  529.33640    0.02650    -999.25    0.02650    2.67990 -102.80510  -32.39260  923.45190
 9650.00000    8.17610    8.01710    8.01710    -999.25    0.69770    0.01170    2.72720   -0.01440    -999.25   -0.01010 1433.19270    0.01170   49.64170   49.64170   20.38020   21.44860   21.44860 1433.19270 1433.93480 1499.90590 1433.93480    0.00660    -999.25    0.00660    2.72720 -126.89930  -56.48680 1499.90590
 9700.00000    8.08900    7.95810    7.95810    -999.25   10.26900    0.02080    2.71830   -0.00600    -999.25   -0.00490   97.38220    0.02080   49.04860   49.04860   11.22740   10.75500   10.75500   97.38220  111.49570  780.15740  111.49570    0.00230    -999.25    0.00230    2.71830 -178.80640 -108.39390  780.15740
 9750.00000    7.93400    7.37590    7.37590    -999.25   48.12410    0.03170    2.65300    0.03420    -999.25    0.03330   20.77960    0.03170   50.99760   50.99760   12.40300   13.24070   13.24070   20.77960   26.39560  195.70380   26.39560    0.01070    -999.25    0.01070    2.65300 -265.54840 -195.13590  195.70380
