~Version ---------------------------------------------------
VERS.      2.0 : CWLS log ASCII Standard -VERSION 2.0
WRAP.       NO : One line per depth step
CREA. 02/26/13 : LAS Creation Date
~Well ------------------------------------------------------
STRT.FT                                800.0 : START DEPTH
STOP.FT                              10200.0 : STOP DEPTH
STEP.FT                             50.00000 : STEP LENGTH
NULL.                                -999.25 : NULL VALUE
COMP.                 EXXONMOBIL CANADA LTD. : COMPANY
WELL. MOBIL CARSON CREEK WEST 11-1-61-13 #11 : WELL
FLD .                                        : FIELD
LOC .                                        : LOCATION
CTRY.                                 CANADA : COUNTRY
SRVC.                           Schlumberger : SERVICE COMPANY
DATE.                            03-Feb-1963 : LOGDATE
PROV.                                Alberta : PROVINCE
UWI .                       100110106113W500 : UNIQUE WELL ID
SLAT.WGS84                     54.2487051583 : SURFACE LATITUDE
SLON.WGS84                   -115.8169997457 : SURFACE LONGITUDE
~Curve Information -----------------------------------------
DEPT.FT                : DEPTH FEET
CILD.MMHO 05 110 46 00 : INDUCTION DEEP CONDUCTIVITY
DT  .US/F 60 500 00 00 : DELTA-T (INTERVAL TRANSIT TIME)
DT1 .US/F 60 500 00 00 : DELTA-T SHEAR - LOWER DIPOLE
GRS .GAPI 60 310 01 00 : GAMMA RAY FROM SONIC LOG
ILD .OHMM 05 120 46 00 : INDUCTION DEEP RESISTIVITY
MCAL.IN   15 280 01 00 : MLT (MICROLOG) CALIPER
SN  .OHMM 05 040 16 00 : SHORT NORMAL RESISTIVITY
SPR .MV   05 010 01 00 : SPONTANEOUS POTENTIAL FROM RESISTIVITY LOG
~Params ----------------------------------------------------
PD  .                     GL : PERMANENT DATUM
EPD .FT               2486.7 : ELEVATION PERMANENT DATUM
LMF .                     KB : LOG MEASURED FROM
DAPD.FT                 14.5 : FEET ABOVE PERMANENT DATUM
EKB .FT               2501.2 : KELLY BUSHING
EGL .FT               2486.7 : GROUND LEVEL
DATE.               02/03/63 : RUN DATE
RUN .                      2 : RUN NUMBER
DD  .FT                10215 : DEPTH DRILLER
DL  .FT                10214 : DEPTH LOGGER
BLI .FT                10213 : BOTTOM LOG INTERVAL
TLI .FT                 5500 : TOP LOG INTERVAL
CBD .FT                 1031 : CASING BOTTOM DRILLER
CBL .FT                 1031 : CASING BOTTOM LOGGER
BS  .IN                    9 : BIT SIZE
BSD .FT                10215 : BIT SIZE AT DEPTH
DFT .                    GEL : DRILLING FLUID TYPE
DFD .                    9.7 : DRILLING FLUID DENSITY
DFV .                    150 : DRILLING FLUID VISCOSITY
DFPH.                   10.5 : DRILLING FLUID PH
DFL .                    8.2 : DRILLING FLUID LOSS
RMS .OHMM                3.1 : RESISTIVITY MUD SAMPLE
MST .DEGF                 63 : MUD SAMPLE TEMPERATURE
RMF .OHMM               2.22 : RESISTIVITY MUD FILTRATE SAMPLE
MFST.DEGF                 66 : MUD FILTRATE SAMPLE TEMPERATURE
RMC .OHMM               1.27 : RESISTIVITY MUD CAKE
MCST.DEGF                 66 : MUD CAKE SAMPLE TEMPERATURE
TCS .HRS                 4.5 : TIME CIRCULATED STOPPED
LUN .                   1571 : LOGGING UNIT NUMBER
LUL .                    WCT : LOGGING UNIT LOCATION
ENGI.                KOKONIS : RECORDING ENGINEER
WITN.                  MILLS : WITNESSED BY
CLNT.                A2DTECH : CLIENT CODE
ORIG.            2" 5" PRINT : ORIGIN OF DATA
UWI .       100110106113W500 : UNIQUE WELL ID
DICO. A2D Technologies, Inc. : DIGITIZING COMPANY
~Other -----------------------------------------------------
~ASCII -----------------------------------------------------
# ...
 4800.00000  199.82210   79.68450   80.03250   52.54980    4.93180   12.99900   11.62220  -80.53270
 4850.00000  147.45940   74.08770   74.42130   65.26810    6.68000   11.57520   10.07940  -60.30160
 4900.00000  130.99580   78.20380   78.89800   77.37230    7.47750   12.10890   10.99860  -46.75180
 4950.00000  105.51160   78.76670   78.94470   91.67210    8.97160   10.93100   11.68730  -34.64910
 5000.00000   87.67330   75.03220   75.59920   72.65700   11.32910   10.92880   15.19280  -38.08610
 5050.00000  103.24180   75.85600   76.33850   79.03500    9.68410   10.31370   12.76100  -34.51450
 5100.00000  153.59570    -999.25   84.89220   95.89770    6.23130   12.66010    8.25550  -29.94570
 5150.00000   20.65750   64.03060   64.85420   51.62530   43.29160    9.87670   46.70430  -41.25110
 5200.00000   47.05330   66.36090   67.02000   91.49770   20.04360   10.01740   24.15790  -31.53620
 5250.00000   75.82660   79.99390   89.18300   89.93560   12.59470   11.42650   15.74300  -33.82550
 5300.00000  104.43780   72.60590   71.73400   84.00610    9.45020   10.71140   11.39140  -38.68330
 5350.00000    5.82520   77.92120   78.67430   32.18600  119.74170    9.14310  164.75370  -89.50850
 5400.00000  521.61920   78.41820   79.32950   30.59910    2.71980    8.14600   20.06810 -134.51500
 5450.00000   24.48980   50.21350   51.35100   26.24020   37.82630    9.54230   80.45980 -108.97490
 5500.00000   81.64060   55.18070   55.42830   19.09300   12.83490    8.26370  111.76740 -179.05230
 5550.00000   24.79840   53.52300   53.61870   24.48720   36.51780    9.00820  137.66130 -163.83300
 5600.00000  193.55760   63.96710   64.12700   62.67390    5.38440   10.15250    7.52330  -74.20810
 5650.00000   63.07340   59.04930   59.46680   63.07430   14.96970    9.10410   20.23740  -64.75490
 5700.00000   97.01110   61.28030   61.11070   65.27310   10.77460    9.33340   16.20700  -65.55500
 5750.00000   14.94940   50.72330   50.82080   20.36710   54.04210    9.01550   67.72760  -97.10410
 5800.00000   17.09430   57.32780   57.46480   51.39810   69.39270    9.90270   69.19160  -42.56820
 5850.00000   25.77640   55.77570   55.88170   34.42220   40.97950    9.91390   41.81680  -47.68540
 5900.00000   23.15870   55.39170   55.25020   35.90070   45.26860    9.17070   44.60590  -22.84960
 5950.00000   23.56320   57.26640   57.18550   39.84310   43.84110    9.18040   44.00250  -24.71680
 6000.00000   14.54730   55.63830   55.99900   40.51770   75.08090    8.95960   81.46070  -35.88450
 6050.00000   21.82740   59.44650   59.42350   50.50140   49.71890    8.89330   53.27550  -29.00640
 6100.00000   31.51210   72.55000   72.82780  184.26710   36.98990    9.23520   38.99290  -36.35800
 6150.00000   58.08180    -999.25   94.09020  189.59700   18.56050    9.32240   22.46810  -26.66820
 6200.00000    7.70670   53.42830   53.58650   24.34850  151.91460    9.16030  159.59670 -101.40510
 6250.00000    6.21830   50.90120   51.01300   24.26520  181.62060    8.92330  146.73680  -86.11440
 6300.00000    1.07380   49.63710   49.63250   27.20970  769.04570    9.43320  177.79310 -117.33220
 6350.00000    4.37030   48.65720   48.55980   19.73580  295.21880    9.26630  139.22170 -108.68160
 6400.00000   31.15100   53.24680   53.28700   24.15490   32.38000    8.29250  131.21300 -166.43850
 6450.00000  217.41230   58.81060   58.84750   21.16270    4.67820    8.04500   57.81800 -169.23480
 6500.00000   19.02080   49.56730   49.52780   18.28680   59.86610    9.12820  148.37880 -163.49480
 6550.00000    5.07020   49.95450   49.81970   21.07990  236.68600    9.98440  145.07810 -145.39480
 6600.00000   10.11640   49.34390   49.37270   27.26940  107.87920   10.34770  147.82490 -169.24340
 6650.00000    2.90140   48.84040   48.80070   32.11570  502.47700   10.29070  149.10500 -132.39900
 6700.00000   11.64770   51.11350   51.04930   20.91910   92.60870    9.47300  175.19810 -205.94710
 6750.00000   34.64300   53.83210   53.69930   19.20530   29.23120    9.90790   96.47090 -264.54510
 6800.00000   40.83460   54.06880   54.01380   22.14460   25.38990    8.70630  116.52540 -235.39110
 6850.00000   59.93780   50.54720   50.55620   26.11020   16.57720    8.89070   79.91070 -175.71020
 6900.00000   71.65750   60.60030   60.82100   81.36810   14.11070    8.91860   19.91590  -64.30920
 6950.00000   21.15240   51.41450   51.34680   37.66970   49.63870    9.37730   73.21400 -112.36650
 7000.00000   17.91980   51.85370   51.73750   39.51950   58.37990   10.04510   49.25000 -101.88830
 7050.00000  102.74970   56.27950   56.18180   48.14390    9.99180    9.38760   18.52650  -93.06930
 7100.00000   12.02760   54.41840   54.24100   39.65790   89.55700    9.31330   76.35420  -38.32690
 7150.00000   13.81920   56.18620   55.93330   43.39930   80.01780    9.26190   69.43500  -28.00050
 7200.00000   19.24720   57.19060   57.05470   41.56450   58.12550    9.29920   51.64670  -27.40130
 7250.00000   83.18250   65.10360   64.87270   62.69050   11.43160    9.12090   16.38150  -24.67140
 7300.00000   94.22860   66.49000   66.47000   62.68030   10.26970    8.99700   13.51530  -32.03260
 7350.00000   98.94780   67.33800   67.24750   68.66580    9.86820    9.07950   13.18420  -37.99070
 7400.00000  275.16380    -999.25   85.53480   99.26100    3.54220   11.23980    4.31570  -44.33320
 7450.00000  248.37650    -999.25   84.74900   98.01700    3.96820   11.37120    5.19470  -39.20230
 7500.00000   40.97050   60.26420   60.25600   45.54020   23.30070    9.08270   32.07910  -31.61490
 7550.00000  116.86140   62.64830   63.57850   75.01000    8.24810   12.68220    9.65040  -31.20430
 7600.00000  197.63030   76.56410   76.65480   84.89970    4.82820   13.54920    5.24250  -25.43980
 7650.00000  155.80130   76.17770   74.39880   79.48230    6.15380   11.61260    7.57750  -25.29380
 7700.00000   96.96500   70.85130   70.37900   82.10770    9.95660    9.40380   14.01220  -17.52170
 7750.00000  106.99700   68.77480   67.89300   95.01210    9.10950   11.42220   12.54820  -19.42820
 7800.00000  103.45340   69.79180   69.83920   81.63280    9.56110   10.07380   12.72060  -20.50450
 7850.00000   91.76450   69.63730   69.71770   75.68210   10.43810    9.09230   14.30470  -22.38070
 7900.00000  126.77010   72.58170   72.42320   96.71400    7.61610   11.32640   10.26210  -19.77790
 7950.00000  164.15840   77.91240   78.74600  105.52000    6.02520   11.50450    7.77730  -25.37230
 8000.00000  148.20940   78.32400   77.62900   89.77520    6.37600   12.67610    8.36690  -27.48380
 8050.00000   77.00500   68.25830   68.12100   83.86200   12.41030    9.34600   16.86410  -25.35860
 8100.00000  157.99860   74.15050   73.22430  101.78930    6.15560   11.82640    8.19010  -35.56620
 8150.00000   73.78550   65.26800   65.27900   67.97140   13.43900    9.11620   20.07010  -26.44260
 8200.00000   31.87730   66.12480   66.27900   59.58010   32.97890    9.19600   46.46250  -23.07910
 8250.00000   29.96110   67.65260   67.68970   83.51530   36.44340    9.33650   36.01880  -24.59230
 8300.00000   94.07680   66.70680   66.43330   88.98260   10.62470   13.54760   13.02790  -36.92610
 8350.00000    4.91720   51.32630   51.21480   16.43990  316.56850    9.94220  141.23300 -131.27480
 8400.00000    9.66330   53.39410   53.45020   18.36480  127.96140    9.83610  121.06320 -142.95940
 8450.00000    5.59480   50.85500   50.67950   22.44830  292.26790    9.93990  118.40840 -115.33470
 8500.00000   34.77240   52.34990   52.17950   23.08930   29.83790    9.61070   84.05880 -160.08350
 8550.00000   19.51160   51.82130   51.90200   21.95010   56.30550    9.45100   99.10870 -141.93850
 8600.00000   46.65570   52.58410   52.48680   15.55440   21.15540    8.81260   74.50810 -185.85920
 8650.00000    3.81080   50.23080   50.17900   22.87520  479.73340    9.72840  141.17280 -124.88910
 8700.00000    0.53110   52.74770   53.02350   21.72400  846.57260    9.62850  330.23970 -134.51180
 8750.00000    6.96980   55.09850   55.20600   25.98500  191.95270   10.00330  122.39240 -110.22920
