~Version ---------------------------------------------------
VERS.      2.0 : CWLS log ASCII Standard -VERSION 2.0
WRAP.       NO : One line per depth step
CREA. 11/14/17 : LAS Creation Date
~Well ------------------------------------------------------
STRT.FT                           1100.0 : START DEPTH
STOP.FT                          10400.0 : STOP DEPTH
STEP.FT                         50.00000 : STEP LENGTH
NULL.                            -999.25 : NULL VALUE
COMP.               CHEVRON STANDARD LTD : COMPANY
WELL. CHEVRON GULF PASS CREEK 7-36-61-18 : WELL
FLD .                                    : FIELD
LOC .                                    : LOCATION
CTRY.                             CANADA : COUNTRY
SRVC.                       Schlumberger : SERVICE COMPANY
DATE.                        11-Jan-1976 : LOGDATE
PROV.                            Alberta : PROVINCE
UWI .                   100073606118W500 : UNIQUE WELL ID
SLAT.WGS84                      54.31663 : SURFACE LATITUDE
SLON.WGS84                      -116.558 : SURFACE LONGITUDE
~Curve Information -----------------------------------------
DEPT    .FT    : Depth Curve
CALDED  .IN    : CALIPER FROM DENSITY LOG
CALSED  .IN    : CALIPER FROM SONIC LOG [ADJ.TO GRDED]
CALWS   .IN    : CALIPER [CALSED]
CONDWS  .MMHO  : CONDUCTIVITY [1000/DRESWS]
DCORED  .G/C3  : DENSITY CORRECTION FROM DENSITY LOG
DCORWS  .G/C3  : DENSITY CORRECTION [DCORED]
DENWS   .G/C3  : FORMATION BULK DENSITY [RHOBED]
DPHILSED.V/V   : DENSITY POROSITY LIME [M=2.71, F=1.00,ADJ.TO RHOBED] FROM DENSITY LOG
DPHISSED.V/V   : DENSITY POROSITY SAND [M=2.65, F=1.00,ADJ.TO RHOBED] FROM DENSITY LOG
DPOLSWS .V/V   : DENSITY POROSITY LIME [CALC FROM DENWS, M=2.71, F=1.00]
DRESWS  .OHMM  : DEEP RESISTIVITY [ILDED]
DTED    .US/F  : DELTA-T FROM SONIC LOG [ADJ.TO GRDED]
DTWS    .US/F  : COMPRESSIONAL SONIC [DTED]
GRDED   .GAPI  : GAMMA RAY FROM DENSITY LOG
GRSED   .GAPI  : GAMMA RAY FROM SONIC LOG [ADJ.TO GRDED]
GRWS    .GAPI  : GAMMA RAY [GRSED SPL.TO GRDED @ 10379']
ILDED   .OHMM  : DEEP INDUCTION FROM RESISTIVITY LOG
ILMED   .OHMM  : MEDIUM INDUCTION FROM RESISTIVITY LOG
LL8ED   .OHMM  : LATEROLOG 8 FROM RESISTIVITY LOG
MRESWS  .OHMM  : MEDIUM RESISTIVITY [ILMED]
NPHILSED.V/V   : NEUTRON POROSITY LIME FROM DENSITY LOG [ADJ.TO RHOBED]
NPHISSED.V/V   : NEUTRON POROSITY SAND FROM DENSITY LOG [ADJ.TO RHOBED]
NPOLSWS .V/V   : NEUTRON POROSITY LIME [NPHISSED MATRIX CONVERTED TO LIME SPL.TO NPHILSED @ 6655']
RHOBED  .G/C3  : BULK DENSITY FROM DENSITY LOG
SPRED   .MV    : SPONTANEOUS POTENTIAL FROM RESISTIVITY LOG
SPWS    .MV    : SPONTANEOUS POTENTIAL [BASELINE 0 MV, SPRED]
SRESWS  .OHMM  : SHALLOW RESISTIVITY [LL8ED]
~Params ----------------------------------------------------
PD  .                     GL : PERMANENT DATUM
EPD .FT                 2874 : ELEVATION PERMANENT DATUM
LMF .                     KB : LOG MEASURED FROM
DAPD.FT                   15 : FEET ABOVE PERMANENT DATUM
EKB .FT                 2889 : KELLY BUSHING
EGL .FT                 2874 : GROUND LEVEL
DATE.               01/11/76 : RUN DATE
RUN .                      1 : RUN NUMBER
DD  .FT                10410 : DEPTH DRILLER
DL  .FT                10421 : DEPTH LOGGER
BLI .FT                10415 : BOTTOM LOG INTERVAL
TLI .FT                 1118 : TOP LOG INTERVAL
CBD .FT                 1118 : CASING BOTTOM DRILLER
CBL .FT                 1121 : CASING BOTTOM LOGGER
BS  .IN                 8.75 : BIT SIZE
BSD .FT                10410 : BIT SIZE AT DEPTH
DFT .               GEL CHEM : DRILLING FLUID TYPE
DFD .                    9.5 : DRILLING FLUID DENSITY
DFV .                    137 : DRILLING FLUID VISCOSITY
DFPH.                    9.5 : DRILLING FLUID PH
DFL .                      9 : DRILLING FLUID LOSS
MSS .               FLOWLINE : MUD SAMPLE SOURCE
RMS .OHMM               2.38 : RESISTIVITY MUD SAMPLE
MST .DEGF                 54 : MUD SAMPLE TEMPERATURE
RMF .OHMM               2.06 : RESISTIVITY MUD FILTRATE SAMPLE
MFST.DEGF                 60 : MUD FILTRATE SAMPLE TEMPERATURE
RMC .OHMM               1.88 : RESISTIVITY MUD CAKE
MCST.DEGF                 42 : MUD CAKE SAMPLE TEMPERATURE
RMB .OHMM               0.66 : RESISTIVITY MUD AT BHT
TCS .HRS                 5.5 : TIME CIRCULATED STOPPED
LUN .                   7657 : LOGGING UNIT NUMBER
ENGI.                STANDEN : RECORDING ENGINEER
WITN.                   WONG : WITNESSED BY
CLNT.                A2DTECH : CLIENT CODE
ORIG.            2" 5" PRINT : ORIGIN OF DATA
UWI .       100073606118W500 : UNIQUE WELL ID
DICO. A2D Technologies, Inc. : DIGITIZING COMPANY
~Other -----------------------------------------------------
~ASCII -----------------------------------------------------
# ...
 5000.00000    9.84550   10.44700   10.44700  168.59990    0.13160    0.13160    2.50200    -999.25    0.08770    0.12160    5.93120   84.11790   84.11790  104.42320  101.63490  101.63490    5.93120    6.27350    7.32360    6.27350    -999.25    0.34090    0.29720    2.50200 -134.31250  -13.24000    7.32360
 5050.00000   10.68390   10.79080   10.79080  122.45130    0.05960    0.05960    2.59110    -999.25    0.03450    0.06950    8.16660   77.45710   77.45710  101.81940  102.00860  102.00860    8.16660    8.42200    9.30070    8.42200    -999.25    0.33750    0.29370    2.59110 -131.07410  -10.26240    9.30070
 5100.00000   12.87600   11.22520   11.22520  172.70860    0.22660    0.22660    2.29930    -999.25    0.21270    0.24020    5.79010   85.72420   85.72420  106.38050  108.54410  108.54410    5.79010    5.97070    6.83720    5.97070    -999.25    0.38830    0.34520    2.29930 -132.59370  -12.04460    6.83720
 5150.00000    -999.25    9.55790    9.55790  222.01880    0.10190    0.10190    1.71660    -999.25    0.55600    0.58100    4.50420   88.87470   88.87470  120.18400  122.08110  122.08110    4.50420    4.81380    5.69520    4.81380    -999.25    0.45450    0.41270    1.71660 -131.63970  -11.35140    5.69520
 5200.00000    -999.25    9.08180    9.08180  281.87280    0.02340    0.02340    1.42060    -999.25    0.63120    0.75400    3.54770   97.57360   97.57360  134.98870  129.21980  129.21980    3.54770    3.83980    4.59900    3.83980    -999.25    0.42220    0.37980    1.42060 -126.80960   -6.78390    4.59900
 5250.00000   14.60110    8.56670    8.56670  373.48270    0.01620    0.01620    1.41510    -999.25    0.63120    0.75730    2.67750   93.24090   93.24090  117.94670  119.44410  119.44410    2.67750    3.05010    3.36510    3.05010    -999.25    0.43340    0.39130    1.41510 -129.66460   -9.89980    3.36510
 5300.00000    -999.25   12.57640   12.57640  284.17590    0.03660    0.03660    1.43230    -999.25    0.63120    0.74720    3.51970   91.69660   91.69660  107.39100  109.10360  109.10360    3.51970    3.78880    3.99980    3.78880    -999.25    0.45720    0.41550    1.43230 -128.95750   -9.45350    3.99980
 5350.00000   12.72280   11.58590   11.58590  208.43320    0.14380    0.14380    2.05540    -999.25    0.35550    0.38280    4.79770   83.11260   83.11260   95.45650  102.72100  102.72100    4.79770    4.94630    5.75130    4.94630    -999.25    0.40370    0.36090    2.05540 -127.26780   -8.02640    5.75130
 5400.00000   10.30480   10.10730   10.10730   83.98490    0.07110    0.07110    2.57470    -999.25    0.04150    0.07910   11.91350   75.69720   75.69720   89.60510   94.27410   94.27410   11.91350   12.49270   16.20440   12.49270    -999.25    0.22220    0.17850    2.57470 -131.96370  -12.98310   16.20440
 5450.00000   12.75060   11.97860   11.97860  611.43380    0.10900    0.10900    2.25620    -999.25    0.23830    0.26540    1.63550  127.39670  127.39670   92.94260   92.64160   92.64160    1.63550    1.80780    2.30570    1.80780    -999.25    0.46600    0.42430    2.25620 -119.16420   -0.44620    2.30570
 5500.00000   14.54100   12.62800   12.62800  255.63680    0.05360    0.05360    2.47040    -999.25    0.12640    0.14010    3.91180  106.57630  106.57630   83.77220   82.83670   82.83670    3.91180    4.31440    8.64560    4.31440    -999.25    0.40120    0.35830    2.47040 -126.12400   -7.66680    8.64560
 5550.00000   12.46160   11.91470   11.91470  129.95410    0.07980    0.07980    2.60340    -999.25    0.02610    0.06230    7.69560   78.92590   78.92590  105.51050   92.65550   92.65550    7.69560    8.27700   10.08240    8.27700    -999.25    0.30220    0.25830    2.60340 -128.39990  -10.20360   10.08240
 5600.00000   11.65080   10.37060   10.37060   95.68650    0.05920    0.05920    2.62560    -999.25    0.00370    0.04940   10.45080   72.80940   72.80940   47.36150   49.46350   49.46350   10.45080   11.39070   13.25360   11.39070    -999.25    0.17370    0.13070    2.62560 -150.07460  -32.14080   13.25360
 5650.00000   13.23490   11.71170   11.71170   65.63410    0.03570    0.03570    1.95380    -999.25    0.39140    0.44220   15.24300  114.15030  114.15030   78.67520   70.75850   70.75850   15.24300   14.29810   47.65360   14.29810    -999.25    0.42130    0.37880    1.95380 -123.67670   -6.00380   47.65360
 5700.00000   11.47530   11.02300   11.02300  107.90160    0.01590    0.01590    2.56590    -999.25    0.06480    0.08430    9.26770   78.59400   78.59400   84.21380   88.08880   88.08880    9.26770    9.55630    8.34430    9.55630    -999.25    0.25570    0.21180    2.56590 -126.85470   -9.62180    8.34430
 5750.00000   10.30240   10.28990   10.28990  106.15370    0.01780    0.01780    2.62580    -999.25    0.00760    0.04920    9.42030   73.65910   73.65910   84.18780   79.17210   79.17210    9.42030    9.72840   11.33230    9.72840    -999.25    0.27340    0.22940    2.62580 -134.08870  -17.63540   11.33230
 5800.00000   10.37070   10.70240   10.70240   87.71770   -0.01170   -0.01170    1.95200    -999.25    0.47760    0.44330   11.40780   86.31130   86.31130   47.33020   50.47180   50.47180   11.40780   17.25620   22.32530   17.25620    -999.25    0.48310    0.44140    1.95200 -130.30650  -14.63290   22.32530
 5850.00000   10.37360   10.36170   10.36170   66.08990   -0.02250   -0.02250    2.45410    -999.25    0.13620    0.14960   15.13090   74.13080   74.13080   99.33160   93.97590   93.97590   15.13090   16.65100   19.28470   16.65100    -999.25    0.28940    0.24540    2.45410 -151.57360  -36.68470   19.28470
 5900.00000   10.16650   10.34660   10.34660   91.09650    0.03450    0.03450    2.51150    -999.25    0.07370    0.11610   10.98190   74.98950   74.98950   62.37030   63.57440   63.57440   10.98190   11.94080   14.26730   11.94080    -999.25    0.21050    0.16690    2.51150 -137.22150  -23.11230   14.26730
 5950.00000   10.33220   10.15710   10.15710  104.84600    0.07050    0.07050    2.51990    -999.25    0.07560    0.11120    9.53780   76.15430   76.15430   63.57440   60.06040   60.06040    9.53780   10.33090   18.34180   10.33090    -999.25    0.25740    0.21350    2.51990 -159.44560  -46.12110   18.34180
 6000.00000   10.32650    9.43300    9.43300  136.37360    0.01700    0.01700    2.51710    -999.25    0.08260    0.11280    7.33280   71.97450   71.97450   49.29160   43.13350   43.13350    7.33280    8.46480   11.95050    8.46480    -999.25    0.20540    0.16190    2.51710 -168.83940  -56.29460   11.95050
 6050.00000   10.92880   10.51860   10.51860   76.24240    0.03110    0.03110    2.69140    -999.25   -0.00980    0.01090   13.11690   72.01550   72.01550   90.61420   87.79550   87.79550   13.11690   14.13590   16.06760   14.13590    -999.25    0.20170    0.15820    2.69140 -128.75570  -16.99050   16.06760
 6100.00000   12.33430   11.02320   11.02320  124.79250    0.02060    0.02060    2.63120    -999.25    0.01150    0.04610    8.01330   69.16460   69.16460   84.71230   82.42340   82.42340    8.01330    9.06370   13.20790    9.06370    -999.25    0.20880    0.16530    2.63120 -129.27550  -18.29510   13.20790
 6150.00000   11.99400   10.99480   10.99480   96.15490    0.02870    0.02870    2.65740    -999.25   -0.00670    0.03080   10.40170   72.93730   72.93730   99.39610   87.93260   87.93260   10.40170   10.79510   13.13290   10.79510    -999.25    0.24990    0.20600    2.65740 -132.40580  -22.20500   13.13290
 6200.00000   11.15970   10.92800   10.92800   87.67320    0.05600    0.05600    2.44340    -999.25    0.12260    0.15590   11.40600   70.12630   70.12630   53.15180   52.78760   52.78760   11.40600   12.23050   16.91140   12.23050    -999.25    0.21770    0.17410    2.44340 -166.70340  -57.28730   16.91140
 6250.00000   10.65390   10.39710   10.39710   58.49530    0.05920    0.05920    2.41520    -999.25    0.13430    0.17240   17.09540   82.27720   82.27720   77.38150   71.05420   71.05420   17.09540   22.24500   43.62170   22.24500    -999.25    0.25940    0.21550    2.41520 -141.45890  -32.82250   43.62170
