~Version ---------------------------------------------------
VERS.      2.0 : CWLS log ASCII Standard -VERSION 2.0
WRAP.       NO : One line per depth step
CREA. 08/12/13 : LAS Creation Date
~Well ------------------------------------------------------
STRT.M                       450.0 : START DEPTH
STOP.M                      3550.0 : STOP DEPTH
STEP.M                    50.00000 : STEP LENGTH
NULL.                      -999.25 : NULL VALUE
COMP. HUSKY OIL OPERATIONS LIMITED : COMPANY
WELL.  HUSKY ANTE CREEK 7-27-66-26 : WELL
FLD .                              : FIELD
LOC .                              : LOCATION
CTRY.                       CANADA : COUNTRY
SRVC.                      Unknown : SERVICE COMPANY
DATE.                  24-Feb-1984 : LOGDATE
PROV.                      Alberta : PROVINCE
UWI .             100072706626W500 : UNIQUE WELL ID
SLAT.WGS84                54.74152 : SURFACE LATITUDE
SLON.WGS84               -117.8404 : SURFACE LONGITUDE
~Curve Information -----------------------------------------
DEPT    .M      : DEPTH METER
CALDED  .MM     : CALIPER FROM DENSITY LOG [ADJ. TO RESISTIVITY LOG]
CALRED  .MM     : CALIPER FROM RESISTIVITY LOG
CALSED  .MM     : CALIPER FROM SONIC LOG [ADJ. TO RESISTIVITY LOG]
CALWS   .MM     : CALIPER [CALRED]
CONDWS  .MMHO   : CONDUCTIVITY [1000/DRESWS]
DCORWS  .KG/M3  : DENSITY CORRECTION [DRHOED]
DENWS   .KG/M3  : FORMATION BULK DENSITY [RHOBED]
DPHILSED.V/V    : DENSITY POROSITY LIMESTONE [M=2710, F=1000] FROM DENSITY LOG [ADJ. TO RESISTIVITY LOG/RHOBED]
DPHISSED.V/V    : DENSITY POROSITY SANDSTONE [M=2650, F=1000] FROM DENSITY LOG  [ADJ. TO RESISTIVITY LOG/RHOBED]
DPOLSWS .V/V    : DENSITY POROSITY LIMESTONE [CALC. FROM DENWS, M=2710, F=1000]
DRESWS  .OHMM   : DEEP RESISTIVITY [LLDED]
DRHOED  .KG/M3  : BULK DENSITY CORRECTION FROM DENSITY LOG [ADJ. TO RESISTIVITY LOG]
DTED    .US/M   : DELTA TIME FROM SONIC LOG [ADJ. TO RESISTIVITY LOG]
DTWS    .US/M   : COMPRESSIONAL SONIC [DTED]
GRDED   .GAPI   : GAMMA RAY FROM DENSITY LOG [ADJ. TO RESISTIVITY LOG]
GRRED   .GAPI   : GAMMA RAY FROM RESISTIVITY LOG
GRSED   .GAPI   : GAMMA RAY FROM SONIC LOG [ADJ. TO RESISTIVITY LOG]
GRWS    .GAPI   : GAMMA RAY [GRSED SPL. TO GRRED @ 483 M]
LLDED   .OHMM   : DEEP LATEROLOG RESISTIVITY FROM RESISTIVITY LOG
LLSED   .OHMM   : SHALLOW LATEROLOG RESISTIVITY FROM RESISTIVITY LOG
MCALED  .MM     : MICRO CALIPER FROM ML LOG
MSFLED  .OHMM   : MICROSPHERICALLY FOCUSED FROM RESISTIVITY LOG
NPHILSED.V/V    : NEUTRON POROSITY LIMESTONE FROM DENSITY LOG [ADJ. TO RESISTIVITY LOG/RHOBED]
NPHISSED.V/V    : NEUTRON POROSITY SANDSTONE FROM DENSITY LOG [ADJ. TO RESISTIVITY LOG/RHOBED]
NPOLSWS .V/V    : NEUTRON POROSITY LIMESTONE [NPHISSED CONVERTED TO LIMESTONE MATRIX, SPL. TO NPHILSED @ 2268 M]
PROXED  .OHMM   : PROXIMITY RESISTIVITY FROM RESISTIVITY LOG
RHOBED  .KG/M3  : BULK DENSITY FROM DENSITY LOG [ADJ. TO RESISTIVITY LOG]
SPRED   .MV     : SPONTANEOUS POTENTIAL FROM RESISTIVITY LOG
SRESWS  .OHMM   : SHALLOW RESISTIVITY [LLSED]
TENDED  .N      : TENSION FROM DENSITY LOG [ADJ. TO RESISTIVITY LOG]
TENSED  .N      : TENSION FROM SONIC LOG [ADJ. TO RESISTIVITY LOG]
~Params ----------------------------------------------------
PD  .                         GL : PERMANENT DATUM
EPD .M                    785.37 : ELEVATION PERMANENT DATUM
LMF .                         KB : LOG MEASURED FROM
DAPD.M                      7.45 : FEET ABOVE PERMANENT DATUM
DMF .                         KB : DRILLING MEASURED FROM
EKB .M                    792.82 : KELLY BUSHING
EGL .M                    785.37 : GROUND LEVEL
DATE.                   02/24/84 : RUN DATE
RUN .                          1 : RUN NUMBER
DD  .M                      3597 : DEPTH DRILLER
DL  .M                      3595 : DEPTH LOGGER
BLI .M                      3595 : BOTTOM LOG INTERVAL
TLI .M                       486 : TOP LOG INTERVAL
CS  .MM                    244.5 : CASING SIZE
CBD .M                       486 : CASING BOTTOM DRILLER
CBL .M                       486 : CASING BOTTOM LOGGER
BS  .MM                      222 : BIT SIZE
BSD .M                      3597 : BIT SIZE AT DEPTH
DFT .                   GEL CHEM : DRILLING FLUID TYPE
DFD .                       1125 : DRILLING FLUID DENSITY
DFV .                         69 : DRILLING FLUID VISCOSITY
DFPH.                       10.5 : DRILLING FLUID PH
DFL .                          9 : DRILLING FLUID LOSS
MSS .                   FLOWLINE : MUD SAMPLE SOURCE
RMS .OHMM                   1.36 : RESISTIVITY MUD SAMPLE
MST .DEGC                   15.6 : MUD SAMPLE TEMPERATURE
RMF .OHMM                   1.08 : RESISTIVITY MUD FILTRATE SAMPLE
MFST.DEGC                   17.8 : MUD FILTRATE SAMPLE TEMPERATURE
RMC .OHMM                   1.62 : RESISTIVITY MUD CAKE
MCST.DEGC                   21.1 : MUD CAKE SAMPLE TEMPERATURE
MFSS.                   MEASURED : MUD FILTRATE SAMPLE SOURCE
MCSS.                   MEASURED : MUD CAKE SAMPLE SOURCE
RMB .OHMM                  0.506 : RESISTIVITY MUD AT BHT
TCS .HRS                     100 : TIME CIRCULATED STOPPED
TLAB.HRS                     915 : TIME LOGGER AT BOTTOM
LUN .                       8211 : LOGGING UNIT NUMBER
LUL .                        EDM : LOGGING UNIT LOCATION
ENGI.             PIERACCI PENNY : RECORDING ENGINEER
WITN.                      STIEL : WITNESSED BY
CLNT.                    A2DTECH : CLIENT CODE
ORIG. 6.5"/100M 16.5"/100M PRINT : ORIGIN OF DATA
UWI .           100072706626W500 : UNIQUE WELL ID
DICO.     A2D Technologies, Inc. : DIGITIZING COMPANY
~Other -----------------------------------------------------
CNFD-DLL-MSFL-ML-PL-BCS LOG RAN.
OCCASIONAL CYCLE SKIPPING ON DELTA T CURVE.
HOLE RUGOSITY AND ECCENTRICITY AFFECTING MSFL REPEATABILITY.
BOW SPRING ECCENTRALIZER USED ON CNT.
SPWS NOT GENERETED, AS SPR OFF-DEPTH.
~ASCII -----------------------------------------------------
  450.00000    -999.25    -999.25    -999.25    -999.25    -999.25    -999.25    -999.25    -999.25    -999.25    -999.25    -999.25    -999.25    -999.25    -999.25    -999.25    -999.25   54.47360   54.47360    -999.25    -999.25    -999.25    -999.25    -999.25    -999.25    -999.25    -999.25    -999.25    -999.25    -999.25    -999.25    -999.25
  500.00000  487.22330  286.84040  261.42970  286.84040  236.38430   49.92040 1768.91500    -999.25    0.55990    0.55030    4.23040   49.92040  380.88110  380.88110   87.46630   80.74350   95.67450   80.74350    4.23040    2.38810    -999.25    1.83620    -999.25    0.45630    0.41460    -999.25 1768.91500   24.48840    2.38810 63857.19810 54746.34940
  550.00000  294.05350  217.84500  255.94110  217.84500  143.94910    1.76950 2309.37990    -999.25    0.18350    0.23430    6.94690    1.76950  342.29480  342.29480   76.72320   74.28700   75.24700   74.28700    6.94690    5.04700    -999.25    4.17890    -999.25    0.37540    0.33210    -999.25 2309.37990  -76.61230    5.04700 67142.29840 58885.09780
  600.00000  246.38850  223.24260  236.43020  223.24260  159.43110   18.57000 2353.51340    -999.25    0.18430    0.20850    6.27230   18.57000  347.51720  347.51720   72.15630   67.45190   68.04480   67.45190    6.27230    4.58850    -999.25    2.33470    -999.25    0.43030    0.38810    -999.25 2353.51340  -52.37340    4.58850 69156.76930 60354.09210
  650.00000  286.80590  215.01450  263.88200  215.01450  199.67650   30.61160 2351.50560    -999.25    0.19100    0.20960    5.00810   30.61160  370.31780  370.31780   54.91520   58.35130   63.68000   58.35130    5.00810    3.82980    -999.25    2.14070    -999.25    0.44510    0.40330    -999.25 2351.50560  -75.32850    3.82980 75397.54120 63124.19620
  700.00000  293.56210  207.02300  248.31260  207.02300  130.52620   -1.03600 2441.26680    -999.25    0.12510    0.15720    7.66130   -1.03600  269.77370  269.77370   56.22010   58.03010   54.70280   58.03010    7.66130    6.60300    -999.25    6.00060    -999.25    0.24600    0.20210    -999.25 2441.26680  -49.69080    6.60300 72241.08890 67436.94500
  750.00000  241.78160  223.77360  231.58380  223.77360  121.29450  -15.99230 2388.04610    -999.25    0.16930    0.18830    8.24440  -15.99230  309.29740  309.29740   56.17180   59.16750   59.38090   59.16750    8.24440    6.52540    -999.25    5.62350    -999.25    0.35800    0.31450    -999.25 2388.04610  -55.10130    6.52540 77214.97640 69576.69630
  800.00000  247.32310  223.54780  247.50760  223.54780  140.64500   59.59180 2235.23660    -999.25    0.26850    0.27760    7.11010   59.59180  322.49760  322.49760   61.76920   57.24960   63.55770   57.24960    7.11010    5.21520    -999.25    2.56930    -999.25    0.40200    0.35920    -999.25 2235.23660  -83.92380    5.21520 77548.31170 68861.57490
  850.00000  271.40830  217.51030  264.50400  217.51030  120.75980   44.82250 2293.99340    -999.25    0.22240    0.24330    8.28090   44.82250  288.71860  288.71860   60.54540   66.65540   70.24070   66.65540    8.28090    6.95750    -999.25    2.65060    -999.25    0.41990    0.37740    -999.25 2293.99340  -99.45400    6.95750 80522.67200 73014.36910
  900.00000  327.11820  212.94290  310.40730  212.94290  100.74960  108.77220 2256.44970    -999.25    0.23900    0.26520    9.92560  108.77220  310.45170  310.45170   90.09240   99.79300   94.59790   99.79300    9.92560    8.32480    -999.25    1.86080    -999.25    0.50270    0.46100    -999.25 2256.44970  -68.94540    8.32480 79783.43760 74051.84240
  950.00000  299.31510  213.31300  251.58780  213.31300   80.73960  117.92470 2079.51370    -999.25    0.34540    0.36870   12.38550  117.92470  305.76640  305.76640   93.04660  100.82410   99.14770  100.82410   12.38550   10.52540    -999.25    4.33740    -999.25    0.44770    0.40590    -999.25 2079.51370  -82.80370   10.52540 83407.37840 77191.68950
 1000.00000  388.00360  216.52330  279.50790  216.52330   92.88160  -19.96750 1501.59770    -999.25    0.69600    0.70670   10.76640  -19.96750  292.78450  292.78450   80.48050   93.61730   86.49880   93.61730   10.76640    8.75600    -999.25    3.08150    -999.25    0.47070    0.42900    -999.25 1501.59770  -64.59300    8.75600 87526.69270 80039.88050
 1050.00000  312.12770  212.81120  244.24870  212.81120   91.90250   42.15340 1958.50950    -999.25    0.45210    0.43950   10.88110   42.15340  277.94850  277.94850   89.00150   86.29260   89.71070   86.29260   10.88110    9.15140    -999.25    3.78940    -999.25    0.38420    0.34100    -999.25 1958.50950  -40.09780    9.15140 86707.62010 85365.08250
 1100.00000  289.31680  239.91040  251.44880  239.91040   72.06840  123.60650 2121.33470    -999.25    0.31050    0.34420   13.87570  123.60650  274.76450  274.76450   89.71590   94.35730   88.19830   94.35730   13.87570   12.41140    -999.25    3.13650    -999.25    0.32640    0.28250    -999.25 2121.33470  -38.88210   12.41140 97174.77370 85872.35540
 1150.00000  279.25900  216.19590  257.46830  216.19590  106.23380   71.18980 1875.73140    -999.25    0.46680    0.48790    9.41320   71.18980  296.90890  296.90890   94.10680   98.69080   98.65450   98.69080    9.41320    8.21500    -999.25    2.87490    -999.25    0.43780    0.39580    -999.25 1875.73140  -68.85490    8.21500 100106.76330 85048.07400
 1200.00000  322.21700  206.18310  248.83060  206.18310   77.91860  139.03210 2036.93040    -999.25    0.35770    0.39360   12.83390  139.03210  312.91870  312.91870  113.50120  115.75650  122.35640  115.75650   12.83390   11.92990    -999.25    8.25680    -999.25    0.41160    0.36900    -999.25 2036.93040 -119.77810   11.92990 101418.07510 86292.08470
 1250.00000  331.20010  203.85350  247.81960  203.85350   70.94660  208.55930 2265.15090    -999.25    0.25050    0.26010   14.09510  208.55930  287.44370  287.44370   83.30060  104.11520   97.21130  104.11520   14.09510   13.01280    -999.25    5.35260    -999.25    0.33990    0.29620    -999.25 2265.15090 -136.38550   13.01280 102113.57370 93408.55230
 1300.00000  312.15720  204.15860  256.18130  204.15860   78.59840  173.40720 2152.77270    -999.25    0.29420    0.32590   12.72290  173.40720  338.73640  338.73640  113.76400  111.12290  116.89330  111.12290   12.72290   12.08580    -999.25    7.13050    -999.25    0.43860    0.39660    -999.25 2152.77270 -109.29450   12.08580 103541.12220 92671.71560
 1350.00000  306.78190  218.43560  275.20640  218.43560  134.98190   -1.36380 1678.16630    -999.25    0.59860    0.60340    7.40840   -1.36380  278.25950  278.25950   90.92430   97.29640   98.04110   97.29640    7.40840    6.47650    -999.25    1.69920    -999.25    0.45640    0.41470    -999.25 1678.16630  -95.97980    6.47650 112273.59760 96865.96460
 1400.00000  287.71000  214.78800  241.35070  214.78800  110.54120  103.60950 1993.87080    -999.25    0.38820    0.41880    9.04640  103.60950  273.62060  273.62060  102.05740   97.49280  105.58680   97.49280    9.04640    8.51190    -999.25    2.46800    -999.25    0.30570    0.26170    -999.25 1993.87080  -73.75860    8.51190 113184.85670 99658.55630
 1450.00000  335.64350  206.04730  248.99420  206.04730   94.03360   22.78240 2520.48100    -999.25    0.07500    0.11080   10.63450   22.78240  264.49840  264.49840  100.25190  101.42990  107.02470  101.42990   10.63450    9.95520    -999.25    5.02200    -999.25    0.28080    0.23680    -999.25 2520.48100 -129.67960    9.95520 117926.54900 101691.33880
 1500.00000  369.38750  213.46680  287.09550  213.46680  164.54950   47.78340 2368.20870    -999.25    0.17380    0.19990    6.07720   47.78340  306.65690  306.65690   93.10270   87.85690   95.03260   87.85690    6.07720    5.26990    -999.25    3.03530    -999.25    0.40520    0.36240    -999.25 2368.20870 -133.98390    5.26990 116250.80180 103942.30650
 1550.00000  318.29250  214.20280  270.47190  214.20280  193.25540   22.67990 2371.33640    -999.25    0.16980    0.19800    5.17450   22.67990  307.59590  307.59590  108.42160   95.59190  106.84710   95.59190    5.17450    4.82610    -999.25    2.70800    -999.25    0.38160    0.33840    -999.25 2371.33640  -79.52060    4.82610 118748.27990 106560.49370
