~Version ---------------------------------------------------
VERS.      2.0 : CWLS log ASCII Standard -VERSION 2.0
WRAP.       NO : One line per depth step
CREA. 11/21/17 : LAS Creation Date
~Well ------------------------------------------------------
STRT.FT                       1200.0 : START DEPTH
STOP.FT                      14950.0 : STOP DEPTH
STEP.FT                     50.00000 : STEP LENGTH
NULL.                        -999.25 : NULL VALUE
COMP.           PETROFINA CANADA LTD : COMPANY
WELL. PC FINA GULF ERITH 15-10-49-19 : WELL
FLD .                             WC : FIELD
LOC .                                : LOCATION
CTRY.                         CANADA : COUNTRY
SRVC.                   Schlumberger : SERVICE COMPANY
DATE.                    25-May-1972 : LOGDATE
PROV.                        Alberta : PROVINCE
UWI .               100151004919W500 : UNIQUE WELL ID
SLAT.WGS84                  53.21922 : SURFACE LATITUDE
SLON.WGS84                  -116.691 : SURFACE LONGITUDE
~Curve Information -----------------------------------------
DEPT    .FT    : Depth Curve
CALDED  .IN    : CALIPER FROM DENSITY LOG  [ADJ. TO RESISTIVITY LOG]
CALSED  .IN    : CALIPER FROM SONIC LOG
CALWS   .IN    : CALIPER [CALSED]
CILDED  .MMHO  : CONDUCTIVITY FROM RESISTIVITY LOG
CONDWS  .MMHO  : CONDUCTIVITY [1000/DRESWS]
DCORED  .G/C3  : DENSITY CORRECTION FROM DENSITY LOG  [ADJ. TO RESISTIVITY LOG]
DCORWS  .G/C3  : DENSITY CORRECTION [DCORED]
DENWS   .G/C3  : FORMATION BULK DENSITY [CALC. FROM DPOLSWS, M=2.71, F=1.00]
DPHILSED.V/V   : DENSITY POROSITY [M=2.71, F=1.00] FROM DENSITY LOG  [ADJ. TO RESISTIVITY LOG]
DPOLSWS .V/V   : DENSITY POROSITY LIMESTONE [DPHILSED]
DRESWS  .OHMM  : DEEP RESISTIVITY [1000/CILDED IF ILDED < 1, ILDED SPL. ILD @ 8190.5']
DTED    .US/F  : DELTA TIME FROM SONIC LOG
DTWS    .US/F  : COMPRESSIONAL SONIC [DTED]
GRDED   .GAPI  : GAMMA RAY FROM DENSITY LOG [ADJ. TO RESISTIVITY LOG]
GRNED   .GAPI  : GAMMA RAY FROM NEUTRON LOG [ADJ. TO RESISTIVITY LOG]
GRSED   .GAPI  : GAMMA RAY FROM SONIC LOG
GRWS    .GAPI  : GAMMA RAY [GRSED]
ILDED   .MMHO  : DEEP INDUCTION LOG  RESISTIVITY FROM RESISTIVITY LOG
ILMED   .OHMM  : MEDIUM INDUCTION LOG  RESISTIVITY FROM RESISTIVITY LLOG
LL8ED   .OHMM  : 8 INCH LATEROLOG RESISTIVITY FROM RESISTIVITY LOG
MRESWS  .OHMM  : MEDIUM RESISTIVITY [ILMED]
NEUTED  .NAPI  : NEUTRON FROM NEUTRON LOG [ADJ. TO SONIC LOG]
NEUTWS  .NAPI  : NEUTRON [NEUTED]
NPHILSED.V/V   : NEUTRON POROSITY LIMESTONE FROM DENSITY LOG [ADJ. TO RESISTIVITY LOG]
NPOLSWS .V/V   : NEUTRON POROSITY LIMESTONE [NPHILSED]
RHOBED  .G/C3  : BULK DENSITY FROM DENSITY LOG  [ADJ. TO RESISTIVITY LOG]
SPRED   .MV    : SPONTANEOUS POTENTIAL FROM RESISTIVITY LOG
SPWS    .MV    : SPONTANEOUS POTENTIAL [BASELINE 0 MV, SPRED]
SRESWS  .OHMM  : SHALLOW RESISTIVITY [LL8ED]
~Params ----------------------------------------------------
PD  .                     GL : PERMANENT DATUM
EPD .FT                 3706 : ELEVATION PERMANENT DATUM
LMF .                     KB : LOG MEASURED FROM
DAPD.FT                 17.5 : FEET ABOVE PERMANENT DATUM
EKB .FT               3723.5 : KELLY BUSHING
EGL .FT                 3706 : GROUND LEVEL
DATE.               06/07/72 : RUN DATE
RUN .                      3 : RUN NUMBER
DD  .FT                14975 : DEPTH DRILLER
DL  .FT                14971 : DEPTH LOGGER
BLI .FT                14966 : BOTTOM LOG INTERVAL
TLI .FT                14400 : TOP LOG INTERVAL
CBD .FT                11336 : CASING BOTTOM DRILLER
CBL .FT                11343 : CASING BOTTOM LOGGER
BS  .IN                  8.5 : BIT SIZE
BSD .FT                14975 : BIT SIZE AT DEPTH
DFT .       GEL CHEM POLYMER : DRILLING FLUID TYPE
DFD .                   13.5 : DRILLING FLUID DENSITY
DFV .                     55 : DRILLING FLUID VISCOSITY
DFPH.                   11.5 : DRILLING FLUID PH
DFL .                     15 : DRILLING FLUID LOSS
RMF .OHMM               0.28 : RESISTIVITY MUD FILTRATE SAMPLE
MFST.DEGF                 67 : MUD FILTRATE SAMPLE TEMPERATURE
RMB .OHMM               0.07 : RESISTIVITY MUD AT BHT
TCS .HRS                   6 : TIME CIRCULATED STOPPED
LUN .                  OSU-C : LOGGING UNIT NUMBER
LUL .               1123 EDM : LOGGING UNIT LOCATION
ENGI.                HACKNEY : RECORDING ENGINEER
WITN.               ROTA LEE : WITNESSED BY
CLNT.                A2DTECH : CLIENT CODE
ORIG.            2" 5" PRINT : ORIGIN OF DATA
UWI .       100151004919W500 : UNIQUE WELL ID
DICO. A2D Technologies, Inc. : DIGITIZING COMPANY
~Other -----------------------------------------------------
~ASCII -----------------------------------------------------
# ...
 9950.00000    -999.25   12.70670   12.70670    -999.25   86.48800    -999.25    -999.25    -999.25    -999.25    -999.25   11.56230   58.12830   58.12830    -999.25    -999.25   62.09500   62.09500   11.56230   20.08140   17.97610   20.08140    -999.25    -999.25    -999.25    -999.25    -999.25   67.26750   -7.89930   17.97610
 10000.00000    -999.25   12.35330   12.35330    -999.25   52.48210    -999.25    -999.25    -999.25    -999.25    -999.25   19.05410   60.51820   60.51820    -999.25    -999.25   50.87450   50.87450   19.05410    7.82320   12.71560    7.82320    -999.25    -999.25    -999.25    -999.25    -999.25   71.55210   -4.34530   12.71560
 10050.00000    -999.25   12.79170   12.79170    -999.25  108.64370    -999.25    -999.25    -999.25    -999.25    -999.25    9.20440   69.41810   69.41810    -999.25    -999.25   63.26800   63.26800    9.20440    7.33970   11.57130    7.33970    -999.25    -999.25    -999.25    -999.25    -999.25   67.51130   -8.38610   11.57130
 10100.00000    -999.25   12.28800   12.28800    -999.25   55.28160    -999.25    -999.25    -999.25    -999.25    -999.25   18.08920   45.53350   45.53350    -999.25    -999.25   37.09230   37.09230   18.08920   38.15730   22.43320   38.15730    -999.25    -999.25    -999.25    -999.25    -999.25   68.69090   -7.20650   22.43320
 10150.00000    -999.25   12.43810   12.43810    -999.25   80.06280    -999.25    -999.25    -999.25    -999.25    -999.25   12.49020   66.15020   66.15020    -999.25    -999.25   55.68580   55.68580   12.49020   13.78350   16.17060   13.78350    -999.25    -999.25    -999.25    -999.25    -999.25   67.21310   -8.68430   16.17060
 10200.00000    -999.25   12.57260   12.57260    -999.25   62.69870    -999.25    -999.25    -999.25    -999.25    -999.25   15.94930   69.47040   69.47040    -999.25    -999.25   72.38900   72.38900   15.94930   10.63660   14.40490   10.63660    -999.25    -999.25    -999.25    -999.25    -999.25   66.25660   -9.64080   14.40490
 10250.00000    -999.25   13.26620   13.26620    -999.25  137.38150    -999.25    -999.25    -999.25    -999.25    -999.25    7.27900   68.82900   68.82900    -999.25    -999.25   70.79900   70.79900    7.27900    6.41670   11.92610    6.41670    -999.25    -999.25    -999.25    -999.25    -999.25   67.60290   -8.29450   11.92610
 10300.00000    -999.25   12.72390   12.72390    -999.25  112.31160    -999.25    -999.25    -999.25    -999.25    -999.25    8.90380   77.06340   77.06340    -999.25    -999.25   78.86420   78.86420    8.90380    7.71860   12.65490    7.71860    -999.25    -999.25    -999.25    -999.25    -999.25   64.49700  -11.40040   12.65490
 10350.00000    -999.25   13.91950   13.91950    -999.25   94.35390    -999.25    -999.25    -999.25    -999.25    -999.25   10.59840   73.85990   73.85990    -999.25    -999.25   78.56430   78.56430   10.59840    8.65740   11.57200    8.65740    -999.25    -999.25    -999.25    -999.25    -999.25   66.83170   -9.06570   11.57200
 10400.00000    -999.25   12.68410   12.68410    -999.25   78.02990    -999.25    -999.25    -999.25    -999.25    -999.25   12.81560   60.89190   60.89190    -999.25    -999.25   57.95990   57.95990   12.81560   11.92550   17.67590   11.92550    -999.25    -999.25    -999.25    -999.25    -999.25   66.68530   -9.21210   17.67590
 10450.00000    -999.25   15.63130   15.63130    -999.25  145.48630    -999.25    -999.25    -999.25    -999.25    -999.25    6.87350   89.59470   89.59470    -999.25    -999.25   54.27250   54.27250    6.87350   15.53010   10.34990   15.53010    -999.25    -999.25    -999.25    -999.25    -999.25   67.98400   -7.91340   10.34990
 10500.00000    -999.25   12.72470   12.72470    -999.25   65.78770    -999.25    -999.25    -999.25    -999.25    -999.25   15.20040   62.08130   62.08130    -999.25    -999.25   73.05140   73.05140   15.20040   12.53600   13.72650   12.53600    -999.25    -999.25    -999.25    -999.25    -999.25   64.15970  -11.73770   13.72650
 10550.00000    -999.25   12.69990   12.69990    -999.25   33.50230    -999.25    -999.25    -999.25    -999.25    -999.25   29.84870  195.58250  195.58250    -999.25    -999.25   41.59350   41.59350   29.84870   22.29050   25.10240   22.29050  571.55630  571.55630    -999.25    -999.25    -999.25   63.39810  -12.49930   25.10240
 10600.00000    -999.25   12.54330   12.54330    -999.25   50.39080    -999.25    -999.25    -999.25    -999.25    -999.25   19.84490   59.94260   59.94260    -999.25    -999.25   57.40990   57.40990   19.84490   17.07770   14.54220   17.07770  388.49610  388.49610    -999.25    -999.25    -999.25   66.38040   -9.51700   14.54220
 10650.00000    -999.25   12.60460   12.60460    -999.25   77.13370    -999.25    -999.25    -999.25    -999.25    -999.25   12.96450   63.75160   63.75160    -999.25    -999.25   69.55280   69.55280   12.96450   11.69440   10.60750   11.69440  280.49580  280.49580    -999.25    -999.25    -999.25   63.47050  -12.42690   10.60750
 10700.00000    -999.25   16.00000   16.00000    -999.25  264.24970    -999.25    -999.25    -999.25    -999.25    -999.25    3.78430  105.50070  105.50070    -999.25    -999.25   86.04660   86.04660    3.78430    2.63820    3.93810    2.63820  129.82680  129.82680    -999.25    -999.25    -999.25   71.45200   -4.44540    3.93810
 10750.00000    -999.25   15.51440   15.51440    -999.25  196.17070    -999.25    -999.25    -999.25    -999.25    -999.25    5.09760   64.47770   64.47770    -999.25    -999.25   84.99120   84.99120    5.09760    2.42470    7.40220    2.42470  174.13650  174.13650    -999.25    -999.25    -999.25   69.76660   -7.27000    7.40220
 10800.00000    -999.25   12.69650   12.69650    -999.25   16.33220    -999.25    -999.25    -999.25    -999.25    -999.25   61.22870   47.54160   47.54160    -999.25    -999.25   48.94570   48.94570   61.22870  402.30160   33.67950  402.30160  529.74820  529.74820    -999.25    -999.25    -999.25   65.98250  -12.68150   33.67950
 10850.00000    -999.25   12.08460   12.08460    -999.25   26.96140    -999.25    -999.25    -999.25    -999.25    -999.25   37.09000   53.05000   53.05000    -999.25    -999.25   58.55210   58.55210   37.09000   28.82450   32.85780   28.82450  505.11830  505.11830    -999.25    -999.25    -999.25   67.47740  -12.81400   32.85780
 10900.00000    -999.25   12.65010   12.65010    -999.25   28.43790    -999.25    -999.25    -999.25    -999.25    -999.25   35.16440   56.61800   56.61800    -999.25    -999.25   51.80860   51.80860   35.16440   40.91160   37.51140   40.91160  530.00270  530.00270    -999.25    -999.25    -999.25   65.96880  -15.95000   37.51140
 10950.00000    -999.25   12.78840   12.78840    -999.25   55.59080    -999.25    -999.25    -999.25    -999.25    -999.25   17.98860   54.61550   54.61550    -999.25    -999.25   73.72810   73.72810   17.98860   13.33240   15.55400   13.33240  342.10500  342.10500    -999.25    -999.25    -999.25   72.58080  -10.97350   15.55400
 11000.00000    -999.25   12.71360   12.71360    -999.25   46.48110    -999.25    -999.25    -999.25    -999.25    -999.25   21.51410   54.52190   54.52190    -999.25    -999.25   67.53370   67.53370   21.51410   42.87890   26.39770   42.87890  221.03540  221.03540    -999.25    -999.25    -999.25   69.79490  -15.37860   26.39770
 11050.00000    -999.25   13.96430   13.96430    -999.25   93.11770    -999.25    -999.25    -999.25    -999.25    -999.25   10.73910   71.67430   71.67430    -999.25    -999.25  108.70030  108.70030   10.73910    7.21320    9.04510    7.21320  127.51380  127.51380    -999.25    -999.25    -999.25   76.27340  -10.52750    9.04510
 11100.00000    -999.25   12.92770   12.92770    -999.25   33.52570    -999.25    -999.25    -999.25    -999.25    -999.25   29.82790   59.06280   59.06280    -999.25    -999.25   71.35260   71.35260   29.82790   32.35910   24.71010   32.35910  214.75740  214.75740    -999.25    -999.25    -999.25   79.34730   -9.08100   24.71010
 11150.00000    -999.25   13.70950   13.70950    -999.25   10.96830    -999.25    -999.25    -999.25    -999.25    -999.25   91.17210   39.23550   39.23550    -999.25    -999.25   37.82100   37.82100   91.17210   31.73810   22.95830   31.73810  356.41060  356.41060    -999.25    -999.25    -999.25   83.46860   -6.58710   22.95830
