~Version ---------------------------------------------------
VERS.      2.0 : CWLS log ASCII Standard -VERSION 2.0
WRAP.       NO : One line per depth step
CREA. 11/07/17 : LAS Creation Date
~Well ------------------------------------------------------
STRT.FT                    600.0 : START DEPTH
STOP.FT                   5900.0 : STOP DEPTH
STEP.FT                 50.00000 : STEP LENGTH
NULL.                    -999.25 : NULL VALUE
COMP.               PETRO-CANADA : COMPANY
WELL. ATLANTIC MUSKWA 16-11-81-8 : WELL
FLD .                            : FIELD
LOC .                            : LOCATION
CTRY.                     CANADA : COUNTRY
SRVC.               Schlumberger : SERVICE COMPANY
DATE.                08-Oct-1965 : LOGDATE
PROV.                    Alberta : PROVINCE
UWI .           100161108108W500 : UNIQUE WELL ID
SLAT.WGS84         56.0125236511 : SURFACE LATITUDE
SLON.WGS84       -115.1262664795 : SURFACE LONGITUDE
~Curve Information -----------------------------------------
DEPT  .FT    : Depth Curve
CALSED.IN    : CALIPER FROM SONIC LOG [DEPTH SHIFTED TO RES.]
CALWS .IN    : CALIPER [CALSED]
CILDED.MMHO  : CONDUCTIVITY FROM RESISTIVITY LOG
CONDWS.MMHO  : CONDUCTIVITY [1000/DRESWS]
DRESWS.OHMM  : DEEP RESISTIVITY [ILDED] IF ILDED<2;1000/CILDED;ELSE ILDED
DTED  .US/F  : DELTA TIME FROM SONIC LOG [DEPTH SHIFTED TO RES.]
DTWS  .US/F  : DELTA TIME [DTED]
GRSED .GAPI  : GAMMA RAY FROM SONIC LOG
GRWS  .GAPI  : GAMMA RAY [GRSED] CSG @ 637'
ILDED .OHMM  : INDUCTION LOG DEEP RESISTIVITY
SNED  .OHMM  : 16 INCH SHORT NORMAL RESISTIVITY FROM IEL
SPRED .MV    : SPONTANEOUS POTENTIAL FROM RESISTIVITY LOG
SPWS  .MV    : SPONTANEOUS POTENTIAL [BASELINE 0 MV] [SPRED]
SRESWS.OHMM  : SHALLOW RESISTIVITY [SNED]
~Params ----------------------------------------------------
PD  .                     GL : PERMANENT DATUM
EPD .FT               2160.5 : ELEVATION PERMANENT DATUM
LMF .                     KB : LOG MEASURED FROM
DAPD.FT                 12.5 : FEET ABOVE PERMANENT DATUM
EKB .FT                 2173 : KELLY BUSHING
EGL .FT               2160.5 : GROUND LEVEL
DATE.               10/08/65 : RUN DATE
RUN .                      2 : RUN NUMBER
DD  .FT                 5923 : DEPTH DRILLER
DL  .FT                 5923 : DEPTH LOGGER
BLI .FT                 5922 : BOTTOM LOG INTERVAL
TLI .FT                 5300 : TOP LOG INTERVAL
CBD .FT                  636 : CASING BOTTOM DRILLER
CBL .FT                  637 : CASING BOTTOM LOGGER
BS  .IN                7.875 : BIT SIZE
BSD .FT                 5923 : BIT SIZE AT DEPTH
DFT .                    GEL : DRILLING FLUID TYPE
DFD .                    9.4 : DRILLING FLUID DENSITY
DFV .                     55 : DRILLING FLUID VISCOSITY
DFPH.                   10.5 : DRILLING FLUID PH
DFL .                   22.6 : DRILLING FLUID LOSS
MSS .                    MUD : MUD SAMPLE SOURCE
RMS .OHMM               0.33 : RESISTIVITY MUD SAMPLE
MST .DEGF                 63 : MUD SAMPLE TEMPERATURE
RMF .OHMM                0.3 : RESISTIVITY MUD FILTRATE SAMPLE
MFST.DEGF                 61 : MUD FILTRATE SAMPLE TEMPERATURE
RMC .OHMM               0.57 : RESISTIVITY MUD CAKE
MCST.DEGF                 58 : MUD CAKE SAMPLE TEMPERATURE
RMB .OHMM                0.2 : RESISTIVITY MUD AT BHT
TCS .HRS                   5 : TIME CIRCULATED STOPPED
LUN .                   2548 : LOGGING UNIT NUMBER
LUL .                     SL : LOGGING UNIT LOCATION
ENGI.              DEMETRICK : RECORDING ENGINEER
WITN.           DUTTON SMITH : WITNESSED BY
CLNT.                A2DTECH : CLIENT CODE
ORIG.            2" 5" PRINT : ORIGIN OF DATA
UWI .       100161108108W500 : UNIQUE WELL ID
DICO. A2D Technologies, Inc. : DIGITIZING COMPANY
~Other -----------------------------------------------------
~ASCII -----------------------------------------------------
  600.00000    -999.25    -999.25    -999.25    -999.25    -999.25    -999.25    -999.25   54.10220   54.10220    -999.25    -999.25    -999.25    -999.25    -999.25
  650.00000   14.73710   14.73710  171.22820  182.60510    5.47630  194.11560  194.11560   54.11190   54.11190    5.47630    5.73430  -91.59140    5.55150    5.73430
  700.00000   13.38590   13.38590  160.27640  158.19530    6.32130  184.95830  184.95830   63.42440   63.42440    6.32130    5.96380  -98.92160    0.67410    5.96380
  750.00000   11.80240   11.80240  207.14860  224.85700    4.44740  185.16490  185.16490   67.67580   67.67580    4.44740    5.27170  -97.90670    1.28240    5.27170
  800.00000   14.64690   14.64690  171.69210  181.53760    5.50850  182.56620  182.56620   44.67000   44.67000    5.50850    4.88820  -81.74320   11.11320    4.88820
  850.00000   14.69600   14.69600  197.07010  206.31450    4.84710  181.79730  181.79730   53.83580   53.83580    4.84710    4.98410  -75.39430   11.06570    4.98410
  900.00000   14.63850   14.63850  344.19160  414.09580    2.41490  158.97210  158.97210   80.95380   80.95380    2.41490    3.42530  -79.34350    0.78380    3.42530
  950.00000   14.41800   14.41800  368.00920  449.47860    2.22480  192.38620  192.38620   63.00150   63.00150    2.22480    2.99420  -60.84880   14.64140    2.99420
 1000.00000   14.74040   14.74040  289.85660  354.22690    2.82310  159.37900  159.37900   64.55220   64.55220    2.82310    3.20040  -63.78300   10.31250    3.20040
 1050.00000   14.14810   14.14810  286.70050  326.00900    3.06740  148.11970  148.11970   75.63420   75.63420    3.06740    3.44050  -72.81900    9.48730    3.44050
 1100.00000   12.79840   12.79840  275.05360  272.00960    3.70300  184.29210  184.29210   55.41370   55.41370    3.70300    3.90230  -67.23680   20.91880    3.90230
 1150.00000   14.71290   14.71290  507.34750  507.34750    1.97100  198.45200  198.45200   32.63370   32.63370    1.22500    2.09260  -57.93310   33.80120    2.09260
 1200.00000    9.65440    9.65440  220.56890  243.47490    4.10720  123.57350  123.57350   55.47840   55.47840    4.10720    6.55110  -91.86200    3.06220    6.55110
 1250.00000    9.31440    9.31440  196.06540  202.51080    4.93810  119.42990  119.42990   61.25940   61.25940    4.93810    6.66570  -83.11070    9.09910    6.66570
 1300.00000   14.69580   14.69580  562.93210  562.93210    1.77640  199.43290  199.43290   26.73240   26.73240    0.83780    1.78530  -59.97240   29.52290    1.78530
 1350.00000   13.76880   13.76880  254.75270  275.73140    3.62840  203.54630  203.54630   56.41090   56.41090    3.62840    3.80480  -68.49520   20.12780    3.80480
 1400.00000    9.64160    9.64160  152.37200  159.08370    6.28600  120.30090  120.30090   57.73870   57.73870    6.28600   10.04340  -85.06410    4.60200   10.04340
 1450.00000   11.49780   11.49780  243.89570  274.02510    3.64930  122.31620  122.31620   63.15320   63.15320    3.64930    4.69470  -78.19840   13.67530    4.69470
 1500.00000   11.85360   11.85360  213.90340  237.08580    4.21790  117.22210  117.22210   61.70760   61.70760    4.21790    5.08340  -74.92050   19.12800    5.08340
 1550.00000   10.45050   10.45050  227.21070  249.43250    4.00910  121.26580  121.26580   59.92980   59.92980    4.00910    5.11460  -77.17590   15.04120    5.11460
 1600.00000   10.67390   10.67390  206.73410  224.53380    4.46260  111.06230  111.06230   53.30200   53.30200    4.46260    7.66220  -79.04240   10.07350    7.66220
 1650.00000   13.89630   13.89630   98.21910   94.30850   10.60350  119.12610  119.12610   53.57750   53.57750   10.60350    8.77220  -73.79800   11.00480    8.77220
 1700.00000   13.74940   13.74940  129.27270  126.13520    7.92800  106.99970  106.99970   59.27930   59.27930    7.92800    7.03440  -74.19200    4.93240    7.03440
 1750.00000   14.27330   14.27330  175.41510  189.30970    5.28240  126.94900  126.94900   47.90040   47.90040    5.28240    5.40760  -67.48350    0.05640    5.40760
 1800.00000   12.36550   12.36550  173.57900  187.31500    5.33860  165.31520  165.31520   55.50100   55.50100    5.33860    5.51430  -73.81470   -8.23960    5.51430
 1850.00000   10.81830   10.81830   47.15110   43.87010   22.79550   74.46010   74.46010   29.36690   29.36690   22.79550   26.13970  -69.02980   -5.41770   26.13970
 1900.00000   11.86570   11.86570   79.27090   77.40900   12.91840   84.91830   84.91830   41.00850   41.00850   12.91840   18.58570  -73.11550  -15.11020   18.58570
 1950.00000   11.31390   11.31390   47.47100   42.73290   23.40120   74.65200   74.65200   22.82970   22.82970   23.40120   24.66500  -58.25770   -5.66700   24.66500
 2000.00000   14.21060   14.21060  302.51820  343.29110    2.91660  171.57320  171.57320   32.48730   32.48730    2.91660    6.92990  -49.66550   -0.99980    6.92990
 2050.00000   11.71730   11.71730  113.05250  108.39050    9.22590   79.98640   79.98640   23.40430   23.40430    9.22590   12.39230  -52.64280   -3.83230   12.39230
 2100.00000   11.05000   11.05000   85.52420   81.99630   12.19660   72.28400   72.28400   26.04060   26.04060   12.19660   13.80510  -67.72130  -18.76470   13.80510
 2150.00000   11.34580   11.34580   79.52230   75.55040   13.23620   69.69760   69.69760   20.04080   20.04080   13.23620   14.19600  -76.19490  -27.09360   14.19600
 2200.00000   10.72330   10.72330   90.29670   87.53730   11.42370   67.93770   67.93770   19.93710   19.93710   11.42370   16.17790  -89.38520  -40.13700   16.17790
 2250.00000   11.84900   11.84900   83.08920   78.83930   12.68400   74.23880   74.23880   26.66770   26.66770   12.68400   13.55600  -65.86740  -16.47450   13.55600
 2300.00000   11.58910   11.58910   84.19870   79.84990   12.52350   74.47650   74.47650   24.06620   24.06620   12.52350   13.25490  -63.63800  -14.10040   13.25490
 2350.00000    9.90720    9.90720   78.25240   74.12190   13.49130   66.58200   66.58200   22.06500   22.06500   13.49130   20.21160  -81.94380  -32.26000   20.21160
 2400.00000   10.12210   10.12210   75.67700   72.23090   13.84450   68.27250   68.27250   22.07030   22.07030   13.84450   16.70330  -74.85600  -25.02750   16.70330
 2450.00000   10.86700   10.86700   91.12490   87.03070   11.49020   76.18140   76.18140   32.16270   32.16270   11.49020   13.24070  -59.10910   -9.13370   13.24070
 2500.00000   12.15810   12.15810  251.94500  283.42460    3.54120   95.71360   95.71360   46.97900   46.97900    3.54120    5.75230  -53.43020   -3.31010    5.75230
 2550.00000   10.58080   10.58080   32.14830   26.46260   37.78920   57.62740   57.62740   16.73660   16.73660   37.78920   55.86970  -87.06830  -37.09580   55.86970
 2600.00000   11.00990   11.00990   34.07930   30.18790   33.12970   58.22120   58.22120   17.21280   17.21280   33.12970   91.39400 -111.18520  -61.40410   91.39400
 2650.00000   10.14990   10.14990   15.32770    9.75510  102.51010   52.19500   52.19500   16.75240   16.75240  102.51010   86.88450  -95.76890  -46.17730   86.88450
 2700.00000    9.95000    9.95000   10.44270    4.53800  220.35920   51.58670   51.58670   17.55290   17.55290  220.35920  116.64950  -95.32870  -45.92950  116.64950
 2750.00000   10.92160   10.92160   26.69120   21.67280   46.19540   55.31500   55.31500   13.31580   13.31580   46.19540   74.42700 -106.36310  -57.15330   74.42700
 2800.00000   10.92840   10.92840   35.96090   32.07370   31.17820   55.86110   55.86110   16.32120   16.32120   31.17820   88.38920 -110.46870  -61.44850   88.38920
 2850.00000   10.58710   10.58710   58.86860   55.09100   18.15180   56.58610   56.58610   16.36560   16.36560   18.15180   80.83040 -122.97060  -74.14180   80.83040
 2900.00000    9.97970    9.97970   12.20310    4.69460  213.01260   50.10860   50.10860   11.93190   11.93190  213.01260  111.32820  -85.42800  -36.78870  111.32820
 2950.00000    9.93320    9.93320   35.83820   31.86880   31.37870   60.97810   60.97810   15.87130   15.87130   31.37870  102.89200 -130.50060  -82.05370  102.89200
 3000.00000    9.99980    9.99980   17.41540   11.88140   84.16910   52.77000   52.77000   13.95770   13.95770   84.16910  100.47510 -102.51290  -54.25560  100.47510
