~Version ---------------------------------------------------
VERS.      2.0 : CWLS log ASCII Standard -VERSION 2.0
WRAP.       NO : One line per depth step
CREA. 09/27/17 : LAS Creation Date
~Well ------------------------------------------------------
STRT.FT                        300.0 : START DEPTH
STOP.FT                      12850.0 : STOP DEPTH
STEP.FT                     50.00000 : STEP LENGTH
NULL.                        -999.25 : NULL VALUE
COMP.  WESTERN DECALTA PETROLEUM LTD : COMPANY
WELL. DECALTA ET AL BRAZR 6-31-47-13 : WELL
FLD .                  BRAZEAU RIVER : FIELD
LOC .                                : LOCATION
CTRY.                         CANADA : COUNTRY
SRVC.                   Schlumberger : SERVICE COMPANY
DATE.                    15-Mar-1978 : LOGDATE
PROV.                        Alberta : PROVINCE
UWI .               100063104713W500 : UNIQUE WELL ID
SLAT.WGS84                  53.09535 : SURFACE LATITUDE
SLON.WGS84                 -115.8946 : SURFACE LONGITUDE
~Curve Information -----------------------------------------
DEPT    .FT    : Depth Curve
CALDED  .IN    : CALIPER FROM DENSITY LOG [ADJ. TO RESISTIVITY LOG]
CALSED  .IN    : CALIPER FROM SONIC LOG [ADJ. TO RESISTIVITY LOG]
CALWS   .IN    : CALIPER [CALSED]
CONDWS  .MMHO  : CONDUCTIVITY [1000/DRESWS]
DCORWS  .G/C3  : DENSITY CORRECTION [DRHOED]
DENWS   .G/C3  : FORAMTION BULK DENSITY [CALC FROM DPOLSWS,M=2.71, F=1.00]
DPHILSED.V/V   : DENSITY POROSITY LIMESTONE [M=2.71, F=1.00] FROM DENSITY LOG [ADJ. TO RESISTIVITY LOG]
DPHISSED.V/V   : DENSITY POROSITY SANDSTONE [M=2.65, F=1.00] FROM DENSITY LOG [ADJ. TO RESISTIVITY LOG]
DPOLSWS .V/V   : DENSITY POROSITY LIMESTONE [DPHISSED MATRIX CONVERTED TO LS & SPL. TO DPHILSED @ 9450']
DRESWS  .OHMM  : DEEP RESISTIVITY [ILDED]
DRHOED  .G/C3  : DENSITY CORRECTION FROM DENSITY LOG [ADJ. TO RESISTIVITY LOG]
DTED    .US/F  : DELTA TIME FROM SONIC LOG [ADJ. TO RESISTIVITY LOG]
DTWS    .US/F  : COMPRESSIONAL SONIC [DTED]
GRDED   .GAPI  : GAMMA RAY FROM DENSITY LOG [ADJ. TO RESISTIVITY LOG]
GRSED   .GAPI  : GAMMA RAY FROM SONIC LOG [ADJ. TO RESISTIVITY LOG]
GRWS    .GAPI  : GAMMA RAY [GRSED SPL. TO GRDED @ 12818']
ILDED   .OHMM  : DEEP INDUCTION RESISTIVITY FROM RESISTIVITY LOG
ILMED   .OHMM  : MEDIUM INDUCTION RESISTIVITY FROM RESISTIVITY LOG
LL8ED   .OHMM  : 8 INCH LATEROLOG RESISTIVITY FROM RESISTIVITY LOG
MRESWS  .OHMM  : MEDIUM RESISTIVITY [ILMED]
NPHILSED.V/V   : NEUTRON POROSITY LIMESTONE FROM DENSITY LOG [ADJ. TO RESISTIVITY LOG]
NPHISSED.V/V   : NEUTRON POROSITY SANDSTONE FROM DENSITY LOG [ADJ. TO RESISTIVITY LOG]
NPOLSWS .V/V   : NEUTRON POROSITY LIMESTONE [NPHISSED MATRIX CONVERTED TO LS & SPL. TO NPHILSED @ 9350']
RHOBED  .G/C3  : BULK DENSITY FROM DENSITY LOG [ADJ. TO RESISTIVITY LOG]
SPRED   .MV    : SPONTANEOUS POTENTIAL FROM RESISTIVITY LOG
SPWS    .MV    : SPONTANEOUS POTENTIAL [BASELINE 0 MV, SPRED]
SRESWS  .OHMM  : SHALLOW RESISTIVITY [LL8ED]
~Params ----------------------------------------------------
PD  .                     GL : PERMANENT DATUM
EPD .FT                 3420 : ELEVATION PERMANENT DATUM
LMF .                     KB : LOG MEASURED FROM
DAPD.FT                   27 : FEET ABOVE PERMANENT DATUM
DMF .                     KB : DRILLING MEASURED FROM
EGL .FT                 3420 : GROUND LEVEL
DATE.               03/15/78 : RUN DATE
RUN .                      2 : RUN NUMBER
DD  .FT                12857 : DEPTH DRILLER
DL  .FT                12856 : DEPTH LOGGER
BLI .FT                12850 : BOTTOM LOG INTERVAL
TLI .FT                10390 : TOP LOG INTERVAL
CS  .IN                9.625 : CASING SIZE
CBD .FT                10395 : CASING BOTTOM DRILLER
CBL .FT                10390 : CASING BOTTOM LOGGER
BS  .IN                6.125 : BIT SIZE
BSD .FT                12857 : BIT SIZE AT DEPTH
DFT .                    GEL : DRILLING FLUID TYPE
DFD .                   10.3 : DRILLING FLUID DENSITY
DFV .                     44 : DRILLING FLUID VISCOSITY
DFPH.                   11.5 : DRILLING FLUID PH
DFL .                    8.8 : DRILLING FLUID LOSS
MSS .               FLOWLINE : MUD SAMPLE SOURCE
RMS .OHMM               0.89 : RESISTIVITY MUD SAMPLE
MST .DEGF                 62 : MUD SAMPLE TEMPERATURE
TCS .HRS                 2.5 : TIME CIRCULATED STOPPED
LUN .                   7687 : LOGGING UNIT NUMBER
LUL .                    EDA : LOGGING UNIT LOCATION
ENGI.               BERNISKY : RECORDING ENGINEER
WITN.                  COWAN : WITNESSED BY
CLNT.                A2DTECH : CLIENT CODE
ORIG.            2" 5" PRINT : ORIGIN OF DATA
UWI .       100063104713W500 : UNIQUE WELL ID
DICO. A2D Technologies, Inc. : DIGITIZING COMPANY
~Other -----------------------------------------------------
DIL-LL-CNL-FDC-BHC LOG RUN
NEUTRON CONVERSION: SCHLUMBERGER, DESCRIPTION: CNL(NPHI)
~ASCII -----------------------------------------------------
# ...
 6800.00000    -999.25    9.07490    9.07490  119.80640    -999.25    -999.25    -999.25    -999.25    -999.25    8.34680    -999.25   74.00070   74.00070    -999.25   91.48880   91.48880    8.34680    9.08870   10.67260    9.08870    -999.25    -999.25    -999.25    -999.25 -123.09390   -2.88180   10.67260
 6850.00000    -999.25    9.39870    9.39870  167.05930    -999.25    -999.25    -999.25    -999.25    -999.25    5.98590    -999.25   80.63520   80.63520    -999.25  108.94920  108.94920    5.98590    6.15300    7.43690    6.15300    -999.25    -999.25    -999.25    -999.25 -124.21690   -4.20160    7.43690
 6900.00000    -999.25    9.65290    9.65290  179.80110    -999.25    -999.25    -999.25    -999.25    -999.25    5.56170    -999.25   84.63040   84.63040    -999.25  121.57760  121.57760    5.56170    5.87970    6.29570    5.87970    -999.25    -999.25    -999.25    -999.25 -122.48780   -2.66930    6.29570
 6950.00000    -999.25   11.42450   11.42450  183.45930    -999.25    -999.25    -999.25    -999.25    -999.25    5.45080    -999.25   85.38380   85.38380    -999.25  106.94000  106.94000    5.45080    5.72410    6.23450    5.72410    -999.25    -999.25    -999.25    -999.25 -125.18010   -5.55840    6.23450
 7000.00000    -999.25   10.02050   10.02050  140.34300    -999.25    -999.25    -999.25    -999.25    -999.25    7.12540    -999.25   77.35210   77.35210    -999.25  109.36990  109.36990    7.12540    7.45670    7.80050    7.45670    -999.25    -999.25    -999.25    -999.25 -123.69090   -4.26600    7.80050
 7050.00000    -999.25   10.43280   10.43280  138.79250    -999.25    -999.25    -999.25    -999.25    -999.25    7.20500    -999.25   84.05100   84.05100    -999.25  122.71490  122.71490    7.20500    7.85770    8.65450    7.85770    -999.25    -999.25    -999.25    -999.25 -123.18930   -3.96120    8.65450
 7100.00000   10.33790   10.09320   10.09320  174.28590    0.20000    2.28690    -999.25    0.22000    0.24740    5.73770    0.20000   83.62880   83.62880  115.77130  121.97550  121.97550    5.73770    6.02440    6.59290    6.02440    -999.25    0.37610    0.33280    2.29840 -123.38190   -4.32530    6.59290
 7150.00000   10.06500    9.59780    9.59780  146.51370    0.17120    2.40660    -999.25    0.12790    0.15850    6.82530    0.17120   78.82170   78.82170  109.44280  108.69000  108.69000    6.82530    7.00650    7.97300    7.00650    -999.25    0.33620    0.29240    2.39740 -124.30040   -5.37600    7.97300
 7200.00000    9.92670    9.61260    9.61260  107.12600    0.22060    2.41950    -999.25    0.13970    0.16990    9.33480    0.22060   76.18180   76.18180  103.32440  108.94510  108.94510    9.33480    8.86270    9.83230    8.86270    -999.25    0.28450    0.24050    2.42300 -124.68140   -5.88920    9.83230
 7250.00000    9.24230    8.93500    8.93500   50.55050    0.15190    2.49230    -999.25    0.09890    0.13050   19.78220    0.15190   74.40110   74.40110   77.60510   77.36810   77.36810   19.78220   18.73660   18.06430   18.73660    -999.25    0.24100    0.19710    2.48620 -125.05840   -6.39840   18.06430
 7300.00000   10.22740    9.44850    9.44850  100.57730    0.24930    2.43390    -999.25    0.13540    0.16570    9.94260    0.24930   76.29250   76.29250  110.06330  102.57400  102.57400    9.94260    9.66670   10.93070    9.66670    -999.25    0.26080    0.21680    2.43180 -125.12180   -6.59400   10.93070
 7350.00000    9.25030    9.12770    9.12770   38.89660    0.17860    2.68200    -999.25   -0.01940    0.01640   25.70920    0.17860   64.96640   64.96640   74.97730   74.58750   74.58750   25.70920   15.74710   45.53940   15.74710    -999.25    0.23280    0.18900    2.68570 -124.60120   -6.20550   45.53940
 7400.00000    9.46940    9.20080    9.20080   97.03650    0.24010    2.44390    -999.25    0.12170    0.15250   10.30540    0.24010   75.13980   75.13980  104.80830  105.99400  105.99400   10.30540    9.70050   12.09590    9.70050    -999.25    0.25530    0.21140    2.44630 -124.38400   -6.12050   12.09590
 7450.00000   10.52890    9.08720    9.08720  105.20670    0.24600    2.47380    -999.25    0.10670    0.13810    9.50510    0.24600   77.18060   77.18060  103.62970  107.80370  107.80370    9.50510    9.08620   10.04640    9.08620    -999.25    0.27220    0.22830    2.47640 -123.99580   -5.86450   10.04640
 7500.00000    9.95180    9.33810    9.33810  101.31810    0.21290    2.41100    -999.25    0.14000    0.17020    9.86990    0.21290   74.45350   74.45350  109.95780  103.45730  103.45730    9.86990    9.26890   11.08850    9.26890    -999.25    0.26420    0.22030    2.42140 -123.11780   -5.11870   11.08850
 7550.00000   10.91550    9.48830    9.48830  118.94710    0.22690    2.34150    -999.25    0.19370    0.22200    8.40710    0.22690   81.66420   81.66420  115.08050  115.38100  115.38100    8.40710    8.04680   10.23530    8.04680    -999.25    0.34300    0.29930    2.33760 -122.81180   -4.94490   10.23530
 7600.00000   10.50110    9.48620    9.48620  129.96970    0.21530    2.25790    -999.25    0.23760    0.26440    7.69410    0.21530   88.29300   88.29300  120.44430  115.51360  115.51360    7.69410    7.37550    9.40010    7.37550    -999.25    0.38390    0.34070    2.24240 -122.73260   -4.99780    9.40010
 7650.00000    9.21910    8.91340    8.91340   77.17900    0.20750    2.50530    -999.25    0.09730    0.12900   12.95690    0.20750   84.11610   84.11610  122.74100  120.67830  120.67830   12.95690   12.54280   15.55170   12.54280    -999.25    0.33880    0.29510    2.49830 -121.53570   -3.93310   15.55170
 7700.00000    9.88750    8.91260    8.91260   87.79320    0.22120    2.47690    -999.25    0.10490    0.13630   11.39040    0.22120   81.56460   81.56460  120.89640  116.76320  116.76320   11.39040   10.49030   14.78850   10.49030    -999.25    0.33270    0.28890    2.48160 -122.11570   -4.64530   14.78850
 7750.00000    9.99490    9.04600    9.04600  103.28870    0.22970    2.39430    -999.25    0.15510    0.18470    9.68160    0.22970   87.58200   87.58200  127.29360  123.50600  123.50600    9.68160    9.11150   12.06400    9.11150    -999.25    0.37280    0.32950    2.39370 -120.99660   -3.65840   12.06400
 7800.00000    9.74490    9.18470    9.18470   92.32930    0.25400    2.44360    -999.25    0.12270    0.15350   10.83080    0.25400   87.02450   87.02450  127.07210  117.62260  117.62260   10.83080    9.99530   14.60070    9.99530    -999.25    0.34310    0.29940    2.45550 -120.86650   -3.66050   14.60070
 7850.00000    9.90850    9.29740    9.29740   67.22010    0.25230    2.43320    -999.25    0.13140    0.16190   14.87650    0.25230   85.86900   85.86900  116.04530  104.89550  104.89550   14.87650   13.94000   20.34000   13.94000    -999.25    0.31750    0.27360    2.43940 -120.40770   -3.33380   20.34000
 7900.00000   10.00780    9.45360    9.45360   99.66410    0.23380    2.37160    -999.25    0.16680    0.19600   10.03370    0.23380   82.48560   82.48560  112.06230  103.05780  103.05780   10.03370    9.58540   13.75500    9.58540    -999.25    0.35680    0.31320    2.36890 -120.57230   -3.63060   13.75500
 7950.00000   11.66920    9.96520    9.96520  120.62870    0.25260    2.33940    -999.25    0.18820    0.21670    8.28990    0.25260   87.22510   87.22510  113.98760  114.11780  114.11780    8.28990    7.83320   10.20680    7.83320    -999.25    0.35790    0.31440    2.34210 -120.14050   -3.33100   10.20680
 8000.00000   11.04300    9.90070    9.90070   97.93360    0.11470    2.33890    -999.25    0.20560    0.23350   10.21100    0.11470   88.18370   88.18370  145.77190  138.47410  138.47410   10.21100   10.61770   13.82570   10.61770    -999.25    0.35520    0.31160    2.31880 -120.53020   -4.03840   13.82570
 8050.00000   10.49410    9.97730    9.97730  170.89050    0.18660    2.47390    -999.25    0.10580    0.13720    5.85170    0.18660   85.06790   85.06790  110.19120  109.01490  109.01490    5.85170    5.59570    6.85480    5.59570    -999.25    0.32400    0.28010    2.48000 -123.11420   -7.11840    6.85480
