~Version ---------------------------------------------------
VERS.      2.0 : CWLS log ASCII Standard -VERSION 2.0
WRAP.       NO : One line per depth step
CREA. 11/22/17 : LAS Creation Date
~Well ------------------------------------------------------
STRT.FT                         900.0 : START DEPTH
STOP.FT                        8350.0 : STOP DEPTH
STEP.FT                      50.00000 : STEP LENGTH
NULL.                         -999.25 : NULL VALUE
COMP.         QUINTANA EXPLORATION CO : COMPANY
WELL. QUINTANA ET AL SNIPE 6-23-72-18 : WELL
FLD .                                 : FIELD
LOC .                                 : LOCATION
CTRY.                          CANADA : COUNTRY
SRVC.          Schlumberger of Canada : SERVICE COMPANY
DATE.                     22-Mar-1977 : LOGDATE
PROV.                         Alberta : PROVINCE
UWI .                100062307218W500 : UNIQUE WELL ID
SLAT.WGS84                   55.24794 : SURFACE LATITUDE
SLON.WGS84                  -116.6597 : SURFACE LONGITUDE
~Curve Information -----------------------------------------
DEPT    .FT    : Depth Curve
CALDED  .IN    : CALIPER FROM DENSITY LOG
CALSED  .IN    : CALIPER FROM SONIC LOG
CALWS   .IN    : CALIPER [CALSED]
CONDWS  .MMHO  : CONDUCTIVITY [1000/DRESWS]
DCORWS  .G/C3  : DENSITY CORRECTION [DRHOED]
DENWS   .G/C3  : FORMATION BULK DENSITY [CALC FROM DPOLSWS, M=2.71, F=1.00]
DPHILSED.V/V   : DENSITY POROSITY LIMESTONE [M=2.71, F=1.00] FROM DENSITY LOG
DPHISSED.V/V   : DENSITY POROSITY SANDSTONE [M=2.65, F=1.00] FROM DENSITY LOG
DPOLSWS .V/V   : DENSITY POROSITY LIMESTONE [DPHISSED CONVERTED TO LS, SPL TO DPHILSED @1274M & SPL TO CALC FROM RHOBED, SEE the Other Information]
DRESWS  .OHMM  : DEEP RESISTIVITY [ILDED]
DRHOED  .G/C3  : DENSITY CORRECTION FROM DENSITY LOG
DTED    .US/F  : DELTA TIME FROM SONIC LOG
DTWS    .US/F  : COMPRESSIONAL SONIC [DTED]
GRDED   .GAPI  : GAMMA RAY FROM DENSITY LOG
GRSED   .GAPI  : GAMMA RAY FROM SONIC LOG
GRWS    .GAPI  : GAMMA RAY [GRSED SPL. TO GRDED @ 964'-8333']
ILDED   .OHMM  : DEEP INDUCTION FROM RESISTIVITY LOG
ILMED   .OHMM  : MEDIUM INDUCTION FROM RESISTIVITY LOG
LL8ED   .OHMM  : 8 INCH LATEROLOG RESISTIVITY FROM RESISTIVITY LOG
MRESWS  .OHMM  : MEDIUM RESISTIVITY [ILMED]
NPHILSED.V/V   : NEUTRON POROSITY LIMESTONE FROM DENSITY LOG
NPHISSED.V/V   : NEUTRON POROSITY SANDSTONE FROM DENSITY LOG
NPOLSWS .V/V   : NEUTRON POROSITY LIMESTONE [NPHISSED MATRIX CONVERSION FOR LIMESTONE & SPL. TO NPHILSED @ 4200']
RHOBED  .G/C3  : BULK DENSITY FROM DENSITY LOG
SPRED   .MV    : SPONTANEOUS POTENTIAL FROM RESISTIVITY LOG
SPWS    .MV    : SPONTANEOUS POTENTIAL [BASELINE 0 MV, SPRED]
SRESWS  .OHMM  : SHALLOW RESISTIVITY [LL8ED]
~Params ----------------------------------------------------
PD  .                     GL : PERMANENT DATUM
EPD .FT                 2330 : ELEVATION PERMANENT DATUM
LMF .                     KB : LOG MEASURED FROM
DAPD.FT                    7 : FEET ABOVE PERMANENT DATUM
EKB .FT                 2347 : KELLY BUSHING
EGL .FT                 2330 : GROUND LEVEL
DATE.               03/22/77 : RUN DATE
RUN .                      1 : RUN NUMBER
DD  .FT                 8390 : DEPTH DRILLER
DL  .FT                 8389 : DEPTH LOGGER
BLI .FT                 8383 : BOTTOM LOG INTERVAL
TLI .FT                  615 : TOP LOG INTERVAL
CBD .FT                  918 : CASING BOTTOM DRILLER
CBL .FT                  916 : CASING BOTTOM LOGGER
BS  .IN                 8.75 : BIT SIZE
BSD .FT                 8390 : BIT SIZE AT DEPTH
DFT .               GEL CHEM : DRILLING FLUID TYPE
DFD .                    9.3 : DRILLING FLUID DENSITY
DFV .                     76 : DRILLING FLUID VISCOSITY
DFPH.                    9.0 : DRILLING FLUID PH
DFL .                    6.0 : DRILLING FLUID LOSS
MSS .               FLOWLINE : MUD SAMPLE SOURCE
RMS .OHMM               3.18 : RESISTIVITY MUD SAMPLE
MST .DEGF                 68 : MUD SAMPLE TEMPERATURE
RMF .OHMM               2.96 : RESISTIVITY MUD FILTRATE SAMPLE
MFST.DEGF                 70 : MUD FILTRATE SAMPLE TEMPERATURE
RMB .OHMM               1.48 : RESISTIVITY MUD AT BHT
TCS .HRS                 1.5 : TIME CIRCULATED STOPPED
LUN .                   7802 : LOGGING UNIT NUMBER
LUL .                    EDM : LOGGING UNIT LOCATION
ENGI.              CERANTOLA : RECORDING ENGINEER
WITN.                  SKOKO : WITNESSED BY
CLNT.                A2DTECH : CLIENT CODE
ORIG.            2" 5" PRINT : ORIGIN OF DATA
UWI .       100062307218W500 : UNIQUE WELL ID
DICO. A2D Technologies, Inc. : DIGITIZING COMPANY
~Other -----------------------------------------------------
DPOLSWS.(@5685'-5705',7139'-7303', 7342'-7345',7375'-7378',7539'-7552' & 7884'-7890']
DIL-CNFD-BCS LOG RUN
RHOB & DRHO HAVE BEEN VERIFIED FROM 2" SECTION
NEUTRON CONVERSION [CNL (NPHI)] USING SCHLUMBERGER CHART
~ASCII -----------------------------------------------------
# ...
 6100.00000   10.64220   10.78000   10.78000   63.38220    0.07820    2.62640    0.04890    -999.25    0.04890   15.77730    0.07820   55.50680   55.50680   20.40810   18.34760   20.40810   15.77730   21.98770  115.74970   21.98770    0.07690    -999.25    0.07690    2.62640  -66.60470  -52.63570  115.74970
 6150.00000   10.64430   10.43120   10.43120   47.60110    0.06270    2.64720    0.03670    -999.25    0.03670   21.00790    0.06270   54.48100   54.48100   20.98410   15.85680   20.98410   21.00790   27.17150  130.05050   27.17150    0.06070    -999.25    0.06070    2.64720  -64.33200  -49.48080  130.05050
 6200.00000   10.95470   10.38790   10.38790    8.29300    0.03190    2.66820    0.02440    -999.25    0.02440  120.58300    0.03190   49.75550   49.75550   21.74730   16.05880   21.74730  120.58300  191.34180  556.09000  191.34180    0.01040    -999.25    0.01040    2.66820  -63.15980  -47.42640  556.09000
 6250.00000   10.65740   10.47630   10.47630   15.04940    0.03470    2.65840    0.03020    -999.25    0.03020   66.44800    0.03470   50.75960   50.75960   22.47310   19.60160   22.47310   66.44800   83.71750  125.74100   83.71750    0.02310    -999.25    0.02310    2.65840  -59.28440  -42.66890  125.74100
 6300.00000   10.75640   10.21440   10.21440   12.50420    0.07230    2.71050   -0.00030    -999.25   -0.00030   79.97330    0.07230   51.31920   51.31920   20.88370   16.94920   20.88370   79.97330  110.43570  146.48850  110.43570    0.01400    -999.25    0.01400    2.71050  -61.26460  -43.76690  146.48850
 6350.00000   11.01600   10.13500   10.13500   12.26970    0.04130    2.67310    0.02160    -999.25    0.02160   81.50130    0.04130   51.75010   51.75010   20.97470   18.42140   20.97470   81.50130  113.97330  179.63040  113.97330    0.00830    -999.25    0.00830    2.67310  -83.84080  -65.46090  179.63040
 6400.00000   10.88920   10.23350   10.23350   24.92280    0.05940    2.70830    0.00100    -999.25    0.00100   40.12390    0.05940   51.35710   51.35710   24.49900   20.32680   24.49900   40.12390   65.02640  163.25760   65.02640    0.01070    -999.25    0.01070    2.70830  -99.32000  -80.05800  163.25760
 6450.00000    9.75580    9.54500    9.54500   14.05430    0.07150    2.71510   -0.00300    -999.25   -0.00300   71.15250    0.07150   49.47220   49.47220   26.13600   19.79750   26.13600   71.15250  163.51190  511.80780  163.51190    0.00520    -999.25    0.00520    2.71510  -91.80180  -71.65760  511.80780
 6500.00000   10.72350   10.48310   10.48310   25.71260    0.13460    2.66110    0.02860    -999.25    0.02860   38.89140    0.13460   51.59120   51.59120   24.75160   26.00360   24.75160   38.89140   71.62330  240.16090   71.62330    0.01330    -999.25    0.01330    2.66110 -100.55560  -79.52920  240.16090
 6550.00000    9.68000    9.64430    9.64430  180.82200    0.08690    2.68810    0.01280    -999.25    0.01280    5.53030    0.08690   56.36120   56.36120   48.57540   46.61850   48.57540    5.53030    8.82720   18.91770    8.82720    0.20380    -999.25    0.20380    2.68810  -98.68690  -76.77840   18.91770
 6600.00000   10.70280    9.95310    9.95310   47.51720    0.15660    2.65240    0.03370    -999.25    0.03370   21.04500    0.15660   52.80590   52.80590   20.27490   15.38960   20.27490   21.04500   34.48460  223.16630   34.48460    0.14120    -999.25    0.14120    2.65240 -140.02840 -117.23770  223.16630
 6650.00000    9.82530    9.24080    9.24080   17.27610    0.11120    2.80050   -0.05290    -999.25   -0.05290   57.88350    0.11120   50.72310   50.72310   28.85770   24.70100   28.85770   57.88350  130.93750  296.65710  130.93750    0.07670    -999.25    0.07670    2.80050 -146.05110 -122.37820  296.65710
 6700.00000    9.81360    9.79850    9.79850   30.33620    0.05870    2.81140   -0.05930    -999.25   -0.05930   32.96390    0.05870   52.26300   52.26300   46.99530   37.43720   46.99530   32.96390   40.76970   52.58600   40.76970    0.09530    -999.25    0.09530    2.81140  -85.58910  -61.03400   52.58600
 6750.00000    9.94660    9.80230    9.80230   33.84030    0.03400    2.70880    0.00070    -999.25    0.00070   29.55060    0.03400   53.83760   53.83760   62.07050   47.34940   62.07050   29.55060   34.90340   44.47550   34.90340    0.02610    -999.25    0.02610    2.70880  -39.28770  -13.85050   44.47550
 6800.00000    9.74540   10.19890   10.19890   47.17070    0.05010    2.71140   -0.00080    -999.25   -0.00080   21.19960    0.05010   54.15870   54.15870   19.33040   15.51360   19.33040   21.19960   21.78150   42.55670   21.78150    0.02440    -999.25    0.02440    2.71140 -101.39910  -75.07970   42.55670
 6850.00000    9.75570    9.99660    9.99660   82.57430    0.00900    2.63150    0.04590    -999.25    0.04590   12.11030    0.00900   60.93020   60.93020   68.22990   60.37740   68.22990   12.11030   12.61120   17.88710   12.61120    0.08050    -999.25    0.08050    2.63150  -34.14030   -6.93870   17.88710
 6900.00000    9.82450    9.67530    9.67530  139.54400    0.23720    2.44960    0.15230    -999.25    0.15230    7.16620    0.23720   73.39120   73.39120   97.47160   84.83590   97.47160    7.16620    8.10790   10.01220    8.10790    0.16880    -999.25    0.16880    2.44960  -41.96010  -13.25420   10.01220
 6950.00000   14.61770   12.62630   12.62630  175.87060    0.21550    2.24210    0.27360    -999.25    0.27360    5.68600    0.21550   72.74740   72.74740   96.04730   81.97720   96.04730    5.68600    7.73750   11.05470    7.73750    0.29010    -999.25    0.29010    2.24210  -73.69410  -43.22940   11.05470
 7000.00000   15.37000   13.92690   13.92690  195.32780    0.22330    1.98370    0.42470    -999.25    0.42470    5.11960    0.22330   73.13060   73.13060   95.70770   86.57660   95.70770    5.11960    6.26680    7.69060    6.26680    0.32400    -999.25    0.32400    1.96720  -79.86260  -47.63910    7.69060
 7050.00000   15.37000   14.33980   14.33980  264.00550    0.20950    2.02500    0.40060    -999.25    0.40060    3.78780    0.20950   85.32350   85.32350  129.73010  117.65140  129.73010    3.78780    4.01010    5.06760    4.01010    0.36460    -999.25    0.36460    2.02500  -88.46060  -54.47840    5.06760
 7100.00000   15.37000   14.45370   14.45370  284.19590    0.17340    2.13540    0.33600    -999.25    0.33600    3.51870    0.17340   86.74200   86.74200  138.57780  127.46140  138.57780    3.51870    3.35700    4.72000    3.35700    0.40540    -999.25    0.40540    2.13540  -92.54530  -56.80430    4.72000
 7150.00000   15.37000   14.01320   14.01320  290.67230    0.18910    2.01840    0.40540    -999.25    0.40440    3.44030    0.18910   88.10000   88.10000  134.34620  121.50940  134.34620    3.44030    3.16450    4.63100    3.16450    0.41770    -999.25    0.41770    2.01680  -83.82670  -46.32690    4.63100
 7200.00000   15.37000   14.07250   14.07250  243.78350    0.16440    1.80660    0.45000    -999.25    0.52830    4.10200    0.16440   83.83700   83.83700  119.16660  108.86930  119.16660    4.10200    3.77110    5.24710    3.77110    0.42870    -999.25    0.42870    1.78570  -94.24150  -54.98290    5.24710
 7250.00000   15.37000   14.27150   14.27150  277.87810    0.16900    1.80370    0.45000    -999.25    0.53000    3.59870    0.16900   86.62760   86.62760  133.59850  116.87160  133.59850    3.59870    3.13650    4.90240    3.13650    0.43570    -999.25    0.43570    1.80370  -73.07950  -32.06210    4.90240
 7300.00000   15.37000   14.23200   14.23200  306.28810    0.18510    2.00280    0.40130    -999.25    0.41360    3.26490    0.18510   88.47770   88.47770  139.18290  125.06390  139.18290    3.26490    2.96960    4.88460    2.96960    0.36740    -999.25    0.36740    2.02380  -61.00550  -18.22930    4.88460
 7350.00000   15.37740   13.99970   13.99970  257.77850    0.25800    2.06880    0.37500    -999.25    0.37500    3.87930    0.25800   83.62720   83.62720  120.21590  103.73700  120.21590    3.87930    3.53160    5.70260    3.53160    0.36630    -999.25    0.36630    2.06880  -58.63440  -14.09940    5.70260
