~Version ---------------------------------------------------
VERS.      2.0 : CWLS log ASCII Standard -VERSION 2.0
WRAP.       NO : One line per depth step
CREA. 09/06/14 : LAS Creation Date
~Well ------------------------------------------------------
STRT.FT                         300.0 : START DEPTH
STOP.FT                       11250.0 : STOP DEPTH
STEP.FT                      50.00000 : STEP LENGTH
NULL.                         -999.25 : NULL VALUE
COMP.            MOBIL OIL CANADA LTD : COMPANY
WELL. MOBIL ET AL ROSEVEAR 10-4-54-15 : WELL
FLD .                              WC : FIELD
LOC .                                 : LOCATION
CTRY.                          CANADA : COUNTRY
SRVC.                    Schlumberger : SERVICE COMPANY
DATE.                     09-Jul-1971 : LOGDATE
PROV.                         Alberta : PROVINCE
UWI .                100100405415W500 : UNIQUE WELL ID
SLAT.WGS84                   53.63557 : SURFACE LATITUDE
SLON.WGS84                  -116.1457 : SURFACE LONGITUDE
~Curve Information -----------------------------------------
DEPT   .FT                : DEPTH FEET
CALD   .IN   45 280 60 00 : CALIPER FROM DENSITY LOG
CALN   .IN   41 280 60 00 : CALIPER FROM NEUTRON LOG
CALS   .IN   60 280 50 00 : CALIPER FROM SONIC LOG
CILD   .MMHO 05 110 46 00 : INDUCTION DEEP CONDUCTIVITY
DPHI_LS.DEC  45 890 10 00 : DENSITY POROSITY LIMESTONE
DRHO   .G/C3 45 356 01 00 : BULK DENSITY CORRECTION
DT     .US/F 60 500 00 00 : DELTA-T (INTERVAL TRANSIT TIME)
GRD    .GAPI 45 310 01 00 : GAMMA RAY FROM DENSITY LOG
GRN    .GAPI 41 310 01 00 : GAMMA RAY FROM GRN LOG
GRS    .GAPI 60 310 01 00 : GAMMA RAY FROM SONIC LOG
ILD    .OHMM 05 120 46 00 : INDUCTION DEEP RESISTIVITY
MCAL   .IN   15 280 01 00 : MLT (MICROLOG) CALIPER
RHOB   .G/C3 45 350 01 00 : BULK DENSITY
SN     .OHMM 05 040 16 00 : SHORT NORMAL RESISTIVITY
SNP_LS .DEC  41 890 01 00 : SIDEWALL NEUTRON POROSITY [LIMESTONE]
SPR    .MV   05 010 01 00 : SPONTANEOUS POTENTIAL FROM RESISTIVITY LOG
~Params ----------------------------------------------------
PD  .                     GL : PERMANENT DATUM
EPD .FT                 2903 : ELEVATION PERMANENT DATUM
LMF .                     KB : LOG MEASURED FROM
DAPD.FT                   13 : FEET ABOVE PERMANENT DATUM
EKB .FT                 2916 : KELLY BUSHING
EGL .FT                 2903 : GROUND LEVEL
DATE.               07/09/71 : RUN DATE
RUN .                      1 : RUN NUMBER
DD  .FT                11300 : DEPTH DRILLER
DL  .FT                11289 : DEPTH LOGGER
BLI .FT                11288 : BOTTOM LOG INTERVAL
TLI .FT                 1176 : TOP LOG INTERVAL
CBD .FT                 1176 : CASING BOTTOM DRILLER
CBL .FT                 1176 : CASING BOTTOM LOGGER
BS  .IN                 8.75 : BIT SIZE
BSD .FT                11300 : BIT SIZE AT DEPTH
DFT .                    GEL : DRILLING FLUID TYPE
DFD .                    9.1 : DRILLING FLUID DENSITY
DFV .                    100 : DRILLING FLUID VISCOSITY
DFPH.                     11 : DRILLING FLUID PH
DFL .                    8.2 : DRILLING FLUID LOSS
RMS .OHMM               2.46 : RESISTIVITY MUD SAMPLE
MST .DEGF                 71 : MUD SAMPLE TEMPERATURE
RMF .OHMM               2.36 : RESISTIVITY MUD FILTRATE SAMPLE
MFST.DEGF                 72 : MUD FILTRATE SAMPLE TEMPERATURE
RMC .OHMM               2.22 : RESISTIVITY MUD CAKE
MCST.DEGF                 72 : MUD CAKE SAMPLE TEMPERATURE
TCS .HRS                   5 : TIME CIRCULATED STOPPED
LUN .                   7501 : LOGGING UNIT NUMBER
LUL .                    EDM : LOGGING UNIT LOCATION
ENGI.                  PLUNE : RECORDING ENGINEER
WITN.                   DOAN : WITNESSED BY
CLNT.                A2DTECH : CLIENT CODE
ORIG.            2" 5" PRINT : ORIGIN OF DATA
UWI .       100100405415W500 : UNIQUE WELL ID
DICO. A2D Technologies, Inc. : DIGITIZING COMPANY
~Other -----------------------------------------------------
~ASCII -----------------------------------------------------
# ...
 6750.00000    9.19290    9.33140    9.36700   33.98220    0.17270    0.05720   71.98250   43.37460   41.44370   40.91700   28.86670    9.06730    2.52950   34.08390    0.10990 -120.94460
 6800.00000   12.05550    9.33730    9.91170   79.99110    0.32420    -999.25   76.74930   85.57790   87.18530   86.82280   12.52400   10.64470    2.11480   14.31460    0.28910 -106.95100
 6850.00000    8.92920    9.25980    9.53600   50.40330    0.05170    0.05300   66.58260   82.89590   81.02090   78.92750   19.74150    8.93100    2.68310   23.49620    0.10410 -104.98270
 6900.00000    8.96350    9.36750    9.81630   64.37020    0.09020    0.04430   67.30900   57.83290   56.76490   61.60880   15.63610    9.06500    2.55840   20.72240    0.09580 -116.81710
 6950.00000   13.43440   10.19360   11.24900   61.54590    0.61990    0.23800   78.84990   84.06060   87.17930   84.32930   16.83160   10.00550    2.08490   22.08410    0.33770 -102.95640
 7000.00000   10.89720   11.15630   10.24070   31.06570    0.35210    0.16780   94.90090   64.27720   61.83310   59.70630   32.70880   10.65490    2.13670   43.56540    0.38940  -98.98380
 7050.00000    8.96670    9.39510    9.67740   65.69640    0.05720    0.03100   70.97900   79.47610   77.49310   78.66020   15.35450    9.13540    2.63780   18.87660    0.11360  -92.66460
 7100.00000   11.29000   11.96180   10.26540  109.48670    0.28310    0.25280   81.86840   65.14990   67.38530   61.72210    9.14960   10.33830    2.04000   11.46200    0.35330  -97.52750
 7150.00000    9.57990    9.82040    9.89280   66.23470    0.05920    0.11370   72.26770   66.47190   66.63270   66.34090   15.06970    9.55620    2.60410   17.56930    0.20350  -97.06490
 7200.00000    9.07740    9.36680    9.51390   25.26120    0.07460    0.09400   66.54780   50.87530   43.33720   46.82530   38.37850    9.06990    2.55030   40.53650    0.06730 -100.98210
 7250.00000    9.62950    9.51680    9.60540   25.75780    0.02500    0.07820   66.75090   53.28670   52.77040   52.47780   41.66860    9.10610    2.66270   47.38930    0.11220  -93.36780
 7300.00000   11.62800   11.48310   10.37960   20.55420    0.26650    -999.25   70.55590   79.59020   79.72740   82.23690   46.52210   10.38620    2.31600   48.16890    0.26810  -95.15880
 7350.00000   12.71460   11.08720    9.88070   44.72090    0.20250    0.24660   75.72870   88.39320   94.22960   89.46880   21.72000   10.58620    2.48400   28.70660    0.29700  -95.60350
 7400.00000   10.03000    9.70640    9.48830   68.56100    0.12150    0.23900   75.54430   86.29500   90.53960   92.35560   14.78280    9.43420    2.60330   19.88250    0.20160  -97.33130
 7450.00000    9.69970    9.82770    9.42280   34.00580    0.08340    0.20120   58.68980   44.18280   47.01430   48.02170   28.55360    9.41480    2.61060   33.67760    0.04150 -101.60920
 7500.00000   12.26690   11.77570   10.56840  114.96180    0.11850    0.23020   89.76610   89.35430   97.04380   88.12560    8.57830   11.26010    2.21880   12.93830    0.35780  -95.63880
 7550.00000    8.63900    8.59710    9.14320   17.12650    0.10800    0.06050   56.67150   19.56880   17.95500   19.08990   57.49190    8.60200    2.64590   84.51440    0.05020 -149.30150
 7600.00000    8.51750    8.60670    9.15350    3.49660    0.07450    0.07720   55.85360   12.91480   11.25200   13.26070  269.50130    8.88570    2.59540  209.60440    0.04350 -145.31670
 7650.00000    8.56440    8.84270    9.10890    6.78860    0.07020    0.06980   57.15670   55.08170   56.59040   60.21700  147.69450    8.58600    2.60710  159.33620    0.06330  -97.97240
 7700.00000   11.91050   11.74150    9.99930   38.70670    0.20470    0.24870   53.99860   33.24110   29.43600   29.67000   25.86120   10.27560    2.43070   45.66620    0.16580 -121.61610
 7750.00000    8.99960    8.66230    9.20710    5.70970   -0.12250    0.01240   49.79120    9.60060    8.75150   10.22690  170.01830    8.50360    2.90340  117.79080    0.00270 -106.64710
 7800.00000    9.31040    9.26660    9.62340   27.08600   -0.08170    0.04020   52.96320   20.30060   20.38110   32.01430   36.03700    8.46790    2.83020   54.28820    0.02030 -124.28340
 7850.00000   10.54610   10.26610    9.92850   16.63220    0.13280    0.25090   49.64690   10.82760    8.63390    9.80000   57.73260    9.40420    2.57840  133.23360    0.10230 -170.09100
 7900.00000   12.54250   11.41690   10.41570    3.96620   -0.19730    0.24720   52.17020   15.60020   16.96440   17.55100  248.88110   10.80730    2.45650  131.33740    0.16280 -181.62080
 7950.00000   11.73570    8.74020    9.74660   67.34300   -0.01200    0.24950   56.76900   47.56270   46.95170   55.49940   14.69040    8.61480    2.17010   32.00850    0.06010 -132.40450
 8000.00000    8.85560    8.79380    9.16720   91.63570    0.00370    0.01520   61.70870   80.09060   87.99210   85.30340   10.85450    8.69610    2.74060   14.50250    0.08190  -94.95050
 8050.00000    8.92400    8.94740    9.20480   36.83070   -0.03920    0.14680   52.80050   36.43180   37.27660   38.82510   27.04040    8.72330    2.82260   34.78680    0.04090 -116.15920
 8100.00000    9.17880    9.05310    9.13820  118.09530    0.05930    0.05620   69.10140   32.80680   33.16920   36.71810    8.57140    8.78410    2.64080   17.20800    0.09500 -153.24730
 8150.00000    9.52400    8.89570    9.63450   39.01590   -0.01600    0.13880   51.20530   14.74210   12.62560   12.62280   28.11280    9.10690    2.77410   39.79600    0.02780  -95.50440
 8200.00000    9.05720    8.79730    9.20010   33.88040    0.01230    0.03220   55.13010   31.03650   29.37940   32.37280   29.46010    8.67430    2.73710   35.86300    0.04060  -67.71610
 8250.00000    8.81090    8.82550    9.08320   23.80850   -0.00350    0.05060   55.54180   38.32290   37.98920   41.11630   42.07140    8.58340    2.76460   54.20120    0.03530  -67.09580
 8300.00000    8.74160    8.86330    9.11800   17.05850   -0.00700    0.04850   55.19940   32.47290   36.66720   35.12200   55.85380    8.54450    2.76040   63.57180    0.03300  -68.88450
 8350.00000    8.67250    8.80010    9.05490    4.87880    0.02210    0.03410   53.55880   27.22440   31.39100   32.13890  199.59930    8.55970    2.71280  143.77410    0.02230  -68.43800
 8400.00000    8.93170    8.85740    9.13680   32.69590    0.04050    0.01830   60.62270   49.45370   49.04740   51.13990   30.78600    8.60260    2.70810   37.54590    0.04950  -65.39590
 8450.00000    8.78030    8.81550    9.06710    6.39920    0.02920    0.00990   61.59160   70.27720   83.06770   82.03760  152.37980    8.72870    2.69170  132.81560    0.05700  -67.96130
 8500.00000    9.69420    9.39360    9.27150    1.58980    0.01040    0.20580   51.18110   11.11470    7.88650   10.02350  512.67940    9.11570    2.65460  142.29020    0.02870  -79.16240
 8550.00000   10.86000   10.47880    9.64300    1.16440    0.11300    -999.25   50.06330   11.34080   10.50520   11.74000    -999.25   10.38680    2.57220  336.39390    0.07880 -138.99410
 8600.00000   11.96040   11.70210    9.71190    6.90440    0.11580    0.24020   51.18990   13.79690   11.93200   15.23960  136.96940   11.52270    2.57340  129.81450    0.07790 -164.34490
 8650.00000    -999.25    8.49190   11.25180    3.21280    0.58980    0.17020   48.98500   11.33620   11.26120   10.96480  297.42620   14.03590    1.69070  136.22260    0.49980 -172.65290
 8700.00000    -999.25    -999.25    9.68980    0.75790    0.59040    0.15270   48.88560   12.45590   11.08340   10.02590    -999.25   13.54280    1.67390  125.56340    0.38480 -174.00480
 8750.00000    -999.25    -999.25   11.22490    2.05010    0.49450    0.19700   50.15320   12.93420   12.12770   11.30890  499.98110   13.80190    1.71060  167.86720    0.40700 -170.69610
 8800.00000   14.35600   13.93700   10.08140    1.48490    0.25170    0.21800   51.69150   11.21270    6.91620    9.34700  456.84030   13.53140    2.32080  177.25600    0.13470 -176.40320
 8850.00000   13.42930   13.11260   10.46820    0.87560    0.18270    0.19050   49.29400    9.00180    9.83720    9.46100    -999.25   12.35260    2.43950  137.97680    0.10790 -187.90610
