~Version ---------------------------------------------------
VERS.      2.0 : CWLS log ASCII Standard -VERSION 2.0
WRAP.       NO : One line per depth step
CREA. 11/22/17 : LAS Creation Date
~Well ------------------------------------------------------
STRT.FT                              300.0 : START DEPTH
STOP.FT                            16950.0 : STOP DEPTH
STEP.FT                           50.00000 : STEP LENGTH
NULL.                              -999.25 : NULL VALUE
COMP.                        BANFF OIL LTD : COMPANY
WELL. BANFF AQUIT SIEBENS RAMR 14-21-37-11 : WELL
FLD .                                      : FIELD
LOC .                                      : LOCATION
CTRY.                               CANADA : COUNTRY
SRVC.                         Schlumberger : SERVICE COMPANY
DATE.                          21-Oct-1970 : LOGDATE
PROV.                              Alberta : PROVINCE
UWI .                     100142103711W500 : UNIQUE WELL ID
SLAT.WGS84                        52.19912 : SURFACE LATITUDE
SLON.WGS84                       -115.5164 : SURFACE LONGITUDE
~Curve Information -----------------------------------------
DEPT    .FT    : Depth Curve
CALDED  .IN    : CALIPER FROM DENSITY LOG [DEP. ADJ. TO ILMED]
CALNED  .IN    : CALIPER FROM NEUTRON LOG [DEP. ADJ. TO ILMED]
CALSED  .IN    : CALIPER FROM SONIC LOG [DEP. ADJ. TO ILMED]
CALWS   .IN    : CALIPER 148' CALSED 13012' CALNED 13190' CALDED 14980' CALSED 15315' CALDED 16246' CALSED]
CONDWS  .MMHO  : DEEP CONDUCTIVITY [1000/DRESWS]
DCORWS  .G/C3  : DENSITY CORRECTION [DRHOED]
DENWS   .G/C3  : BULK DENSITY [M=2.71, F=1.00] [RHOBED]
DPHILSED.V/V   : DENSITY POROSITY [M=2.71, F=1.00] FROM DENSITY LOG [DEP. ADJ. TO ILMED]
DPOLSWS .V/V   : DENSITY POROSITY [M=2.71, F=1.00] [CAL. FROM DENWS]
DRESWS  .OHMM  : DEEP RESISTIVITY [ILDED]
DRHOED  .G/C3  : DENSITY CORRECTION FROM DENSITY LOG [DEP. ADJ. TO ILMED]
DTED    .US/F  : DELTA TIME FROM SONIC LOG [DEP. ADJ. TO ILMED]
DTWS    .US/F  : DELTA TIME [DTED]
GRDED   .GAPI  : GAMMA RAY FROM DENSITY LOG [DEP. ADJ. TO ILMED]
GRNED   .GAPI  : GAMMA RAY FROM NEUTRON LOG [DEP. ADJ. TO ILMED]
GRSED   .GAPI  : GAMMA RAY FROM SONIC LOG [DEP. ADJ. TO ILMED]
GRWS    .GAPI  : GAMMA RAY [GRSED]
ILDED   .OHMM  : INDUCTION LOG DEEP RESISTIVITY
ILMED   .OHMM  : INDUCTION LOG MEDIUM RESISTIVITY
LL8ED   .OHMM  : 8 INCH LATEROLOG RESISTIVITY
MRESWS  .OHMM  : MEDIUM RESISTIVITY [ILMED]
NPOLSWS .V/V   : NEUTRON POROSITY LIMESTONE [SNPLSED]
RHOBED  .G/C3  : BULK DENSITY FROM DENSITY LOG [DEP. ADJ. TO ILMED]
SNPLSED .V/V   : SIDEWALL NEUTRON POROSITY [LIMESTONE] [DEP. ADJ. TO ILMED]
SPRED   .MV    : SPONTANEOUS POTENTIAL FROM RESIST. LOG [DIVIDED BY 2 BELOW 13778'], SHIFTS REMOVED, PATCHED]
SPWS    .MV    : SPONTANEOUS POTENTIAL [BASELINE 0 MV] [SPRED][PL. USE W/ RESERVATION]
SRESWS  .OHMM  : SHALLOW RESISTIVITY [LL8ED]
~Params ----------------------------------------------------
PD  .                     GL : PERMANENT DATUM
EPD .FT                 4914 : ELEVATION PERMANENT DATUM
LMF .                     KB : LOG MEASURED FROM
DAPD.FT                 18.7 : FEET ABOVE PERMANENT DATUM
EKB .FT               4932.7 : KELLY BUSHING
EGL .FT                 4914 : GROUND LEVEL
DATE.               10/21/70 : RUN DATE
RUN .                      4 : RUN NUMBER
DD  .FT                16960 : DEPTH DRILLER
DL  .FT                16960 : DEPTH LOGGER
BLI .FT                16954 : BOTTOM LOG INTERVAL
TLI .FT                16000 : TOP LOG INTERVAL
BS  .IN                8.375 : BIT SIZE
BSD .FT                16960 : BIT SIZE AT DEPTH
DFT .                    GEL : DRILLING FLUID TYPE
DFD .                   10.1 : DRILLING FLUID DENSITY
DFV .                     61 : DRILLING FLUID VISCOSITY
DFPH.                     10 : DRILLING FLUID PH
DFL .                    8.4 : DRILLING FLUID LOSS
MSS .               FLOWLINE : MUD SAMPLE SOURCE
RMS .OHMM               1.51 : RESISTIVITY MUD SAMPLE
MST .DEGF                 66 : MUD SAMPLE TEMPERATURE
RMF .OHMM               1.11 : RESISTIVITY MUD FILTRATE SAMPLE
MFST.DEGF                 70 : MUD FILTRATE SAMPLE TEMPERATURE
TCS .HRS                   4 : TIME CIRCULATED STOPPED
LUN .                   7002 : LOGGING UNIT NUMBER
LUL .                     RD : LOGGING UNIT LOCATION
ENGI.                 TALBOT : RECORDING ENGINEER
WITN.          LEMEE BRINKER : WITNESSED BY
CLNT.                A2DTECH : CLIENT CODE
ORIG.            2" 5" PRINT : ORIGIN OF DATA
UWI .       100142103711W500 : UNIQUE WELL ID
DICO. A2D Technologies, Inc. : DIGITIZING COMPANY
~Other -----------------------------------------------------
~ASCII -----------------------------------------------------
# ...
 2900.00000    -999.25    -999.25   12.61590   12.61590    0.72360    -999.25    -999.25    -999.25    -999.25 1382.07250    -999.25   47.54310   47.54310    -999.25    -999.25   29.57650   29.57650 1382.07250 1427.81880 1333.96140 1427.81880    -999.25    -999.25    -999.25  -14.02690  -61.12190 1333.96140
 2950.00000    -999.25    -999.25   12.53080   12.53080    1.50810    -999.25    -999.25    -999.25    -999.25  663.07520    -999.25   51.20860   51.20860    -999.25    -999.25   32.55230   32.55230  663.07520  968.24720  734.31980  968.24720    -999.25    -999.25    -999.25  -24.10070  -72.66490  734.31980
 3000.00000    -999.25    -999.25   12.56820   12.56820    1.11100    -999.25    -999.25    -999.25    -999.25  900.09280    -999.25   48.97020   48.97020    -999.25    -999.25   60.99170   60.99170  900.09280 1318.03490 1062.33230 1318.03490    -999.25    -999.25    -999.25  -26.43540  -76.46880 1062.33230
 3050.00000    -999.25    -999.25   12.54320   12.54320    1.26730    -999.25    -999.25    -999.25    -999.25  789.07900    -999.25   50.09690   50.09690    -999.25    -999.25   35.82790   35.82790  789.07900 1182.21300  698.45070 1182.21300    -999.25    -999.25    -999.25  -20.29280  -71.79540  698.45070
 3100.00000    -999.25    -999.25   12.72420   12.72420    1.08260    -999.25    -999.25    -999.25    -999.25  923.67100    -999.25   51.75290   51.75290    -999.25    -999.25   32.02710   32.02710  923.67100 1434.27970  720.13280 1434.27970    -999.25    -999.25    -999.25  -13.08060  -66.05250  720.13280
 3150.00000    -999.25    -999.25   12.97980   12.97980    0.74990    -999.25    -999.25    -999.25    -999.25 1333.51120    -999.25   45.07510   45.07510    -999.25    -999.25   35.86440   35.86440 1333.51120 1445.57650 1380.03690 1445.57650    -999.25    -999.25    -999.25    6.60330  -47.83780 1380.03690
 3200.00000    -999.25    -999.25   13.02730   13.02730    0.76200    -999.25    -999.25    -999.25    -999.25 1312.32030    -999.25   47.19030   47.19030    -999.25    -999.25   28.57970   28.57970 1312.32030 1451.50730 1383.59460 1451.50730    -999.25    -999.25    -999.25   21.09180  -34.81860 1383.59460
 3250.00000    -999.25    -999.25   13.03530   13.03530    0.73840    -999.25    -999.25    -999.25    -999.25 1354.21730    -999.25   46.08170   46.08170    -999.25    -999.25   34.76740   34.76740 1354.21730 1430.69130 1420.10080 1430.69130    -999.25    -999.25    -999.25   12.46070  -44.91890 1420.10080
 3300.00000    -999.25    -999.25   12.88330   12.88330    1.08310    -999.25    -999.25    -999.25    -999.25  923.27290    -999.25   45.92200   45.92200    -999.25    -999.25   30.42400   30.42400  923.27290 1367.69930 1203.94120 1367.69930    -999.25    -999.25    -999.25    2.96030  -55.88850 1203.94120
 3350.00000    -999.25    -999.25   12.95700   12.95700    0.76060    -999.25    -999.25    -999.25    -999.25 1314.72950    -999.25   46.25600   46.25600    -999.25    -999.25   34.66400   34.66400 1314.72950 1417.15630 1107.52000 1417.15630    -999.25    -999.25    -999.25   -6.92840  -67.24640 1107.52000
 3400.00000    -999.25    -999.25   12.92250   12.92250    2.08070    -999.25    -999.25    -999.25    -999.25  480.61310    -999.25   53.33670   53.33670    -999.25    -999.25   59.76200   59.76200  480.61310  502.76030  451.78230  502.76030    -999.25    -999.25    -999.25   -3.96410  -65.75140  451.78230
 3450.00000    -999.25    -999.25   12.85370   12.85370    1.49640    -999.25    -999.25    -999.25    -999.25  668.25080    -999.25   50.98530   50.98530    -999.25    -999.25   50.93860   50.93860  668.25080  616.66600  521.86900  616.66600    -999.25    -999.25    -999.25   -0.46130  -63.71780  521.86900
 3500.00000    -999.25    -999.25   12.82680   12.82680    2.90280    -999.25    -999.25    -999.25    -999.25  344.49260    -999.25   52.37670   52.37670    -999.25    -999.25   49.74140   49.74140  344.49260  363.67430  395.73200  363.67430    -999.25    -999.25    -999.25  -15.73140  -80.45710  395.73200
 3550.00000    -999.25    -999.25   12.81890   12.81890    1.37110    -999.25    -999.25    -999.25    -999.25  729.36530    -999.25   50.15840   50.15840    -999.25    -999.25   42.94530   42.94530  729.36530  641.35060  941.02390  641.35060    -999.25    -999.25    -999.25  -17.70360  -83.89860  941.02390
 3600.00000    -999.25    -999.25   12.85460   12.85460    3.48060    -999.25    -999.25    -999.25    -999.25  287.30690    -999.25   53.42550   53.42550    -999.25    -999.25   51.13970   51.13970  287.30690  270.22420  331.84540  270.22420    -999.25    -999.25    -999.25  -12.24720  -79.91140  331.84540
 3650.00000    -999.25    -999.25   12.77170   12.77170    0.84230    -999.25    -999.25    -999.25    -999.25 1187.16040    -999.25   49.78660   49.78660    -999.25    -999.25   41.01120   41.01120 1187.16040  826.56380 1044.96880  826.56380    -999.25    -999.25    -999.25   -4.77550  -73.90890 1044.96880
 3700.00000    -999.25    -999.25   13.32800   13.32800    0.74650    -999.25    -999.25    -999.25    -999.25 1339.62700    -999.25   50.94180   50.94180    -999.25    -999.25   32.70740   32.70740 1339.62700 1089.65710 1271.97640 1089.65710    -999.25    -999.25    -999.25    8.80340  -61.79930 1271.97640
 3750.00000    -999.25    -999.25   13.40040   13.40040    1.10210    -999.25    -999.25    -999.25    -999.25  907.33410    -999.25   50.01660   50.01660    -999.25    -999.25   33.52400   33.52400  907.33410  859.74390  526.53750  859.74390    -999.25    -999.25    -999.25   24.25190  -47.82000  526.53750
 3800.00000    -999.25    -999.25   13.84700   13.84700    7.94350    -999.25    -999.25    -999.25    -999.25  125.88880    -999.25   58.44320   58.44320    -999.25    -999.25   58.44880   58.44880  125.88880  116.53350  106.74990  116.53350    -999.25    -999.25    -999.25   63.13320  -10.40790  106.74990
 3850.00000    -999.25    -999.25   13.99930   13.99930   11.12560    -999.25    -999.25    -999.25    -999.25   89.88260    -999.25   62.44290   62.44290    -999.25    -999.25   73.40030   73.40030   89.88260   87.04220   74.78470   87.04220    -999.25    -999.25    -999.25   70.22250   -4.78780   74.78470
 3900.00000    -999.25    -999.25   14.11400   14.11400   12.09180    -999.25    -999.25    -999.25    -999.25   82.70070    -999.25   62.17940   62.17940    -999.25    -999.25   68.99020   68.99020   82.70070   79.38390   75.51280   79.38390    -999.25    -999.25    -999.25   49.13530  -26.22340   75.51280
 3950.00000    -999.25    -999.25   14.07660   14.07660   13.43190    -999.25    -999.25    -999.25    -999.25   74.44950    -999.25   64.11940   64.11940    -999.25    -999.25   74.14480   74.14480   74.44950   70.28320   66.79200   70.28320    -999.25    -999.25    -999.25   39.87970  -35.56430   66.79200
 4000.00000    -999.25    -999.25   14.10400   14.10400   15.71030    -999.25    -999.25    -999.25    -999.25   63.65250    -999.25   64.02700   64.02700    -999.25    -999.25   75.84260   75.84260   63.65250   59.66860   61.59210   59.66860    -999.25    -999.25    -999.25   28.83820  -46.69120   61.59210
 4050.00000    -999.25    -999.25   14.06410   14.06410   16.84450    -999.25    -999.25    -999.25    -999.25   59.36650    -999.25   72.53630   72.53630    -999.25    -999.25   82.10540   82.10540   59.36650   50.88710   60.50760   50.88710    -999.25    -999.25    -999.25   23.42700  -52.18780   60.50760
 4100.00000    -999.25    -999.25   13.94820   13.94820   17.75790    -999.25    -999.25    -999.25    -999.25   56.31300    -999.25   64.96990   64.96990    -999.25    -999.25   67.33220   67.33220   56.31300   53.32910   60.02790   53.32910    -999.25    -999.25    -999.25   12.59590  -63.10430   60.02790
 4150.00000    -999.25    -999.25   13.75670   13.75670   17.23920    -999.25    -999.25    -999.25    -999.25   58.00730    -999.25   65.62970   65.62970    -999.25    -999.25   63.36870   63.36870   58.00730   52.43490   63.29810   52.43490    -999.25    -999.25    -999.25   15.09350  -60.69210   63.29810
