~Version ---------------------------------------------------
VERS.      2.0 : CWLS log ASCII Standard -VERSION 2.0
WRAP.       NO : One line per depth step
CREA. 06/26/13 : LAS Creation Date
~Well ------------------------------------------------------
STRT.M                           500.0 : START DEPTH
STOP.M                          3700.0 : STOP DEPTH
STEP.M                        50.00000 : STEP LENGTH
NULL.                          -999.25 : NULL VALUE
COMP. AMOCO CANADA PETROLEUM CO., LTD. : COMPANY
WELL.            AMOCO TONY 10-9-62-23 : WELL
FLD .                                  : FIELD
LOC .                                  : LOCATION
CTRY.                           CANADA : COUNTRY
SRVC.                    Dresser Atlas : SERVICE COMPANY
DATE.                      10-Aug-1978 : LOGDATE
PROV.                          Alberta : PROVINCE
UWI .                 100100906223W500 : UNIQUE WELL ID
SLAT.WGS84                    54.35109 : SURFACE LATITUDE
SLON.WGS84                   -117.3832 : SURFACE LONGITUDE
~Curve Information -----------------------------------------
DEPT    .M      : DEPTH METER
ACED    .US/M   : ACOUSTIC FROM SONIC LOG [ADJ. TO RESISTIVITY LOG]
CALDED  .MM     : CALIPER FROM DENSITY LOG [ADJ. TO RESISTIVITY LOG]
CALSED  .MM     : CALIPER FROM SONIC LOG [ADJ. TO RESISTIVITY LOG]
CALWS   .MM     : CALIPER [CALED]
CONDWS  .MMHO   : CONDUCTIVITY [1000/DRESWS]
CORRED  .KG/M3  : DENSITY CORRECTION FROM DENSITY LOG [ADJ. TO RESISTIVITY LOG]
DCORWS  .KG/M3  : DENSITY CORRECTION [CORRED]
DENWS   .KG/M3  : FORMATION BULK DENSITY [RHOBED]
DPHILSED.V/V    : DENSITY POROSITY LIMESTONE [M=2710,F=1000] FROM DENSITY LOG [ADJ. TO RESISTIVITY LOG]
DPHISSED.V/V    : DENSITY POROSITY SANDSTONE [M=2650,F=1000FROM DENSITY LOG [ADJ. TO RESISTIVITY LOG]
DPOLSWS .V/V    : DENSITY POROSITY LIMESTONE [CALC FROM DENWS,M=2710,F=1000]
DRESWS  .OHMM   : DEEP RESISTIVITY [ILDED]
DTWS    .US/M   : COMPRESSIONAL SONIC [ACED]
GRDED   .GAPI   : GAMMA RAY FROM DENSITY LOG
GRSED   .GAPI   : GAMMA RAY FROM SONIC LOG [ADJ. TO RESISTIVITY LOG]
GRWS    .GAPI   : GAMMA RAY [GRSED SPL. TO GRDED @ 458.6 M] GRDED IN CSG 2455-2459 M ADDED 65 GAPI
ILDED   .OHMM   : DEEP INDUCTION RESISTIVITY FROM RESISTIVITY LOG
ILMED   .OHMM   : MEDIUM INDUCTION RESISTIVITY FROM RESISTIVITY LOG
MRESWS  .OHMM   : MEDIUM RESISTIVITY [ILMED]
NPHILSED.V/V    : NEUTRON POROSITY LIMESTONE FROM DENSITY LOG [ADJ. TO RESISTIVITY LOG]
NPHISSED.V/V    : NEUTRON POROSITY SANDSTONE FROM DENSITY LOG [ADJ. TO RESISTIVITY LOG]
NPOLSWS .V/V    : NEUTRON POROSITY LIMESTONE [CNCSSED CONVERTED TO LIMESTONE MATRIX,SPL. TO CNCLSED @ 2459M]
RHOBED  .KG/M3  : BULK DENSITY FROM DENSITY LOG [ADJ. TO RESISTIVITY LOG]
SFLED   .OHMM   : SPHERICALLY FOCUSED RESISTIVITY FROM RESISTIVITY LOG
SPRED   .MV     : SPONTANEOUS POTENTIAL FROM RESISTIVITY LOG
SPWS    .MV     : SPONTANEOUS POTENTIAL [BASELINE 0 MV,SPRED]
SRESWS  .OHMM   : SHALLOW RESISTIVITY [SFLED]
TENDED  .N      : TENSION FROM DENSITY LOG [ADJ. TO RESISTIVITY LOG]
~Params ----------------------------------------------------
PD  .                          GL : PERMANENT DATUM
EPD .M                        977 : ELEVATION PERMANENT DATUM
LMF .                          KB : LOG MEASURED FROM
DAPD.M                          8 : FEET ABOVE PERMANENT DATUM
DMF .                          KB : DRILLING MEASURED FROM
EKB .M                        985 : KELLY BUSHING
EGL .M                        977 : GROUND LEVEL
DATE.                    10/21/78 : RUN DATE
RUN .                           2 : RUN NUMBER
DD  .M                       3747 : DEPTH DRILLER
DL  .M                       3747 : DEPTH LOGGER
BLI .M                     3746.3 : BOTTOM LOG INTERVAL
TLI .M                     2464.5 : TOP LOG INTERVAL
CS  .MM                       244 : CASING SIZE
CBD .M                       2468 : CASING BOTTOM DRILLER
CBL .M                     2464.5 : CASING BOTTOM LOGGER
BS  .MM                       216 : BIT SIZE
BSD .M                       3747 : BIT SIZE AT DEPTH
DFT .                     MUD GEL : DRILLING FLUID TYPE
DFD .                        1090 : DRILLING FLUID DENSITY
DFV .                          71 : DRILLING FLUID VISCOSITY
DFPH.                           9 : DRILLING FLUID PH
DFL .                         9.9 : DRILLING FLUID LOSS
MSS .                    FLOWLINE : MUD SAMPLE SOURCE
RMS .OHMM                    2.82 : RESISTIVITY MUD SAMPLE
MST .DEGC                      24 : MUD SAMPLE TEMPERATURE
RMF .OHMM                    2.64 : RESISTIVITY MUD FILTRATE SAMPLE
MFST.DEGC                      24 : MUD FILTRATE SAMPLE TEMPERATURE
RMC .OHMM                    3.68 : RESISTIVITY MUD CAKE
MCST.DEGC                      24 : MUD CAKE SAMPLE TEMPERATURE
MFSS.                        MEAS : MUD FILTRATE SAMPLE SOURCE
MCSS.                        MEAS : MUD CAKE SAMPLE SOURCE
RMB .OHMM                    0.69 : RESISTIVITY MUD AT BHT
TCS .HRS                       10 : TIME CIRCULATED STOPPED
LUN .                     HL 6163 : LOGGING UNIT NUMBER
LUL .                         EDM : LOGGING UNIT LOCATION
ENGI.                      BURLET : RECORDING ENGINEER
WITN.                      WILSON : WITNESSED BY
CLNT.                     A2DTECH : CLIENT CODE
ORIG. 6.5" /100M 16.5"/100M PRINT : ORIGIN OF DATA
UWI .            100100906223W500 : UNIQUE WELL ID
DICO.      A2D Technologies, Inc. : DIGITIZING COMPANY
~Other -----------------------------------------------------
DIFL-CDL-CNL-ACOUSTIC LOG RAN
SP FLATTOP ON BACK UP GALVO DUE TO PANEL BEING SATURATED
~ASCII -----------------------------------------------------
# ...
 3000.00000  158.91960  264.25240  224.46690  264.25240    0.49210  147.32190  147.32190 2701.85550    0.00140    -999.25    0.00480 2031.99820  158.91960   16.23270   15.46440   16.23270 2031.99820 1827.39420 1827.39420   -0.00000    -999.25   -0.00000 2701.85550 1947.85340 -173.96740 -142.05380 1947.85340    -999.25
 3050.00000  172.68070  366.16080  247.00660  366.16080    0.60930  300.96950  300.96950 2637.12080    0.03750    -999.25    0.04260 1641.14980  172.68070   13.50140   15.23850   13.50140 1641.14980 1831.06560 1831.06560    0.05460    -999.25    0.05460 2637.12080 1194.72490 -165.06150 -135.37680 1194.72490    -999.25
 3100.00000  160.80500  316.21630  243.96000  316.21630    0.50460  343.45080  343.45080 2438.29930    0.15680    -999.25    0.15890 1981.95100  160.80500   14.95590   16.54220   14.95590 1981.95100  305.03600  305.03600    0.00870    -999.25    0.00870 2438.29930 2039.84990 -158.86500 -131.40930 2039.84990    -999.25
 3150.00000  168.24230  387.72390  240.99600  387.72390    2.68430  332.54110  332.54110 2617.43480    0.04930    -999.25    0.05410  372.53250  168.24230   13.33470   12.31130   13.33470  372.53250  178.86920  178.86920    0.02610    -999.25    0.02610 2617.43480 1939.73170 -154.73140 -129.50470 1939.73170    -999.25
 3200.00000  166.67370  320.16240  237.53730  320.16240    3.27200  307.11640  307.11640 2537.02390    0.09750    -999.25    0.10120  305.62390  166.67370   18.44960   11.20840   18.44960  305.62390  405.37810  405.37810    0.02660    -999.25    0.02660 2537.02390  627.64800 -181.29530 -158.29760  627.64800    -999.25
 3250.00000  166.70440  355.93160  232.60000  355.93160   10.81460  323.55940  323.55940 2609.03420    0.04990    -999.25    0.05900   92.46800  166.70440   24.08620   21.07270   24.08620   92.46800   58.98140   58.98140    0.10180    -999.25    0.10180 2609.03420  194.34110 -164.42880 -143.66000  194.34110    -999.25
 3300.00000  164.14280  247.50830  209.77840  247.50830    0.49520   22.71060   22.71060 2705.00710   -0.00160    -999.25    0.00290 2019.43400  164.14280   43.47670   41.13040   43.47670 2019.43400 1873.97780 1873.97780    0.00810    -999.25    0.00810 2705.00710 1952.89860  -90.78480  -72.24500 1952.89860    -999.25
 3350.00000  172.62870  250.62670  210.61330  250.62670    4.83560   50.96980   50.96980 2742.09640   -0.02480    -999.25   -0.01880  206.80060  172.62870   36.14120   35.32780   36.14120  206.80060  264.55840  264.55840    0.03150    -999.25    0.03150 2742.09640  437.74800 -104.25140  -87.94060  437.74800    -999.25
 3400.00000  194.32740  259.93590  216.12490  259.93590   36.21760   33.78320   33.78320 2695.57520    0.00690    -999.25    0.00840   27.61090  194.32740   63.20380   56.56240   63.20380   27.61090   28.59370   28.59370    0.08580    -999.25    0.08580 2695.57520   80.40830  -95.14840  -81.06660   80.40830    -999.25
 3450.00000  227.37040  374.50720  280.54100  374.50720  192.15250  227.26680  227.26680 2099.27640    0.35910    -999.25    0.35710    5.20420  227.37040   84.24450   87.40350   84.24450    5.20420    6.26420    6.26420    0.29400    -999.25    0.29400 2099.27640   15.36260 -113.64800 -101.79510   15.36260    -999.25
 3500.00000  203.48730  262.18770  217.00330  262.18770   95.72770   43.00360   43.00360 2734.21360   -0.02100    -999.25   -0.01420   10.44630  203.48730   87.66580   82.19100   87.66580   10.44630   11.58490   11.58490    0.12220    -999.25    0.12220 2734.21360   24.14950  -60.10250  -50.47860   24.14950    -999.25
 3550.00000  257.17040  265.99040  216.87460  265.99040  166.43370   84.00750   84.00750 2714.58860   -0.00940    -999.25   -0.00270    6.00840  257.17040  131.81540  136.48410  131.81540    6.00840    6.67080    6.67080    0.19370    -999.25    0.19370 2714.58860   15.35870  -43.83600  -36.44110   15.35870    -999.25
 3600.00000  260.42890  267.34140  210.78020  267.34140    3.61650   40.67730   40.67730 2510.51050    0.11410    -999.25    0.11670  276.50820  260.42890  172.22630  186.34600  172.22630  276.50820  561.33490  561.33490    0.16470    -999.25    0.16470 2510.51050  527.78980  -48.84030  -43.67440  527.78980    -999.25
 3650.00000  166.86360  265.24870  208.13610  265.24870    0.50950  101.40320  101.40320 2747.46830   -0.02920    -999.25   -0.02190 1962.78040  166.86360   30.00370   30.15260   30.00370 1962.78040 1839.45210 1839.45210    0.02160    -999.25    0.02160 2747.46830 1225.55990  -48.50880  -41.89300 1225.55990    -999.25
 3700.00000  173.25290  259.35020  199.58360  259.35020    4.05280  108.34860  108.34860 2729.13550   -0.01690    -999.25   -0.01120  246.74280  173.25290   39.55400   40.23640   39.55400  246.74280  307.09280  307.09280    0.03830    -999.25    0.03830 2729.13550 1938.34050  -41.79890  -11.86450 1938.34050    -999.25
