~Version ---------------------------------------------------
VERS.      2.0 : CWLS log ASCII Standard -VERSION 2.0
WRAP.       NO : One line per depth step
CREA. 11/10/17 : LAS Creation Date
~Well ------------------------------------------------------
STRT.FT                         1200.0 : START DEPTH
STOP.FT                        11200.0 : STOP DEPTH
STEP.FT                       50.00000 : STEP LENGTH
NULL.                          -999.25 : NULL VALUE
COMP. AMOCO CANADA PETROLEUM CO., LTD. : COMPANY
WELL.    AMOCO A-1 NW ANTE 10-29-66-25 : WELL
FLD .                                  : FIELD
LOC .                                  : LOCATION
CTRY.                           CANADA : COUNTRY
SRVC.           Schlumberger of Canada : SERVICE COMPANY
DATE.                      20-Oct-1973 : LOGDATE
PROV.                          Alberta : PROVINCE
UWI .                 100102906625W500 : UNIQUE WELL ID
SLAT.WGS84                    54.74394 : SURFACE LATITUDE
SLON.WGS84                   -117.7384 : SURFACE LONGITUDE
~Curve Information -----------------------------------------
DEPT    .FT    : Depth Curve
CALDED  .IN    : CALIPER FROM DENSITY LOG
CALNED  .IN    : CALIPER FROM NEUTRON LOG
CALSED  .IN    : CALIPER FROM SONIC LOG
CALWS   .IN    : CALIPER [CALSED]
CONDWS  .MMHO  : CONDUCTIVITY [1000/DRESWS]
DCORWS  .G/C3  : DENSITY CORRECTION [DRHOED]
DENWS   .G/C3  : FORMATION BULK DENSITY [RHOBED]
DPHILSED.V/V   : DENSITY POROSITY LIME [M=2.71, F=1.00] FROM DENSITY LOG
DPOLSWS .V/V   : DENSITY POROSITY LIME [M=2.71, F=1.00] [CALCULATED FROM DENWS]
DRESWS  .OHMM  : DEEP RESISTIVITY [ILDED]
DRHOED  .G/C3  : BULK DENSITY CORRECTION FROM DENSITY LOG
DTED    .US/F  : DELTA-T (INTERVAL TRANSIT TIME) FROM SONIC LOG
DTWS    .US/F  : COMPRESSIONAL SONIC [DTED]
GRDED   .GAPI  : GAMMA RAY FROM DENSITY LOG
GRNED   .GAPI  : GAMMA RAY FROM NEUTRON LOG
GRSED   .GAPI  : GAMMA RAY FROM SONIC LOG
GRWS    .GAPI  : GAMMA RAY [GRSED]
ILDED   .OHMM  : DEEP INDUCTION FROM RESISTIVITY LOG
ILMED   .OHMM  : MEDIUM INDUCTION FROM RESISTIVITY LOG
LL8ED   .OHMM  : LATEROLOG8 FROM RESISTIVITY LOG
MRESWS  .OHMM  : MEDIUM RESISTIVITY [ILMED]
NPOLSWS .V/V   : NEUTRON POROSITY LIME [SNPLSED]
RHOBED  .G/C3  : BULK DENSITY FROM DENSITY LOG
SNPLSED .V/V   : SIDEWALL NEUTRON POROSITY LIME FROM NEUTRON LOG
SPRED   .MV    : SPONTANEOUS POTENTIAL FROM RESISTIVITY LOG
SPWS    .MV    : SPONTANEOUS POTENTIAL [BASE LINE 0 MV, SPRED]
SRESWS  .OHMM  : SHALLOW RESISTIVITY [LL8ED]
~Params ----------------------------------------------------
PD  .                     GL : PERMANENT DATUM
EPD .FT               2302.4 : ELEVATION PERMANENT DATUM
LMF .                     KB : LOG MEASURED FROM
DAPD.FT                 17.6 : FEET ABOVE PERMANENT DATUM
EKB .FT               2320.0 : KELLY BUSHING
EGL .FT               2302.4 : GROUND LEVEL
DATE.               10/20/73 : RUN DATE
RUN .                      1 : RUN NUMBER
DD  .FT                11236 : DEPTH DRILLER
DL  .FT                11235 : DEPTH LOGGER
BLI .FT                11234 : BOTTOM LOG INTERVAL
TLI .FT                 6400 : TOP LOG INTERVAL
CS  .IN                9.625 : CASING SIZE
CBD .FT                 1247 : CASING BOTTOM DRILLER
CBL .FT                 1247 : CASING BOTTOM LOGGER
BS  .IN                 8.75 : BIT SIZE
BSD .FT                11236 : BIT SIZE AT DEPTH
DFT .               GEL CHEM : DRILLING FLUID TYPE
DFD .                    9.2 : DRILLING FLUID DENSITY
DFV .                     62 : DRILLING FLUID VISCOSITY
DFPH.                    9.0 : DRILLING FLUID PH
DFL .                   10.2 : DRILLING FLUID LOSS
RMF .OHMM               1.15 : RESISTIVITY MUD FILTRATE SAMPLE
MFST.DEGF                 70 : MUD FILTRATE SAMPLE TEMPERATURE
RMB .OHMM                0.4 : RESISTIVITY MUD AT BHT
TCS .HRS                 4.5 : TIME CIRCULATED STOPPED
LUN .                   7667 : LOGGING UNIT NUMBER
LUL .                    EDM : LOGGING UNIT LOCATION
ENGI.               BENOWSKI : RECORDING ENGINEER
WITN.       SNYDMELLER FRAME : WITNESSED BY
CLNT.                A2DTECH : CLIENT CODE
ORIG.            2" 5" PRINT : ORIGIN OF DATA
UWI .       100102906625W500 : UNIQUE WELL ID
DICO. A2D Technologies, Inc. : DIGITIZING COMPANY
~Other -----------------------------------------------------
~ASCII -----------------------------------------------------
# ...
 7700.00000   10.05780   10.52270    9.47290    9.47290   47.05880    0.08730    2.66420    0.02240    0.02680   21.31290    0.08730   51.62990   51.62990   21.99800   19.15490   24.46710   24.46710   21.31290   19.38340   27.39990   19.38340    0.09560    2.66420    0.09560  -39.65520 -146.44280   27.39990
 7750.00000   11.43710   11.81460    9.80860    9.80860  178.25950    0.23070    2.55790    0.08900    0.08890    5.60980    0.23070   64.01380   64.01380   37.71800   34.45620   37.41820   37.41820    5.60980    4.09440   15.22900    4.09440    0.26250    2.55790    0.26250  -41.78100 -158.26400   15.22900
 7800.00000   10.72450   11.15910    9.97600    9.97600   12.75770    0.06640    2.70780   -0.00450    0.00130   78.38430    0.06640   51.71540   51.71540   21.67490   22.31290   27.54860   27.54860   78.38430   62.52100  153.12110   62.52100    0.04860    2.70780    0.04860   68.88640  -57.34070  153.12110
 7850.00000   11.39730   11.96900    9.93330    9.93330    1.65260    0.11860    2.57900    0.07560    0.07660  605.11140    0.11860   52.27600   52.27600   13.77020   12.01770   13.76190   13.76190  605.11140  665.03830 1118.44030  665.03830    0.08300    2.57900    0.08300   76.47800  -59.49320 1118.44030
 7900.00000   10.97480   11.40000   10.07290   10.07290   13.23840    0.10640    2.62610    0.03890    0.04910   75.53790    0.10640   49.23160   49.23160   16.73540   16.13150   19.07740   19.07740   75.53790   41.13470  153.30040   41.13470    0.04570    2.62610    0.04570    5.18960 -130.60140  153.30040
 7950.00000   11.28070   11.66450    9.81660    9.81660    6.84390    0.10840    2.63970    0.03770    0.04110  146.42290    0.10840   42.38220   42.38220   16.90940   14.19260   13.78630   13.78630  146.42290  125.46990  217.48860  125.46990    0.04150    2.63970    0.04150   17.61300 -117.89620  217.48860
 8000.00000   12.22500   12.66500    9.97320    9.97320    0.57470    0.18570    2.57240    0.07640    0.08050 1740.15030    0.18570   49.46170   49.46170   17.66310   15.71650   17.35400   17.35400 1740.15030  701.76140 1794.18370  701.76140    0.04710    2.57240    0.04710   -5.97470 -141.20490 1794.18370
 8050.00000   13.16440   13.57780   10.40570   10.40570   91.34920    0.24050    2.53630    0.12480    0.10160   10.94700    0.24050   64.53480   64.53480   80.06830   77.59550   83.65440   83.65440   10.94700   11.92660   28.68460   11.92660    0.18980    2.53630    0.18980 -109.29930 -244.24910   28.68460
 8100.00000   11.20610   11.59420   10.75190   10.75190  109.52900    0.11160    2.55820    0.07080    0.08880    9.13000    0.11160   63.11550   63.11550   74.09680   72.61400   73.92320   73.92320    9.13000    8.29650   12.73310    8.29650    0.12630    2.55820    0.12630 -156.76790 -291.43720   12.73310
 8150.00000   11.29700   11.77760   10.23750   10.23750   69.20610    0.09790    2.75130   -0.03210   -0.02420   14.44960    0.09790   49.62670   49.62670   52.70750   48.68230   59.46040   59.46040   14.44960   12.97660   21.04510   12.97660    0.05830    2.75130    0.05830 -235.72850 -370.11740   21.04510
 8200.00000   12.00260   12.40620   10.12430   10.12430   20.28330    0.06520    2.65970    0.02510    0.02940   49.51210    0.06520   44.60460   44.60460   45.36570   42.76970   44.12180   44.12180   49.51210   46.55810   76.13090   46.55810    0.04680    2.65970    0.04680 -244.53740 -378.64450   76.13090
 8250.00000   13.77670   14.00030   10.81560   10.81560   29.41600    0.19540    2.23630    0.27250    0.27700   33.99510    0.19540   65.16090   65.16090   62.99510   59.77210   65.78930   65.78930   33.99510   29.36030   42.54020   29.36030    0.25520    2.23630    0.25520 -209.17810 -343.00620   42.54020
 8300.00000   10.65210   11.12360    9.38750    9.38750    3.44920    0.09540    2.73400   -0.02120   -0.01400  289.92410    0.09540   51.72170   51.72170   26.06710   23.43180   24.66300   24.66300  289.92410  251.23310  653.09230  251.23310    0.00950    2.73400    0.00950 -178.02380 -311.57150  653.09230
 8350.00000   11.84380   12.33210   10.68160   10.68160   52.60830    0.15220    2.70790   -0.00490    0.00120   19.00840    0.15220   64.23790   64.23790   76.10000   70.62340   68.96210   68.96210   19.00840   16.27460   25.92530   16.27460    0.10340    2.70790    0.10340 -250.58520 -383.85240   25.92530
 8400.00000    9.70270   10.33920    9.27810    9.27810   15.70860    0.03480    2.66200    0.02370    0.02810   63.65920    0.03480   56.61640   56.61640   47.25930   44.90670   48.22080   48.22080   63.65920   53.01400   82.08820   53.01400    0.02760    2.66200    0.02760 -236.94630 -369.93310   82.08820
 8450.00000   11.85460   12.31210   11.39740   11.39740   47.54150    0.07250    2.57620    0.07390    0.07830   21.03430    0.07250   60.79460   60.79460   67.55990   66.64080   64.87120   64.87120   21.03430   19.13580   26.38210   19.13580    0.12740    2.57620    0.12740 -286.43670 -419.14170   26.38210
 8500.00000    9.90100   10.53020    9.71720    9.71720   17.84960    0.05320    2.66730    0.01370    0.02500   56.02380    0.05320   56.38070   56.38070   50.77560   44.64170   49.59790   49.59790   56.02380   46.22620   82.27210   46.22620    0.04840    2.66730    0.04840 -285.89930 -418.32530   82.27210
 8550.00000    9.43500    9.92520    8.93340    8.93340    4.88140    0.04750    2.75060   -0.03270   -0.02370  204.85900    0.04750   62.35420   62.35420   28.54540   30.67300   32.93160   32.93160  204.85900  150.85040  280.89650  150.85040    0.01540    2.75060    0.01540 -219.48670 -351.63230  280.89650
 8600.00000    9.59890   10.02850    9.00980    9.00980    6.88430    0.03570    2.70120   -0.00120    0.00510  145.25890    0.03570   57.75040   57.75040   50.45950   45.64300   49.58150   49.58150  145.25890  113.09930  158.06830  113.09930    0.04070    2.70120    0.04070 -230.36440 -362.22960  158.06830
 8650.00000   11.08210   11.19950   11.26630   11.26630    0.56020    0.24790    2.59120    0.06530    0.06950 1785.09970    0.24790   70.89040   70.89040  128.56820  108.33790   99.44550   99.44550 1785.09970  516.54720 1717.95700  516.54720    0.17640    2.59120    0.17640 -183.42820 -315.01290 1717.95700
 8700.00000    9.61910   10.25170    8.84940    8.84940    5.36970    0.06060    2.40980    0.18090    0.17560  187.45860    0.06060   92.74290   92.74290  300.05300  299.27810  301.28920  301.28920  187.45860  754.23690 1707.91540  754.23690    0.21910    2.40980    0.21910 -109.69760 -241.00050 1707.91540
 8750.00000   10.58900   11.10470    9.08200    9.08200    0.58350    0.14980    2.72970   -0.01860   -0.01150 1713.84520    0.14980   48.95420   48.95420   15.41710   18.62300   17.85570   17.85570 1713.84520 1619.14590 1864.39580 1619.14590    0.00670    2.72970    0.00670  -23.63440 -154.65830 1864.39580
 8800.00000   11.58140   12.31040    9.28090    9.28090    0.59000    0.24840    2.64180    0.03630    0.03990 1694.98100    0.24840   48.23220   48.23220   14.78780   15.93910   15.97480   15.97480 1694.98100 1584.95340 1771.46080 1584.95340    0.02290    2.64180    0.02290   38.71880  -92.02470 1771.46080
 8850.00000   11.30370   11.81970    9.34590    9.34590    0.61000    0.23770    2.61630    0.05240    0.05480 1639.38660    0.23770   48.19500   48.19500   13.45050   11.97650   17.18380   17.18380 1639.38660 1447.35690 1802.42210 1447.35690    0.03150    2.61630    0.03150   -9.80770 -140.27080 1802.42210
 8900.00000   11.64600   11.93100    9.31780    9.31780    0.61190    0.25080    2.67200    0.01760    0.02220 1634.38590    0.25080   47.97700   47.97700   13.11200   13.58110   13.22680   13.22680 1634.38590 1469.07240 1861.51880 1469.07240    0.03780    2.67200    0.03780  -54.17890 -184.36160 1861.51880
 8950.00000   11.66370   11.87950    9.33250    9.33250    0.59990    0.24950    2.57960    0.07720    0.07630 1667.02940    0.24950   48.30140   48.30140   13.53510   15.56920   17.02510   17.02510 1667.02940 1531.23650 1849.54010 1531.23650    0.06300    2.57960    0.06300 -175.84760 -305.74850 1849.54010
