~Version ---------------------------------------------------
VERS.      2.0 : CWLS log ASCII Standard -VERSION 2.0
WRAP.       NO : One line per depth step
CREA. 10/01/14 : LAS Creation Date
~Well ------------------------------------------------------
STRT.FT                                  935.9 : START DEPTH
STOP.FT                                 9375.9 : STOP DEPTH
STEP.FT                                0.50000 : STEP LENGTH
NULL.                                  -999.25 : NULL VALUE
COMP. THE BRITISH AMERICAN OIL COMPANY LIMITED : COMPANY
WELL.        B.A. EAST GOOSE RIVER 10-22-66-15 : WELL
FLD .                                          : FIELD
LOC .                                          : LOCATION
CTRY.                                   CANADA : COUNTRY
SRVC.                   Schlumberger of Canada : SERVICE COMPANY
DATE.                              16-Mar-1960 : LOGDATE
PROV.                                  Alberta : PROVINCE
UWI .                         100102206615W500 : UNIQUE WELL ID
SLAT.WGS84                            54.72873 : SURFACE LATITUDE
SLON.WGS84                           -116.1771 : SURFACE LONGITUDE
~Curve Information -----------------------------------------
DEPT.FT      : DEPTH FEET
CILD.MMHO    : CONDUCTIVITY FROM RESISTIVITY LOG
DT  .US/F    : DELTA-T FROM SONIC LOG
GRS .MG/TON  : GAMMA RAY FROM SONIC LOG
ILD .OHMM    : DEEP INDUCTION FROM RESISTIVITY LOG
MCAL.IN      : MLT CALIPER FROM MICRO LOG
SN  .OHMM    : SHORT NORMAL FROM RESISTIVITY LOG
SPR .MV      : SPONTANEOUS POTENTIAL FROM RESISTIVITY LOG
~Params ----------------------------------------------------
LMF .                     KB : LOG MEASURED FROM
DMF .                     KB : DRILLING MEASURED FROM
EKB .FT                 3222 : KELLY BUSHING
EGL .FT                 3205 : GROUND LEVEL
DATE.               03/16/60 : RUN DATE
RUN .                      2 : RUN NUMBER
DD  .FT                 9370 : DEPTH DRILLER
DL  .FT                 9378 : DEPTH LOGGER
BLI .FT                 9373 : BOTTOM LOG INTERVAL
TLI .FT                 5000 : TOP LOG INTERVAL
CBD .FT                  975 : CASING BOTTOM DRILLER
BS  .IN                    9 : BIT SIZE
BSD .FT                 9370 : BIT SIZE AT DEPTH
DFT .                    GEL : DRILLING FLUID TYPE
DFD .                     10 : DRILLING FLUID DENSITY
DFV .                    120 : DRILLING FLUID VISCOSITY
DFPH.                     10 : DRILLING FLUID PH
DFL .                    6.2 : DRILLING FLUID LOSS
RMS .OHMM                2.8 : RESISTIVITY MUD SAMPLE
MST .DEGF                 59 : MUD SAMPLE TEMPERATURE
RMF .OHMM               1.41 : RESISTIVITY MUD FILTRATE SAMPLE
MFST.DEGF                 68 : MUD FILTRATE SAMPLE TEMPERATURE
RMC .OHMM               2.56 : RESISTIVITY MUD CAKE
MCST.DEGF                 67 : MUD CAKE SAMPLE TEMPERATURE
RMB .OHMM               0.94 : RESISTIVITY MUD AT BHT
TCS .HRS                 4.5 : TIME CIRCULATED STOPPED
LUN .                  1573C : LOGGING UNIT NUMBER
LUL .                     WC : LOGGING UNIT LOCATION
ENGI.              HAUSEGGER : RECORDING ENGINEER
WITN.                   COTE : WITNESSED BY
CLNT.                A2DTECH : CLIENT CODE
ORIG.            2" 5" PRINT : ORIGIN OF DATA
UWI .       100102206615W500 : UNIQUE WELL ID
DICO. A2D Technologies, Inc. : DIGITIZING COMPANY
~Other -----------------------------------------------------
~ASCII -----------------------------------------------------
# ...
 2105.90000  173.09710  129.60590    3.42980    6.31760   10.63000    7.62230  -41.36300
 2106.40000  159.72070  128.63060    3.18640    6.89830   10.02570    8.15000  -41.54590
 2106.90000  125.38310  120.13660    2.68380    8.38430    9.23700    9.56650  -42.08630
 2107.40000  118.52050  115.44030    2.62340    8.76910    9.30090    9.69660  -42.36570
 2107.90000  105.13420  105.67520    2.60370    9.80870    9.30830   10.12610  -44.03920
 2108.40000  102.24680  105.37250    2.63310   10.13610    9.18080   10.29880  -44.71240
 2108.90000   95.75530   97.73280    2.70060   10.97280    8.92560   10.72520  -47.32980
 2109.40000   96.22930   92.93570    2.76810   10.86600    8.92400   10.59310  -48.38660
 2109.90000  103.95130   87.14560    2.95420   10.18640    8.91940    9.87880  -51.10510
 2110.40000  109.90390   89.11530    3.02150    9.58350    8.91790    9.53350  -51.65210
 2110.90000  128.05060   92.24800    2.95800    7.77130    8.91290    8.23690  -52.25940
 2111.40000  139.46520   88.47510    2.91560    6.83790    8.90940    7.28570  -51.50260
 2111.90000  151.91520   92.17020    2.66330    6.08180    8.90720    6.49480  -49.64120
 2112.40000  169.32660  100.37870    2.47500    5.45070    8.96850    5.82910  -46.50400
 2112.90000  190.08020  107.42890    2.57270    5.00550    9.54260    5.33990  -43.62510
 2113.40000  209.78170  113.27270    2.74530    4.56030   10.88700    4.91760  -42.26460
 2113.90000  228.71280  120.33160    2.92590    4.30900   11.01690    4.54450  -42.08930
 2114.40000  242.88120  124.51520    2.92310    4.11490   11.25490    4.31130  -42.00790
 2114.90000  249.97400  125.48290    2.88940    4.02550   11.86680    4.23180  -42.01450
 2115.40000  253.78630  132.80650    2.96660    3.89380   11.87500    4.10970  -41.81340
 2115.90000  254.67850  138.15670    3.13410    3.87390   11.34940    4.08840  -41.65620
 2116.40000  254.94370  146.16660    3.57650    3.83200   10.53750    4.03410  -41.14240
 2116.90000  255.09750  142.18230    3.66470    3.82100   10.49940    4.01760  -41.13880
 2117.40000  256.18440  136.70970    3.71950    3.78800   10.64420    3.96810  -41.12780
 2117.90000  257.07130  136.97310    3.65480    3.80290   10.77670    3.95160  -41.12420
 2118.40000  258.16260  131.62560    3.34100    3.91020   11.63110    3.90220  -41.11330
 2118.90000  258.14020  126.07500    3.28870    3.95640   11.90410    3.88570  -41.10970
 2119.40000  257.54640  115.82690    3.41320    4.08880   11.28260    3.86700  -41.09880
 2119.90000  257.70510  116.60720    3.58930    4.09710   10.94330    3.86790  -41.09510
 2120.40000  258.39540  118.77680    3.89330    4.12180   10.83570    3.87060  -41.06930
 2120.90000  258.68400  119.99740    3.81020    4.12940   10.82120    3.86990  -40.99950
 2121.40000  259.03990  122.93600    3.60620    4.14300   10.87550    3.86480  -40.90030
 2121.90000  258.41840  125.49720    3.40750    4.14890   11.15230    3.86040  -40.88150
 2122.40000  257.18860  126.33350    3.32770    4.15480   11.71660    3.85610  -40.88990
 2122.90000  255.85520  126.18660    3.45960    4.16080   11.51880    3.85170  -40.89970
 2123.40000  254.02000  129.25620    3.66470    4.16670   11.05350    3.84740  -40.95670
 2123.90000  253.10280  128.05330    3.42250    4.17260   11.24320    3.84300  -40.94230
 2124.40000  251.49010  124.99190    3.32600    4.17850   10.79130    3.83870  -41.00150
 2124.90000  249.48690  123.98620    3.48600    4.18440   10.78810    3.83430  -41.15140
 2125.40000  249.38080  123.27420    3.49680    4.18740   10.68240    3.83500  -41.18170
 2125.90000  250.61830  117.71480    3.64640    4.19630   10.59270    3.83760  -41.45280
 2126.40000  251.85570  117.26100    3.68080    4.18620   10.63310    3.83850  -41.66760
 2126.90000  254.64580  114.63560    3.57070    4.13070   10.25870    3.84460  -41.93470
 2127.40000  256.90680  115.40940    3.51370    4.09180   10.08710    3.84630  -41.98870
 2127.90000  264.68560  118.13610    3.51970    3.96970    9.81630    3.76830  -42.16510
 2128.40000  267.57450  117.17340    3.57730    3.92820    9.83920    3.71840  -42.19170
 2128.90000  277.39330  117.32960    3.57490    3.80350    9.99450    3.56860  -42.08280
 2129.40000  280.53730  118.22250    3.46730    3.76200   10.10480    3.51870  -42.05330
 2129.90000  289.28710  121.35910    3.29760    3.63730    9.93710    3.36890  -41.82780
 2130.40000  290.96130  122.49370    3.39260    3.62060    9.75810    3.31910  -41.80770
 2130.90000  291.63430  124.76530    3.72220    3.60560    9.23720    3.34490  -41.89960
 2131.40000  289.54900  126.57650    3.69320    3.61950    8.91620    3.45990  -42.00560
 2131.90000  279.49850  130.03560    3.38480    3.71060    8.30360    3.92490  -42.42470
 2132.40000  266.40620  129.44890    3.30070    3.91700    8.50280    4.27480  -42.83280
 2132.90000  250.46170  129.54370    3.18930    4.26550    8.46300    4.63950  -43.16610
 2133.40000  232.06170  129.83820    3.15030    4.61400    8.69310    5.06080  -43.47850
 2133.90000  209.48370  125.68660    3.08810    4.96250    9.32390    5.50880  -43.84940
 2134.40000  188.44130  116.03590    3.11190    5.47260    9.46430    6.06840  -44.54500
 2134.90000  172.34590  115.35310    3.26610    6.00990    9.30120    6.62790  -45.38140
 2135.40000  157.41590  114.34260    3.33500    6.54710    9.28770    7.18750  -46.79270
 2135.90000  145.38570  112.56490    3.33270    6.81570    9.29050    7.47600  -47.64760
 2136.40000  134.81540  106.77990    3.29720    7.70290    9.23330    8.57300  -50.94340
 2136.90000  125.20180  105.98480    3.21750    8.10990    9.17850    9.05780  -52.25190
 2137.40000  115.03130  106.87560    3.03090    9.40160    8.99270   10.73330  -56.52130
 2137.90000  108.76340  107.53510    3.09990    9.89400    8.92550   11.36180  -57.42290
 2138.40000   93.70070  108.79090    3.24980   11.52190    8.75810   13.11570  -59.27340
 2138.90000   89.08750  109.54550    3.23190   12.24430    8.73870   13.65490  -59.72680
 2139.40000   77.52990  111.52200    3.05780   14.10540    8.68430   14.88270  -60.94620
 2139.90000   75.22340  112.20620    2.81700   14.54650    8.70540   15.13660  -61.20690
 2140.40000   68.59510  113.94330    2.28230   15.81300    8.87260   15.89810  -61.91580
 2140.90000   67.67700  114.49530    2.44150   16.20370    8.88770   16.03800  -62.12430
 2141.40000   66.33280  116.18730    2.84370   16.72140    8.89900   16.20920  -62.68420
 2141.90000   66.18880  116.32540    2.93080   16.72800    8.89790   16.17370  -62.71400
 2142.40000   66.30660  116.70380    2.86330   16.60950    8.89710   15.92920  -62.74450
 2142.90000   67.29660  116.93460    2.64060   16.28290    8.89740   15.37800  -62.53630
 2143.40000   70.03040  117.01450    2.52450   15.53440    8.89770   14.72450  -62.07260
 2143.90000   76.33990  116.95610    2.61830   13.52500    8.89800   13.83560  -61.23370
 2144.40000   86.68690  116.99030    2.81780   11.67340    8.89830   12.39300  -60.32370
 2144.90000   99.99740  117.16840    2.91170    9.98320    8.89860   10.97640  -59.23660
 2145.40000  116.66160  117.24500    2.97870    8.30670    8.88640    9.49350  -57.12580
 2145.90000  134.42940  116.65900    2.98440    7.32440    8.81660    7.96190  -54.54370
 2146.40000  150.69620  116.16790    2.96590    6.88500    8.78170    7.27150  -53.06810
 2146.90000  164.66740  115.90820    2.68970    5.77230    8.76170    5.97450  -48.43600
 2147.40000  181.13610  116.56530    2.65640    5.56430    9.36720    5.81970  -47.15980
 2147.90000  197.13500  120.49440    2.79710    4.98610   12.42490    5.45980  -45.42550
 2148.40000  204.71190  124.09330    2.88270    4.84680   11.98120    5.45820  -45.73370
 2148.90000  220.69280  135.62040    3.24190    4.67770    9.73970    5.45230  -47.82240
 2149.40000  220.28440  139.40370    3.31990    4.73620    9.16440    5.43880  -48.72440
 2149.90000  212.56450  140.98390    3.41470    4.99150    8.51800    5.19630  -49.70390
 2150.40000  208.81930  138.37520    3.37810    5.01780    8.74570    5.02350  -49.10740
