~Version ---------------------------------------------------
VERS.      2.0 : CWLS log ASCII Standard -VERSION 2.0
WRAP.       NO : One line per depth step
CREA. 12/21/17 : LAS Creation Date
~Well ------------------------------------------------------
STRT.FT                     300.0 : START DEPTH
STOP.FT                    9550.0 : STOP DEPTH
STEP.FT                  50.00000 : STEP LENGTH
NULL.                     -999.25 : NULL VALUE
COMP. BRITISH AMERICAN OIL CO LTD : COMPANY
WELL.  B.A. GOOSE RIVER 4-3-67-18 : WELL
FLD .                             : FIELD
LOC .                             : LOCATION
CTRY.                      CANADA : COUNTRY
SRVC.      Schlumberger of Canada : SERVICE COMPANY
DATE.                 18-Oct-1963 : LOGDATE
PROV.                     Alberta : PROVINCE
UWI .            100040306718W500 : UNIQUE WELL ID
SLAT.WGS84               54.76505 : SURFACE LATITUDE
SLON.WGS84               -116.666 : SURFACE LONGITUDE
~Curve Information -----------------------------------------
DEPT  .FT    : Depth Curve
CALSED.IN    : CALIPER FROM SONIC LOG [ADJ. TO MLL LOG]
CALWS .IN    : CALIPER [CALSED]
DTED  .US/F  : DELTA-T 3' SPAN FROM SONIC LOG [ADJ. TO MLL LOG]
DTWS  .US/F  : COMPRESSIONAL SONIC [DTED]
GRED  .GAPI  : GAMMA RAY FROM GR LOG [ADJ. TO MLL LOG]
GRSED .GAPI  : GAMMA RAY FROM SONIC LOG [ADJ. TO MLL LOG]
GRWS  .GAPI  : GAMMA RAY [GRED SPL. TO GRSED @ 984'][RESCALED PART FROM GR_CH TOP-300 0/250 TO 0/150 API]
MCALED.mm    : MLT CALIPER FROM MLL LOG
MINVED.OHMM  : MICROLOG INVERSE FROM MLL LOG
MNORED.OHMM  : MICROLOG NORMAL FROM MLL LOG
~Params ----------------------------------------------------
PD  .                     GL : PERMANENT DATUM
EPD .FT                   26 : ELEVATION PERMANENT DATUM
LMF .                     KB : LOG MEASURED FROM
EKB .FT               2665.5 : KELLY BUSHING
EGL .FT                 2652 : GROUND LEVEL
DATE.               10/18/63 : RUN DATE
RUN .                      1 : RUN NUMBER
DD  .FT                 9550 : DEPTH DRILLER
DL  .FT                 8557 : DEPTH LOGGER
BLI .FT                 9554 : BOTTOM LOG INTERVAL
TLI .FT                  979 : TOP LOG INTERVAL
CBD .FT                  978 : CASING BOTTOM DRILLER
CBL .FT                  979 : CASING BOTTOM LOGGER
BS  .IN                7.875 : BIT SIZE
BSD .FT                 9550 : BIT SIZE AT DEPTH
DFT .               GEL CHEM : DRILLING FLUID TYPE
DFD .                    9.8 : DRILLING FLUID DENSITY
DFV .                    112 : DRILLING FLUID VISCOSITY
DFPH.                      9 : DRILLING FLUID PH
DFL .                    6.8 : DRILLING FLUID LOSS
RMS .OHMM               3.01 : RESISTIVITY MUD SAMPLE
MST .DEGF                 61 : MUD SAMPLE TEMPERATURE
RMF .OHMM               1.85 : RESISTIVITY MUD FILTRATE SAMPLE
MFST.DEGF                 70 : MUD FILTRATE SAMPLE TEMPERATURE
RMC .OHMM               3.02 : RESISTIVITY MUD CAKE
MCST.DEGF                 70 : MUD CAKE SAMPLE TEMPERATURE
RMB .OHMM               0.93 : RESISTIVITY MUD AT BHT
TCS .HRS                   6 : TIME CIRCULATED STOPPED
LUN .                   3704 : LOGGING UNIT NUMBER
LUL .                     VV : LOGGING UNIT LOCATION
ENGI.                  MILLS : RECORDING ENGINEER
WITN.              MCDERMOTT : WITNESSED BY
CLNT.                A2DTECH : CLIENT CODE
ORIG.        2" 5" 25" PRINT : ORIGIN OF DATA
UWI .       100040306718W500 : UNIQUE WELL ID
DICO. A2D Technologies, Inc. : DIGITIZING COMPANY
~Other -----------------------------------------------------
GRS IS INVALID FROM 2090'-2126' UNKNOWN REASON CURVE DROPS TO ZERO API LINE - HENCE NULLED.
~ASCII -----------------------------------------------------
  300.00000    -999.25    -999.25    -999.25    -999.25   78.25960    -999.25   46.95580    -999.25    -999.25    -999.25
  350.00000    -999.25    -999.25    -999.25    -999.25   89.72710    -999.25   53.83630    -999.25    -999.25    -999.25
  400.00000    -999.25    -999.25    -999.25    -999.25  101.92890    -999.25   61.15730    -999.25    -999.25    -999.25
  450.00000    -999.25    -999.25    -999.25    -999.25   80.21840    -999.25   48.13100    -999.25    -999.25    -999.25
  500.00000    -999.25    -999.25    -999.25    -999.25  104.26130    -999.25   62.55680    -999.25    -999.25    -999.25
  550.00000    -999.25    -999.25    -999.25    -999.25   93.95480    -999.25   56.37290    -999.25    -999.25    -999.25
  600.00000    -999.25    -999.25    -999.25    -999.25   52.20740    -999.25   31.32440    -999.25    -999.25    -999.25
  650.00000    -999.25    -999.25    -999.25    -999.25   88.59170    -999.25   53.15500    -999.25    -999.25    -999.25
  700.00000    -999.25    -999.25    -999.25    -999.25   86.28560    -999.25   51.77140    -999.25    -999.25    -999.25
  750.00000    -999.25    -999.25    -999.25    -999.25  102.42300   54.54330   61.45380    -999.25    -999.25    -999.25
  800.00000    -999.25    -999.25    -999.25    -999.25   80.58470   41.37290   48.35080    -999.25    -999.25    -999.25
  850.00000    -999.25    -999.25    -999.25    -999.25   75.64770   41.20950   45.38860    -999.25    -999.25    -999.25
  900.00000    -999.25    -999.25    -999.25    -999.25   66.68380   39.92560   40.01030    -999.25    -999.25    -999.25
  950.00000    -999.25    -999.25    -999.25    -999.25   73.90090   39.46560   44.34050    -999.25    -999.25    -999.25
 1000.00000   13.36300   13.36300  124.60400  124.60400  120.65280   70.30180   70.30180  435.84620    2.23100    2.08890
 1050.00000   11.93370   11.93370  129.48510  129.48510  123.56270   65.58760   65.58760  293.90090    2.31910    2.11220
 1100.00000   15.05360   15.05360  128.12790  128.12790   96.54550   53.03390   53.03390  503.81410    2.14850    2.03010
 1150.00000   15.44810   15.44810  131.88890  131.88890  100.14400   53.52840   53.52840  426.69710    1.74900    1.61970
 1200.00000   13.22750   13.22750  136.16960  136.16960  119.35360   61.92920   61.92920  495.72420    2.09600    2.02310
 1250.00000   11.85130   11.85130  135.97090  135.97090  113.70510   59.51550   59.51550  309.89020    1.64180    1.98230
 1300.00000   12.97020   12.97020  128.07530  128.07530   94.27010   49.55990   49.55990  425.31790    1.98810    2.14600
 1350.00000   12.25230   12.25230  133.36340  133.36340  122.95930   58.88120   58.88120  453.32650    2.27890    2.47160
 1400.00000    9.04540    9.04540  109.94050  109.94050   75.48120   37.76850   37.76850  229.17910    2.98190    3.91240
 1450.00000    9.17620    9.17620  114.44980  114.44980   92.48610   45.52510   45.52510  243.02210    2.77200    3.63340
 1500.00000    9.27270    9.27270  114.70840  114.70840   69.96910   40.69780   40.69780  265.33860    2.59280    3.38380
 1550.00000    9.49680    9.49680  100.60620  100.60620   87.37090   45.08900   45.08900  265.17090    2.81250    3.23020
 1600.00000    9.04940    9.04940  112.97690  112.97690   86.57510   40.48310   40.48310  231.08920    3.04540    3.99640
 1650.00000   13.30500   13.30500  142.82030  142.82030   91.58000   44.59030   44.59030  364.89890    1.84710    2.12550
 1700.00000   13.34450   13.34450  121.40220  121.40220  106.85450   45.53260   45.53260  315.76260    1.74660    2.01620
 1750.00000   11.79130   11.79130  107.33960  107.33960    -999.25   41.10360   41.10360  398.60730    2.04800    2.18950
 1800.00000    8.58310    8.58310  107.54580  107.54580    -999.25   41.61190   41.61190  211.57690    2.68760    3.59570
 1850.00000   10.95520   10.95520  104.93520  104.93520    -999.25   62.23020   62.23020  336.62110    2.14160    2.33050
 1900.00000   10.31970   10.31970  119.89150  119.89150    -999.25   51.62440   51.62440  340.99500    1.83680    2.18950
 1950.00000   12.29560   12.29560  112.74250  112.74250    -999.25   59.71730   59.71730  404.16480    1.83720    2.13280
 2000.00000   11.18910   11.18910  117.61110  117.61110    -999.25   51.48190   51.48190  343.26830    1.95930    2.25190
 2050.00000   10.96790   10.96790  113.24420  113.24420    -999.25   49.71360   49.71360  350.36760    2.02460    2.23470
 2100.00000   12.16720   12.16720  140.02020  140.02020    -999.25    -999.25    -999.25  345.26730    2.04890    2.14480
 2150.00000    8.83460    8.83460  113.50780  113.50780    -999.25   35.75480   35.75480  236.42830    2.53010    3.65330
 2200.00000    8.93140    8.93140  114.64270  114.64270    -999.25   45.98720   45.98720  237.34780    4.12640    2.99420
 2250.00000    9.30320    9.30320  103.35040  103.35040    -999.25   53.71500   53.71500  281.89940    2.61330    2.19790
 2300.00000   11.43570   11.43570  111.72750  111.72750    -999.25   63.66060   63.66060  339.47610    2.28600    2.11930
 2350.00000   11.18140   11.18140  108.70860  108.70860    -999.25   56.44640   56.44640  357.85550    2.52350    2.29760
 2400.00000   13.19140   13.19140  115.98780  115.98780    -999.25   67.08000   67.08000  377.47700    2.89670    2.85340
 2450.00000   10.97670   10.97670   93.69210   93.69210    -999.25   86.90080   86.90080  371.15240    5.48900    3.60550
 2500.00000    8.94280    8.94280  113.32100  113.32100    -999.25   87.02910   87.02910  370.79170    2.98910    2.82130
 2550.00000    8.91610    8.91610  112.52900  112.52900    -999.25  103.17370  103.17370  360.95180    3.67160    3.47330
 2600.00000    8.24140    8.24140  102.97750  102.97750    -999.25   89.73980   89.73980  392.41220    3.27290    3.46890
 2650.00000    8.93340    8.93340  116.74420  116.74420    -999.25   93.49170   93.49170  384.51280    3.05210    2.69920
 2700.00000    8.94320    8.94320   91.36100   91.36100    -999.25   86.73220   86.73220  384.52810    3.45900    3.27260
 2750.00000    8.29670    8.29670  102.69260  102.69260    -999.25   91.21350   91.21350  384.62460    3.75980    3.01120
 2800.00000    9.38460    9.38460   99.29230   99.29230    -999.25   78.07340   78.07340  389.42260    4.17250    4.48170
 2850.00000    8.55460    8.55460  106.69490  106.69490    -999.25   89.12900   89.12900  389.00610    3.43250    2.83740
 2900.00000    9.05680    9.05680  106.79180  106.79180    -999.25   80.94600   80.94600  393.91590    3.72940    3.33700
 2950.00000   10.46520   10.46520  106.76940  106.76940    -999.25   83.25930   83.25930  386.02160    3.45000    3.07610
 3000.00000   13.68540   13.68540  111.47000  111.47000    -999.25   65.34370   65.34370  387.03250    3.36870    3.28670
 3050.00000    9.31400    9.31400   92.10020   92.10020    -999.25   79.83160   79.83160  375.79810    3.97990    3.54580
 3100.00000    9.57720    9.57720   99.59820   99.59820    -999.25   92.64170   92.64170  365.12750    3.25830    3.04790
 3150.00000   12.90760   12.90760   92.64520   92.64520    -999.25   81.25980   81.25980  369.62840    3.01690    3.01090
 3200.00000    9.50190    9.50190  106.03490  106.03490    -999.25   90.43800   90.43800  370.76890    3.34170    2.92900
 3250.00000   15.22230   15.22230  107.31900  107.31900    -999.25   97.64950   97.64950  376.61600    3.81160    3.27220
 3300.00000   13.63230   13.63230  105.69430  105.69430    -999.25   91.22270   91.22270  344.17510    3.26750    3.07800
 3350.00000   13.81630   13.81630  108.49720  108.49720    -999.25   86.31410   86.31410  322.23460    3.55400    3.06740
 3400.00000   11.64300   11.64300  104.02340  104.02340    -999.25   94.43690   94.43690  248.24690    2.08150    2.82730
 3450.00000    9.61450    9.61450  100.98580  100.98580    -999.25  100.35600  100.35600  250.51770    4.78330    4.43060
 3500.00000    9.14150    9.14150  102.09820  102.09820    -999.25  138.69100  138.69100  232.89010    3.67780    5.23560
 3550.00000   11.65940   11.65940  101.61560  101.61560    -999.25   72.70740   72.70740  324.15730    1.78080    2.23630
