~Version ---------------------------------------------------
VERS.      2.0 : CWLS log ASCII Standard -VERSION 2.0
WRAP.       NO : One line per depth step
CREA. 10/22/14 : LAS Creation Date
~Well ------------------------------------------------------
STRT.m                           300.0 : START DEPTH
STOP.m                          1850.0 : STOP DEPTH
STEP.m                        50.00000 : STEP LENGTH
NULL.                          -999.25 : NULL VALUE
COMP.         NORTHROCK RESOURCES LTD. : COMPANY
WELL. NORTHROCK ET AL RICINW 4-4-36-10 : WELL
FLD .                                  : FIELD
LOC .                                  : LOCATION
CTRY.                           CANADA : COUNTRY
SRVC.                       Computalog : SERVICE COMPANY
DATE.                      27-Jul-1998 : LOGDATE
PROV.                          Alberta : PROVINCE
UWI .                 100040403610W500 : UNIQUE WELL ID
SLAT.WGS84                    52.06009 : SURFACE LATITUDE
SLON.WGS84                   -115.3761 : SURFACE LONGITUDE
~Curve Information -----------------------------------------
DEPT    .m      : Depth Curve
CALWS   .MM     : CALIPER [CALXDED]
CALXDED .MM     : CALIPER X FROM DENSITY LOG
CALYDED .MM     : CALIPER FROM DENSITY LOG
CALYSED .MM     : CALIPER FROM SONIC LOG
CONDWS  .MMHO   : CONDUCTIVITY [1000/DRESWS]
DCORWS  .KG/M3  : DENSITY CORRECTION [DRHOED]
DENWS   .KG/M3  : FORMATION BULK DENSITY [CALC. FROM DPOLSWS, M=2710, F=1000]
DPHIDMED.V/V    : DENSITY POROSITY DOLOMITE [M=2850 F=1000] FROM DENSITY LOG
DPHILSED.V/V    : DENSITY POROSITY LIMESTONE [M=2710, F=1000]  FROM DENSITY LOG
DPHISSED.V/V    : DENSITY POROSITY SANDSTONE  [M=2650 F=1000] FROM DENSITY LOG
DPOLSWS .V/V    : DENSITY POROSITY LIMESTONE [DPHILSED]
DRESWS  .OHMM   : DEEP RESISTIVITY [STIDED]
DRHOED  .KG/M3  : DENSITY CORRECTION FROM DENSITY LOG
DTED    .US/M   : INTERVAL TRANSIT TIME FROM SONIC LOG [ADJ. TO RESISTIVITY LOG]
DTWS    .US/M   : COMPRESSIONAL SONIC [DTED]
GRDED   .GAPI   : GAMMA RAY FROM DENSITY LOG
GRED    .GAPI   : GAMMA RAY FROM GAMMA LOG [CASEDHOLE] [ADJ. TO GRDED]
GRSED   .GAPI   : GAMMA RAY FROM SONIC LOG  [ADJ. TO GRDED]
GRWS    .GAPI   : GAMMA RAY [GRED SPL. TO GRSED @281.33]
MRESWS  .OHMM   : MEDIUM RESISTIVITY [STIMED]
NPHIDMED.V/V    : NEUTRON POROSITY DOLOMITE  FROM DENSITY LOG
NPHILSED.V/V    : NEUTRON POROSITY LIMESTONE  FROM DENSITY LOG
NPHISSED.V/V    : NEUTRON POROSITY SANDSTONE FROM DENSITY LOG
NPOLSWS .V/V    : NEUTRON POROSITY LIMESTONE [NPHILSED]
PEFED   .B/E    : PHOTOELECTRIC FACTOR  FROM DENSITY LOG
PEFWS   .B/E    : PHOTOELECTRIC FACTOR [PEFED]
RHOBED  .KG/M3  : BULK DENSITY FROM DENSITY LOG
SFLED   .OHMM   : SHALLOW FOCUSED RESISTIVITY LOG FROM RESISTIVITY LOG
SPRED   .MV     : SPONTANEOUS POTENTIAL FROM RESISTIVITY LOG
SPWS    .MV     : SPONTANEOUS POTENTIAL [BASELINE 0 MV, SPRED]
SRESWS  .OHMM   : SHALLOW RESISTIVITY [SFLED]
STIDED  .OHMM   : DEEP INDUCTION  RESISTIVITY FROM RESISTIVITY LOG
STIMED  .OHMM   : MEDIUM INDUCTION RESITIVITY FROM RESISTIVITY LOG
TENDED  .N      : TENSION [KG*9.80665002864] FROM DENSITY LOG
~Params ----------------------------------------------------
PD  .            GROUND LEVEL : PERMANENT DATUM
EPD .M                 1529.7 : ELEVATION PERMANENT DATUM
LMF .                      KB : LOG MEASURED FROM
DAPD.M                    4.9 : FEET ABOVE PERMANENT DATUM
EKB .M                 1534.6 : KELLY BUSHING
EGL .M                 1529.7 : GROUND LEVEL
DATE.              07/27/1998 : RUN DATE
RUN .                       1 : RUN NUMBER
DD  .M                   1885 : DEPTH DRILLER
DL  .M                 1884.9 : DEPTH LOGGER
BLI .M                 1882.8 : BOTTOM LOG INTERVAL
TLI .M                  288.6 : TOP LOG INTERVAL
CS  .MM                 244.5 : CASING SIZE
CBD .M                    289 : CASING BOTTOM DRILLER
CBL .M                  288.6 : CASING BOTTOM LOGGER
BS  .MM                   222 : BIT SIZE
BSD .M                   1885 : BIT SIZE AT DEPTH
DFT .             GEL POLYMER : DRILLING FLUID TYPE
DFD .                    1080 : DRILLING FLUID DENSITY
DFV .                      82 : DRILLING FLUID VISCOSITY
DFPH.                      11 : DRILLING FLUID PH
DFL .                     5.0 : DRILLING FLUID LOSS
MSS .                FLOWLINE : MUD SAMPLE SOURCE
RMS .OHMM                 2.0 : RESISTIVITY MUD SAMPLE
MST .DEGC                  25 : MUD SAMPLE TEMPERATURE
RMF .OHMM                 1.4 : RESISTIVITY MUD FILTRATE SAMPLE
MFST.DEGC                  24 : MUD FILTRATE SAMPLE TEMPERATURE
RMC .OHMM                 1.4 : RESISTIVITY MUD CAKE
MCST.DEGC                  25 : MUD CAKE SAMPLE TEMPERATURE
RMB .OHMM                 1.5 : RESISTIVITY MUD AT BHT
MRT .DEGC                  42 : MAXIMUM RECORDED TEMPERATURE
LUN .                     353 : LOGGING UNIT NUMBER
LUL .                EDMONTON : LOGGING UNIT LOCATION
ENGI.              WASYLYSHYN : RECORDING ENGINEER
WITN.                 MACLEOD : WITNESSED BY
CLNT.                 A2DTECH : CLIENT CODE
ORIG. 40'/100M 24'/100M PRINT : ORIGIN OF DATA
UWI .        100040403610W500 : UNIQUE WELL ID
DICO.  A2D Technologies, Inc. : DIGITIZING COMPANY
~Other -----------------------------------------------------
~ASCII -----------------------------------------------------
# ...
 1350.00000  223.50000  223.50000  223.57550  231.12500    0.52450   51.00000 2786.26600    0.04500   -0.04460   -0.08170   -0.04460 1906.47000   51.00000  158.08000  158.08000   12.25500    -999.25   12.12000   12.12000 1164.74190    0.00090    0.01620    0.05450    0.01620    4.25300    4.25300 2791.60010 1954.47400  -28.55000  -42.00480 1954.47400 1906.47000 1164.74190 25664.90830
 1400.00000  222.17500  222.17500  225.41590  228.55000    1.93450   61.95000 2747.79100    0.06620   -0.02210   -0.05520   -0.02210  516.92790   61.95000  170.32000  170.32000   39.48000   36.98690   36.10500   36.10500  593.51260    0.01090    0.04490    0.09190    0.04490    4.43900    4.43900 2743.00000  761.78060   -9.74000  -23.19480  761.78060  516.92790  593.51260 26600.12440
 1450.00000  213.40000  213.40000  230.42610  220.55000    2.35160   66.95000 2774.80900    0.05020   -0.03790   -0.07420   -0.03790  425.23590   66.95000  169.64000  169.64000    5.92500   12.81990    4.75500    4.75500 1395.17900    0.02410    0.07120    0.12250    0.07120    2.75600    2.75600 2774.60010  835.27580  -48.50000  -61.95480  835.27580  425.23590 1395.17900 26430.96160
 1500.00000  218.82500  218.82500  223.00600  222.05000    2.28750   41.20000 2812.42900    0.03150   -0.05990   -0.09680   -0.05990  437.14940   41.20000  163.32000  163.32000    7.15500    6.16740    5.83500    5.83500  296.91350    0.01150    0.04650    0.09560    0.04650    2.85600    2.85600 2815.70000  677.06430  -48.57500  -62.02980  677.06430  437.14940  296.91350 26337.68570
 1550.00000  223.40000  223.40000  222.01520  219.05000    2.67280   38.30000 2784.38500    0.04600   -0.04350   -0.07980   -0.04350  374.13640   38.30000  165.24000  165.24000    6.33000   11.38880    8.82000    8.82000  395.39390    0.02110    0.06520    0.11590    0.06520    2.89600    2.89600 2785.10010  288.29020  -41.87000  -55.32480  288.29020  374.13640  395.39390 27959.07790
 1600.00000  220.37500  220.37500  221.36100  221.00000    2.57610   89.30000 2864.92600    0.00250   -0.09060   -0.12860   -0.09060  388.17710   89.30000  158.36000  158.36000    8.41500    9.79210    9.39000    9.39000  765.29680    0.01410    0.05400    0.10290    0.05400    2.69500    2.69500 2858.70000 1105.17200  -39.39500  -52.84980 1105.17200  388.17710  765.29680 28568.38280
 1650.00000  238.67500  238.67500  221.78260  221.45000    0.63880   26.30000 2822.68900    0.02220   -0.06590   -0.10920   -0.06590 1565.41700   26.30000  151.48000  151.48000    9.63000    9.44560    8.10000    8.10000  874.64120    0.00750    0.03910    0.08390    0.03910    2.69500    2.69500 2830.10000 1609.27400  -32.31500  -45.76980 1609.27400 1565.41700  874.64120 29437.69130
 1700.00000  219.52500  219.52500  221.10310  221.40000    2.62400  208.55000 2659.38400    0.11330    0.02960   -0.00960    0.02960  381.09210  208.55000  163.14000  163.14000    9.63000    9.46390    8.19000    8.19000 1954.47400    0.03910    0.09780    0.14990    0.09780    2.79600    2.79600 2680.40000  858.67720  -51.60500  -65.05980  858.67720  381.09210 1954.47400 29328.87180
 1750.00000  223.55000  223.55000  220.95200  216.07500    1.38600   95.10000 2852.27200    0.00730   -0.08320   -0.12340   -0.08320  721.48930   95.10000  147.94000  147.94000   11.82000   11.86100    9.73500    9.73500  577.33770    0.00530    0.03320    0.07790    0.03320    2.70300    2.70300 2862.40000 1947.28700  -21.84500  -35.29980 1947.28700  721.48930  577.33770 30912.56730
 1800.00000  215.27500  215.27500  218.74400  220.05000    5.10700   75.95000 2736.84700    0.07220   -0.01570   -0.05200   -0.01570  195.80780   75.95000  165.36000  165.36000    7.78500    8.79170    7.17000    7.17000  210.39230    0.02700    0.07540    0.12920    0.07540    2.75600    2.75600 2738.00000  623.20360  -50.21000  -63.66480  623.20360  195.80780  210.39230 30123.95580
 1850.00000  227.02500  227.02500  220.51890  215.07500    1.78060   39.55000 2723.16700    0.07480   -0.00770   -0.04240   -0.00770  561.60360   39.55000  191.90000  191.90000   60.73500    -999.25   46.18500   46.18500  423.67210    0.00570    0.03460    0.07940    0.03460    2.42500    2.42500 2728.39990 1545.36100  -34.64000  -48.09480 1545.36100  561.60360  423.67210 31299.96830
