~Version ---------------------------------------------------
VERS.      2.0 : CWLS log ASCII Standard -VERSION 2.0
WRAP.       NO : One line per depth step
CREA. 10/26/17 : LAS Creation Date
~Well ------------------------------------------------------
STRT.FT                          1000.0 : START DEPTH
STOP.FT                          9700.0 : STOP DEPTH
STEP.FT                        50.00000 : STEP LENGTH
NULL.                           -999.25 : NULL VALUE
COMP.                      GUYER OIL CO : COMPANY
WELL. GUYER ET AL SAKWATAMAU 2-15-63-15 : WELL
FLD .                                WC : FIELD
LOC .                                   : LOCATION
CTRY.                            CANADA : COUNTRY
SRVC.                      Schlumberger : SERVICE COMPANY
DATE.                       13-Nov-1969 : LOGDATE
PROV.                           Alberta : PROVINCE
UWI .                  100021506315W500 : UNIQUE WELL ID
SLAT.WGS84                     54.44702 : SURFACE LATITUDE
SLON.WGS84                     -116.175 : SURFACE LONGITUDE
~Curve Information -----------------------------------------
DEPT    .FT    : Depth Curve
CALNED  .IN    : CALIPER FROM SNP LOG [ADJ. TO RESISTIVITY LOG]
CALSED  .IN    : CALIPER FROM SONIC LOG [ADJ. TO RESISTIVITY LOG]
CALWS   .IN    : CALIPER [CALSED]
CONDWS  .MMHO  : CONDUCTIVITY [1000/DRESWS]
DRESWS  .OHMM  : DEEP RESISTIVITY [ILDED]
DTED    .US/F  : DELTA TIME FROM SONIC LOG [ADJ. TO RESISTIVITY LOG]
DTWS    .US/F  : COMPRESSIONAL SONIC [DTED]
GRSED   .GAPI  : GAMMA RAY FROM SONIC LOG [ADJ. TO RESISTIVITY LOG]
GRWS    .GAPI  : GAMMA RAY [GRSED]
ILDED   .OHMM  : DEEP INDUCTION RESISTIVITY FROM RESISTIVITY LOG
ILMED   .OHMM  : MEDIUM INDUCTION RESISTIVITY FROM RESISTIVITY LOG
LL8ED   .OHMM  : LATEROLOG-8 RESISTIVITY FROM RESISTIVITY LOG
MRESWS  .OHMM  : MEDIUM RESISTIVITY [ILMED]
NPOLSWS .V/V   : NEUTRON POROSITY LIMESTONE [SNPLSED]
SNPLSED .V/V   : SIDEWALL NEUTRON POROSITY LIMESTONE FROM SNP LOG [ADJ. TO RESISTIVITY LOG]
SPHILSED.V/V   : SONIC POROSITY LIMESTONE [DTM=47.6, DTF=189] FROM SONIC LOG [ADJ. TO RESISTIVITY LOG]
SPHISSED.V/V   : SONIC POROSITY SANDSTONE [DTM=55.6, DTF=189] FROM SONIC LOG [ADJ. TO RESISTIVITY LOG]
SPOLSWS .V/V   : SONIC POROSITTY LIMESTONE [SPHISSED SPL. TO SPHILSED @ 5901']
SPRED   .MV    : SPONTANEOUS POTENTIAL FROM RESISTIVITY LOG
SPWS    .MV    : SPONTANEOUS POTENTIAL [BASELINE 0 MV, SPRED]
SRESWS  .OHMM  : SHALLOW RESISTIVITY [LL8ED]
~Params ----------------------------------------------------
PD  .                     GL : PERMANENT DATUM
EPD .FT                 3072 : ELEVATION PERMANENT DATUM
LMF .                     KB : LOG MEASURED FROM
DAPD.FT                   13 : FEET ABOVE PERMANENT DATUM
EKB .FT                 3085 : KELLY BUSHING
EGL .FT                 3072 : GROUND LEVEL
DATE.               11/13/69 : RUN DATE
RUN .                      1 : RUN NUMBER
DD  .FT                 9704 : DEPTH DRILLER
DL  .FT                 9705 : DEPTH LOGGER
BLI .FT                 9701 : BOTTOM LOG INTERVAL
TLI .FT                 1005 : TOP LOG INTERVAL
CBD .FT                 1005 : CASING BOTTOM DRILLER
CBL .FT                 1005 : CASING BOTTOM LOGGER
BS  .IN                7.875 : BIT SIZE
BSD .FT                 9704 : BIT SIZE AT DEPTH
DFT .                    GEL : DRILLING FLUID TYPE
DFD .                    9.1 : DRILLING FLUID DENSITY
DFV .                     70 : DRILLING FLUID VISCOSITY
DFPH.                    8.5 : DRILLING FLUID PH
DFL .                      9 : DRILLING FLUID LOSS
MSS .                DRILLER : MUD SAMPLE SOURCE
RMS .OHMM               2.61 : RESISTIVITY MUD SAMPLE
MST .DEGF                 74 : MUD SAMPLE TEMPERATURE
RMF .OHMM               2.12 : RESISTIVITY MUD FILTRATE SAMPLE
MFST.DEGF                 75 : MUD FILTRATE SAMPLE TEMPERATURE
RMC .OHMM               2.91 : RESISTIVITY MUD CAKE
MCST.DEGF                 75 : MUD CAKE SAMPLE TEMPERATURE
TCS .HRS                   6 : TIME CIRCULATED STOPPED
LUN .                   7501 : LOGGING UNIT NUMBER
LUL .                    EDM : LOGGING UNIT LOCATION
ENGI.                 EDGSON : RECORDING ENGINEER
WITN.              ZASEYBIDA : WITNESSED BY
CLNT.                A2DTECH : CLIENT CODE
ORIG.            2" 5" PRINT : ORIGIN OF DATA
UWI .       100021506315W500 : UNIQUE WELL ID
DICO. A2D Technologies, Inc. : DIGITIZING COMPANY
~Other -----------------------------------------------------
DLL-BCS-SNP LOG RUN
~ASCII -----------------------------------------------------
# ...
 7600.00000    9.07220    8.25330    8.25330   34.12720   29.30210   51.49190   51.49190   13.88420   13.88420   29.30210   45.39360  406.70940   45.39360    0.04630    0.04630    0.02490    -999.25    0.02490 -148.28220 -147.93320  406.70940
 7650.00000    8.74520    8.11140    8.11140   20.65830   48.40660   53.59850   53.59850   14.32330   14.32330   48.40660   76.66630  240.52160   76.66630    0.04450    0.04450    0.03750    -999.25    0.03750 -184.07320 -183.11010  240.52160
 7700.00000    9.27000    8.74340    8.74340    2.55610  419.65230   48.85750   48.85750   10.06110   10.06110  419.65230  537.81090 1271.08160  537.81090   -0.00420   -0.00420    0.00770    -999.25    0.00770 -109.52130 -107.94000 1271.08160
 7750.00000    9.06170    9.07400    9.07400   39.87290   25.07970   51.69920   51.69920   30.81360   30.81360   25.07970   25.84210   55.94840   25.84210    0.04120    0.04120    0.03040    -999.25    0.03040 -113.68180 -111.48640   55.94840
 7800.00000    9.88960    9.35700    9.35700    7.17000  139.46970   47.67560   47.67560   14.97420   14.97420  139.46970  218.80870  549.17080  218.80870    0.05740    0.05740   -0.00140    -999.25   -0.00140 -156.11000 -153.30060  549.17080
 7850.00000   10.81910    9.17930    9.17930   20.16120   49.60010   52.27850   52.27850   22.12860   22.12860   49.60010   44.10480   48.70970   44.10480    0.06120    0.06120    0.03240    -999.25    0.03240 -127.66050 -124.23290   48.70970
 7900.00000    8.75860    8.56350    8.56350    5.33640  187.39230   50.69610   50.69610   23.83070   23.83070  187.39230  200.32310  304.79380  200.32310    0.00600    0.00600    0.02040    -999.25    0.02040  -78.03660  -73.99490  304.79380
 7950.00000    8.81480    8.69910    8.69910    6.68120  150.12150   52.67010   52.67010   28.86720   28.86720  150.12150  146.22270  139.56670  146.22270    0.01120    0.01120    0.03410    -999.25    0.03410  -54.01680  -49.35700  139.56670
 8000.00000    -999.25    9.12890    9.12890   12.37760   80.79110   54.85160   54.85160   34.23840   34.23840   80.79110   82.58160   89.47260   82.58160    -999.25    -999.25    0.05060    -999.25    0.05060  -46.17460  -40.90070   89.47260
 8050.00000    -999.25    8.49850    8.49850   15.64020   63.93770   56.48640   56.48640   48.08190   48.08190   63.93770   66.85280   70.70180   66.85280    -999.25    -999.25    0.06080    -999.25    0.06080  -71.42160  -65.53360   70.70180
 8100.00000    -999.25    8.57540    8.57540   25.89330   38.62000   57.35600   57.35600   61.31450   61.31450   38.62000   40.70980   42.12020   40.70980    -999.25    -999.25    0.06660    -999.25    0.06660  -54.33520  -47.82910   42.12020
 8150.00000    -999.25    8.85100    8.85100   23.76590   42.07710   56.36900   56.36900   48.95840   48.95840   42.07710   43.69160   52.64500   43.69160    -999.25    -999.25    0.06070    -999.25    0.06070  -50.04000  -42.91980   52.64500
 8200.00000    -999.25    9.85910    9.85910   30.18880   33.12480   56.55890   56.55890   36.85580   36.85580   33.12480   33.85410   42.84030   33.85410    -999.25    -999.25    0.06210    -999.25    0.06210  -48.54330  -40.80500   42.84030
 8250.00000    -999.25    8.99550    8.99550   27.80900   35.95960   56.29430   56.29430   34.14530   34.14530   35.95960   38.22460   47.33290   38.22460    -999.25    -999.25    0.06060    -999.25    0.06060  -51.55770  -43.20530   47.33290
 8300.00000    -999.25    9.08660    9.08660   71.18960   14.04700   61.36040   61.36040   46.68220   46.68220   14.04700   15.21370   18.46730   15.21370    -999.25    -999.25    0.09600    -999.25    0.09600  -51.53280  -42.56630   18.46730
 8350.00000    -999.25    9.06660    9.06660   70.31660   14.22140   62.13340   62.13340   46.40280   46.40280   14.22140   15.34440   17.60170   15.34440    -999.25    -999.25    0.10230    -999.25    0.10230  -50.30330  -40.71870   17.60170
 8400.00000    -999.25    9.02910    9.02910   19.87830   50.30600   66.02620   66.02620   76.89130   76.89130   50.30600   59.82330   66.59610   59.82330    -999.25    -999.25    0.12860    -999.25    0.12860  -47.37390  -37.17520   66.59610
 8450.00000    -999.25    9.63440    9.63440   51.58530   19.49340   59.14900   59.14900   54.81620   54.81620   19.49340   22.00680   25.21520   22.00680    -999.25    -999.25    0.08210    -999.25    0.08210  -54.24590  -43.42910   25.21520
 8500.00000    -999.25    8.87330    8.87330   70.28890   14.22700   62.47750   62.47750   42.37680   42.37680   14.22700   15.96250   19.34290   15.96250    -999.25    -999.25    0.10340    -999.25    0.10340  -41.30540  -29.87450   19.34290
 8550.00000    -999.25   10.37770   10.37770  118.14190    8.46440   70.93090   70.93090   68.43180   68.43180    8.46440    9.21760   10.79340    9.21760    -999.25    -999.25    0.16810    -999.25    0.16810  -46.73280  -34.68780   10.79340
 8600.00000    -999.25   11.15280   11.15280  142.26570    7.02910   81.07380   81.07380   82.64040   82.64040    7.02910    7.48930    9.42930    7.48930    -999.25    -999.25    0.23300    -999.25    0.23300  -53.19120  -40.52800    9.42930
 8650.00000    -999.25    9.20950    9.20950   97.39470   10.26750   66.36340   66.36340   61.95890   61.95890   10.26750   10.98830   12.28970   10.98830    -999.25    -999.25    0.12840    -999.25    0.12840  -46.56130  -33.28410   12.28970
 8700.00000    -999.25    9.40180    9.40180   95.21280   10.50280   66.01740   66.01740   77.00890   77.00890   10.50280   11.52330   14.34770   11.52330    -999.25    -999.25    0.12800    -999.25    0.12800  -41.57350  -27.67810   14.34770
 8750.00000    -999.25    8.93130    8.93130   94.98930   10.52750   68.74300   68.74300   69.02420   69.02420   10.52750   11.30270   15.02470   11.30270    -999.25    -999.25    0.15090    -999.25    0.15090  -40.06790  -25.55840   15.02470
 8800.00000    -999.25    9.06540    9.06540  116.42530    8.58920   72.61970   72.61970   94.44830   94.44830    8.58920    9.29550   11.13460    9.29550    -999.25    -999.25    0.17050    -999.25    0.17050  -39.71010  -24.58650   11.13460
 8850.00000    -999.25    8.60750    8.60750  109.72970    9.11330   70.62310   70.62310   94.63090   94.63090    9.11330   10.24510   13.24660   10.24510    -999.25    -999.25    0.16100    -999.25    0.16100  -36.38900  -20.64730   13.24660
 8900.00000    -999.25    9.59110    9.59110  128.17230    7.80200   76.17920   76.17920   87.84480   87.84480    7.80200    8.23470    9.37660    8.23470    -999.25    -999.25    0.19510    -999.25    0.19510  -40.60270  -24.24690    9.37660
 8950.00000    -999.25    9.86630    9.86630  161.42700    6.19480   75.44720   75.44720   83.87060   83.87060    6.19480    6.83190    8.06180    6.83190    -999.25    -999.25    0.20930    -999.25    0.20930  -41.36230  -24.38840    8.06180
 9000.00000    -999.25    9.31020    9.31020  147.56230    6.77680   76.96570   76.96570   93.08600   93.08600    6.77680    7.33490    9.46430    7.33490    -999.25    -999.25    0.20500    -999.25    0.20500  -35.29690  -17.70890    9.46430
 9050.00000    -999.25    8.05200    8.05200    0.83740 1194.18130   70.09270   70.09270   94.43490   94.43490 1194.18130 1216.91350 1208.98280 1216.91350    -999.25    -999.25    0.15950    -999.25    0.15950  -22.73920   -4.54850 1208.98280
 9100.00000    -999.25    8.08760    8.08760   26.88570   37.19450   58.07520   58.07520   47.13810   47.13810   37.19450   39.86660   46.98800   39.86660    -999.25    -999.25    0.07250    -999.25    0.07250  -26.69510   -8.75410   46.98800
 9150.00000    -999.25    8.17740    8.17740   13.94740   71.69790   78.51090   78.51090  126.27260  126.27260   71.69790   78.20210  171.26040   78.20210    -999.25    -999.25    0.21640    -999.25    0.21640  -18.34990   -0.65700  171.26040
 9200.00000    -999.25    8.10710    8.10710   81.59860   12.25710   68.45450   68.45450  102.58560  102.58560   12.25710   13.93780   20.54850   13.93780    -999.25    -999.25    0.14850    -999.25    0.14850  -24.27810   -6.83490   20.54850
