~Version ---------------------------------------------------
VERS. 2.0 : CWLS log ASCII Standard -VERSION 2.0
WRAP. YES : MULTIPLE LINES PER DEPTH STEP
~Well ------------------------------------------------------
STRT.FT                      2000.0 : START DEPTH
STOP.FT                     17600.0 : STOP DEPTH
STEP.FT                    50.00000 : STEP LENGTH
NULL.                      -99925.0 : NULL VALUE
COMP.        SEAFORT PETROLEUM LTD. : COMPANY
WELL. SEAFORT ET AL KAKWA 2-20-61-7 : WELL
FLD .                               : FIELD
LOC .                               : LOCATION
CTRY.                        CANADA : COUNTRY
SRVC.        Schlumberger of Canada : SERVICE COMPANY
DATE.                   12-Aug-1975 : LOGDATE
PROV.                       Alberta : PROVINCE
UWI .              100022006107W600 : UNIQUE WELL ID
SLAT.WGS84                 54.28609 : SURFACE LATITUDE
SLON.WGS84                -119.0081 : SURFACE LONGITUDE
~Curve Information -----------------------------------------
DEPT    .FT    : DEPTH FEET
CALDED  .IN    : CALIPER FROM DENSITY LOG [ADJ TO GRRED]
CALSED  .IN    : CALIPER FROM SONIC LOG
CALWS   .IN    : CALIPER [CALSED]
CONDWS  .MMHO  : CONDUCTIVITY [1000/DRESWS]
DCORED  .G/C3  : DENSITY CORRECTION FROM DENSITY LOG [ADJ TO GRRED]
DCORWS  .G/C3  : DENSITY CORRECTION [DCORED]
DENWS   .G/C3  : BULK DENSITY [M=2.65 F=1.0] <14590> [M=2.71 F=1.0] [RHOBED]
DPHILSED.V/V   : DENSITY POROSITY [M=2.71 F=1.0] FROM DENSITY LOG [ADJ TO GRRED]
DPHISSED.V/V   : DENSITY POROSITY [M=2.65 F=1.0] FROM DENSITY LOG [ADJ TO GRRED]
DPOWS   .V/V   : DENSITY POROSITY [M=2.71 F=1.0] [CALCULATED FROM DENWS]
DRESWS  .OHMM  : DEEP RESISTIVITY [SPL ILDED <14590> LLDED]
DTED    .US/F  : DELTA TIME FROM SONIC LOG
DTWS    .US/F  : DELTA TIME [DTED]
GRDED   .GAPI  : GAMMA RAY FROM DENSITY LOG [ADJ TO GRRED]
GRRED   .GAPI  : GAMMA RAY FROM RESISTIVITY LOG
GRSED   .GAPI  : GAMMA RAY FROM SONIC LOG
GRWS    .GAPI  : GAMMA RAY [GRSED, CSG ABOVE 2005F]
ILDED   .OHMM  : INDUCTION LOG DEEP RESISTIVITY
ILMED   .OHMM  : INDUCTION LOG MEDIUM RESISTIVITY
LL8ED   .OHMM  : 8 INCH LATEROLOG RESISTIVITY
LLDED   .OHMM  : LATEROLOG DEEP RESISTIVITY
LLSED   .OHMM  : LATEROLOG SHALLOW RESISTIVITY
MRESWS  .OHMM  : MEDIUM RESISTIVITY [ILMED]
NPHILSED.V/V   : NEUTRON POROSITY LIMESTONE FROM DENSITY LOG [ADJ TO GRRED]
NPHISSED.V/V   : NEUTRON POROSITY SANDSTONE FROM DENSITY LOG [ADJ TO GRRED]
NPOWS   .V/V   : NEUTRON POROSITY LIMESTONE [CONVERTED NPHISSED TO LIMESTONE SPL WITH NPHILSED @14516F]
RHOBED  .G/C3  : BULK DENSITY FROM DENSITY LOG [ADJ TO GRRED]
SPRED   .MV    : SPONTANEOUS POTENTIAL FROM RESISTIVITY LOG
SPWS    .MV    : SPONTANEOUS POTENTIAL [BASELINE 0 MV] [SPRED]
SRESWS  .OHMM  : SHALLOW RESISTIVITY [SPL LL8ED <14590> LLSED]
~Params ----------------------------------------------------
PD  .                     GL : PERMANENT DATUM
EPD .FT                 3465 : ELEVATION PERMANENT DATUM
LMF .                     KB : LOG MEASURED FROM
DAPD.FT                   21 : FEET ABOVE PERMANENT DATUM
EKB .FT                 3486 : KELLY BUSHING
EGL .FT                 3465 : GROUND LEVEL
DATE.               10/06/75 : RUN DATE
RUN .                      2 : RUN NUMBER
DD  .FT                17618 : DEPTH DRILLER
DL  .FT                17600 : DEPTH LOGGER
BLI .FT                17600 : BOTTOM LOG INTERVAL
TLI .FT                14577 : TOP LOG INTERVAL
CBD .FT                14590 : CASING BOTTOM DRILLER
CBL .FT                14577 : CASING BOTTOM LOGGER
BS  .IN                  9.5 : BIT SIZE
BSD .FT                17618 : BIT SIZE AT DEPTH
DFT .                    GEL : DRILLING FLUID TYPE
DFD .                   13.8 : DRILLING FLUID DENSITY
DFV .                    115 : DRILLING FLUID VISCOSITY
DFPH.                     11 : DRILLING FLUID PH
DFL .                      7 : DRILLING FLUID LOSS
RMS .OHMM              0.809 : RESISTIVITY MUD SAMPLE
MST .DEGF                 75 : MUD SAMPLE TEMPERATURE
WITN.                  BROWN : WITNESSED BY
CLNT.                A2DTECH : CLIENT CODE
ORIG.               5" PRINT : ORIGIN OF DATA
UWI .       100022006107W600 : UNIQUE WELL ID
DICO. A2D Technologies, Inc. : DIGITIZING COMPANY
~Other -----------------------------------------------------
~ASCII -----------------------------------------------------
# ...
 10400.00000   14.06020   13.01320   13.01320   52.88370    0.11770    0.11770    2.52420   -99925.0    0.07570    0.10870   18.90940   60.49760   60.49760   35.86980   38.70660   34.33620   34.33620   18.90940   73.78350   39.34260  309.63320  200.76210   73.78350   -99925.0    0.04230    0.01010    2.52420  -83.99930   -5.23820   39.34260
 10450.00000   12.13510   12.55530   12.55530   82.40690    0.03440    0.03440    2.64750   -99925.0    0.00260    0.03650   12.13490   63.95900   63.95900   50.87470   54.31270   53.81210   53.81210   12.13490   28.02020   21.58880   36.67030   31.56160   28.02020   -99925.0    0.12570    0.08340    2.64750  -82.52130   -3.76020   21.58880
 10500.00000   12.33890   12.18810   12.18810   65.92740    0.02020    0.02020    2.66550   -99925.0   -0.01110    0.02600   15.16820   66.24080   66.24080   80.41930   72.93040   63.29370   63.29370   15.16820   22.52320   24.60990   21.96630   24.88400   22.52320   -99925.0    0.18780    0.14450    2.66550  -83.78770   -4.65530   24.60990
 10550.00000   12.18490   12.77900   12.77900   89.68930    0.01790    0.01790    2.68640   -99925.0   -0.02560    0.01380   11.14960   64.13030   64.13030   63.94070   62.58420   59.90570   59.90570   11.14960   24.47440   18.89530   27.14040   29.02000   24.47440   -99925.0    0.16650    0.12360    2.68640  -82.13640   -2.24620   18.89530
 10600.00000   12.18740   12.37230   12.37230   77.28750    0.04410    0.04410    2.75290   -99925.0   -0.06750   -0.02510   12.93870   59.40200   59.40200   66.81230   66.61530   64.08370   64.08370   12.93870   25.46750   19.15210   51.46540   56.48720   25.46750   -99925.0    0.15700    0.11430    2.75290  -87.28080   -6.63280   19.15210
 10650.00000   12.19750   11.98740   11.98740   73.83290    0.01540    0.01540    2.66890   -99925.0   -0.01270    0.02400   13.54410   69.30270   69.30270   85.68430   83.97220   78.54330   78.54330   13.54410   26.19310   23.49190   19.45430   22.67530   26.19310   -99925.0    0.21800    0.17440    2.66890  -87.69500   -6.28920   23.49190
 10700.00000   12.10660   13.10970   13.10970  143.09020    0.04270    0.04270    2.66150   -99925.0   -0.00590    0.02840    6.98860   74.42440   74.42440  103.15840   89.55300  104.95560  104.95560    6.98860   12.52260   12.18470   11.63580   13.46750   12.52260   -99925.0    0.26910    0.22510    2.66150  -89.30790   -7.14430   12.18470
 10750.00000   11.86790   12.20720   12.20720   57.22330    0.10310    0.10310    2.67750   -99925.0   -0.01780    0.01900   17.47540   61.33680   61.33680   65.84530   67.64330   56.66850   56.66850   17.47540   41.85830   47.50490  111.73950   78.90880   41.85830   -99925.0    0.13300    0.09060    2.67750  -89.85610   -6.93470   47.50490
 10800.00000   12.26850   12.48510   12.48510   70.89990    0.08510    0.08510    2.78230   -99925.0   -0.08210   -0.04230   14.10440   65.95410   65.95410   89.74740   84.51450   78.77420   78.77420   14.10440   15.97330   19.86100   34.14920   30.94780   15.97330   -99925.0    0.21520    0.17160    2.78230  -85.34850   -1.66920   19.86100
 10850.00000   12.13170   11.89420   11.89420   59.54510    0.04030    0.04030    2.69880   -99925.0   -0.02580    0.00650   16.79400   58.40680   58.40680   57.58390   55.06510   62.93670   62.93670   16.79400   37.16050   30.32560   45.73220   38.38390   37.16050   -99925.0    0.10850    0.06670    2.69880  -89.54480   -5.10770   30.32560
 10900.00000   12.03690   12.50730   12.50730   24.77330    0.04410    0.04410    2.66180   -99925.0   -0.01010    0.02820   40.36610   59.76390   59.76390   60.12240   53.23540   63.88990   63.88990   40.36610  804.61990   39.59170  149.94250  126.80200  804.61990   -99925.0    0.11540    0.07330    2.66180  -97.49780  -12.30290   39.59170
 10950.00000   12.13230   12.38580   12.38580   61.44430    0.02510    0.02510    2.63880   -99925.0    0.00230    0.04160   16.27490   60.03200   60.03200   69.69970   50.35450   64.81240   64.81240   16.27490   20.37990   24.61280  131.33880  100.72570   20.37990   -99925.0    0.08950    0.04900    2.63880  -93.09260   -7.13990   24.61280
 11000.00000   12.27130   13.26780   13.26780  171.22110    0.19760    0.19760    2.66280   -99925.0   -0.01070    0.02760    5.84040   60.81390   60.81390   97.51220   80.86640   91.91470   91.91470    5.84040    7.42330   12.27330   33.08180   24.24740    7.42330   -99925.0    0.19090    0.14760    2.66280  -89.08260   -2.37210   12.27330
 11050.00000   12.08440   12.94170   12.94170   71.68660    0.00680    0.00680    2.66930   -99925.0   -0.01660    0.02380   13.94960   63.08420   63.08420  106.50960   93.35650   87.96380   87.96380   13.94960   36.00870   26.05580   27.17830   25.86640   36.00870   -99925.0    0.21890    0.17520    2.66930  -95.73150   -9.24020   26.05580
 11100.00000   15.66080   12.94570   12.94570   26.86280    0.16290    0.16290    2.34460   -99925.0    0.18780    0.21370   37.22620   67.78310   67.78310   35.35740   41.14950   38.86730   38.86730   37.22620   60.49810   50.46730  402.53960  109.05360   60.49810   -99925.0    0.13820    0.09580    2.34460  -99.93710  -13.68500   50.46730
 11150.00000   15.62700   13.37770   13.37770   20.26840    0.15680    0.15680    2.27560   -99925.0    0.22600    0.25400   49.33780   64.70260   64.70260   38.26590   37.02770   40.63410   40.63410   49.33780   37.40180   20.31770  217.70190   82.17830   37.40180   -99925.0    0.04120    0.00930    2.27560 -104.17830  -18.16540   20.31770
 11200.00000   12.48410   12.58990   12.58990   80.31480    0.06480    0.06480    2.61200   -99925.0    0.01850    0.05730   12.45100   67.99010   67.99010   83.41930   77.95750   74.50570   74.50570   12.45100   34.05940   20.25310   49.54910   54.37550   34.05940   -99925.0    0.16680    0.12390    2.61200 -105.33190  -19.55820   20.25310
 11250.00000   12.13600   12.41520   12.41520   47.71790    0.04650    0.04650    2.56470   -99925.0    0.05300    0.08500   20.95650   67.71600   67.71600   48.34650   46.23960   44.97760   44.97760   20.95650   45.68650   34.26600  111.99360  122.37400   45.68650   -99925.0    0.08470    0.04470    2.56470 -102.94990  -17.41530   34.26600
 11300.00000   13.28550   12.69730   12.69730   52.52630    0.17030    0.17030    2.51020   -99925.0    0.08470    0.11680   19.03810   71.66590   71.66590   76.04450   73.39410   73.03160   73.03160   19.03810   36.31980   32.13070   93.39500  103.89800   36.31980   -99925.0    0.17230    0.12930    2.51020  -98.58200  -13.28660   32.13070
 11350.00000   13.34240   13.08060   13.08060   60.68770    0.22610    0.22610    2.50710   -99925.0    0.08620    0.11870   16.47780   67.33280   67.33280   62.71920   55.91270   66.12540   66.12540   16.47780   41.67260   27.84920   81.99560   87.28630   41.67260   -99925.0    0.11220    0.07020    2.50710  -93.89360   -8.83740   27.84920
 11400.00000   16.42570   13.38010   13.38010   93.81570    0.13620    0.13620    2.12340   -99925.0    0.29960    0.34300   10.65920   70.98420   70.98420   43.50730   48.84170   39.29740   39.29740   10.65920   27.22190   20.26390   49.83540   39.73830   27.22190   -99925.0    0.13060    0.08820    2.12340  -94.87760  -10.06060   20.26390
 11450.00000   15.72110   13.34390   13.34390  111.82930    0.19640    0.19640    2.29360   -99925.0    0.22070    0.24350    8.94220   79.46620   79.46620   41.01190   39.32040   47.76950   47.76950    8.94220   39.29030   14.60970   27.08880   21.86010   39.29030   -99925.0    0.11660    0.07450    2.29360  -96.70060  -12.12270   14.60970
 11500.00000   14.97950   13.45470   13.45470   96.96690    0.16230    0.16230    2.31200   -99925.0    0.20880    0.23270   10.31280   66.48750   66.48750   65.13410   68.16910   49.01090   49.01090   10.31280   22.77170   18.02960   37.07990   38.85770   22.77170   -99925.0    0.15640    0.11370    2.31200  -92.98420   -8.64550   18.02960
 11550.00000   13.54140   12.67420   12.67420   74.81950    0.20730    0.20730    2.39840   -99925.0    0.15190    0.18220   13.36550   66.09960   66.09960   56.13620   60.39520   82.61400   82.61400   13.36550   27.96220   17.07500   48.93110   58.49910   27.96220   -99925.0    0.11700    0.07490    2.39840  -89.40880   -5.30930   17.07500
