~Version ---------------------------------------------------
VERS.      2.0 : CWLS log ASCII Standard -VERSION 2.0
WRAP.       NO : One line per depth step
CREA. 10/12/17 : LAS Creation Date
~Well ------------------------------------------------------
STRT.FT                      1050.0 : START DEPTH
STOP.FT                      9550.0 : STOP DEPTH
STEP.FT                    50.00000 : STEP LENGTH
NULL.                       -999.25 : NULL VALUE
COMP. GOLDEN EAGLE REFINING COMPANY : COMPANY
WELL. GREC GOA SAKWATAMAU 6-1-63-15 : WELL
FLD .                            WC : FIELD
LOC .                               : LOCATION
CTRY.                        CANADA : COUNTRY
SRVC.                  Schlumberger : SERVICE COMPANY
DATE.                   08-Dec-1970 : LOGDATE
PROV.                       Alberta : PROVINCE
UWI .              100060106315W500 : UNIQUE WELL ID
SLAT.WGS84                 54.41837 : SURFACE LATITUDE
SLON.WGS84                -116.1336 : SURFACE LONGITUDE
~Curve Information -----------------------------------------
DEPT  .FT    : Depth Curve
CALSED.IN    : CALIPER FROM SONIC LOG [ADJ. TO RESISTIVITY LOG]
CALWS .IN    : CALIPER [CALSED]
CONDWS.MMHO  : CONDUCTIVITY [1000/DRESWS]
DRESWS.OHMM  : DEEP RESISTIVITY [ILDED]
DTED  .US/F  : DELTA TIME FROM SONIC LOG [ADJ. TO RESISTIVITY LOG]
DTWS  .US/F  : COMPRESSIONAL SONIC [DTED]
GRSED .GAPI  : GAMMA RAY FROM SONIC LOG [ADJ. TO RESISTIVITY LOG]
GRWS  .GAPI  : GAMMA RAY [GRSED]
ILDED .OHMM  : DEEP INDUCTION FROM RESISTIVITY LOG
ILMED .OHMM  : MEDIUM INDUCTION FROM RESISTIVITY LOG
LL8ED .OHMM  : LATEROLOG 8 FROM  RESISTIVITY LOG
MRESWS.OHMM  : MEDIUM RESISTIVITY [ILMED]
SPRED .MV    : SPONTANEOUS POTENTIAL FROM RESISTIVITY LOG
SPWS  .MV    : SPONTANEOUS POTENTIAL [BASELINE 0 MV. SPRED]
SRESWS.OHMM  : SHALLOW RESISTIVITY [LL8ED]
~Params ----------------------------------------------------
PD  .                     GL : PERMANENT DATUM
EPD .FT                 2985 : ELEVATION PERMANENT DATUM
LMF .                     KB : LOG MEASURED FROM
DAPD.FT                   14 : FEET ABOVE PERMANENT DATUM
EKB .FT                 2999 : KELLY BUSHING
EGL .FT                 2985 : GROUND LEVEL
DATE.               12/08/70 : RUN DATE
RUN .                      1 : RUN NUMBER
DD  .FT                 9566 : DEPTH DRILLER
DL  .FT                 9567 : DEPTH LOGGER
BLI .FT                 9559 : BOTTOM LOG INTERVAL
TLI .FT                 1035 : TOP LOG INTERVAL
CBD .FT                 1035 : CASING BOTTOM DRILLER
CBL .FT                 1035 : CASING BOTTOM LOGGER
BS  .IN                7.875 : BIT SIZE
BSD .FT                 9566 : BIT SIZE AT DEPTH
DFT .                    GEL : DRILLING FLUID TYPE
DFD .                      9 : DRILLING FLUID DENSITY
DFV .                    115 : DRILLING FLUID VISCOSITY
DFPH.                     10 : DRILLING FLUID PH
DFL .                   11.5 : DRILLING FLUID LOSS
MSS .               FLOWLINE : MUD SAMPLE SOURCE
RMS .OHMM               6.04 : RESISTIVITY MUD SAMPLE
MST .DEGF                 70 : MUD SAMPLE TEMPERATURE
RMF .OHMM               5.75 : RESISTIVITY MUD FILTRATE SAMPLE
MFST.DEGF                 62 : MUD FILTRATE SAMPLE TEMPERATURE
RMB .OHMM               2.15 : RESISTIVITY MUD AT BHT
TCS .HRS                   3 : TIME CIRCULATED STOPPED
LUN .                   7002 : LOGGING UNIT NUMBER
LUL .                     RD : LOGGING UNIT LOCATION
ENGI.                 TALBOT : RECORDING ENGINEER
WITN.               DUCHARME : WITNESSED BY
CLNT.                A2DTECH : CLIENT CODE
ORIG.        2" 5" 10" PRINT : ORIGIN OF DATA
UWI .       100060106315W500 : UNIQUE WELL ID
DICO. A2D Technologies, Inc. : DIGITIZING COMPANY
~Other -----------------------------------------------------
DIL-BHC LOG RAN
~ASCII -----------------------------------------------------
# ...
 3350.00000   11.78290   11.78290  148.38780    6.73910  102.90700  102.90700   99.47130   99.47130    6.73910    6.92110    8.95890    6.92110  -67.18500   -7.25830    8.95890
 3400.00000   11.97900   11.97900  125.02650    7.99840   97.51060   97.51060   80.64520   80.64520    7.99840    8.31020    9.70030    8.31020  -69.05010   -9.47770    9.70030
 3450.00000   12.49260   12.49260  177.24530    5.64190   96.95360   96.95360   84.29470   84.29470    5.64190    6.18790    6.95220    6.18790  -67.09810   -7.88220    6.95220
 3500.00000   12.42830   12.42830  155.40260    6.43490   84.10330   84.10330   84.32120   84.32120    6.43490    6.72900    8.17940    6.72900  -69.52830  -10.66670    8.17940
 3550.00000   11.30870   11.30870  150.35470    6.65230   86.99670   86.99670   83.06300   83.06300    6.65230    6.98270    9.05550    6.98270  -68.67900  -10.17160    9.05550
 3600.00000   11.18730   11.18730  166.83910    5.99380   99.64550   99.64550   87.81240   87.81240    5.99380    6.16290    7.72200    6.16290  -68.74040  -10.58960    7.72200
 3650.00000   10.83880   10.83880  170.77810    5.85660  103.34440  103.34440   95.52010   95.52010    5.85660    6.09830    6.65060    6.09830  -67.34750   -9.55100    6.65060
 3700.00000   10.96620   10.96620  135.90650    7.35800  104.03420  104.03420   88.31950   88.31950    7.35800    7.59440    8.84090    7.59440  -66.38540   -8.94540    8.84090
 3750.00000   11.35340   11.35340  148.40540    6.73830   97.76700   97.76700   87.14640   87.14640    6.73830    7.02490    8.15510    7.02490  -65.41180   -8.32610    8.15510
 3800.00000   12.11710   12.11710  132.82240    7.52890   90.60930   90.60930   80.48520   80.48520    7.52890    7.97280    8.95040    7.97280  -64.89220   -8.16070    8.95040
 3850.00000   12.26490   12.26490  153.18390    6.52810   93.33500   93.33500   87.06750   87.06750    6.52810    6.88770    7.93100    6.88770  -64.74140   -8.36650    7.93100
 3900.00000   13.21880   13.21880  173.00580    5.78050   93.97410   93.97410   89.47350   89.47350    5.78050    6.25500    7.48000    6.25500  -61.52680   -5.50620    7.48000
 3950.00000   12.76030   12.76030  145.93850    6.85220   89.11510   89.11510   84.88170   84.88170    6.85220    7.16320    8.79410    7.16320  -66.25230  -10.58830    8.79410
 4000.00000   11.58130   11.58130  180.47940    5.54080   96.32820   96.32820  101.65020  101.65020    5.54080    5.95410    7.73740    5.95410  -63.22450   -7.91470    7.73740
 4050.00000   11.16780   11.16780  172.05550    5.81220   98.54040   98.54040  108.79590  108.79590    5.81220    6.25700    7.79880    6.25700  -61.60140   -6.64580    7.79880
 4100.00000   10.48630   10.48630  144.30430    6.92980   99.80210   99.80210  113.65410  113.65410    6.92980    7.47380    9.95620    7.47380  -61.65810   -7.05910    9.95620
 4150.00000   10.29930   10.29930  132.32490    7.55740   98.15360   98.15360  116.85150  116.85150    7.55740    7.99240   11.15900    7.99240  -61.34810   -7.10340   11.15900
 4200.00000   10.43630   10.43630  130.12190    7.68510  100.66380  100.66380  127.03770  127.03770    7.68510    8.25790   12.11240    8.25790  -62.49800   -8.60990   12.11240
 4250.00000   10.80820   10.80820  176.87220    5.65380   98.63360   98.63360  106.49640  106.49640    5.65380    6.07540    8.28380    6.07540  -58.10150   -4.56760    8.28380
 4300.00000   11.65780   11.65780  205.50930    4.86680   98.74150   98.74150   94.28710   94.28710    4.86680    5.19130    6.28900    5.19130  -57.20550   -4.02590    6.28900
 4350.00000   11.51160   11.51160  230.90960    4.33070   92.36470   92.36470   92.85520   92.85520    4.33070    4.67140    6.23180    4.67140  -56.83510   -4.01200    6.23180
 4400.00000   11.54640   11.54640  194.61800    5.13840   92.04020   92.04020   97.82370   97.82370    5.13840    5.51760    6.92840    5.51760  -58.08550   -5.61670    6.92840
 4450.00000   11.27520   11.27520  168.92460    5.91980   90.04920   90.04920   90.15570   90.15570    5.91980    6.57910    8.00300    6.57910  -59.21140   -7.09920    8.00300
 4500.00000   11.66020   11.66020  209.63920    4.77010   90.67770   90.67770   98.71970   98.71970    4.77010    5.20540    6.74270    5.20540  -55.26340   -3.50540    6.74270
 4550.00000   12.82330   12.82330  270.57280    3.69590   94.17770   94.17770   95.00410   95.00410    3.69590    3.97300    5.69400    3.97300  -54.86930   -3.46560    5.69400
 4600.00000   13.09060   13.09060  249.50720    4.00790   96.17160   96.17160   98.93660   98.93660    4.00790    4.31240    6.08320    4.31240  -53.91790   -2.87070    6.08320
 4650.00000   12.17920   12.17920  431.39820    2.31810  108.62410  108.62410  130.57830  130.57830    2.31810    2.49430    4.05110    2.49430  -53.51100   -2.81810    4.05110
 4700.00000   12.08770   12.08770  449.35740    2.22540  114.28290  114.28290   84.36730   84.36730    2.22540    2.40530    3.79180    2.40530  -50.61600   -0.27970    3.79180
 4750.00000   11.70590   11.70590  268.60060    3.72300   85.03900   85.03900   88.16040   88.16040    3.72300    4.01180    5.76050    4.01180  -53.27630   -3.29420    5.76050
 4800.00000   11.33920   11.33920  299.98600    3.33350   93.39850   93.39850   99.88310   99.88310    3.33350    3.54360    4.74920    3.54360  -53.19330   -3.56550    4.74920
 4850.00000    9.33800    9.33800  119.36590    8.37760   83.82690   83.82690   90.06680   90.06680    8.37760    9.12100   11.11780    9.12100  -58.51470   -9.24340   11.11780
 4900.00000   11.83170   11.83170  173.26610    5.78630   93.68610   93.68610   82.63650   82.63650    5.78630    6.32860    8.45890    6.32860  -53.23350   -4.31650    8.45890
 4950.00000   11.47870   11.47870  102.33840    9.77150   79.52890   79.52890   70.47880   70.47880    9.77150   10.70210   13.03340   10.70210  -63.29190  -14.73150   13.03340
 5000.00000   10.66170   10.66170  114.34710    8.74530   76.17350   76.17350   65.65380   65.65380    8.74530    9.43190   11.86290    9.43190  -60.11930  -11.91310   11.86290
 5050.00000   15.06570   15.06570  169.65160    5.89470  103.03260  103.03260   54.85440   54.85440    5.89470    5.13380    9.23020    5.13380  -52.06970   -4.21780    9.23020
 5100.00000   10.60810   10.60810  178.56820    5.60010   79.21510   79.21510   80.91960   80.91960    5.60010    6.02260    7.64870    6.02260  -57.23890   -9.74360    7.64870
 5150.00000   10.79220   10.79220  166.85660    5.99620   77.74790   77.74790   78.68560   78.68560    5.99620    6.58490    9.28200    6.58490  -50.65230   -3.51720    9.28200
 5200.00000   13.69570   13.69570   17.05910   58.61970  149.13130  149.13130   40.80830   40.80830   58.61970   34.28710   87.23720   34.28710  -67.19590  -20.44310   87.23720
 5250.00000   10.52490   10.52490  114.39950    8.74130   81.72340   81.72340   53.31410   53.31410    8.74130   13.86350   31.22710   13.86350 -103.37820  -57.00520   31.22710
 5300.00000   10.80350   10.80350  137.95480    7.24880   76.86680   76.86680   65.61400   65.61400    7.24880    7.99950    9.69900    7.99950  -55.14980   -9.15660    9.69900
 5350.00000   10.83810   10.83810  159.41340    6.27300   82.66750   82.66750   72.32750   72.32750    6.27300    6.83890    9.21710    6.83890  -53.88760   -8.27670    9.21710
 5400.00000    9.99440    9.99440  273.48220    3.65690   88.12980   88.12980   69.84650   69.84650    3.65690    4.51410    8.04360    4.51410  -70.71160  -25.48040    8.04360
 5450.00000   10.24940   10.24940  180.22560    5.54860   81.46860   81.46860   74.95260   74.95260    5.54860    6.03430    7.71070    6.03430  -58.68460  -13.83570    7.71070
 5500.00000   10.34540   10.34540   99.30190   10.07030   77.28330   77.28330   83.08510   83.08510   10.07030   10.74890   13.97060   10.74890  -52.69730   -8.22820   13.97060
 5550.00000   10.46900   10.46900  161.06720    6.20860   74.97560   74.97560   74.42720   74.42720    6.20860    6.69460    8.79330    6.69460  -48.41900   -4.32970    8.79330
 5600.00000    9.36840    9.36840   39.37640   25.39590   74.15360   74.15360   38.76320   38.76320   25.39590   33.14890   55.95490   33.14890  -88.10030  -44.39330   55.95490
