~Version ---------------------------------------------------
VERS.      2.0 : CWLS log ASCII Standard -VERSION 2.0
WRAP.       NO : One line per depth step
CREA. 08/01/17 : LAS Creation Date
~Well ------------------------------------------------------
STRT.FT                      1150.0 : START DEPTH
STOP.FT                     11500.0 : STOP DEPTH
STEP.FT                    50.00000 : STEP LENGTH
NULL.                       -999.25 : NULL VALUE
COMP.     ATLANTIC REFINING COMPANY : COMPANY
WELL. ATLANTIC ANTE CREEK 4-7-65-23 : WELL
FLD .                               : FIELD
LOC .                               : LOCATION
CTRY.                        CANADA : COUNTRY
SRVC.                  Schlumberger : SERVICE COMPANY
DATE.                   12-Oct-1962 : LOGDATE
PROV.                       Alberta : PROVINCE
UWI .              100040706523W500 : UNIQUE WELL ID
SLAT.WGS84                 54.60509 : SURFACE LATITUDE
SLON.WGS84                -117.4756 : SURFACE LONGITUDE
~Curve Information -----------------------------------------
DEPT  .FT    : Depth Curve
CALWS .IN    : CALIPER [MCALED]
CILDED.MMHO  : CONDUCTIVITY FROM IEL LOG
CONDWS.MMHO  : CONDUCTIVITY [1000/DRESWS]
DRESWS.OHMM  : DEEP RESISTIVITY [ILDED]
DTED  .US/F  : DELTA-T FROM BCS-GR LOG
DTWS  .US/F  : COMPRESSIONAL SONIC [DTED]
GRSED .GAPI  : GAMMA RAY FROM BCS-GR LOG
GRWS  .GAPI  : GAMMA RAY [GRSED]
ILDED .OHMM  : DEEP INDUCTION FROM IEL LOG
MCALED.IN    : MICRO CALIPER FROM MICRO-CAL LOG
SNED  .OHMM  : SHORT NORMAL FROM IEL LOG
SPRED .MV    : SPONTANEOUS POTENTIAL FROM IEL LOG
SPWS  .MV    : SPONTANEOUS POTENTIAL [BASELINE 0 MV, SPRED]
SRESWS.OHMM  : SHALLOW RESISTIVITY [SNED]
~Params ----------------------------------------------------
PD  .                     GL : PERMANENT DATUM
EPD .FT               2839.9 : ELEVATION PERMANENT DATUM
LMF .                     KB : LOG MEASURED FROM
DAPD.FT                 13.9 : FEET ABOVE PERMANENT DATUM
EKB .FT               2853.8 : KELLY BUSHING
EGL .FT               2839.9 : GROUND LEVEL
DATE.               10/12/62 : RUN DATE
RUN .                      1 : RUN NUMBER
DD  .FT                11540 : DEPTH DRILLER
DL  .FT                11538 : DEPTH LOGGER
BLI .FT                11537 : BOTTOM LOG INTERVAL
TLI .FT                 1157 : TOP LOG INTERVAL
CBD .FT                 1157 : CASING BOTTOM DRILLER
CBL .FT                 1157 : CASING BOTTOM LOGGER
BS  .IN                 8.75 : BIT SIZE
BSD .FT                11540 : BIT SIZE AT DEPTH
DFT .               GEL CHEM : DRILLING FLUID TYPE
DFD .                   10.2 : DRILLING FLUID DENSITY
DFV .                     85 : DRILLING FLUID VISCOSITY
DFPH.                    9.5 : DRILLING FLUID PH
DFL .                    6.6 : DRILLING FLUID LOSS
MSS .                  6FF40 : MUD SAMPLE SOURCE
RMS .OHMM               2.22 : RESISTIVITY MUD SAMPLE
MST .DEGF                 70 : MUD SAMPLE TEMPERATURE
RMF .OHMM                1.8 : RESISTIVITY MUD FILTRATE SAMPLE
MFST.DEGF                 61 : MUD FILTRATE SAMPLE TEMPERATURE
RMC .OHMM                2.1 : RESISTIVITY MUD CAKE
MCST.DEGF                 74 : MUD CAKE SAMPLE TEMPERATURE
RMB .OHMM               0.84 : RESISTIVITY MUD AT BHT
TCS .HRS                   4 : TIME CIRCULATED STOPPED
LUN .                   1573 : LOGGING UNIT NUMBER
LUL .                    WCT : LOGGING UNIT LOCATION
ENGI.                  MILLS : RECORDING ENGINEER
WITN.                  EVANS : WITNESSED BY
CLNT.                A2DTECH : CLIENT CODE
ORIG.            2" 5" PRINT : ORIGIN OF DATA
UWI .       100040706523W500 : UNIQUE WELL ID
DICO. A2D Technologies, Inc. : DIGITIZING COMPANY
~Other -----------------------------------------------------
~ASCII -----------------------------------------------------
# ...
 8500.00000   11.65080   11.27350   11.86380   84.28980   58.82800   58.82800   62.77740   62.77740   84.28980   11.65080   40.39280 -197.81830 -134.79700   40.39280
 8550.00000   12.74220    8.09570    7.88360  129.11690   56.26540   56.26540   33.30290   33.30290  129.11690   12.74220   89.88090 -142.90920  -81.51680   89.88090
 8600.00000    9.36760   13.80760   13.26960   75.36000   57.51100   57.51100   52.81530   52.81530   75.36000    9.36760   63.84290  -84.55720  -25.83580   63.84290
 8650.00000    9.76320   32.05540   31.14920   32.10610   59.65090   59.65090   73.59950   73.59950   32.10610    9.76320   37.75160 -147.34560  -93.06740   37.75160
 8700.00000    9.93280   41.27140   39.58010   25.26520   59.77950   59.77950   77.17110   77.17110   25.26520    9.93280   28.54570 -264.56380 -214.77100   28.54570
 8750.00000    9.36160    5.79470    5.80230  172.34510   54.55250   54.55250   51.99230   51.99230  172.34510    9.36160  113.00900 -273.49790 -228.16710  113.00900
 8800.00000    9.13600    3.83520    3.70230  270.15410   52.45880   52.45880   35.84560   35.84560  270.15410    9.13600  115.35210 -181.67400 -140.78650  115.35210
 8850.00000    9.36550    8.88680    8.77810  113.92030   54.59570   54.59570   52.91400   52.91400  113.92030    9.36550   85.68050  -56.02240  -19.62020   85.68050
 8900.00000    9.20670    4.22840    3.36940  297.30130   55.57760   55.57760   54.19630   54.19630  297.30130    9.20670  147.36980  -52.03130  -18.93530  147.36980
 8950.00000    9.19900   12.05720   11.88090   84.16860   57.86900   57.86900   73.51310   73.51310   84.16860    9.19900   73.74050 -111.58550  -76.08480   73.74050
 9000.00000    9.35540   56.32500   53.01440   18.86280   60.15150   60.15150   93.37710   93.37710   18.86280    9.35540   28.42530 -131.84970  -94.60870   28.42530
 9050.00000   10.01430    1.87950    2.00000  500.00000   49.02380   49.02380   33.26160   33.26160  500.00000   10.01430  332.73590 -167.82150 -128.88300  332.73590
 9100.00000   10.03070    1.69360    2.00000  500.00000   48.61820   48.61820   21.08920   21.08920  500.00000   10.03070  247.98100 -158.96440 -118.31130  247.98100
 9150.00000   10.42300    2.94430    2.00000  500.00000   50.62740   50.62740   33.53020   33.53020  500.00000   10.42300  209.22580 -225.41420 -183.06350  209.22580
 9200.00000   10.99510    2.19490    2.00000  500.00000   50.30550   50.30550   23.48480   23.48480  500.00000   10.99510  213.22110 -282.70020 -238.63500  213.22110
 9250.00000   12.04800    1.37560    2.00000  500.00000   50.39920   50.39920   28.73100   28.73100  500.00000   12.04800  261.71000 -258.75780 -212.98670  261.71000
 9300.00000   11.70900    1.46090    2.00000  500.00000   50.95970   50.95970   18.24610   18.24610  500.00000   11.70900  211.28100 -267.31210 -219.84340  211.28100
 9350.00000   10.11410    7.50870    7.31170  136.76790   49.04900   49.04900   22.62610   22.62610  136.76790   10.11410  137.90340 -250.55960 -201.37640  137.90340
 9400.00000   10.98250    3.12830    2.94760  339.33400   50.73160   50.73160   21.87570   21.87570  339.33400   10.98250  134.51750 -256.65840 -205.77750  134.51750
 9450.00000   11.92600    1.49590    2.00000  500.00000   50.83150   50.83150   24.60000   24.60000  500.00000   11.92600  181.58080 -199.04750 -146.45220  181.58080
 9500.00000   12.43280    2.62790    2.30100  434.59380   51.21200   51.21200   23.11790   23.11790  434.59380   12.43280  182.62930 -186.73270 -132.43160  182.62930
 9550.00000   13.16940    1.40070    2.00000  500.00000   51.32750   51.32750   28.06760   28.06760  500.00000   13.16940  218.24840 -171.57760 -115.57880  218.24840
 9600.00000   11.36130    2.82970    2.66900  374.66690   51.31000   51.31000   26.35770   26.35770  374.66690   11.36130  159.43910 -177.20320 -119.48990  159.43910
 9650.00000   13.66190    1.80170    2.00270  499.33530   50.68410   50.68410   27.26730   27.26730  499.33530   13.66190  182.27010 -171.40030 -111.98930  182.27010
 9700.00000   10.89600    4.23390    5.18040  193.03450   49.47030   49.47030   21.62860   21.62860  193.03450   10.89600  112.96400 -180.65240 -119.52690  112.96400
 9750.00000   10.37950   20.01890   21.19610   47.17850   53.23500   53.23500   25.10870   25.10870   47.17850   10.37950   63.30760 -209.82370 -146.99240   63.30760
 9800.00000    8.22160   20.65450   21.46660   46.68510   51.76500   51.76500   29.19190   29.19190   46.68510    8.22160   86.53920 -236.70340 -172.17450   86.53920
 9850.00000    9.13290    5.49650    6.04870  165.32390   48.90420   48.90420   27.29840   27.29840  165.32390    9.13290  115.66920 -307.39530 -241.15190  115.66920
 9900.00000    8.76880   26.27870   25.93910   38.56650   47.86110   47.86110   21.36380   21.36380   38.56650    8.76880   94.87470 -313.57570 -245.63460   94.87470
 9950.00000   11.94350   10.03630   10.56940   94.61300   54.80880   54.80880   38.44510   38.44510   94.61300   11.94350   81.62380 -163.18200  -93.52640   81.62380
 10000.00000    9.49120    1.31620    2.00000  500.00000   50.22720   50.22720   47.11280   47.11280  500.00000    9.49120  235.63740  -80.26260   -8.90120  235.63740
 10050.00000    9.70170    1.22530    2.00000  500.00000   49.70800   49.70800   39.30530   39.30530  500.00000    9.70170  189.74090 -114.33860  -45.46050  189.74090
 10100.00000    9.68860    0.92870    2.00000  500.00000   49.00300   49.00300   37.10580   37.10580  500.00000    9.68860  209.60960 -171.35780 -105.88530  209.60960
 10150.00000    9.52990    2.21020    2.42000  413.81990   50.14190   50.14190   37.44800   37.44800  413.81990    9.52990  174.51220 -114.91750  -52.81800  174.51220
 10200.00000    9.63350    1.90110    2.00000  500.00000   50.16530   50.16530   40.49580   40.49580  500.00000    9.63350  191.19670  -83.68140  -24.98770  191.19670
 10250.00000   10.23420    2.62230    2.00000  500.00000   50.33750   50.33750   38.81120   38.81120  500.00000   10.23420  222.08770 -116.98130  -61.67570  222.08770
 10300.00000    9.62790    8.50490    9.69420  103.15760   53.65970   53.65970   49.37640   49.37640  103.15760    9.62790  103.32650 -133.45550  -81.52310  103.32650
 10350.00000    9.65470   16.50950   17.13560   58.35820   54.25900   54.25900   45.49540   45.49540   58.35820    9.65470   64.62590 -140.12290  -91.59610   64.62590
 10400.00000    9.60950   48.24440   49.68710   20.13410   57.86440   57.86440   41.92240   41.92240   20.13410    9.60950   30.47060 -115.14300  -69.98920   30.47060
 10450.00000    9.48580   44.55040   44.43540   22.50460   62.43430   62.43430   66.39240   66.39240   22.50460    9.48580   27.66950 -134.76980  -93.02180   27.66950
 10500.00000   15.84310  182.91470  192.89010    5.18430   76.48220   76.48220   64.40870   64.40870    5.18430   15.84310    6.56010 -102.77260  -64.41270    6.56010
 10550.00000   13.34800  222.31060  227.01470    4.41070   79.52420   79.52420   82.47410   82.47410    4.41070   13.34800    6.94510 -133.14190  -98.15510    6.94510
 10600.00000   15.82810  278.18630  266.97280    3.74570   79.25870   79.25870   83.29630   83.29630    3.74570   15.82810    4.27170 -148.48690 -116.90580    4.27170
 10650.00000   15.83130  278.48710  263.00240    3.80220   83.45350   83.45350  101.92080  101.92080    3.80220   15.83130    5.25150 -100.04100  -71.83290    5.25150
 10700.00000   10.46920  119.40040  121.76860    8.21230   64.02830   64.02830   80.81890   80.81890    8.21230   10.46920   11.91010  -85.84770  -61.04530   11.91010
 10750.00000   10.03530  102.84530  109.21920    9.15590   64.26880   64.26880   73.99830   73.99830    9.15590   10.03530   13.67240 -157.61540 -136.20120   13.67240
 10800.00000   10.11210  144.77220  150.83340    6.63050   69.51180   69.51180   85.47730   85.47730    6.63050   10.11210   10.50000 -214.85320 -196.81200   10.50000
 10850.00000   10.06050  122.74090  136.18230    7.34310   72.26780   72.26780   79.85840   79.85840    7.34310   10.06050   12.25470 -117.59600 -102.96050   12.25470
 10900.00000    9.46420  127.27530  133.59510    7.48540   69.86820   69.86820  102.49640  102.49640    7.48540    9.46420   12.14660  -26.44500  -15.18260   12.14660
