~Version ---------------------------------------------------
VERS.      2.0 : CWLS log ASCII Standard -VERSION 2.0
WRAP.       NO : One line per depth step
CREA. 11/10/17 : LAS Creation Date
~Well ------------------------------------------------------
STRT.FT                         1200.0 : START DEPTH
STOP.FT                        11200.0 : STOP DEPTH
STEP.FT                       50.00000 : STEP LENGTH
NULL.                          -999.25 : NULL VALUE
COMP. AMOCO CANADA PETROLEUM CO., LTD. : COMPANY
WELL.    AMOCO A-1 NW ANTE 10-29-66-25 : WELL
FLD .                                  : FIELD
LOC .                                  : LOCATION
CTRY.                           CANADA : COUNTRY
SRVC.           Schlumberger of Canada : SERVICE COMPANY
DATE.                      20-Oct-1973 : LOGDATE
PROV.                          Alberta : PROVINCE
UWI .                 100102906625W500 : UNIQUE WELL ID
SLAT.WGS84                    54.74394 : SURFACE LATITUDE
SLON.WGS84                   -117.7384 : SURFACE LONGITUDE
~Curve Information -----------------------------------------
DEPT    .FT    : Depth Curve
CALDED  .IN    : CALIPER FROM DENSITY LOG
CALNED  .IN    : CALIPER FROM NEUTRON LOG
CALSED  .IN    : CALIPER FROM SONIC LOG
CALWS   .IN    : CALIPER [CALSED]
CONDWS  .MMHO  : CONDUCTIVITY [1000/DRESWS]
DCORWS  .G/C3  : DENSITY CORRECTION [DRHOED]
DENWS   .G/C3  : FORMATION BULK DENSITY [RHOBED]
DPHILSED.V/V   : DENSITY POROSITY LIME [M=2.71, F=1.00] FROM DENSITY LOG
DPOLSWS .V/V   : DENSITY POROSITY LIME [M=2.71, F=1.00] [CALCULATED FROM DENWS]
DRESWS  .OHMM  : DEEP RESISTIVITY [ILDED]
DRHOED  .G/C3  : BULK DENSITY CORRECTION FROM DENSITY LOG
DTED    .US/F  : DELTA-T (INTERVAL TRANSIT TIME) FROM SONIC LOG
DTWS    .US/F  : COMPRESSIONAL SONIC [DTED]
GRDED   .GAPI  : GAMMA RAY FROM DENSITY LOG
GRNED   .GAPI  : GAMMA RAY FROM NEUTRON LOG
GRSED   .GAPI  : GAMMA RAY FROM SONIC LOG
GRWS    .GAPI  : GAMMA RAY [GRSED]
ILDED   .OHMM  : DEEP INDUCTION FROM RESISTIVITY LOG
ILMED   .OHMM  : MEDIUM INDUCTION FROM RESISTIVITY LOG
LL8ED   .OHMM  : LATEROLOG8 FROM RESISTIVITY LOG
MRESWS  .OHMM  : MEDIUM RESISTIVITY [ILMED]
NPOLSWS .V/V   : NEUTRON POROSITY LIME [SNPLSED]
RHOBED  .G/C3  : BULK DENSITY FROM DENSITY LOG
SNPLSED .V/V   : SIDEWALL NEUTRON POROSITY LIME FROM NEUTRON LOG
SPRED   .MV    : SPONTANEOUS POTENTIAL FROM RESISTIVITY LOG
SPWS    .MV    : SPONTANEOUS POTENTIAL [BASE LINE 0 MV, SPRED]
SRESWS  .OHMM  : SHALLOW RESISTIVITY [LL8ED]
~Params ----------------------------------------------------
PD  .                     GL : PERMANENT DATUM
EPD .FT               2302.4 : ELEVATION PERMANENT DATUM
LMF .                     KB : LOG MEASURED FROM
DAPD.FT                 17.6 : FEET ABOVE PERMANENT DATUM
EKB .FT               2320.0 : KELLY BUSHING
EGL .FT               2302.4 : GROUND LEVEL
DATE.               10/20/73 : RUN DATE
RUN .                      1 : RUN NUMBER
DD  .FT                11236 : DEPTH DRILLER
DL  .FT                11235 : DEPTH LOGGER
BLI .FT                11234 : BOTTOM LOG INTERVAL
TLI .FT                 6400 : TOP LOG INTERVAL
CS  .IN                9.625 : CASING SIZE
CBD .FT                 1247 : CASING BOTTOM DRILLER
CBL .FT                 1247 : CASING BOTTOM LOGGER
BS  .IN                 8.75 : BIT SIZE
BSD .FT                11236 : BIT SIZE AT DEPTH
DFT .               GEL CHEM : DRILLING FLUID TYPE
DFD .                    9.2 : DRILLING FLUID DENSITY
DFV .                     62 : DRILLING FLUID VISCOSITY
DFPH.                    9.0 : DRILLING FLUID PH
DFL .                   10.2 : DRILLING FLUID LOSS
RMF .OHMM               1.15 : RESISTIVITY MUD FILTRATE SAMPLE
MFST.DEGF                 70 : MUD FILTRATE SAMPLE TEMPERATURE
RMB .OHMM                0.4 : RESISTIVITY MUD AT BHT
TCS .HRS                 4.5 : TIME CIRCULATED STOPPED
LUN .                   7667 : LOGGING UNIT NUMBER
LUL .                    EDM : LOGGING UNIT LOCATION
ENGI.               BENOWSKI : RECORDING ENGINEER
WITN.       SNYDMELLER FRAME : WITNESSED BY
CLNT.                A2DTECH : CLIENT CODE
ORIG.            2" 5" PRINT : ORIGIN OF DATA
UWI .       100102906625W500 : UNIQUE WELL ID
DICO. A2D Technologies, Inc. : DIGITIZING COMPANY
~Other -----------------------------------------------------
~ASCII -----------------------------------------------------
# ...
 3800.00000    -999.25    -999.25    9.98730    9.98730  116.59500    -999.25    -999.25    -999.25    -999.25    8.57670    -999.25   95.95310   95.95310    -999.25    -999.25  106.50190  106.50190    8.57670    7.96420   10.92260    7.96420    -999.25    -999.25    -999.25  -95.53520   -4.06750   10.92260
 3850.00000    -999.25    -999.25   10.30340   10.30340  140.81330    -999.25    -999.25    -999.25    -999.25    7.10160    -999.25   97.16070   97.16070    -999.25    -999.25  111.98240  111.98240    7.10160    6.56050    8.92320    6.56050    -999.25    -999.25    -999.25  -95.36370   -4.44340    8.92320
 3900.00000    -999.25    -999.25    9.74340    9.74340  103.04600    -999.25    -999.25    -999.25    -999.25    9.70440    -999.25   82.13990   82.13990    -999.25    -999.25   92.85600   92.85600    9.70440    9.43060   11.31160    9.43060    -999.25    -999.25    -999.25  -94.89590   -4.52290   11.31160
 3950.00000    -999.25    -999.25    9.62720    9.62720  119.24850    -999.25    -999.25    -999.25    -999.25    8.38640    -999.25   80.01830   80.01830    -999.25    -999.25   96.67690   96.67690    8.38640    7.59360    9.11730    7.59360    -999.25    -999.25    -999.25  -94.83850   -5.01560    9.11730
 4000.00000    -999.25    -999.25    9.10830    9.10830  200.12810    -999.25    -999.25    -999.25    -999.25    4.99680    -999.25   74.58740   74.58740    -999.25    -999.25   97.19060   97.19060    4.99680    4.79310    5.88940    4.79310    -999.25    -999.25    -999.25  -92.12030   -2.84190    5.88940
 4050.00000    -999.25    -999.25    8.43360    8.43360   69.36450    -999.25    -999.25    -999.25    -999.25   14.41660    -999.25   85.20850   85.20850    -999.25    -999.25   51.76860   51.76860   14.41660   12.78310   15.70600   12.78310    -999.25    -999.25    -999.25 -112.02360  -23.18970   15.70600
 4100.00000    -999.25    -999.25    9.85100    9.85100   76.68010    -999.25    -999.25    -999.25    -999.25   13.04120    -999.25   89.51270   89.51270    -999.25    -999.25  103.22130  103.22130   13.04120   10.78700   15.89690   10.78700    -999.25    -999.25    -999.25 -100.86590  -12.22470   15.89690
 4150.00000    -999.25    -999.25    9.87170    9.87170  132.82680    -999.25    -999.25    -999.25    -999.25    7.52860    -999.25   87.72500   87.72500    -999.25    -999.25  106.05500  106.05500    7.52860    6.84950    8.07700    6.84950    -999.25    -999.25    -999.25  -95.55160   -7.10320    8.07700
 4200.00000    -999.25    -999.25    9.95990    9.95990  155.02490    -999.25    -999.25    -999.25    -999.25    6.45060    -999.25   86.07630   86.07630    -999.25    -999.25  106.96690  106.96690    6.45060    5.86750    7.08160    5.86750    -999.25    -999.25    -999.25  -95.20830   -6.95360    7.08160
 4250.00000    -999.25    -999.25   10.27530   10.27530  158.59420    -999.25    -999.25    -999.25    -999.25    6.30540    -999.25   87.74090   87.74090    -999.25    -999.25  102.09900  102.09900    6.30540    5.68210    7.55070    5.68210    -999.25    -999.25    -999.25  -94.44840   -6.38540    7.55070
 4300.00000    -999.25    -999.25   10.16990   10.16990  141.66310    -999.25    -999.25    -999.25    -999.25    7.05900    -999.25   83.96360   83.96360    -999.25    -999.25  103.17740  103.17740    7.05900    6.35310    7.94690    6.35310    -999.25    -999.25    -999.25  -93.65350   -5.78330    7.94690
 4350.00000    -999.25    -999.25   10.10070   10.10070  120.62000    -999.25    -999.25    -999.25    -999.25    8.29050    -999.25   81.93060   81.93060    -999.25    -999.25  101.03950  101.03950    8.29050    7.55150    9.54080    7.55150    -999.25    -999.25    -999.25  -93.41610   -5.73860    9.54080
 4400.00000    -999.25    -999.25   10.71600   10.71600  149.03570    -999.25    -999.25    -999.25    -999.25    6.70980    -999.25   85.97190   85.97190    -999.25    -999.25   99.95250   99.95250    6.70980    6.50110    8.06800    6.50110    -999.25    -999.25    -999.25  -92.11500   -4.63020    8.06800
 4450.00000    -999.25    -999.25   11.27300   11.27300  280.80840    -999.25    -999.25    -999.25    -999.25    3.56120    -999.25  100.06860  100.06860    -999.25    -999.25  118.87590  118.87590    3.56120    3.37960    4.79220    3.37960    -999.25    -999.25    -999.25  -90.57130   -3.28020    4.79220
 4500.00000    -999.25    -999.25   11.56740   11.56740  279.55610    -999.25    -999.25    -999.25    -999.25    3.57710    -999.25   97.38330   97.38330    -999.25    -999.25  103.84460  103.84460    3.57710    3.17180    4.34610    3.17180    -999.25    -999.25    -999.25  -90.66980   -3.57050    4.34610
 4550.00000    -999.25    -999.25   12.21260   12.21260  266.53160    -999.25    -999.25    -999.25    -999.25    3.75190    -999.25   87.21940   87.21940    -999.25    -999.25   99.15080   99.15080    3.75190    3.44960    4.74530    3.44960    -999.25    -999.25    -999.25  -89.58620   -2.67960    4.74530
 4600.00000    -999.25    -999.25   12.41080   12.41080  205.69780    -999.25    -999.25    -999.25    -999.25    4.86150    -999.25   91.09020   91.09020    -999.25    -999.25   99.31990   99.31990    4.86150    4.42000    6.36490    4.42000    -999.25    -999.25    -999.25  -88.83170   -2.40680    6.36490
 4650.00000    -999.25    -999.25   11.97460   11.97460  216.45020    -999.25    -999.25    -999.25    -999.25    4.62000    -999.25   93.62110   93.62110    -999.25    -999.25   98.68220   98.68220    4.62000    4.31530    5.74660    4.31530    -999.25    -999.25    -999.25  -88.79000   -3.22970    5.74660
 4700.00000    -999.25    -999.25    9.91450    9.91450   95.25000    -999.25    -999.25    -999.25    -999.25   10.50250    -999.25   80.26750   80.26750    -999.25    -999.25  126.82540  126.82540   10.50250    9.54150   11.89090    9.54150    -999.25    -999.25    -999.25  -89.10930   -5.26430   11.89090
 4750.00000    -999.25    -999.25    9.97270    9.97270   80.13850    -999.25    -999.25    -999.25    -999.25   12.47840    -999.25   83.03070   83.03070    -999.25    -999.25   30.67290   30.67290   12.47840   11.18840   13.84250   11.18840    -999.25    -999.25    -999.25 -111.95670  -29.80990   13.84250
 4800.00000    -999.25    -999.25   10.92350   10.92350  103.14490    -999.25    -999.25    -999.25    -999.25    9.69510    -999.25   82.42690   82.42690    -999.25    -999.25   94.87140   94.87140    9.69510    8.81700   11.84710    8.81700    -999.25    -999.25    -999.25  -91.58690  -11.14690   11.84710
 4850.00000    -999.25    -999.25   10.35970   10.35970  100.31500    -999.25    -999.25    -999.25    -999.25    9.96860    -999.25   80.03010   80.03010    -999.25    -999.25   90.00050   90.00050    9.96860    9.03940   10.88470    9.03940    -999.25    -999.25    -999.25  -89.89460  -11.16140   10.88470
 4900.00000    -999.25    -999.25   10.61370   10.61370   63.88270    -999.25    -999.25    -999.25    -999.25   15.65370    -999.25   71.40960   71.40960    -999.25    -999.25   68.64700   68.64700   15.65370   13.68080   26.24100   13.68080    -999.25    -999.25    -999.25  -93.86940  -16.84300   26.24100
 4950.00000    -999.25    -999.25    9.55940    9.55940   73.91660    -999.25    -999.25    -999.25    -999.25   13.52880    -999.25   79.44110   79.44110    -999.25    -999.25   31.94680   31.94680   13.52880   11.66630   15.96820   11.66630    -999.25    -999.25    -999.25 -113.16730  -37.85620   15.96820
 5000.00000    -999.25    -999.25   10.72640   10.72640  126.13360    -999.25    -999.25    -999.25    -999.25    7.92810    -999.25   85.74730   85.74730    -999.25    -999.25   83.76570   83.76570    7.92810    7.05480    9.83690    7.05480    -999.25    -999.25    -999.25  -92.13290  -18.52000    9.83690
 5050.00000    -999.25    -999.25   10.16350   10.16350  111.42930    -999.25    -999.25    -999.25    -999.25    8.97430    -999.25   78.89600   78.89600    -999.25    -999.25   89.02010   89.02010    8.97430    8.47980    9.88900    8.47980    -999.25    -999.25    -999.25  -92.13100  -20.22490    9.88900
