~Version ---------------------------------------------------
VERS.      2.0 : CWLS log ASCII Standard -VERSION 2.0
WRAP.       NO : One line per depth step
CREA. 09/25/17 : LAS Creation Date
~Well ------------------------------------------------------
STRT.FT                             850.0 : START DEPTH
STOP.FT                            9900.0 : STOP DEPTH
STEP.FT                          50.00000 : STEP LENGTH
NULL.                             -999.25 : NULL VALUE
COMP.         BLUEMOUNT RESOURCES LIMITED : COMPANY
WELL. BLUEMOUNT ET AL GOODWIN 11-31-58-13 : WELL
FLD .                                     : FIELD
LOC .                                     : LOCATION
CTRY.                              CANADA : COUNTRY
SRVC.              Schlumberger of Canada : SERVICE COMPANY
DATE.                         07-Apr-1973 : LOGDATE
PROV.                             Alberta : PROVINCE
UWI .                    100113105813W500 : UNIQUE WELL ID
SLAT.WGS84                       54.06009 : SURFACE LATITUDE
SLON.WGS84                      -115.9256 : SURFACE LONGITUDE
~Curve Information -----------------------------------------
DEPT    .FT    : Depth Curve
CALDED  .IN    : CALIPER FROM DENSITY LOG [ADJ.TO RESISTIVITY LOG]
CALSED  .IN    : CALIPER FROM SONIC LOG [ADJ.TO RESISTIVITY LOG]
CALWS   .IN    : CALIPER [CALSED SPL.TO CALDED @ 2963.5'-9832']
CILDED  .MMHO  : CONDUCTIVITY FROM RESISTIVITY LOG
CONDWS  .MMHO  : CONDUCTIVITY [1000/DRESWS]
DCORWS  .G/C3  : DENSITY CORRECTION [DRHOED]
DENWS   .G/C3  : FORMATION BULK DENSITY [CALC. FROM DPHILSED, M=2.71, F=1.00, SPL.TO RHOBED @ 7938']
DPHILSED.V/V   : DENSITY POROSITY LIMESTONE [M=2.71, F=1.00] FROM DENSITY LOG [ADJ.TO RESISTIVITY LOG]
DPOLSWS .V/V   : DENSITY POROSITY LIMESTONE [CALC. FROM DENWS, M=2.71, F=1.00]
DRESWS  .OHMM  : DEEP RESISTIVITY [1000/CILDED IF ILDED <=2, ILDED, SPL.TO ILDED @ 3000']
DRHOED  .G/C3  : DENSITY CORRECTION FROM DENSITY LOG [ADJ.TO RESISTIVITY LOG]
DTED    .US/F  : DELTA TIME FROM SONIC LOG [ADJ.TO RESISTIVITY LOG]
DTWS    .US/F  : COMPRESSIONAL SONIC [DTED]
GRDED   .GAPI  : GAMMA RAY FROM DENSITY LOG [ADJ.TO RESISTIVITY LOG]
GRSED   .GAPI  : GAMMA RAY FROM SONIC LOG [ADJ.TO RESISTIVITY LOG]
GRWS    .GAPI  : GAMMA RAY [GRSED SPL.TO GRDED @ 2966.5']
ILDED   .OHMM  : DEEP INDUCTION FROM RESISTIVITY LOG
ILMED   .OHMM  : MEDIUM INDUCTION FROM RESISTIVITY LOG
LL8ED   .OHMM  : LATEROLOG 8 FROM RESISTIVITY LOG
MRESWS  .OHMM  : MEDIUM RESISTIVITY [ILMED]
NPHILSED.V/V   : NEUTRON POROSITY LIMESTONE FROM DENSITY LOG [ADJ.TO RESISTIVITY LOG]
NPOLSWS .V/V   : NEUTRON POROSITY LIMESTONE [NPHILSED]
RHOBED  .G/C3  : BULK DENSITY FROM DENSITY LOG [ADJ.TO RESISTIVITY LOG]
SPRED   .MV    : SPONTANEOUS POTENTIAL FROM RESISTIVITY LOG
SPWS    .MV    : SPONTANEOUS POTENTIAL [BASELINE 0 MV, SPRED]
SRESWS  .OHMM  : SHALLOW RESISTIVITY [LL8ED]
~Params ----------------------------------------------------
PD  .                     GL : PERMANENT DATUM
EPD .FT                 3069 : ELEVATION PERMANENT DATUM
LMF .                     KB : LOG MEASURED FROM
DAPD.FT                   17 : FEET ABOVE PERMANENT DATUM
EKB .FT                 3087 : KELLY BUSHING
EGL .FT                 3069 : GROUND LEVEL
DATE.               04/07/73 : RUN DATE
RUN .                      1 : RUN NUMBER
DD  .FT                 9938 : DEPTH DRILLER
DL  .FT                 9940 : DEPTH LOGGER
BLI .FT                 9935 : BOTTOM LOG INTERVAL
TLI .FT                 1025 : TOP LOG INTERVAL
CBD .FT                 1025 : CASING BOTTOM DRILLER
CBL .FT                 1030 : CASING BOTTOM LOGGER
BS  .IN                 8.75 : BIT SIZE
BSD .FT                 9938 : BIT SIZE AT DEPTH
DFT .               GEL CHEM : DRILLING FLUID TYPE
DFD .                    9.5 : DRILLING FLUID DENSITY
DFV .                     92 : DRILLING FLUID VISCOSITY
DFPH.                      9 : DRILLING FLUID PH
DFL .                     10 : DRILLING FLUID LOSS
MSS .             CALCULATED : MUD SAMPLE SOURCE
TCS .HRS                   5 : TIME CIRCULATED STOPPED
LUN .                   7667 : LOGGING UNIT NUMBER
LUL .                    EDM : LOGGING UNIT LOCATION
ENGI.                  LEWIS : RECORDING ENGINEER
WITN.              TUDDENHAM : WITNESSED BY
CLNT.                A2DTECH : CLIENT CODE
ORIG.            2" 5" PRINT : ORIGIN OF DATA
UWI .       100113105813W500 : UNIQUE WELL ID
DICO. A2D Technologies, Inc. : DIGITIZING COMPANY
~Other -----------------------------------------------------
DI-LL-FDC-CNL-SONIC LOG RUN.
SPRED CILDED,ILDED,LL8ED DIG IN 2" SCALE @ TOP TO 3000'
~ASCII -----------------------------------------------------
# ...
 7600.00000    7.61870    7.27200    7.61870    -999.25   19.30180    0.04280    2.77340   -0.03710   -0.03710   51.80860    0.04280   49.86550   49.86550    6.82470    9.46720    6.82470   51.80860  134.71930  236.10640  134.71930    0.00230    0.00230    2.77130 -242.07160 -105.64810  236.10640
 7650.00000    7.95900    7.41390    7.95900    -999.25   29.51970    0.08320    2.85830   -0.08670   -0.08670   33.87700    0.08320   49.96070   49.96070    9.51330   14.11710    9.51330   33.87700   82.66400  132.74850   82.66400    0.04030    0.04030    2.85220 -242.84720 -103.39530  132.74850
 7700.00000    8.10700    7.37880    8.10700    -999.25   11.32630    0.06460    2.80970   -0.05830   -0.05830   88.29010    0.06460   49.86370   49.86370    8.66640   13.87180    8.66640   88.29010 1063.21220  195.76200 1063.21220    0.00350    0.00350    2.80810 -230.48690  -87.97610  195.76200
 7750.00000    9.11340    7.60360    9.11340    -999.25    0.80900    0.28300    2.76640   -0.03300   -0.03300 1236.12390    0.28300   50.24660   50.24660   13.79980   15.84640   13.79980 1236.12390 1844.88700  754.60450 1844.88700    0.00220    0.00220    2.75310 -213.34550  -67.79100  754.60450
 7800.00000    7.92190    7.25540    7.92190    -999.25   16.67470    0.08150    2.80220   -0.05390   -0.05390   59.98880    0.08150   49.97810   49.97810   10.96040   12.15580   10.96040   59.98880  204.82590  162.89980  204.82590    0.00250    0.00250    2.79680 -236.20610  -87.62320  162.89980
 7850.00000    7.92600    7.38190    7.92600    -999.25    0.59610    0.14680    2.81230   -0.05980   -0.05980 1677.59480    0.14680   49.42210   49.42210   13.69730   15.14450   13.69730 1677.59480 2136.04250 1571.24710 2136.04250    0.00140    0.00140    2.79850 -242.06860  -90.42680 1571.24710
 7900.00000    7.91330    7.45790    7.91330    -999.25   32.45960    0.07980    2.74640   -0.02130   -0.02130   30.81200    0.07980   50.84200   50.84200    9.05190   13.44360    9.05190   30.81200   62.86450  155.73560   62.86450    0.01520    0.01520    2.74580 -286.83330 -132.16310  155.73560
 7950.00000    7.45620    7.14700    7.45620    -999.25  179.51390    0.14060    2.84610   -0.07960   -0.07960    5.57060    0.14060   52.12150   52.12150   20.23540   23.52920   20.23540    5.57060    8.57860   20.30050    8.57860    0.09330    0.09330    2.83940 -244.79660  -87.06750   20.30050
 8000.00000    8.18850    7.56380    8.18850    -999.25  116.48220    0.05320    2.70300    0.00410    0.00410    8.58500    0.05320   54.97180   54.97180   77.76180   86.05820   77.76180    8.58500    9.41430   14.66710    9.41430    0.09330    0.09330    2.70660 -169.39570   -8.62300   14.66710
 8050.00000    7.42590    7.12280    7.42590    -999.25   85.06410    0.16420    2.74850   -0.02250   -0.02250   11.80800    0.16420   50.64320   50.64320   19.80180   24.13810   19.80180   11.80800   24.54530   47.96230   24.54530    0.12830    0.12830    2.74810 -289.27040 -128.89690   47.96230
 8100.00000    7.74000    7.19320    7.74000    -999.25    5.63480    0.22170    2.86680   -0.09170   -0.09170  177.46980    0.22170   49.84070   49.84070   19.68950   20.40010   19.68950  177.46980 1765.92240  289.14700 1765.92240    0.05170    0.05170    2.84880 -233.32510  -74.01830  289.14700
 8150.00000    7.30840    7.08210    7.30840    -999.25   14.85350    0.07810    2.85140   -0.08270   -0.08270   67.40200    0.07810   50.47200   50.47200   25.64590   28.54560   25.64590   67.40200  135.74210   74.14650  135.74210    0.10070    0.10070    2.85650 -253.36220  -95.11140   74.14650
 8200.00000    7.43510    7.01140    7.43510    -999.25   14.79050    0.04480    2.80680   -0.05660   -0.05660   67.61080    0.04480   51.39600   51.39600   34.83190   35.39880   34.83190   67.61080  176.79990   99.11730  176.79990    0.05290    0.05290    2.80180 -190.39400  -33.20990   99.11730
 8250.00000    7.44950    7.00480    7.44950    -999.25    4.78350    0.07550    2.80340   -0.05460   -0.05460  209.05410    0.07550   51.66810   51.66810   26.26770   31.27010   26.26770  209.05410 1686.21880  256.20630 1686.21880    0.01940    0.01940    2.80510 -214.84210  -58.71930  256.20630
 8300.00000    7.50710    7.03530    7.50710    -999.25   39.45030    0.07380    2.76830   -0.03410   -0.03410   25.34860    0.07380   53.60880   53.60880   34.90860   39.52120   34.90860   25.34860   34.28010   37.92760   34.28010    0.06080    0.06080    2.76430 -175.37950  -19.35210   37.92760
 8350.00000    7.50630    6.96950    7.50630    -999.25   63.71740    0.06030    2.76900   -0.03450   -0.03450   15.69430    0.06030   54.53450   54.53450   43.98030   49.27630   43.98030   15.69430   20.36950   22.23850   20.36950    0.09590    0.09590    2.76700 -158.64790   -1.36110   22.23850
 8400.00000    8.01760    7.00680    8.01760    -999.25  107.80910    0.05400    2.76520   -0.03230   -0.03230    9.27600    0.05400   56.44080   56.44080   57.46900   56.58010   57.46900    9.27600   10.01390   13.51240   10.01390    0.12840    0.12840    2.75090 -207.56450  -54.83140   13.51240
 8450.00000    7.49310    7.00390    7.49310    -999.25  122.78980    0.04690    2.75810   -0.02810   -0.02810    8.14400    0.04690   56.87340   56.87340   60.94410   63.59170   60.94410    8.14400    9.46420   12.29350    9.46420    0.13450    0.13450    2.74060 -283.63940 -136.23410   12.29350
 8500.00000   11.56010    9.98680   11.56010    -999.25  268.96900    0.24520    2.59060    0.06980    0.06980    3.71790    0.24520   64.04120   64.04120   93.10180   96.17950   93.10180    3.71790    3.39400    4.99090    3.39400    0.32370    0.32370    2.58180 -215.33910  -73.23500    4.99090
 8550.00000   11.70180    9.53640   11.70180    -999.25  203.06670    0.31120    2.41720    0.17120    0.17120    4.93400    0.31120   61.84520   61.84520   77.34060   86.22070   77.34060    4.93400    5.43800    6.83700    5.43800    0.36080    0.36080    2.41690 -241.28140 -104.45210    6.83700
 8600.00000    7.44620    6.99490    7.44620    -999.25   73.28910    0.11190    2.83380   -0.07240   -0.07240   13.64460    0.11190   56.00720   56.00720   39.62630   39.36230   39.62630   13.64460   14.66470   17.33620   14.66470    0.04890    0.04890    2.83360 -213.70400  -82.20240   17.33620
 8650.00000    9.42630    8.85320    9.42630    -999.25  178.92790    0.30030    2.45260    0.15050    0.15050    5.58880    0.30030   60.70150   60.70150   76.22250   79.43420   76.22250    5.58880    5.94830    8.43770    5.94830    0.25560    0.25560    2.44940 -183.11300  -56.88620    8.43770
 8700.00000   10.69690    9.53220   10.69690    -999.25  168.03900    0.29940    2.54600    0.09590    0.09590    5.95100    0.29940   61.54490   61.54490   77.01720   77.16200   77.01720    5.95100    5.65060    8.18810    5.65060    0.27000    0.27000    2.54120 -232.40620 -111.50710    8.18810
 8750.00000    7.25850    6.95450    7.25850    -999.25   83.47180    0.09410    2.82060   -0.06470   -0.06470   11.98010    0.09410   59.49160   59.49160   68.63990   74.54700   68.63990   11.98010   14.35910   19.40480   14.35910    0.14140    0.14140    2.81070 -234.04470 -118.44690   19.40480
 8800.00000    8.40670    7.35840    8.40670    -999.25  140.94210    0.26470    2.76350   -0.03130   -0.03130    7.09530    0.26470   59.78960   59.78960   90.52210   92.69660   90.52210    7.09530    7.48990   10.24490    7.48990    0.22590    0.22590    2.75750 -173.74230  -63.41930   10.24490
 8850.00000    7.27810    6.96920    7.27810    -999.25  101.32640    0.08230    2.78810   -0.04570   -0.04570    9.86910    0.08230   60.75730   60.75730   75.96720   89.59980   75.96720    9.86910   11.36910   14.84870   11.36910    0.17290    0.17290    2.78370 -180.47010  -75.47480   14.84870
 8900.00000    7.24750    6.93170    7.24750    -999.25   63.92060    0.06770    2.80610   -0.05620   -0.05620   15.66870    0.06770   61.05820   61.05820   61.23680   61.39790   61.23680   15.66870   21.27280   27.74800   21.27280    0.11260    0.11260    2.79960 -222.02910 -122.30850   27.74800
