~Version ---------------------------------------------------
VERS.      2.0 : CWLS log ASCII Standard -VERSION 2.0
WRAP.       NO : One line per depth step
CREA. 08/01/17 : LAS Creation Date
~Well ------------------------------------------------------
STRT.FT                                     650.0 : START DEPTH
STOP.FT                                    9250.0 : STOP DEPTH
STEP.FT                                  50.00000 : STEP LENGTH
NULL.                                     -999.25 : NULL VALUE
COMP.                      CALIFORNIA STANDARD CO : COMPANY
WELL. CALIFORNIA STANDARD SOUTH MORNINGSIDE 14-20 : WELL
FLD .                                             : FIELD
LOC .                                             : LOCATION
CTRY.                                      CANADA : COUNTRY
SRVC.            Schlumberger Well Surveying Corp : SERVICE COMPANY
DATE.                                 10-Mar-1955 : LOGDATE
PROV.                                     Alberta : PROVINCE
UWI .                            100142004127W400 : UNIQUE WELL ID
SLAT.WGS84                               52.54859 : SURFACE LATITUDE
SLON.WGS84                              -113.8578 : SURFACE LONGITUDE
~Curve Information -----------------------------------------
DEPT   .FT         : Depth Curve
CALI1ED.IN         : CALIPER 1 FROM CALIPER LOG
CALIED .IN         : CALIPER FROM CALIPER LOG
CALWS  .IN         : CALIPER [CALIED]
CONDWS .MMHO       : CONDUCTIVITY [1000/DRESWS]
DRESWS .OHMM       : DEEP RESISTIVITY [LNED]
GRNED  .UgRa-Eq/T  : GAMMA RAY FROM GRN LOG
GRWS   .GAPI       : GAMMA RAY [GRNED*16.5 TO CONVERTED TO GAPI]
LATED  .OHMM       : LATERAL RESISTIVITY FROM EL LOG
LL7ED  .OHMM       : LATEROLOG-7 RESISTIVITY FROM MLL LOG
LNED   .OHMM       : LONG NORMAL RESISTIVITY FROM MLL LOG
MLLED  .OHMM       : MICRO-LATEROLOG RESISTIVITY
NEUTED .NAPI       : NEUTRON FROM GRN LOG
NEUTWS .NAPI       : NEUTRON [NEUTED]
SNED   .OHMM       : SHORT NORMAL RESISTIVITY FROM EL LOG
SPMED  .MV         : SPONTAEOUS POTENTIAL FROM MICRO LOG
SPR1ED .MV         : SPONTANEOUS POTENTIAL FROM MLL LOG
SPRED  .MV         : SPONTANEOUS POTENTIAL FROM EL LOG
SPWS   .MV         : SPONTANEOUS POTENTIAL [BASELINE 0 MV,SPRED]
SRESWS .OHMM       : SHALLOW RESISTIVIOTY [SNED]
~Params ----------------------------------------------------
PD  .                     KB : PERMANENT DATUM
EKB .FT                 3032 : KELLY BUSHING
DATE.               03/10/55 : RUN DATE
RUN .                      1 : RUN NUMBER
DD  .FT                 9259 : DEPTH DRILLER
DL  .FT                 9258 : DEPTH LOGGER
BLI .FT                 9259 : BOTTOM LOG INTERVAL
TLI .FT                 6326 : TOP LOG INTERVAL
CBD .FT                  623 : CASING BOTTOM DRILLER
CBL .FT                  624 : CASING BOTTOM LOGGER
BSD .FT                 6258 : BIT SIZE AT DEPTH
DFT .              LIME BASE : DRILLING FLUID TYPE
DFD .                   10.2 : DRILLING FLUID DENSITY
DFV .                     12 : DRILLING FLUID VISCOSITY
DFPH.                   12.5 : DRILLING FLUID PH
DFL .                    7.8 : DRILLING FLUID LOSS
RMS .OHMM               0.66 : RESISTIVITY MUD SAMPLE
MST .DEGF                 74 : MUD SAMPLE TEMPERATURE
RMB .OHMM                0.3 : RESISTIVITY MUD AT BHT
TCS .HRS                   4 : TIME CIRCULATED STOPPED
LUN .                   2741 : LOGGING UNIT NUMBER
LUL .                   STST : LOGGING UNIT LOCATION
ENGI.               JOHNKLAM : RECORDING ENGINEER
WITN.                 GEDDES : WITNESSED BY
CLNT.                A2DTECH : CLIENT CODE
ORIG.        2" 5" 25" PRINT : ORIGIN OF DATA
UWI .       100142004127W400 : UNIQUE WELL ID
DICO. A2D Technologies, Inc. : DIGITIZING COMPANY
~Other -----------------------------------------------------
~ASCII -----------------------------------------------------
# ...
 2500.00000    -999.25    9.01640    9.01640  160.60640    6.23060    -999.25    -999.25    7.06850    5.55150    6.22640    5.00450    -999.25    -999.25    6.56830  -52.77800  -36.60960 -165.93960   -3.08430    6.58330
 2550.00000    -999.25    7.67760    7.67760  121.82020    8.22040    -999.25    -999.25   10.12290   12.93130    8.20920   13.66100    -999.25    -999.25    9.85390  -58.28230  -52.17690 -171.50350   -8.33950    9.93830
 2600.00000    -999.25    6.01090    6.01090   85.05720   11.75680    -999.25    -999.25   13.88440   12.49930   11.75680   12.62350    -999.25    -999.25   14.60870  -75.89850  -72.23490 -195.63670  -32.16200   14.60870
 2650.00000    -999.25    8.03280    8.03280  148.56630    6.75450    -999.25    -999.25    9.20700    4.80380    6.73100    3.11060    -999.25    -999.25    4.67640  -59.69940  -38.10620 -167.02620   -3.24290    4.67910
 2700.00000   19.93490    8.08740    8.08740   83.77380   11.92020    -999.25    -999.25    6.31980    6.46470   11.93690    3.28000    -999.25    -999.25    6.89190  -63.93820  -43.70710 -171.93340   -7.83940    6.89190
 2750.00000   20.08540    8.19670    8.19670  154.15920    6.50060    -999.25    -999.25    7.95090    5.20650    6.48680    3.11090    -999.25    -999.25    6.02700  -60.54010  -40.67380 -169.09320   -4.69050    6.07400
 2800.00000   19.52770    8.33330    8.33330  154.58610    6.47090    -999.25    -999.25    7.51440    6.10620    6.46890    4.38820    -999.25    -999.25    5.47640  -59.33870  -38.13540 -168.58140   -3.87000    5.48500
 2850.00000   19.82090    8.85250    8.85250  122.43950    8.16730    -999.25    -999.25    4.63720    6.90700    8.16730    5.17650    -999.25    -999.25    6.10530  -61.48860  -40.70140 -169.21580   -4.19370    6.10530
 2900.00000   19.07170    7.48630    7.48630   82.74520   12.05560    -999.25    -999.25   12.23610   10.35260   12.08530    7.79980    -999.25    -999.25   10.49550  -67.99600  -46.05420 -174.63180   -9.30110   10.53150
 2950.00000   18.69710    7.70490    7.70490  103.73870    9.68470    -999.25    -999.25    7.85630    9.51630    9.63960    7.98020    -999.25    -999.25   10.70980  -65.11020  -46.42120 -173.94930   -8.30790   10.83830
 3000.00000   18.02120    6.93990    6.93990   35.10430   28.50990    -999.25    -999.25   12.75300   22.92040   28.48650   34.67090    -999.25    -999.25   28.24320  -86.92980  -79.50630 -202.03250  -36.08240   28.26120
 3050.00000   18.58310    7.04920    7.04920   64.96270   15.30690    -999.25    -999.25   19.40380   13.54940   15.41100   18.50850    -999.25    -999.25   29.93250 -102.06410  -46.57260 -211.03620  -44.77750   29.82880
 3100.00000   20.42680    8.52460    8.52460  109.40200    9.14060    -999.25    -999.25    7.07160   10.06790    9.14060    6.87670    -999.25    -999.25    6.73980  -61.69820  -39.55620 -168.77920   -2.20970    6.73980
 3150.00000   19.95930    8.63390    8.63390   53.64030   18.60870    -999.25    -999.25   21.19060   19.22180   18.64270   14.35220    -999.25    -999.25   18.82430  -67.99600  -41.96800 -175.71830   -8.83950   18.86740
 3200.00000   19.43810    7.92350    7.92350   91.73130   10.95570    -999.25    -999.25    4.66940    8.63280   10.90140    5.00450    -999.25    -999.25    6.44140  -67.63530  -45.90630 -173.85390   -6.66380    6.45940
 3250.00000   21.59760    9.78140    9.78140  142.69200    7.05830    -999.25    -999.25   14.99270    7.13960    7.00810    3.38140    -999.25    -999.25    7.11770  -64.38880  -41.48640 -171.01010   -3.51070    7.14780
 3300.00000   19.02280    8.00550    8.00550  169.67120    5.96230    -999.25    -999.25   10.23970   10.63360    5.90680    9.52050    -999.25    -999.25    8.71690  -66.19240  -40.47190 -170.61930   -2.81060    8.77630
 3350.00000   19.36480    8.08740    8.08740  131.83920    7.58500    -999.25    -999.25    4.74540    7.01700    7.58500    4.10280    -999.25    -999.25    8.00100  -65.83170  -38.13250 -170.12220   -2.00220    8.00100
 3400.00000   19.89420    8.79780    8.79780  147.01990    6.80180    -999.25    -999.25    6.89880    4.97950    6.80180    5.45540    -999.25    -999.25    7.04170  -62.58520  -38.34310 -171.30710   -2.87790    7.09130
 3450.00000   23.85370   11.15380   11.15380  197.96880    5.04930    -999.25    -999.25    6.26810    4.73260    5.05130    5.27570    -999.25    -999.25    5.31450  -61.88950  -36.68670 -169.81150   -1.07090    5.30820
 3500.00000   23.45120   11.04070   11.04070  126.39990    7.92950    -999.25    -999.25    8.58350    7.22800    7.91140    5.75420    -999.25    -999.25    8.11290  -64.02810  -39.82270 -173.04820   -3.99840    8.12850
 3550.00000   25.87600   11.48190   11.48190  108.69830    9.19680    -999.25    -999.25   10.31350    -999.25    9.19980    -999.25    -999.25    -999.25    9.48620    -999.25    -999.25 -175.93100   -6.57190    9.48310
 3600.00000   24.29270   11.56110   11.56110  104.49870    9.56950    -999.25    -999.25   10.39330    -999.25    9.56950    -999.25    -999.25    -999.25    9.52370    -999.25    -999.25 -175.86900   -6.19860    9.52370
 3650.00000   23.56710   10.95020   10.95020  100.54500    9.94070    -999.25    -999.25   10.89130    -999.25    9.94580    -999.25    -999.25    -999.25    9.66800    -999.25    -999.25 -175.90960   -5.92990    9.68360
 3700.00000   24.64640   10.61090   10.61090   98.31100   10.17180    -999.25    -999.25   11.28790    -999.25   10.17180    -999.25    -999.25    -999.25   10.37540    -999.25    -999.25 -175.37390   -5.08290   10.38150
 3750.00000   24.63410   11.28960   11.28960   94.05830   10.63490    -999.25    -999.25   10.87520    -999.25   10.63170    -999.25    -999.25    -999.25   11.08720    -999.25    -999.25 -177.14230   -6.54200   11.05970
 3800.00000    -999.25   10.70140   10.70140  107.06410    9.35640    -999.25    -999.25   10.79480    -999.25    9.34080    -999.25    -999.25    -999.25   11.03180    -999.25    -999.25 -176.23100   -5.32140   11.00480
 3850.00000    -999.25    9.34430    9.34430   63.93090   15.64190    -999.25    -999.25   12.54430    -999.25   15.64190    -999.25    -999.25    -999.25   16.99070    -999.25    -999.25 -173.77110   -2.55020   16.99070
 3900.00000    -999.25    8.25140    8.25140   66.36400   15.07130    -999.25    -999.25   17.51590    -999.25   15.06840    -999.25    -999.25    -999.25   16.54690    -999.25    -999.25 -172.55020   -1.02000   16.52110
 3950.00000    -999.25    9.12570    9.12570   76.01380   13.15610    -999.25    -999.25   14.12290    -999.25   13.15550    -999.25    -999.25    -999.25   15.31490    -999.25    -999.25 -172.68680   -0.84530   15.35990
 4000.00000    -999.25   10.09050   10.09050  116.51070    8.59330    -999.25    -999.25    9.96120    -999.25    8.58290    -999.25    -999.25    -999.25   10.17180    -999.25    -999.25 -175.02500   -2.84110   10.17570
 4050.00000    -999.25   10.72400   10.72400  110.04970    9.08680    -999.25    -999.25   10.73660    -999.25    9.08680    -999.25    -999.25    -999.25    9.88260    -999.25    -999.25 -175.38120   -2.85530    9.90750
 4100.00000    -999.25   10.15840   10.15840  124.97190    8.00180    -999.25    -999.25    7.63300    -999.25    8.00180    -999.25    -999.25    -999.25    9.79640    -999.25    -999.25 -174.21070   -1.68480    9.79640
 4150.00000    -999.25    9.07100    9.07100  100.18130    9.98370    -999.25    -999.25   12.05420    -999.25    9.98190    -999.25    -999.25    -999.25   11.68420    -999.25    -999.25 -175.77470   -3.24880   11.71390
 4200.00000    -999.25   10.31670   10.31670  115.65910    8.64910    -999.25    -999.25    8.86180    -999.25    8.64610    -999.25    -999.25    -999.25   10.65330    -999.25    -999.25 -174.57850   -2.05260   10.60000
 4250.00000    -999.25   10.83710   10.83710  117.30340    8.54050    -999.25    -999.25    8.76630    -999.25    8.52490    -999.25    -999.25    -999.25    9.94830    -999.25    -999.25 -176.72290   -4.19700    9.93820
 4300.00000    -999.25   10.40730   10.40730  122.41530    8.19020    -999.25    -999.25    9.31100    -999.25    8.17010    -999.25    -999.25    -999.25    9.42580    -999.25    -999.25 -177.42820   -4.90230    9.43850
