~Version ---------------------------------------------------
VERS.      2.0 : CWLS log ASCII Standard -VERSION 2.0
WRAP.       NO : One line per depth step
CREA. 11/07/17 : LAS Creation Date
~Well ------------------------------------------------------
STRT.FT               650.0 : START DEPTH
STOP.FT              5900.0 : STOP DEPTH
STEP.FT            50.00000 : STEP LENGTH
NULL.               -999.25 : NULL VALUE
COMP.          PETRO-CANADA : COMPANY
WELL. ARCO NIPISI 4-28-81-8 : WELL
FLD .                NIPISI : FIELD
LOC .                       : LOCATION
CTRY.                CANADA : COUNTRY
SRVC.          Schlumberger : SERVICE COMPANY
DATE.           12-Jul-1967 : LOGDATE
PROV.               Alberta : PROVINCE
UWI .      100042808108W500 : UNIQUE WELL ID
SLAT.WGS84    56.0456026011 : SURFACE LATITUDE
SLON.WGS84  -115.1974081811 : SURFACE LONGITUDE
~Curve Information -----------------------------------------
DEPT  .FT    : Depth Curve
CALSED.IN    : CALIPER FROM SONIC LOG (ADJ TO RES.)
CALWS .IN    : CALIPER [CALSED]
CILDED.MMHO  : CONDUCTIVITY FROM IEL LOG
CONDWS.MMHO  : CONDUCTIVITY [1000/DRESWS]
DRESWS.OHMM  : DEEP RESISTIVITY [ILDED] IF ILDED<5;1000/CILDED;ELSE ILDED
DTED  .US/F  : DELTA TIME FROM SONIC LOG (ADJ TO RES.)
DTWS  .US/F  : DELTA TIME [DTED]
GRSED .GAPI  : GAMMA RAY FROM SONIC LOG (ADJ TO RES.)
GRWS  .GAPI  : GAMMA RAY [GRSED] CSG @ 623ft
ILDED .OHMM  : INDUCTION LOG DEEP RESISTIVITY
SNED  .OHMM  : 16 INCH SHORT NORMAL RESISTIVITY FROM IEL
SPRED .MV    : SPONTANEOUS POTENTIAL FROM IEL LOG
SPWS  .MV    : SPONTANEOUS POTENTIAL [BASELINE 0 MV] [SPRED]
SRESWS.OHMM  : SHALLOW RESISTIVITY [SNED]
~Params ----------------------------------------------------
PD  .                     GL : PERMANENT DATUM
EPD .FT                 2117 : ELEVATION PERMANENT DATUM
LMF .                     KB : LOG MEASURED FROM
DAPD.FT                 13.5 : FEET ABOVE PERMANENT DATUM
DMF .                     KB : DRILLING MEASURED FROM
EKB .FT               2130.5 : KELLY BUSHING
EGL .FT                 2117 : GROUND LEVEL
DATE.               07/12/67 : RUN DATE
RUN .                      1 : RUN NUMBER
DD  .FT                 5935 : DEPTH DRILLER
DL  .FT                 5936 : DEPTH LOGGER
BLI .FT                 5934 : BOTTOM LOG INTERVAL
TLI .FT                  623 : TOP LOG INTERVAL
CBD .FT                  625 : CASING BOTTOM DRILLER
CBL .FT                  623 : CASING BOTTOM LOGGER
BS  .IN                 8.75 : BIT SIZE
BSD .FT                 5935 : BIT SIZE AT DEPTH
DFT .               GEL CHEM : DRILLING FLUID TYPE
DFD .                    9.8 : DRILLING FLUID DENSITY
DFV .                     60 : DRILLING FLUID VISCOSITY
DFPH.                     11 : DRILLING FLUID PH
DFL .                     15 : DRILLING FLUID LOSS
RMS .OHMM                0.6 : RESISTIVITY MUD SAMPLE
MST .DEGF                 72 : MUD SAMPLE TEMPERATURE
RMF .OHMM               0.42 : RESISTIVITY MUD FILTRATE SAMPLE
MFST.DEGF                 62 : MUD FILTRATE SAMPLE TEMPERATURE
RMC .OHMM               0.66 : RESISTIVITY MUD CAKE
MCST.DEGF                 65 : MUD CAKE SAMPLE TEMPERATURE
RMB .OHMM               0.37 : RESISTIVITY MUD AT BHT
TCS .HRS                1830 : TIME CIRCULATED STOPPED
TLAB.HRS                 300 : TIME LOGGER AT BOTTOM
LUN .                   7501 : LOGGING UNIT NUMBER
LUL .                     SL : LOGGING UNIT LOCATION
ENGI.                 WILSON : RECORDING ENGINEER
WITN.          NEESER BAILEY : WITNESSED BY
CLNT.                A2DTECH : CLIENT CODE
ORIG.        2" 5" 25" PRINT : ORIGIN OF DATA
UWI .       100042808108W500 : UNIQUE WELL ID
DICO. A2D Technologies, Inc. : DIGITIZING COMPANY
~Other -----------------------------------------------------
~ASCII -----------------------------------------------------
# ...
 3100.00000    9.36540    9.36540   18.16110   15.34390   65.17230   52.69530   52.69530   11.75930   11.75930   65.17230   53.28250  -82.12600  -25.74810   53.28250
 3150.00000    9.47220    9.47220   17.88890   15.25680   65.54460   55.50800   55.50800   12.80970   12.80970   65.54460   55.00340  -88.76330  -32.24080   55.00340
 3200.00000    9.49210    9.49210   15.95900   13.78340   72.58740   50.87790   50.87790   10.37940   10.37940   72.58740   57.43120  -84.50100  -27.83320   57.43120
 3250.00000    9.43490    9.43490   12.45070    9.92500  100.75580   52.07290   52.07290   13.94660   13.94660  100.75580   59.33370  -79.13010  -22.31840   59.33370
 3300.00000    9.44120    9.44120   23.39040   20.54850   48.66540   52.25210   52.25210   13.58220   13.58220   48.66540   39.69270  -81.87760  -24.92130   39.69270
 3350.00000    9.46010    9.46010   27.14020   24.76530   40.37900  120.81370  120.81370   12.40920   12.40920   40.37900   49.90890  -85.16770  -28.06680   49.90890
 3400.00000    9.15460    9.15460   84.23970   80.55360   12.41410   59.31040   59.31040   15.87530   15.87530   12.41410   22.39140  -97.90920  -40.66370   22.39140
 3450.00000   12.55790   12.55790  344.04510  344.04510    2.90950   99.02720   99.02720   76.56340   76.56340    2.84090    5.28680  -61.58510   -4.19430    5.28680
 3500.00000    9.32740    9.32740   28.81010   27.30340   36.62550   47.42730   47.42730   16.16350   16.16350   36.62550   42.51000  -87.02550  -30.73710   42.51000
 3550.00000    9.32390    9.32390   68.05680   69.11710   14.46820   54.02830   54.02830   18.27610   18.27610   14.46820   29.52490  -95.97110  -40.95420   29.52490
 3600.00000    9.17130    9.17130   73.12490   76.51050   13.07010   56.67100   56.67100   27.38220   27.38220   13.07010   22.78940  -81.66860  -27.92330   22.78940
 3650.00000    9.24600    9.24600   23.62730   22.15730   45.13190   48.72960   48.72960   11.72510   11.72510   45.13190   50.53630  -93.83810  -41.36430   50.53630
 3700.00000    9.02680    9.02680   31.87140   28.53040   35.16480   48.01860   48.01860   17.24230   17.24230   35.16480   44.38850  -99.32460  -48.12870   44.38850
 3750.00000    8.61940    8.61940   51.05450   52.57020   19.02220   52.61950   52.61950   22.33340   22.33340   19.02220   37.07790  -98.01030  -48.07970   37.07790
 3800.00000    8.85100    8.85100   39.82680   38.91100   25.69970   56.12720   56.12720   22.13130   22.13130   25.69970   33.94410  -62.84560  -14.18650   33.94410
 3850.00000    9.36500    9.36500  139.25410  154.48790    6.47300   74.73730   74.73730   51.61010   51.61010    6.47300    8.59500  -49.10100   -1.71350    8.59500
 3900.00000    9.63980    9.63980  161.06010  163.48420    6.11680   77.17450   77.17450   54.20070   54.20070    6.11680    7.63450  -48.89600   -1.96190    7.63450
 3950.00000    9.98930    9.98930  208.67430  208.67440    4.79230   85.11760   85.11760   56.04990   56.04990    4.72200    5.60100  -49.57420   -2.97300    5.60100
 4000.00000   10.61200   10.61200  246.21540  246.21540    4.06150   85.63270   85.63270   57.64400   57.64400    3.90140    5.01930  -52.08450   -5.81290    5.01930
 4050.00000   10.37790   10.37790  366.19380  366.19380    2.73080  101.11000  101.11000   61.12590   61.12590    2.71760    3.23910  -58.75120  -12.81080    3.23910
 4100.00000   13.65620   13.65620  443.44870  443.44870    2.25510  118.42180  118.42180   58.48050   58.48050    2.11700    2.38050  -58.94330  -13.33410    2.38050
 4150.00000   13.21380   13.21380  435.17430  435.17430    2.29790  111.03370  111.03370   63.35020   63.35020    2.09210    2.48010  -61.61280  -16.33480    2.48010
 4200.00000   12.55490   12.55490  423.68180  423.68170    2.36070   98.26680   98.26680   64.36980   64.36980    2.20380    2.69550  -57.03460  -12.08940    2.69550
 4250.00000    9.09430    9.09430  203.60430  180.63910    5.53590   60.92130   60.92130   28.98750   28.98750    5.53590    6.30880  -49.67510   -5.05950    6.30880
 4300.00000    9.24520    9.24520  135.14030  136.42190    7.33020   75.88260   75.88260   49.95560   49.95560    7.33020    9.35560  -45.29430   -1.00990    9.35560
 4350.00000    9.33650    9.33650  131.14140  134.00510    7.46240   72.91080   72.91080   42.80830   42.80830    7.46240    9.37210  -40.83100    3.12210    9.37210
 4400.00000    8.97210    8.97210   58.93990   58.13180   17.20230   59.11440   59.11440   17.81170   17.81170   17.20230   17.49080  -63.09870  -19.47680   17.49080
 4450.00000    9.29440    9.29440  114.92590  119.64830    8.35860   70.71200   70.71200   41.72000   41.72000    8.35860   10.21810  -44.24300   -0.95390   10.21810
 4500.00000    9.16560    9.16560   79.05740   80.51080   12.42070   64.04560   64.04560   33.71880   33.71880   12.42070   13.99190  -44.95120   -1.99170   13.99190
 4550.00000    9.54990    9.54990  143.29580  147.62110    6.77410   74.00690   74.00690   48.62990   48.62990    6.77410    8.04760  -44.69750   -2.06920    8.04760
 4600.00000   14.06070   14.06070  373.94030  373.94030    2.67420  100.14000  100.14000   69.48760   69.48760    2.54660    2.88320  -55.62620  -13.32910    2.88320
 4650.00000   14.57320   14.57320  404.59020  404.59020    2.47160  121.30250  121.30250   68.07630   68.07630    2.42580    2.81750  -56.58710  -14.62120    2.81750
 4700.00000   12.31330   12.31330  244.88670  244.88670    4.08390   89.38380   89.38380   54.98580   54.98580    4.02640    4.81660  -46.47470   -4.84180    4.81660
 4750.00000   13.59740   13.59740  330.27970  330.27970    3.02770   98.04980   98.04980   59.50670   59.50670    2.79280    3.15480  -49.59000   -8.28660    3.15480
 4800.00000   12.19500   12.19500  284.45470  284.45470    3.51550   87.70050   87.70050   62.64710   62.64710    3.28280    3.57010  -53.24720  -12.27500    3.57010
 4850.00000   12.35880   12.35880  281.10520  281.10520    3.55740   94.90330   94.90330   62.91920   62.91920    3.54140    3.90260  -56.13470  -15.49370    3.90260
 4900.00000   13.21590   13.21590  209.96480  209.96480    4.76270   79.98620   79.98620   50.89800   50.89800    4.29790    4.92150  -50.65880  -10.34900    4.92150
 4950.00000   10.23940   10.23940  113.07320  106.68520    9.47640   67.24680   67.24680   34.34310   34.34310    9.47640   10.39440  -43.83300   -3.85610   10.39440
 5000.00000    9.66830    9.66830   37.12310   34.07910   29.34350   53.54220   53.54220   23.85370   23.85370   29.34350   21.29870  -42.36060   -2.71320   21.29870
 5050.00000   11.26580   11.26580  102.79330   96.52980   10.35950   65.06820   65.06820   37.83710   37.83710   10.35950    9.49300  -40.46480   -1.14860    9.49300
 5100.00000   11.61330   11.61330  159.91450  164.16860    6.09130   74.00670   74.00670   62.85530   62.85530    6.09130    7.96710  -44.73330   -5.74840    7.96710
 5150.00000   12.52790   12.52790  129.36180  132.38020    7.55400   71.65320   71.65320   52.67080   52.67080    7.55400    7.87670  -42.55390   -4.84950    7.87670
 5200.00000    9.40230    9.40230   42.96270   42.16650   23.71790   57.59020   57.59020   26.87850   26.87850   23.71790   22.32730  -49.59670  -13.56900   22.32730
 5250.00000   10.97090   10.97090  176.07280  178.04370    5.61660   78.17330   78.17330   66.08480   66.08480    5.61660    6.98620  -39.24270   -4.87500    6.98620
 5300.00000   11.26710   11.26710  168.64360  169.96110    5.88370   76.69110   76.69110   65.43620   65.43620    5.88370    7.15690  -39.52750   -6.31130    7.15690
 5350.00000    9.80050    9.80050  108.52900   98.49790   10.15250   56.50120   56.50120   30.66280   30.66280   10.15250   12.52310  -42.79390   -9.88600   12.52310
 5400.00000    9.27400    9.27400    6.33750    5.06910  197.27550   52.18400   52.18400   14.47260   14.47260  197.27550   94.72460  -43.98170  -11.38210   94.72460
 5450.00000   10.17300   10.17300  417.73310  417.73310    2.39390   73.31870   73.31870   76.70500   76.70500    2.65320    4.51680  -48.03500  -15.74530    4.51680
 5500.00000    9.30890    9.30890   19.58580   15.86450   63.03390   50.20250   50.20250    9.10430    9.10430   63.03390   59.45280  -44.03070  -12.04770   59.45280
