~Version ---------------------------------------------------
VERS.      2.0 : CWLS log ASCII Standard -VERSION 2.0
WRAP.       NO : One line per depth step
CREA. 09/11/14 : LAS Creation Date
~Well ------------------------------------------------------
STRT.M                         600.0 : START DEPTH
STOP.M                        4700.0 : STOP DEPTH
STEP.M                      50.00000 : STEP LENGTH
NULL.                        -999.25 : NULL VALUE
COMP.      GULF CANADA RESOURCES INC : COMPANY
WELL. GULF ET AL MITCHELL 3-26-49-20 : WELL
FLD .                                : FIELD
LOC .                                : LOCATION
CTRY.                         CANADA : COUNTRY
SRVC.                   Schlumberger : SERVICE COMPANY
DATE.                    19-Feb-1984 : LOGDATE
PROV.                        Alberta : PROVINCE
UWI .               100032604920W500 : UNIQUE WELL ID
SLAT.WGS84                  53.25412 : SURFACE LATITUDE
SLON.WGS84                 -116.8205 : SURFACE LONGITUDE
~Curve Information -----------------------------------------
DEPT    .M      : Depth Curve
C1ED    .MM     : CALIPER 1 FROM DENSITY LOG
C2ED    .MM     : CALIPER 2 FROM DENSITY LOG
CALDED  .MM     : CALIPER FROM DENSITY LOG
CALSED  .MM     : CALIPER FROM SONIC LOG
CALWS   .MM     : CALIPER [CALSED SPL. TO CALDED @ 4695.7 M]
CONDWS  .MMHO   : CONDUCTIVITY [1000/DRESWS]
DCORWS  .KG/M3  : DENSITY CORRECTION [DRHOED]
DENWS   .KG/M3  : FORMATION BULK DENSITY [CALC. FROM DPOLSWS,M=2710,F=1000]
DPHILSED.V/V    : DENSITY POROSITY LIMESTONE [M=2710, F=1000] FROM DENSITY LOG
DPHISSED.V/V    : DENSITY POROSITY SANDSTONE [M=2650, F=1000] FROM DENSITY LOG
DPOLSWS .V/V    : DENSITY POROSITY LIMESTONE [DPHISSED CONVERTED TO LIMSTONE MATRIX,M=2710,F=1000 & SPL. TO DPHILSED @ 3525 M]
DRESWS  .OHMM   : DEEP RESISTIVITY [ILDED]
DRHOED  .KG/M3  : BULK DENSITY CORRECTION FROM DENSITY LOG
DTED    .US/M   : DELTA-T FROM SONIC LOG
DTWS    .US/M   : COMPRESSIONAL SONIC [DTED]
GRDED   .GAPI   : GAMMA RAY FROM DENSITY LOG
GRSED   .GAPI   : GAMMA RAY FROM SONIC LOG
GRWS    .GAPI   : GAMMA RAY [GRSED SPL. TO GRDED @ 4691.3 M &  GRWS IN CSG @ (3107.98 M-3127 M) +15 GAPI ]
ILDED   .OHMM   : DEEP INDUCTION RESISTIVITY FROM RESISTIVITY LOG
ILMED   .OHMM   : MEDIUM INDUCTION RESISTIVITY FROM RESISTIVITY LOG
MRESWS  .OHMM   : MEDIUM RESISTIVITY [ILMED]
NPHILSED.V/V    : NEUTRON POROSITY LIMESTONE FROM DENSITY LOG
NPHISSED.V/V    : NEUTRON POROSITY SANDSTONE FROM DENSITY LOG
NPOLSWS .V/V    : NEUTRON POROSITY LIMESTONE [NPHISSED CONVERSION FOR LIMESTONE MATRIX,SPL. TO NPHILSED @ 3525.4 M]
RHOBED  .KG/M3  : BULK DENSITY FROM DENSITY LOG
SFLUED  .OHMM   : SHALLOW FOCUSED RESISTIVITY FROM RESISTIVITY LOG
SPRED   .MV     : SPONTANEOUS POTENTIAL FROM RESISTIVITY LOG
SPWS    .MV     : SPONTANEOUS POTENTIAL [BASELINE 0 MV,SPRED]
SRESWS  .OHMM   : SHALLOW RESISTIVITY [SFLUED]
TENDED  .N      : TENSION [KG*9.80665002864] FROM DENSITY LOG
TENSED  .N      : TENSION [KG*9.80665002864] FROM SONIC LOG
~Params ----------------------------------------------------
PD  .                         GL : PERMANENT DATUM
EPD .M                      1136 : ELEVATION PERMANENT DATUM
LMF .                         KB : LOG MEASURED FROM
DAPD.M                      7.65 : FEET ABOVE PERMANENT DATUM
DMF .                         KB : DRILLING MEASURED FROM
EKB .M                   1144.35 : KELLY BUSHING
EGL .M                    1136.7 : GROUND LEVEL
DATE.                   02/19/84 : RUN DATE
RUN .                          2 : RUN NUMBER
DD  .M                      4712 : DEPTH DRILLER
DL  .M                      4718 : DEPTH LOGGER
BLI .M                      4717 : BOTTOM LOG INTERVAL
TLI .M                      3127 : TOP LOG INTERVAL
CS  .MM                      244 : CASING SIZE
CBD .M                      3120 : CASING BOTTOM DRILLER
CBL .M                      3127 : CASING BOTTOM LOGGER
BS  .MM                      216 : BIT SIZE
BSD .M                      4712 : BIT SIZE AT DEPTH
DFT .                   GEL CHEM : DRILLING FLUID TYPE
DFD .                       1185 : DRILLING FLUID DENSITY
DFV .                        180 : DRILLING FLUID VISCOSITY
DFPH.                         11 : DRILLING FLUID PH
DFL .                        8.8 : DRILLING FLUID LOSS
MSS .                   FLOWLINE : MUD SAMPLE SOURCE
RMS .OHMM                    1.1 : RESISTIVITY MUD SAMPLE
MST .DEGC                     24 : MUD SAMPLE TEMPERATURE
RMF .OHMM                   0.81 : RESISTIVITY MUD FILTRATE SAMPLE
MFST.DEGC                     22 : MUD FILTRATE SAMPLE TEMPERATURE
RMC .OHMM                  0.236 : RESISTIVITY MUD CAKE
MCST.DEGC                     28 : MUD CAKE SAMPLE TEMPERATURE
MFSS.                      PRESS : MUD FILTRATE SAMPLE SOURCE
MCSS.                      PRESS : MUD CAKE SAMPLE SOURCE
RMB .OHMM                  0.335 : RESISTIVITY MUD AT BHT
TCS .HRS                    2315 : TIME CIRCULATED STOPPED
TLAB.HRS                    2100 : TIME LOGGER AT BOTTOM
LUN .                       8210 : LOGGING UNIT NUMBER
LUL .                        EDM : LOGGING UNIT LOCATION
ENGI.                   ACKERMAN : RECORDING ENGINEER
WITN.                   STEPHENS : WITNESSED BY
CLNT.                    A2DTECH : CLIENT CODE
ORIG. 6.5"/100M 16.5"/100M PRINT : ORIGIN OF DATA
UWI .           100032604920W500 : UNIQUE WELL ID
DICO.     A2D Technologies, Inc. : DIGITIZING COMPANY
~Other -----------------------------------------------------
~ASCII -----------------------------------------------------
# ...
 1750.00000  374.45530  356.76640    -999.25  361.01470  361.01470   39.84430  106.42010 1885.72000    -999.25    0.46320    0.48200   25.09770  106.42010  237.65710  237.65710   75.52050   85.74370   85.74370   25.09770   22.28410   22.28410    -999.25    0.46500    0.42690 1903.44070   23.31550  -21.00880   -6.90860   23.31550    -999.25    -999.25
 1800.00000  414.54170  299.18850    -999.25  331.03520  331.03520   84.74360  112.36280 1919.87500    -999.25    0.44250    0.46210   11.80030  112.36280  240.31430  240.31430   70.97600   69.82340   69.82340   11.80030   10.88490   10.88490    -999.25    0.41630    0.37280 1992.65750   13.10730  -18.39480   -5.31310   13.10730    -999.25    -999.25
 1850.00000  316.61530  322.28400    -999.25  318.62680  318.62680   17.44780  155.32740 2596.37500    -999.25    0.03250    0.06640   57.31390  155.32740  202.94180  202.94180   43.98540   47.15220   47.15220   57.31390   68.25690   68.25690    -999.25    0.20940    0.15800 2599.19460  112.07410  -31.48710  -19.42400  112.07410    -999.25    -999.25
 1900.00000  418.66080  354.25480    -999.25  359.53180  359.53180   70.79650   71.23000 1669.90000    -999.25    0.59400    0.60820   14.12500   71.23000  254.12490  254.12490   73.07420   81.53590   81.53590   14.12500   12.31750   12.31750    -999.25    0.45500    0.41570 1663.68360   11.39810  -21.81050   -8.70670   11.39810    -999.25    -999.25
 1950.00000  472.78620  310.95910    -999.25  343.95160  343.95160   50.00350   47.93420 1791.67000    -999.25    0.52020    0.53700   19.99860   47.93420  255.87300  255.87300   59.44080   55.07930   55.07930   19.99860   17.52200   17.52200    -999.25    0.33300    0.28310 1784.14770   15.84140  -21.57640   -6.93850   15.84140    -999.25    -999.25
 2000.00000  318.67940  317.37650    -999.25  316.04300  316.04300   13.45490  102.36970 2554.96000    -999.25    0.05760    0.09070   74.32250  102.36970  200.40960  200.40960   41.81770   41.73760   41.73760   74.32250   67.67060   67.67060    -999.25    0.25540    0.20280 2553.51830   83.64430  -24.82460   -8.65270   83.64430    -999.25    -999.25
 2050.00000  492.88600  316.04810    -999.25  356.47000  356.47000   32.77230   27.75100 1711.81000    -999.25    0.56860    0.58370   30.51360   27.75100  237.32660  237.32660   50.60840   56.40740   56.40740   30.51360   21.64680   21.64680    -999.25    0.45770    0.41870 1754.70830   20.70410  -19.66340   -1.95740   20.70410    -999.25    -999.25
 2100.00000  531.85940  376.74690    -999.25  382.34960  382.34960   63.44940   -1.34850 1610.83000    -999.25    0.62980    0.64280   15.76060   -1.34850  248.38850  248.38850   49.92510   46.48580   46.48580   15.76060   10.08560   10.08560    -999.25    0.59200    0.56760 1620.65530    9.71500  -33.81880  -14.57860    9.71500    -999.25    -999.25
 2150.00000  472.36450  296.23140    -999.25  341.30410  341.30410   23.26140   65.59270 1905.19000    -999.25    0.45140    0.47060   42.98960   65.59270  205.58850  205.58850   35.14920   40.01040   40.01040   42.98960   37.62810   37.62810    -999.25    0.29330    0.24170 1918.74070   37.00850  -29.47050   -8.69630   37.00850    -999.25    -999.25
 2200.00000  316.15750  281.98610    -999.25  317.31330  317.31330    5.57870   59.05730 2437.15000    -999.25    0.12900    0.15960  179.25390   59.05730  221.51710  221.51710   38.63470   41.29910   41.29910  179.25390  141.44740  141.44740    -999.25    0.22530    0.17320 2448.55490  110.48630  -45.59020  -23.28190  110.48630    -999.25    -999.25
 2250.00000  498.77280  268.36090    -999.25  346.99080  346.99080   35.26530   62.29850 2026.96000    -999.25    0.37760    0.39940   28.35650   62.29850  227.22450  227.22450   74.23980   86.26080   86.26080   28.35650   24.82630   24.82630    -999.25    0.30930    0.25830 2044.65530   23.13730  -32.96730  -10.94710   23.13730    -999.25    -999.25
 2300.00000  320.54240  314.18290    -999.25  336.95680  336.95680   48.24600   84.55020 2474.60500    -999.25    0.10630    0.13770   20.72710   84.55020  236.63990  236.63990   84.64720  109.13680  109.13680   20.72710   21.79550   21.79550    -999.25    0.35220    0.30350 2480.75760   22.30160  -27.21210   -6.67890   22.30160    -999.25    -999.25
 2350.00000  327.34940  347.34800    -999.25  338.76780  338.76780   57.57220   32.71400 2578.39000    -999.25    0.04340    0.07700   17.36950   32.71400  254.71040  254.71040   94.31980  105.93790  105.93790   17.36950   18.20830   18.20830    -999.25    0.39040    0.34450 2579.10180   21.13120  -19.97900   -1.40490   21.13120    -999.25    -999.25
 2400.00000  319.50510  377.31460    -999.25  343.69580  343.69580   61.70630   21.38510 2506.12000    -999.25    0.08720    0.11920   16.20580   21.38510  253.80080  253.80080   73.71260   94.10820   94.10820   16.20580   16.62250   16.62250    -999.25    0.40700    0.36260 2503.02080   17.46440  -19.02170   -3.04920   17.46440    -999.25    -999.25
 2450.00000  344.43880  380.32030    -999.25  354.70920  354.70920   98.62910  154.80450 2525.09500    -999.25    0.07570    0.10810   10.13900  154.80450  255.49640  255.49640   89.28980   88.25920   88.25920   10.13900    9.64350    9.64350    -999.25    0.36990    0.32240 2528.00420   10.93820  -16.44520   -3.09100   10.93820    -999.25    -999.25
 2500.00000  333.78910  370.73500    -999.25  355.62380  355.62380  130.63020  107.01500 2589.28000    -999.25    0.03680    0.07060    7.65520  107.01500  264.81160  264.81160   89.91930   94.31910   94.31910    7.65520    8.02120    8.02120    -999.25    0.37920    0.33240 2596.50120    8.42660  -14.30960   -3.57360    8.42660    -999.25    -999.25
 2550.00000  319.26540  341.59770    -999.25  342.39580  342.39580   95.17650   72.04450 2649.01000    -999.25    0.00060    0.03570   10.50680   72.04450  247.59840  247.59840   87.42710   89.98030   89.98030   10.50680   11.34330   11.34330    -999.25    0.34710    0.29810 2650.38010   12.54940  -10.27650   -2.85010   12.54940    -999.25    -999.25
 2600.00000  331.66140  373.21120    -999.25  350.45020  350.45020  113.24390   23.52860 2582.68000    -999.25    0.04080    0.07450    8.83050   23.52860  253.91800  253.91800   98.05840  107.89170  107.89170    8.83050    9.13560    9.13560    -999.25    0.34640    0.29730 2597.03170    9.80730   -9.99240   -7.29370    9.80730    -999.25    -999.25
 2650.00000  304.43710  339.42370    -999.25  328.51670  328.51670   11.47750   47.70560 2513.54500    -999.25    0.08270    0.11490   87.12730   47.70560  231.98680  231.98680   31.53050   31.47080   31.47080   87.12730   81.04710   81.04710    -999.25    0.11090    0.07110 2518.93190   97.94900  -40.24100  -42.26990   97.94900    -999.25    -999.25
 2700.00000  310.64610  349.18570    -999.25  337.06470  337.06470   78.75190   28.50690 2599.34500    -999.25    0.03070    0.06470   12.69810   28.50690  242.98550  242.98550   90.39440   94.67030   94.67030   12.69810   13.34380   13.34380    -999.25    0.30580    0.25460 2607.33130   14.18390   -3.85130   -2.35120   14.18390    -999.25    -999.25
 2750.00000  301.75110  295.95310    -999.25  327.26980  327.26980   62.55360    0.68790 2560.57000    -999.25    0.05420    0.08740   15.98630    0.68790  236.37390  236.37390   94.37280   92.94400   92.94400   15.98630   16.99290   16.99290    -999.25    0.24520    0.19260 2559.06200   19.57720   -2.42900   -3.82830   19.57720    -999.25    -999.25
 2800.00000  303.40290  370.93510    -999.25  330.57550  330.57550   69.11330   34.94910 2563.21000    -999.25    0.05260    0.08580   14.46900   34.94910  270.59800  270.59800   96.33800   91.98420   91.98420   14.46900   15.27500   15.27500    -999.25    0.32180    0.27130 2565.77420   15.81260    2.41440   -3.04520   15.81260    -999.25    -999.25
 2850.00000  315.02430  373.36450    -999.25  335.94160  335.94160   84.19710   62.73690 2518.99000    -999.25    0.07940    0.11170   11.87690   62.73690  275.82410  275.82410   99.11230  114.44420  114.44420   11.87690   12.28220   12.28220    -999.25    0.40800    0.36370 2522.34180   14.44020    5.52480   -0.78230   14.44020    -999.25    -999.25
