~Version ---------------------------------------------------
VERS.      2.0 : CWLS log ASCII Standard -VERSION 2.0
WRAP.       NO : One line per depth step
CREA. 08/01/17 : LAS Creation Date
~Well ------------------------------------------------------
STRT.FT                                1400.0 : START DEPTH
STOP.FT                               13550.0 : STOP DEPTH
STEP.FT                              50.00000 : STEP LENGTH
NULL.                                 -999.25 : NULL VALUE
COMP.               EXXONMOBIL RESOURCES LTD. : COMPANY
WELL. CDN-SUP ET AL BREWSTER CK 6-12-42-11 #6 : WELL
FLD .                                         : FIELD
LOC .                                         : LOCATION
CTRY.                                  CANADA : COUNTRY
SRVC.                            Schlumberger : SERVICE COMPANY
DATE.                             03-May-1962 : LOGDATE
PROV.                                 Alberta : PROVINCE
UWI .                        100061204211W500 : UNIQUE WELL ID
SLAT.WGS84                           52.60151 : SURFACE LATITUDE
SLON.WGS84                          -115.4546 : SURFACE LONGITUDE
~Curve Information -----------------------------------------
DEPT  .FT    : Depth Curve
CALMED.IN    : CALIPER FROM MICROLOG
CALWS .IN    : CALIPER [CALMED]
CILDED.MMHO  : CONDUCTIVITY FROM RESISTIVITY LOG
CONDWS.MMHO  : CONDUCTIVITY [1000/DRESWS]
DRESWS.OHMM  : DEEP RESISTIVITY [ILDED] IF DRESWS<1;1000/CONDWS
GRNED .GAPI  : GAMMA RAY FROM NEUTRON LOG
GRWS  .GAPI  : GAMMA RAY [GRNED]
ILDED .OHMM  : INDUCTION LOG DEEP RESISTIVITY
NEUTED.CPS   : NEUTRON FROM NEUTRON LOG
NEUTWS.CPS   : NEUTRON [NEUTED]
SNED  .OHMM  : 16 INCH SHORT NORMAL RESISTIVITY FROM IEL
SPRED .MV    : SPONTANEOUS POTENTIAL FROM RESISTIVITY LOG
SPWS  .MV    : SPONTANEOUS POTENTIAL [BASELINE 0 MV] [SPRED]
SRESWS.OHMM  : SHALLOW RESISTIVITY [SNED]
~Params ----------------------------------------------------
PD  .                     GL : PERMANENT DATUM
EPD .FT                 3360 : ELEVATION PERMANENT DATUM
LMF .                     KB : LOG MEASURED FROM
DAPD.FT                   16 : FEET ABOVE PERMANENT DATUM
EKB .FT                 3376 : KELLY BUSHING
EGL .FT                 3360 : GROUND LEVEL
DATE.               05/03/62 : RUN DATE
RUN .                      2 : RUN NUMBER
DD  .FT                13600 : DEPTH DRILLER
DL  .FT                13574 : DEPTH LOGGER
BLI .FT                13573 : BOTTOM LOG INTERVAL
TLI .FT                10193 : TOP LOG INTERVAL
CBD .FT                 1380 : CASING BOTTOM DRILLER
CBL .FT                 1380 : CASING BOTTOM LOGGER
BS  .IN                    9 : BIT SIZE
BSD .FT                13600 : BIT SIZE AT DEPTH
DFT .                 UNICAL : DRILLING FLUID TYPE
DFD .                    9.8 : DRILLING FLUID DENSITY
DFV .                    190 : DRILLING FLUID VISCOSITY
DFPH.                    8.5 : DRILLING FLUID PH
DFL .                    4.6 : DRILLING FLUID LOSS
RMS .OHMM                2.5 : RESISTIVITY MUD SAMPLE
MST .DEGF                 54 : MUD SAMPLE TEMPERATURE
RMF .OHMM               0.72 : RESISTIVITY MUD FILTRATE SAMPLE
MFST.DEGF                 71 : MUD FILTRATE SAMPLE TEMPERATURE
RMC .OHMM               1.08 : RESISTIVITY MUD CAKE
MCST.DEGF                 71 : MUD CAKE SAMPLE TEMPERATURE
RMB .OHMM               0.24 : RESISTIVITY MUD AT BHT
TCS .HRS                   5 : TIME CIRCULATED STOPPED
LUN .                   2771 : LOGGING UNIT NUMBER
ENGI.                 GORITZ : RECORDING ENGINEER
WITN.              MACINTOSH : WITNESSED BY
CLNT.                A2DTECH : CLIENT CODE
ORIG.            2" 5" PRINT : ORIGIN OF DATA
UWI .       100061204211W500 : UNIQUE WELL ID
DICO. A2D Technologies, Inc. : DIGITIZING COMPANY
~Other -----------------------------------------------------
~ASCII -----------------------------------------------------
 1400.00000    -999.25    -999.25   61.01170   51.59770   19.38070    -999.25    -999.25   19.38070    -999.25    -999.25   23.35740  -22.89370   -6.80000   23.35740
 1450.00000    -999.25    -999.25   68.74840   58.91800   16.97360    -999.25    -999.25   16.97360    -999.25    -999.25   20.33760  -22.66950   -6.57580   20.33760
 1500.00000    -999.25    -999.25   93.56660   86.04070   11.62240    -999.25    -999.25   11.62240    -999.25    -999.25   14.36840  -22.05850   -5.96480   14.36840
 1550.00000    -999.25    -999.25   96.49170   88.78550   11.26310    -999.25    -999.25   11.26310    -999.25    -999.25   13.81450  -22.11600   -6.02230   13.81450
 1600.00000    -999.25    -999.25  297.81910  264.26360    3.78410    -999.25    -999.25    3.78410    -999.25    -999.25    5.45850  -22.91060   -6.81690    5.45850
 1650.00000    -999.25    -999.25   58.32590   49.75470   20.09860    -999.25    -999.25   20.09860    -999.25    -999.25   22.94150  -23.67730   -7.58360   22.94150
 1700.00000    -999.25    -999.25   57.44210   47.67980   20.97500    -999.25    -999.25   20.97500    -999.25    -999.25   23.72420  -24.00290   -7.90920   23.72420
 1750.00000    -999.25    -999.25   81.57380   74.48460   13.42560    -999.25    -999.25   13.42560    -999.25    -999.25   16.33490  -21.38220   -5.28850   16.33490
 1800.00000    -999.25    -999.25   68.67370   66.64930   15.00390    -999.25    -999.25   15.00390    -999.25    -999.25   20.01000  -23.17410   -7.08040   20.01000
 1850.00000    -999.25    -999.25   91.75360   85.60760   11.68120    -999.25    -999.25   11.68120    -999.25    -999.25   15.70080  -23.53200   -7.43830   15.70080
 1900.00000    -999.25    -999.25  147.06520  144.41480    6.92450    -999.25    -999.25    6.92450    -999.25    -999.25   10.51860  -21.45040   -5.35670   10.51860
 1950.00000    -999.25    -999.25   48.19530   38.69380   25.84410    -999.25    -999.25   25.84410    -999.25    -999.25   31.32320  -26.12530  -10.03160   31.32320
 2000.00000    -999.25    -999.25  319.93070  274.92920    3.63730    -999.25    -999.25    3.63730    -999.25    -999.25    8.77790  -22.37160   -6.27790    8.77790
 2050.00000    -999.25    -999.25   50.54260   39.39240   25.38560    -999.25    -999.25   25.38560    -999.25    -999.25   32.16270  -24.40440   -8.31070   32.16270
 2100.00000    -999.25    -999.25  135.69010  124.42760    8.03680    -999.25    -999.25    8.03680    -999.25    -999.25   11.53100  -23.46040   -7.36670   11.53100
 2150.00000    -999.25    -999.25  323.33510  303.26920    3.29740    -999.25    -999.25    3.29740    -999.25    -999.25    4.73970  -20.65650   -4.56280    4.73970
 2200.00000    -999.25    -999.25  129.54480  122.55640    8.15960    -999.25    -999.25    8.15960    -999.25    -999.25   11.68870  -22.85910   -6.76540   11.68870
 2250.00000    -999.25    -999.25  153.95210  149.69390    6.68030    -999.25    -999.25    6.68030    -999.25    -999.25    8.88810  -21.15020   -5.05650    8.88810
 2300.00000    -999.25    -999.25   94.64870   71.91860   13.90460    -999.25    -999.25   13.90460    -999.25    -999.25   15.96260  -21.80290   -5.70920   15.96260
 2350.00000    -999.25    -999.25   59.83340   48.68950   20.53830    -999.25    -999.25   20.53830    -999.25    -999.25   27.64140  -25.98790   -9.89420   27.64140
 2400.00000    -999.25    -999.25  228.06360  223.47370    4.47480    -999.25    -999.25    4.47480    -999.25    -999.25    6.08210  -22.42310   -6.32940    6.08210
 2450.00000    -999.25    -999.25  183.78020  169.23370    5.91190    -999.25    -999.25    5.91190    -999.25    -999.25    8.12250  -21.74530   -5.65160    8.12250
 2500.00000    -999.25    -999.25  170.96870  158.79320    6.29750    -999.25    -999.25    6.29750    -999.25    -999.25    8.90900  -22.46640   -6.37270    8.90900
 2550.00000    -999.25    -999.25  201.31920  186.25100    5.36910    -999.25    -999.25    5.36910    -999.25    -999.25    7.09140  -22.74570   -6.65200    7.09140
 2600.00000    -999.25    -999.25  162.78580  152.76040    6.54620    -999.25    -999.25    6.54620    -999.25    -999.25    7.84090  -20.24530   -4.15160    7.84090
 2650.00000    -999.25    -999.25  185.41700  176.73150    5.65830    -999.25    -999.25    5.65830    -999.25    -999.25    7.37890  -21.09850   -5.00480    7.37890
 2700.00000    -999.25    -999.25  120.40740  108.12570    9.26350    -999.25    -999.25    9.26350    -999.25    -999.25   10.73480  -22.25830   -6.16460   10.73480
 2750.00000    -999.25    -999.25  112.11810  101.94930    9.80880    -999.25    -999.25    9.80880    -999.25    -999.25   11.24340  -22.29870   -6.20500   11.24340
 2800.00000    -999.25    -999.25  142.63490  141.46870    7.06870    -999.25    -999.25    7.06870    -999.25    -999.25   10.12290  -22.38420   -6.29050   10.12290
 2850.00000    -999.25    -999.25   51.84930   40.64610   24.60260    -999.25    -999.25   24.60260    -999.25    -999.25   26.52250  -35.00930  -18.91560   26.52250
 2900.00000    -999.25    -999.25  173.26720  170.40130    5.86850    -999.25    -999.25    5.86850    -999.25    -999.25    6.76760  -20.33330   -4.23960    6.76760
 2950.00000    -999.25    -999.25  331.10150  319.36670    3.13210    -999.25    -999.25    3.13210    -999.25    -999.25    4.01920  -20.41710   -4.32350    4.01920
 3000.00000    -999.25    -999.25   76.83320   74.18620   13.47960    -999.25    -999.25   13.47960    -999.25    -999.25   17.06640  -24.51050   -8.41680   17.06640
 3050.00000    -999.25    -999.25  129.09080  123.43240    8.10160    -999.25    -999.25    8.10160    -999.25    -999.25   11.50990  -22.22810   -6.13440   11.50990
 3100.00000    -999.25    -999.25  130.65110  126.45100    7.90820    -999.25    -999.25    7.90820    -999.25    -999.25   12.08440  -21.16210   -5.06840   12.08440
 3150.00000    -999.25    -999.25   56.63750   45.02190   22.21140    -999.25    -999.25   22.21140    -999.25    -999.25   28.66860  -46.81550  -30.72180   28.66860
 3200.00000    -999.25    -999.25  104.93530   98.64770   10.14780    -999.25    -999.25   10.14780    -999.25    -999.25   14.51940  -24.38270   -8.28900   14.51940
 3250.00000    -999.25    -999.25   55.14150   51.06860   19.58150    -999.25    -999.25   19.58150    -999.25    -999.25   21.32310  -22.58880   -6.49510   21.32310
 3300.00000    -999.25    -999.25  118.04610  113.94320    8.77630    -999.25    -999.25    8.77630    -999.25    -999.25   10.47930  -23.51290   -7.41920   10.47930
 3350.00000    -999.25    -999.25   76.50650   67.89280   14.72910    -999.25    -999.25   14.72910    -999.25    -999.25   20.51520  -23.87280   -7.77910   20.51520
 3400.00000    -999.25    -999.25   69.78110   64.50860   15.50180    -999.25    -999.25   15.50180    -999.25    -999.25   19.78680  -26.03230   -9.93860   19.78680
 3450.00000    -999.25    -999.25   83.73780   80.06280   12.49080    -999.25    -999.25   12.49080    -999.25    -999.25   16.75420  -26.06620   -9.97250   16.75420
 3500.00000    -999.25    -999.25  143.33730  144.37100    6.92660    -999.25    -999.25    6.92660    -999.25    -999.25    9.00910  -23.10230   -7.00860    9.00910
 3550.00000    -999.25    -999.25  114.08410  110.77140    9.02760    -999.25    -999.25    9.02760    -999.25    -999.25   12.87500  -22.49720   -6.40350   12.87500
 3600.00000    -999.25    -999.25   66.48450   59.28490   16.86770    -999.25    -999.25   16.86770    -999.25    -999.25   20.84960  -24.40770   -8.31400   20.84960
 3650.00000    -999.25    -999.25   42.26930   37.69890   26.52600    -999.25    -999.25   26.52600    -999.25    -999.25   27.28200  -25.42520   -9.33150   27.28200
 3700.00000    -999.25    -999.25  112.96160  110.03980    9.08770    -999.25    -999.25    9.08770    -999.25    -999.25   11.94580  -22.71610   -6.62250   11.94580
 3750.00000    -999.25    -999.25  121.20210  117.60000    8.50340    -999.25    -999.25    8.50340    -999.25    -999.25   13.56080  -21.80870   -5.71500   13.56080
 3800.00000    -999.25    -999.25  119.44780  118.47220    8.44080    -999.25    -999.25    8.44080    -999.25    -999.25   10.62220  -21.12610   -5.03240   10.62220
