~Version ---------------------------------------------------
VERS. 2.0 : CWLS log ASCII Standard -VERSION 2.0
WRAP.  NO : ONE LINE PER DEPTH STEP
~Well ------------------------------------------------------
STRT.F                          1450.0 : START DEPTH
STOP.F                         11100.0 : STOP DEPTH
STEP.F                        50.00000 : STEP LENGTH
NULL.                          -999.25 : NULL VALUE
COMP. AMOCO CANADA PETROLEUM CO., LTD. : COMPANY
WELL.       AMOCO PEX TONY 10-16-64-22 : WELL
FLD .                                  : FIELD
LOC .                                  : LOCATION
CTRY.                           CANADA : COUNTRY
SRVC.           Schlumberger of Canada : SERVICE COMPANY
DATE.                      08-Apr-1978 : LOGDATE
PROV.                          Alberta : PROVINCE
UWI .                 100101606422W500 : UNIQUE WELL ID
SLAT.WGS84                    54.53914 : SURFACE LATITUDE
SLON.WGS84                   -117.2632 : SURFACE LONGITUDE
~Curve Information -----------------------------------------
DEPT   .F                 : 
GRD    .GAPI 45 310 01 00 : GAMMA RAY FROM DENSITY LOG
CALD   .IN   45 280 60 00 : CALIPER FROM DENSITY LOG
RHOB   .G/C3 45 350 01 00 : BULK DENSITY
DRHO   .G/C3 45 356 01 00 : BULK DENSITY CORRECTION
DPHI_SS.DEC  45 890 03 00 : DENSITY POROSITY SANDSTONE
NPHI_SS.DEC  42 890 03 00 : NEUTRON POROSITY SANDSTONE
GRS    .GAPI 60 310 01 00 : GAMMA RAY FROM SONIC LOG
DT     .US/F 60 500 00 00 : DELTA-T (INTERVAL TRANSIT TIME)
CALS   .IN   60 280 50 00 : CALIPER FROM SONIC LOG
NPHI_LS.DEC  42 890 01 00 : NEUTRON POROSITY LIMESTONE
DPHI_LS.DEC  45 890 10 00 : DENSITY POROSITY LIMESTONE
ILD    .OHMM 07 120 46 00 : INDUCTION DEEP RESISTIVITY
ILM    .OHMM 07 120 44 00 : INDUCTION MEDIUM RESISTIVITY
LL8    .OHMM 07 220 08 00 : LATEROLOG 8
SPR    .MV   07 010 01 00 : SPONTANEOUS POTENTIAL FROM RESISTIVITY LOG
GR     .GAPI 81 310 01 00 : GAMMA RAY
NEUT   .NAPI 35 330 01 00 : NEUTRON
~Params ----------------------------------------------------
PD  .                     GL : PERMANENT DATUM
EPD .FT               2639.4 : ELEVATION PERMANENT DATUM
LMF .                     KB : LOG MEASURED FROM
DAPD.FT                 21.4 : FEET ABOVE PERMANENT DATUM
EKB .FT               2660.8 : KELLY BUSHING
EGL .FT               2639.4 : GROUND LEVEL
DATE.               04/08/78 : RUN DATE
RUN .                      2 : RUN NUMBER
DD  .FT                11105 : DEPTH DRILLER
DL  .FT                11103 : DEPTH LOGGER
BLI .FT                11099 : BOTTOM LOG INTERVAL
TLI .FT                 6000 : TOP LOG INTERVAL
CBD .FT                 1528 : CASING BOTTOM DRILLER
CBL .FT                 1528 : CASING BOTTOM LOGGER
BS  .IN                 8.75 : BIT SIZE
BSD .FT                11105 : BIT SIZE AT DEPTH
DFT .              GEL GELEX : DRILLING FLUID TYPE
DFD .                      9 : DRILLING FLUID DENSITY
DFV .                     92 : DRILLING FLUID VISCOSITY
DFPH.                      9 : DRILLING FLUID PH
DFL .                    9.8 : DRILLING FLUID LOSS
MSS .               FLOWLINE : MUD SAMPLE SOURCE
RMS .OHMM               1.91 : RESISTIVITY MUD SAMPLE
MST .DEGF                 52 : MUD SAMPLE TEMPERATURE
RMF .OHMM               1.45 : RESISTIVITY MUD FILTRATE SAMPLE
MFST.DEGF                 60 : MUD FILTRATE SAMPLE TEMPERATURE
TCS .HRS                 2.5 : TIME CIRCULATED STOPPED
LUN .              OSU C 244 : LOGGING UNIT NUMBER
LUL .                    EDM : LOGGING UNIT LOCATION
ENGI.                   GUNN : RECORDING ENGINEER
WITN.                   WALL : WITNESSED BY
CLNT.                A2DTECH : CLIENT CODE
ORIG.            2" 5" PRINT : ORIGIN OF DATA
UWI .       100101606422W500 : UNIQUE WELL ID
DICO. A2D Technologies, Inc. : DIGITIZING COMPANY
~Other -----------------------------------------------------
~ASCII -----------------------------------------------------
# ...
 3500.00000   99.95740   10.82620    2.49100    0.01050    0.08720    0.34190  126.90030   86.87720    9.55790    -999.25    -999.25    8.00480    8.44230   10.27110  -54.65660    -999.25    -999.25
 3550.00000   94.33440   11.78340    1.99280    0.09000    0.37690    0.38500  131.87670   90.37150    9.96750    -999.25    -999.25    6.42010    6.67010    8.06400  -51.46880    -999.25    -999.25
 3600.00000   94.21440   10.72740    2.47410    0.14690    0.12600    0.33340  113.80450   85.61060   10.17400    -999.25    -999.25    7.81910    8.11670   10.19610  -53.45200    -999.25    -999.25
 3650.00000   72.62430   10.05890    2.47860   -0.00370    0.10960    0.21920   97.93140   79.43850    8.83090    -999.25    -999.25   11.93830   12.39950   15.83630  -62.25460    -999.25    -999.25
 3700.00000  107.74910   12.19190    2.13500    0.02540    0.33960    0.37240  124.24140   84.95520   10.10220    -999.25    -999.25    6.57030    6.97650    8.22310  -57.08920    -999.25    -999.25
 3750.00000  102.45580   15.18000    2.01710    0.10670    0.35530    0.39790  126.73640   91.84370   10.36810    -999.25    -999.25    6.76600    7.06660    9.22760  -57.05140    -999.25    -999.25
 3800.00000   99.93670   15.15520    1.97340    0.07220    -999.25    0.42480  122.49840   83.27190   10.39040    -999.25    -999.25    6.35560    6.63210    7.74230  -50.89730    -999.25    -999.25
 3850.00000   95.04120    -999.25    -999.25    0.12480    0.39560    0.36410  117.80780   88.52160   10.29720    -999.25    -999.25    7.89810    8.42020    9.42000  -51.56060    -999.25    -999.25
 3900.00000   88.50650    9.95100    2.53280    0.02850    0.06630    0.25180  100.05960   82.92510    8.85820    -999.25    -999.25   10.34900   11.03040   15.76730  -60.65380    -999.25    -999.25
 3950.00000  107.09740   14.32290    2.11660    0.16810    -999.25    -999.25  122.34700   86.04490    9.44100    -999.25    -999.25    9.53840   10.03570   11.82850  -48.84510    -999.25    -999.25
 4000.00000  104.60720   12.50540    2.28880    0.21280    0.20500    0.25900  129.18540   83.57480    9.40480    -999.25    -999.25   11.09380   11.59190   14.90580  -48.73860    -999.25    -999.25
 4050.00000   95.05000   10.74400    2.35300    0.09820    0.17490    0.32050  111.12810   79.02180    9.06100    -999.25    -999.25    9.12400    9.48350   13.97270  -54.47910    -999.25    -999.25
 4100.00000  111.29680   10.45050    2.34490    0.03560    0.17550    0.33760  141.65680   88.40040    8.93340    -999.25    -999.25    7.35270    7.85670    9.55790  -45.43010    -999.25    -999.25
 4150.00000  106.98760   14.52160    -999.25    0.11330    -999.25    0.39090  131.70160   91.47940    9.86970    -999.25    -999.25    6.65790    6.91360    8.37160  -45.50500    -999.25    -999.25
 4200.00000  108.83420   10.48810    2.49400    0.07640    0.10330    0.35530  135.63420   88.62340    9.63570    -999.25    -999.25    7.26660    7.54910   10.04450  -42.48600    -999.25    -999.25
 4250.00000  118.42970   11.00800    2.51470    0.08260    0.07720    0.37850  142.78680   93.17120    9.78720    -999.25    -999.25    6.65570    6.90920    9.07230  -47.61700    -999.25    -999.25
 4300.00000  129.64080   10.71370    2.52300   -0.00550    0.08050    0.35400  162.48930   93.16320    9.52900    -999.25    -999.25    8.05310    8.36010   11.66470  -43.03470    -999.25    -999.25
 4350.00000  119.98150   10.51170    2.51860    0.03280    0.07030    0.37790  142.96870   92.75990    9.43370    -999.25    -999.25    7.64200    7.93460   10.79060  -41.83720    -999.25    -999.25
 4400.00000  137.48940   10.49800    2.48440   -0.00520    0.09420    0.36010  176.13310   95.77010    9.02060    -999.25    -999.25   10.10110   10.51630   15.63780  -41.58310    -999.25    -999.25
 4450.00000  115.86240   12.19080    2.36440    0.19630    0.18340    0.33170  147.91420   90.07830    9.33620    -999.25    -999.25    7.83470    8.30110   11.51190  -40.88520    -999.25    -999.25
 4500.00000  132.70130   10.14720    2.48130    0.01000    0.12660    0.37930  169.76840   94.15380    8.90280    -999.25    -999.25   10.03740   10.42380   16.09300  -38.09570    -999.25    -999.25
 4550.00000  113.06610   11.50180    2.24580    0.18130    0.26150    0.38190  133.30890   92.58660    9.34080    -999.25    -999.25    7.11990    7.39230   10.48970  -38.34320    -999.25    -999.25
 4600.00000  143.30550   10.14950    2.40380    0.01740    0.15580    0.33740  189.69700   96.54780    9.02870    -999.25    -999.25   11.93210   12.28650   19.15510  -42.54990    -999.25    -999.25
 4650.00000   95.55300   10.25970    2.48210    0.07410    0.12140    0.29300  113.07210   80.99390    9.16650    -999.25    -999.25    7.29720    7.57440    9.74860  -37.99090    -999.25    -999.25
 4700.00000  107.02960   10.50630    2.44950    0.03950    0.11920    0.36430  132.24750   90.42770    9.54530    -999.25    -999.25    5.31090    5.57560    7.03150  -37.74220    -999.25    -999.25
 4750.00000  115.69770   10.52710    2.54260    0.04840    0.08180    0.31560  144.11000   83.48140    9.13190    -999.25    -999.25    7.00520    7.29820    9.45660  -39.36470    -999.25    -999.25
 4800.00000  109.06280   10.29620    2.57960    0.08350    0.04930    0.31700  141.05190   83.47970    9.17460    -999.25    -999.25    6.62240    6.87480    8.77130  -36.71130    -999.25    -999.25
 4850.00000  107.71290   11.24010    2.31550    0.16530    0.20780    0.36220  138.65100   84.20610    9.29180    -999.25    -999.25    6.19910    6.44230    8.14620  -36.41260    -999.25    -999.25
 4900.00000  105.09980   12.99980    2.06630    0.14130    0.35980    0.40150  137.32430   85.08970    9.26510    -999.25    -999.25    4.86650    5.05640    6.43100  -36.73050    -999.25    -999.25
 4950.00000   92.48930   11.15530    2.30900    0.10420    0.23120    0.30380  115.84040   79.22980    9.28980    -999.25    -999.25    7.05360    7.30140    9.21700  -35.05850    -999.25    -999.25
 5000.00000  107.47550   12.65110    2.26680    0.14890    0.27180    0.40710  141.03080   85.13830    9.49230    -999.25    -999.25    5.33150    5.64300    7.59800  -35.88520    -999.25    -999.25
 5050.00000  189.97270   11.40860    2.27760    0.14040    0.25450    0.41670  161.73850   88.39370    9.81230    -999.25    -999.25    5.56600    5.93590    7.66570  -38.64300    -999.25    -999.25
 5100.00000  226.18380   10.39440    2.35390   -0.02020    0.17280    0.40770  299.63080  103.59520    8.80930    -999.25    -999.25    5.50690    5.96990    9.60640  -37.23290    -999.25    -999.25
 5150.00000   95.57130   12.15640    2.13050    0.09810    0.31730    0.42020  131.77550   96.44320    9.97890    -999.25    -999.25    2.99760    3.12070    4.32640  -36.09430    -999.25    -999.25
 5200.00000  110.57520   11.02690    2.37090    0.02310    0.15890    0.29980  135.07830   90.49170    9.58460    -999.25    -999.25    4.38180    4.72210    6.42620 -116.18960    -999.25    -999.25
 5250.00000  104.18870   12.21860    2.34800    0.16620    0.18270    0.30160  135.23360   88.65720    9.48950    -999.25    -999.25    4.85990    5.28800    7.19350 -120.48710    -999.25    -999.25
 5300.00000   85.17120   10.49550    2.56200   -0.00760    0.00870    0.19460   82.08910   68.65900    9.09230    -999.25    -999.25    9.81000   10.05870   12.83520 -120.40880    -999.25    -999.25
 5350.00000   84.91840   11.27930    2.30640    0.02410    0.21570    0.24840  117.17230   84.55770    9.60880    -999.25    -999.25    6.11460    6.95860    7.65580 -121.94600    -999.25    -999.25
 5400.00000  102.11910   12.31880    2.15040    0.09320    0.25460    0.34980   84.46720   71.98290    9.10260    -999.25    -999.25    7.02820    7.24990   18.96910 -126.22840    -999.25    -999.25
 5450.00000   47.96480    9.82770    2.48180    0.00210    0.11210    0.21900   51.11810   67.13550    8.82370    -999.25    -999.25   18.44380   21.33520   30.41990 -147.96040    -999.25    -999.25
 5500.00000   57.23990    9.57540    2.38900    0.03440    0.14920    0.28310   73.50450   80.57720    8.74790    -999.25    -999.25   13.91190   15.86640   24.21900 -145.72930    -999.25    -999.25
