~Version ---------------------------------------------------
VERS. 2.0 : CWLS log ASCII Standard -VERSION 2.0
WRAP.  NO : ONE LINE PER DEPTH STEP
~Well ------------------------------------------------------
STRT.M                      350.0 : START DEPTH
STOP.M                     2750.0 : STOP DEPTH
STEP.M                   50.00000 : STEP LENGTH
NULL.                     -999.25 : NULL VALUE
COMP.           NEXEN CANADA LTD. : COMPANY
WELL. ICGR ET AL WROSES 1-18-44-3 : WELL
FLD .               WILDSON SOUTH : FIELD
LOC .                             : LOCATION
CTRY.                      CANADA : COUNTRY
SRVC.                     Unknown : SERVICE COMPANY
DATE.                 14-Apr-1985 : LOGDATE
PROV.                     Alberta : PROVINCE
UWI .            100011804403W500 : UNIQUE WELL ID
SLAT.WGS84               52.78729 : SURFACE LATITUDE
SLON.WGS84              -114.4146 : SURFACE LONGITUDE
~Curve Information -----------------------------------------
DEPT    .M      : DEPTH METERS
CALDED  .MM     : CALIPER FROM CND LOG [DSH TO GRRED]
CALSED  .MM     : CALIPER FROM BHC SONIC LOG
CALWS   .MM     : CALIPER [CALSED]
CONDWS  .MMHO   : CONDUCTIVITY [1000/DRESWS]
DCORWS  .KG/M3  : BULK DENSITY CORRECTION [DRHOED]
DENWS   .KG/M3  : FORMATION DENSITY [RHOBED]
DPHILSED.V/V    : DENSITY POROSITY LIMESTONE[M=2710,F=1000] FROM CND LOG[DSH TO GRRED]
DPHISSED.V/V    : DENSITY POROSITY SANDSTONE[M=2650,F=1000] FROM CND LOG[DSH TO GRRED]
DPOLSWS .V/V    : DENSITY POROSITY LIMESTONE[CALCULATED FROM DENWS, M=2710,F=1000]
DRESWS  .OHMM   : DEEP RESISTIVITY [ILDED]
DRHOED  .KG/M3  : BULK DENSITY CORRECTION FROM CND LOG[DSH TO GRRED]
DTED    .US/M   : COMPRESIONAL SONIC FROM BHC SONIC LOG
DTWS    .US/M   : COMPRESIONAL SONIC[DTED]
GRRED   .GAPI   : GAMMA RAY FROM RESISTIVITY LOG
GRSED   .GAPI   : GAMMA RAY FROM SONIC LOG
GRWS    .GAPI   : GAMMA RAY [GRSED SPLICED TO SGRED AT 2771 M]
ILDED   .OHMM   : INDUCTION LOG DEEP RESISTIVITY
ILMED   .OHMM   : INDUCTION LOG MEDIUM RESISTIVITY
LAED    .MM     : DUAL AXIS CALIPER FROM CND LOG[DSH TO GRRED]
MRESWS  .OHMM   : MEDIUM RESISTIVITY [ILMED]
NPHILSED.V/V    : NEUTRON POROSITY LIMESTONE FROM CND LOG[DSH TO GRRED]
NPHISSED.V/V    : NEUTRON POROSITY SANDSTONE FROM CND LOG[DSH TO GRRED]
NPOLSWS .V/V    : NEUTRON POROSITY LIMESTONE [NPHSSED SPLICED TO LIMESTONE AND SPLICED TO NPHILSED AT 1967 M]
PEFED   .B/E    : PHOTOELECTRIC FACTOR FROM CND LOG [DSH TO GRRED]
PEFWS   .B/E    : PHOTOELECTRIC FACTOR [PEFED]
RHOBED  .KG/M3  : FORMATION DENSITY FROM CND LOG[DSH TO GRRED]
SFLUED  .OHMM   : SPHERICALLY FOCUSED LOG RESISTIVITY
SGRED   .GAPI   : SPECTROSCOPY GAMMA RAY FROM CND LOG[DSH TO GRRED]
SPRED   .MV     : SPONTANEOUS POTENTIAL FROM RESISTIVITY LOG
SPWS    .MV     : SPONTANEOUS POTENTIAL [BASELINE 0 MV] [SPRED]
SRESWS  .OHMM   : SHALLOW RESISTIVITY [SFLUED]
TENRED  .N      : TENSION FROM RESISTIVITY
TENSED  .N      : TENSION FROM BHC SONIC LOG
~Params ----------------------------------------------------
PD  .                                  GL : PERMANENT DATUM
EPD .M                             941.65 : ELEVATION PERMANENT DATUM
LMF .                                  KB : LOG MEASURED FROM
DAPD.M                               6.75 : FEET ABOVE PERMANENT DATUM
DMF .                                  KB : DRILLING MEASURED FROM
EKB .M                              948.4 : KELLY BUSHING
EGL .M                             941.65 : GROUND LEVEL
DATE.                            04/14/85 : RUN DATE
RUN .                                   1 : RUN NUMBER
DD  .M                               2792 : DEPTH DRILLER
DL  .M                               2792 : DEPTH LOGGER
BLI .M                             2790.3 : BOTTOM LOG INTERVAL
TLI .M                              413.3 : TOP LOG INTERVAL
CS  .MM                             244.5 : CASING SIZE
CBD .M                                413 : CASING BOTTOM DRILLER
CBL .M                                413 : CASING BOTTOM LOGGER
BS  .MM                               222 : BIT SIZE
BSD .M                               2792 : BIT SIZE AT DEPTH
DFT .                            GEL CHEM : DRILLING FLUID TYPE
DFD .                                1100 : DRILLING FLUID DENSITY
DFV .                                  85 : DRILLING FLUID VISCOSITY
DFPH.                                  10 : DRILLING FLUID PH
DFL .                                10.5 : DRILLING FLUID LOSS
MSS .                          CIRCULATED : MUD SAMPLE SOURCE
RMS .OHMM                            1.33 : RESISTIVITY MUD SAMPLE
MST .DEGC                              26 : MUD SAMPLE TEMPERATURE
RMF .OHMM                            0.54 : RESISTIVITY MUD FILTRATE SAMPLE
MFST.DEGC                            16.7 : MUD FILTRATE SAMPLE TEMPERATURE
RMC .OHMM                           0.256 : RESISTIVITY MUD CAKE
MCST.DEGC                              59 : MUD CAKE SAMPLE TEMPERATURE
MFSS.                                MEAS : MUD FILTRATE SAMPLE SOURCE
RMB .OHMM                           0.787 : RESISTIVITY MUD AT BHT
TCS .HRS                             1100 : TIME CIRCULATED STOPPED
TLAB.HRS                             1617 : TIME LOGGER AT BOTTOM
LUN .                                8376 : LOGGING UNIT NUMBER
LUL .                                  RD : LOGGING UNIT LOCATION
ENGI.                              BROCHU : RECORDING ENGINEER
WITN.                             EDWARDS : WITNESSED BY
CLNT.                             A2DTECH : CLIENT CODE
ORIG. 6.5"/100M 16.5"/100M 80"/100M PRINT : ORIGIN OF DATA
UWI .                    100011804403W500 : UNIQUE WELL ID
DICO.              A2D Technologies, Inc. : DIGITIZING COMPANY
~Other -----------------------------------------------------
~ASCII -----------------------------------------------------
  350.00000    -999.25    -999.25    -999.25    -999.25    -999.25    -999.25    -999.25    -999.25    -999.25    -999.25    -999.25    -999.25    -999.25   37.52410   37.96580   37.96580    -999.25    -999.25    -999.25    -999.25    -999.25    -999.25    -999.25    -999.25    -999.25    -999.25    -999.25    -999.25    -999.25    -999.25    -999.25    -999.25    -999.25
  400.00000    -999.25    -999.25    -999.25    -999.25    -999.25    -999.25    -999.25    -999.25    -999.25    -999.25    -999.25    -999.25    -999.25   31.56870   30.17710   30.17710    -999.25    -999.25    -999.25    -999.25    -999.25    -999.25    -999.25    -999.25    -999.25    -999.25    -999.25    -999.25    -999.25    -999.25    -999.25    -999.25    -999.25
  450.00000  270.87280  272.62250  272.62250  107.19030   13.94320 2413.98630    -999.25    0.14240    0.17310    9.32920   13.94320  282.34960  282.34960   55.10400   55.76330   55.76330    9.32920    8.28230  261.20750    8.28230    -999.25    0.32390    0.28000    2.93040    2.93040 2413.98630    7.62030   48.59840  -59.21260   -1.69060    7.62030 5100.06880 5155.20560
  500.00000  251.67560  246.77110  246.77110   60.48690   11.84700 2554.32620    -999.25    0.05300    0.09100   16.53250   11.84700  231.52330  231.52330   56.16940   56.02430   56.02430   16.53250   15.77160  243.41190   15.77160    -999.25    0.20370    0.16020    3.42550    3.42550 2554.32620   19.59580   54.87510  -62.75560   -6.01750   19.59580 5266.02930 5328.70900
  550.00000  283.97510  276.33810  276.33810  150.70680   12.49240 2471.25490    -999.25    0.10620    0.13960    6.63540   12.49240  308.01640  308.01640   81.47350   82.05790   82.05790    6.63540    5.90200  246.94300    5.90200    -999.25    0.32940    0.28560    3.43550    3.43550 2471.25490    6.63590   80.14660  -59.55670   -3.60240    6.63590 5671.68460 5610.69820
  600.00000  280.02930  269.78920  269.78920  401.84850   51.40750 2033.12340    -999.25    0.36260    0.39580    2.48850   51.40750  349.88240  349.88240   87.79870   87.66430   87.66430    2.48850    2.24350  295.43160    2.24350    -999.25    0.47360    0.43190    2.67660    2.67660 2033.12340    2.00170   86.05930  -60.09000   -5.08060    2.00170 5694.51510 5772.75240
  650.00000  268.53660  262.36940  262.36940   74.19330   14.42800 2421.67530    -999.25    0.13840    0.16860   13.47830   14.42800  264.70560  264.70560   75.15800   74.37160   74.37160   13.47830   13.09030  250.43190   13.09030    -999.25    0.28540    0.24140    2.96690    2.96690 2421.67530   13.81900   76.12590  -57.83210   -4.31680   13.81900 5975.26510 5865.44970
  700.00000  263.66820  266.25100  266.25100  193.91120   64.10260 2476.88380    -999.25    0.10500    0.13630    5.15700   64.10260  321.88270  321.88270   85.02340   86.25090   86.25090    5.15700    4.83070  256.53820    4.83070    -999.25    0.35320    0.30960    3.02770    3.02770 2476.88380    5.04190   89.85420  -60.77660   -6.97080    5.04190 6158.20360 6129.14600
  750.00000  279.78770  289.36740  289.36740  137.74670    5.20600 2500.27100    -999.25    0.09120    0.12260    7.25970    5.20600  280.91730  280.91730   84.08530   83.07350   83.07350    7.25970    6.62650  277.54140    6.62650    -999.25    0.30150    0.25750    2.92970    2.92970 2500.27100    7.29650   74.44130  -59.95410   -7.10790    7.29650 6325.92290 6347.64790
  800.00000  283.35700  244.27850  244.27850   60.66270   99.61150 2386.06250    -999.25    0.16000    0.18940   16.48460   99.61150  284.37610  284.37610   59.73410   57.35340   57.35340   16.48460   15.09360  249.15560   15.09360    -999.25    0.31570    0.27180    2.73170    2.73170 2386.06250   13.05240   58.55300  -66.28050  -14.97850   13.05240 6504.63180 6346.56100
  850.00000  266.00140  284.43920  284.43920  262.13690  103.35110 2247.73170    -999.25    0.24420    0.27030    3.81480  103.35110  340.74270  340.74270   99.37190  100.84090  100.84090    3.81480    3.45080  323.11360    3.45080    -999.25    0.49080    0.44910    2.79330    2.79330 2247.73170    3.61760   95.84880  -55.26640   -4.35460    3.61760 6659.37600 6601.33590
  900.00000  295.65430  305.87420  305.87420  120.72630   41.58960 2387.74270    -999.25    0.15880    0.18850    8.28320   41.58960  286.38350  286.38350   79.20680   79.36470   79.36470    8.28320    6.92340  278.12780    6.92340    -999.25    0.36310    0.31960    2.54130    2.54130 2387.74270    7.52130   66.37580  -55.74840   -5.22690    7.52130 7053.41260 6878.35500
  950.00000  299.23540  302.80330  302.80330   39.79130    9.77220 2546.66210    -999.25    0.06280    0.09550   25.13110    9.77220  237.53410  237.53410   54.46340   54.32200   54.32200   25.13110   23.46550  284.17870   23.46550    -999.25    0.26660    0.22260    3.32050    3.32050 2546.66210   35.24590   48.94960  -60.23160  -10.60740   35.24590 7143.79830 7039.08840
 1000.00000  298.04280  300.72810  300.72810  197.55820   60.91880 2369.32450    -999.25    0.16990    0.19920    5.06180   60.91880  323.79560  323.79560   74.30220   75.89730   75.89730    5.06180    5.74730  292.43190    5.74730    -999.25    0.46550    0.42380    3.01430    3.01430 2369.32450   10.05370   63.63310  -53.63840   -6.04050   10.05370 7451.45120 7361.34860
 1050.00000  292.13780  288.69350  288.69350  156.63920  108.47540 2469.61720    -999.25    0.10940    0.14060    6.38410  108.47540  283.10000  283.10000   65.86220   65.97550   65.97550    6.38410    5.91740  290.45200    5.91740    -999.25    0.39360    0.35060    2.65620    2.65620 2469.61720    5.03190   64.15050  -53.99370   -8.42210    5.03190 7592.91360 7612.30520
 1100.00000  249.56350  279.62910  279.62910   50.60190  146.14470 2415.78420    -999.25    0.14200    0.17210   19.76210  146.14470  258.95160  258.95160   57.60300   56.75760   56.75760   19.76210   20.93840  275.41710   20.93840    -999.25    0.34040    0.29670    3.01160    3.01160 2415.78420   24.75150   42.71930  -60.77390  -17.22860   24.75150 8044.43550 7815.36960
 1150.00000  251.98180  243.06790  243.06790   42.46180   19.83460 2477.06590    -999.25    0.10540    0.13620   23.55060   19.83460  247.35350  247.35350   35.92090   36.08030   36.08030   23.55060   27.03740  237.65280   27.03740    -999.25    0.28590    0.24190    2.74840    2.74840 2477.06590   30.58890   38.22500  -63.33360  -21.81460   30.58890 8314.23240 8244.76950
 1200.00000  309.34560  265.61600  265.61600  194.44660  141.34220 2371.76860    -999.25    0.16860    0.19780    5.14280  141.34220  298.16870  298.16870   73.03630   73.37680   73.37680    5.14280    5.27500  220.91460    5.27500    -999.25    0.40320    0.36040    2.97370    2.97370 2371.76860    5.46790   69.65390  -46.79500   -7.30220    5.46790 8847.74610 8738.00980
 1250.00000  400.14820  291.57130  291.57130  131.80790  138.43430 1853.97900    -999.25    0.47990    0.50060    7.58680  138.43430  284.11340  284.11340   90.06430   89.72770   89.72770    7.58680    7.10500  234.91500    7.10500    -999.25    0.44410    0.40230    2.53930    2.53930 1853.97900    6.74630   88.89220  -48.38060  -10.91410    6.74630 8770.44340 8719.96000
 1300.00000  347.28870  283.66080  283.66080  129.11560  240.59050 2172.84230    -999.25    0.26890    0.31410    7.74500  240.59050  278.18820  278.18820   91.62240   92.07970   92.07970    7.74500    7.60980  251.65920    7.60980    -999.25    0.38100    0.33780    3.00270    3.00270 2172.84230    7.37930   96.66290  -44.92320   -9.48300    7.37930 8883.73340 8885.71390
 1350.00000  256.23470  268.53730  268.53730   88.81150  122.63330 2597.27710    -999.25    0.03330    0.06590   11.25980  122.63330  292.29610  292.29610  132.10510  132.34010  132.34010   11.25980   10.77000  270.32250   10.77000    -999.25    0.37750    0.33420    3.74680    3.74680 2597.27710   14.22810  131.28700  -36.03090   -2.64260   14.22810 9307.96970 9140.83200
 1400.00000  253.72570  273.92390  273.92390  155.13260  226.63420 2526.18310    -999.25    0.07840    0.10750    6.44610  226.63420  279.27400  279.27400   99.64250   99.71650   99.71650    6.44610    6.62730  306.94890    6.62730    -999.25    0.39480    0.35180    3.49710    3.49710 2526.18310    6.96170   98.66480  -35.61180   -4.78420    6.96170 9393.42480 9285.02440
