~Version ---------------------------------------------------
VERS.      2.0 : CWLS log ASCII Standard -VERSION 2.0
WRAP.       NO : One line per depth step
CREA. 11/14/17 : LAS Creation Date
~Well ------------------------------------------------------
STRT.FT                         300.0 : START DEPTH
STOP.FT                       10450.0 : STOP DEPTH
STEP.FT                      50.00000 : STEP LENGTH
NULL.                         -999.25 : NULL VALUE
COMP.      THE CALIFORNIA STANDARD CO : COMPANY
WELL. CALSTAN B.A. LOSEGUN 12-5-63-19 : WELL
FLD .                                 : FIELD
LOC .                                 : LOCATION
CTRY.                          CANADA : COUNTRY
SRVC.          Schlumberger of Canada : SERVICE COMPANY
DATE.                     10-Jan-1958 : LOGDATE
PROV.                         Alberta : PROVINCE
UWI .                100120506319W500 : UNIQUE WELL ID
SLAT.WGS84                    54.4238 : SURFACE LATITUDE
SLON.WGS84                  -116.8449 : SURFACE LONGITUDE
~Curve Information -----------------------------------------
DEPT  .FT         : Depth Curve
CALWS .IN         : CALIPER [MCALED]
CONDWS.MMHO       : CONDUCTIVITY [1000/DRESWS]
DRESWS.OHMM       : DEEP RESISTIVITY [LNED]
GRNED .UgRa-Eq/T  : GAMMA RAY FROM GRN LOG
GRWS  .GAPI       : GAMMA RAY [GRNED*16.50]
LNED  .OHMM       : LONG NORMAL RESISTIVITY FROM EL LOG
LT18ED.OHMM       : LATERAL 18' FROM EL LOG
MCALED.IN         : MICROLOG CALIPER FROM ML LOG
NEUTED.CPS        : NEUTRON FROM GRN LOG
NEUTWS.CPS        : NEUTRON [NEUTED]
SNED  .OHMM       : SHORT NORMAL RESISTIVITY FROM EL LOG
SPRED .MV         : SPONTANEOUS POTENTIAL FROM EL LOG
SPWS  .MV         : SPONTANEOUS POTENTIAL [BASELINE 0 MV, SPRED]
SRESWS.OHMM       : SHALLOW RESISTIVITY [SNED]
~Params ----------------------------------------------------
LMF .                     KB : LOG MEASURED FROM
DMF .                     KB : DRILLING MEASURED FROM
EKB .FT                 2631 : KELLY BUSHING
DATE.               01/10/58 : RUN DATE
RUN .                      1 : RUN NUMBER
DD  .FT                10462 : DEPTH DRILLER
DL  .FT                10466 : DEPTH LOGGER
BLI .FT                10465 : BOTTOM LOG INTERVAL
TLI .FT                  827 : TOP LOG INTERVAL
CBD .FT                  828 : CASING BOTTOM DRILLER
CBL .FT                  827 : CASING BOTTOM LOGGER
BS  .IN                    9 : BIT SIZE
BSD .FT                10462 : BIT SIZE AT DEPTH
DFT .                    GEL : DRILLING FLUID TYPE
DFD .                   10.7 : DRILLING FLUID DENSITY
DFV .                    130 : DRILLING FLUID VISCOSITY
DFPH.                    9.5 : DRILLING FLUID PH
DFL .                    5.7 : DRILLING FLUID LOSS
MSS .             CIRCULATED : MUD SAMPLE SOURCE
RMS .OHMM               2.32 : RESISTIVITY MUD SAMPLE
MST .DEGF                 68 : MUD SAMPLE TEMPERATURE
RMF .OHMM               1.16 : RESISTIVITY MUD FILTRATE SAMPLE
MFST.DEGF                 76 : MUD FILTRATE SAMPLE TEMPERATURE
RMC .OHMM               2.52 : RESISTIVITY MUD CAKE
MCST.DEGF                 76 : MUD CAKE SAMPLE TEMPERATURE
TCS .HRS                   5 : TIME CIRCULATED STOPPED
LUN .                   1534 : LOGGING UNIT NUMBER
LUL .                     VV : LOGGING UNIT LOCATION
ENGI.                DEMAERE : RECORDING ENGINEER
WITN.                JOHNSON : WITNESSED BY
CLNT.                A2DTECH : CLIENT CODE
ORIG.            2" 5" PRINT : ORIGIN OF DATA
UWI .       100120506319W500 : UNIQUE WELL ID
DICO. A2D Technologies, Inc. : DIGITIZING COMPANY
~Other -----------------------------------------------------
~ASCII -----------------------------------------------------
# ...
 2750.00000    -999.25  176.76280    5.65730    3.81250   62.90630    5.65730    5.34620    -999.25  165.59230  165.59230    3.69620  -56.62980   -2.16770    3.69620
 2800.00000    -999.25  159.94830    6.25740    3.19740   52.75630    6.25740    8.59450    -999.25  201.79480  201.79480    8.03870  -59.80710   -4.85150    8.03870
 2850.00000    -999.25  131.58240    7.59980    3.73370   61.60600    7.59980    4.64530    -999.25  163.87170  163.87170    5.73650  -58.99760   -3.19680    5.73650
 2900.00000    -999.25  165.67680    6.03580    3.72560   61.47320    6.03580    7.27500    -999.25  161.72270  161.72270    4.45850  -59.76620   -3.12560    4.45850
 2950.00000    -999.25  144.93380    6.89970    3.54020   58.41330    6.89970    7.01680    -999.25  182.32500  182.32500    6.12670  -59.45810   -1.97220    6.12670
 3000.00000    -999.25  139.30490    7.17850    2.30620   38.05230    7.17850   25.28420    -999.25  145.92440  145.92440   17.83680  -67.36680   -9.04120   17.83680
 3050.00000    -999.25  132.42680    7.55160    3.84020   63.36410    7.55160   11.80970    -999.25  168.70200  168.70200    5.39260  -62.03470   -2.86930    5.39260
 3100.00000    -999.25  194.73820    5.13510    4.59360   75.79440    5.13510    8.92750    -999.25  167.22850  167.22850    4.83530  -60.36660   -0.37160    4.83530
 3150.00000    -999.25  140.91790    7.09630    3.81670   62.97560    7.09630    7.40360    -999.25  168.34380  168.34380    5.79060  -61.96400   -1.60470    5.79060
 3200.00000    -999.25  122.36310    8.17240    4.73340   78.10110    8.17240    8.30340    -999.25  151.85230  151.85230    8.02950  -64.48360   -3.75770    8.02950
 3250.00000    -999.25  105.95910    9.43760    4.66320   76.94280    9.43760    9.46110    -999.25  155.52540  155.52540    7.66080  -66.68080   -5.59060    7.66080
 3300.00000    -999.25  121.46320    8.23300    5.24350   86.51780    8.23300    8.79270    -999.25  152.32580  152.32580    6.47860  -67.04260   -5.58810    6.47860
 3350.00000    -999.25  109.48950    9.13330    5.80260   95.74290    9.13330    9.17090    -999.25  143.10570  143.10570    7.78560  -65.91730   -4.09610    7.78560
 3400.00000    -999.25   57.99740   17.24280    5.30950   87.60590   17.24280   15.94130    -999.25  177.96970  177.96970   13.29220  -68.06070   -5.87530   13.29220
 3450.00000    -999.25   90.65360   11.03100    5.78290   95.41790   11.03100   12.06890    -999.25  144.91210  144.91210    8.58230  -66.72230   -4.17020    8.58230
 3500.00000    -999.25   93.19580   10.73010    6.25690  103.23890   10.73010   11.19140    -999.25  168.42370  168.42370    8.72320  -67.50750   -4.59110    8.72320
 3550.00000    -999.25  130.40740    7.66840    6.32660  104.38890    7.66840    8.59170    -999.25  137.53810  137.53810    6.42660  -67.80580   -4.52510    6.42660
 3600.00000    -999.25  103.36990    9.67400    6.24320  103.01280    9.67400    9.08660    -999.25  145.72730  145.72730    7.64220  -68.62890   -4.98160    7.64220
 3650.00000    -999.25   62.75660   15.93510    4.51170   74.44310   15.93510   11.97470    -999.25  173.51870  173.51870   11.30360  -72.35020   -8.33860   11.30360
 3700.00000    -999.25  108.32830    9.23120    5.99670   98.94550    9.23120   11.99840    -999.25  147.33850  147.33850    7.83700  -67.78640   -3.40810    7.83700
 3750.00000    -999.25   98.76930   10.12460    5.38660   88.87890   10.12460   10.46650    -999.25  149.81370  149.81370    8.42590  -67.21050   -2.46790    8.42590
 3800.00000    -999.25  119.03290    8.40120    5.82380   96.09350    8.40120    7.85970    -999.25  156.78650  156.78650    7.23030  -67.85830   -2.75150    7.23030
 3850.00000   11.88510  101.44660    9.85740    5.55280   91.62120    9.85740    8.97450   11.88510  154.35830  154.35830    8.06070  -69.49320   -4.01970    8.06070
 3900.00000   12.26130  104.84380    9.53800    5.88040   97.02660    9.53800    8.35000   12.26130  171.02730  171.02730    8.07760  -68.72750   -2.92230    8.07760
 3950.00000   13.54500   73.91040   13.52990    5.84190   96.39140   13.52990   13.87530   13.54500  161.75440  161.75440    9.77260  -67.90980   -2.56800    9.77260
 4000.00000   13.54610   83.76820   11.93770    5.36260   88.48290   11.93770    9.34830   13.54610  150.74070  150.74070    9.15050  -67.76230   -2.88100    9.15050
 4050.00000    -999.25   93.39190   10.70780    6.24570  103.05410   10.70780   10.91190    -999.25  161.53060  161.53060    8.55500  -68.50780   -4.08690    8.55500
 4100.00000    -999.25   93.85090   10.65520    6.14920  101.46180   10.65520   10.56990    -999.25  158.02640  158.02640    8.30100  -66.43000   -2.47260    8.30100
 4150.00000    -999.25  113.56800    8.80530    6.73280  111.09120    8.80530    9.83760    -999.25  157.70760  157.70760    7.52890  -65.79590   -2.29890    7.52890
 4200.00000    -999.25  101.75220    9.82780    6.20850  102.44020    9.82780    9.83260    -999.25  156.07640  156.07640    8.61460  -65.98860   -2.95510    8.61460
 4250.00000    -999.25  105.58320    9.47120    6.84750  112.98380    9.47120    7.84780    -999.25  149.61390  149.61390    7.85920  -64.43250   -1.85950    7.85920
 4300.00000    -999.25   79.80810   12.53090    6.68030  110.22580   12.53090   10.66120    -999.25  154.48200  154.48200   10.97030  -63.04180   -0.92920   10.97030
 4350.00000    -999.25   83.90320   11.91850    5.10900   84.29850   11.91850   11.27490    -999.25  153.27140  153.27140   11.27390  -63.36730   -1.71820   11.27390
 4400.00000    -999.25   67.89670   14.72820    7.95220  131.21130   14.72820   14.43170    -999.25  140.15290  140.15290   14.34070  -62.70260   -1.51390   14.34070
 4450.00000    -999.25   76.66010   13.04460    6.66390  109.95440   13.04460   10.91940    -999.25  141.70050  141.70050   11.32530  -63.46810   -2.74290   11.32530
 4500.00000    -999.25   69.24100   14.44230    5.73800   94.67700   14.44230   15.49080    -999.25  147.61590  147.61590   12.13430  -63.04650   -2.59170   12.13430
 4550.00000    -999.25   74.24030   13.47050    5.98650   98.77730   13.47050   10.57320    -999.25  164.06170  164.06170   14.78070  -62.46080   -2.27130   14.78070
 4600.00000    -999.25  149.16250    6.70410    5.51440   90.98760    6.70410    8.23270    -999.25  165.17740  165.17740    5.89400  -66.30940   -6.38700    5.89400
 4650.00000    -999.25  147.00220    6.80280    5.56820   91.87530    6.80280    7.30780    -999.25  152.96560  152.96560    6.18080  -65.34110   -5.68400    6.18080
 4700.00000    -999.25  111.57600    8.96250    6.22830  102.76690    8.96250    7.53870    -999.25  164.17930  164.17930    8.33140  -66.49820   -7.10820    8.33140
 4750.00000    -999.25  142.21920    7.03140    5.24010   86.46170    7.03140    7.32880    -999.25  157.16560  157.16560    6.03170  -63.73600   -4.61130    6.03170
 4800.00000    -999.25  109.44540    9.13700    6.29700  103.90050    9.13700    8.62500    -999.25  166.07880  166.07880    8.14170  -65.08850   -6.22910    8.14170
 4850.00000    -999.25  197.16870    5.07180    6.09850  100.62520    5.07180    6.79110    -999.25  142.74110  142.74110    4.88560  -61.55300   -2.96070    4.88560
 4900.00000    -999.25  159.36180    6.27520    5.69210   93.91880    6.27520    4.83140    -999.25  150.99710  150.99710    6.11360  -60.96720   -2.64020    6.11360
 4950.00000    -999.25  145.91940    6.85310    4.96570   81.93400    6.85310    7.41180    -999.25  145.71950  145.71950    6.07930  -61.12040   -3.06040    6.07930
 5000.00000    -999.25  207.20660    4.82610    8.48340  139.97610    4.82610    3.83990    -999.25  158.86250  158.86250    6.04300  -59.37330   -1.57870    6.04300
 5050.00000    -999.25  323.59480    3.09030    4.89810   80.81870    3.09030    3.17600    -999.25  140.42600  140.42600    3.69380  -59.31120   -1.20280    3.69380
 5100.00000   11.22320  174.26460    5.73840    5.90010   97.35170    5.73840    4.33090   11.22320  161.85530  161.85530    5.35990  -62.81040   -4.38230    5.35990
 5150.00000   11.05480  143.31680    6.97760    6.27090  103.47070    6.97760    4.71990   11.05480  150.23650  150.23650    6.10120  -64.01200   -5.26630    6.10120
