~Version ---------------------------------------------------
VERS.      2.0 : CWLS log ASCII Standard -VERSION 2.0
WRAP.       NO : One line per depth step
CREA. 11/03/17 : LAS Creation Date
~Well ------------------------------------------------------
STRT.FT                                        700.0 : START DEPTH
STOP.FT                                       5750.0 : STOP DEPTH
STEP.FT                                     50.00000 : STEP LENGTH
NULL.                                        -999.25 : NULL VALUE
COMP. GREAT PLAINS DEVELOPMENT COMPANY OF CANADA LTD : COMPANY
WELL.            GRT PLNS B.A. THUNDER LK 12-18-60-5 : WELL
FLD .                                                : FIELD
LOC .                                                : LOCATION
CTRY.                                         CANADA : COUNTRY
SRVC.                                   Schlumberger : SERVICE COMPANY
DATE.                                    30-Mar-1962 : LOGDATE
PROV.                                        Alberta : PROVINCE
UWI .                               100121806005W500 : UNIQUE WELL ID
SLAT.WGS84                                  54.19013 : SURFACE LATITUDE
SLON.WGS84                                 -114.7475 : SURFACE LONGITUDE
~Curve Information -----------------------------------------
DEPT  .FT    : Depth Curve
CALSED.IN    : CALIPER FROM SONIC LOG [ADJ. TO RESISTIVITY LOG]
CALWS .IN    : CALIPER [CALSED]
CILDED.MMHO  : DEEP INDUCTION CONDUCTIVITY FROM RESISTIVITY LOG
CONDWS.MMHO  : CONDUCTIVITY [1000/DRESWS]
DRESWS.OHMM  : DEEP RESISTIVITY [1000/CILDED, IF ILDED<1, ELSE ILDED]
DT1ED .US/F  : DELTA TIME (SPACING  3' - 1') FROM SONIC LOG [ADJ. TO RESISTIVITY LOG]
DTED  .US/F  : DELTA TIME (SPACING  3' - 3') FROM SONIC LOG [ADJ. TO RESISTIVITY LOG]
DTWS  .US/F  : COMPRESSIONAL SONIC [DTED]
GRSED .GAPI  : GAMMA RAY FROM SONIC LOG [ADJ. TO RESISTIVITY LOG]
GRWS  .GAPI  : GAMMA RAY [GRSED]
ILDED .OHMM  : DEEP INDUCTION LOG RESISTIVITY FROM RESISTIVITY LOG
SNED  .OHMM  : 16 INCH SHORT NORMAL RESISTIVITY FROM RESISTIVITY LOG
SPRED .MV    : SPONTANEOUS POTENTIAL FROM RESISTIVITY LOG
SPWS  .MV    : SPONTANEOUS POTENTIAL [BASELINE 0 MV, SPRED]
SRESWS.OHMM  : SHALLOW RESISTIVITY [SNED]
~Params ----------------------------------------------------
PD  .                     GL : PERMANENT DATUM
EPD .FT                 2230 : ELEVATION PERMANENT DATUM
LMF .                     KB : LOG MEASURED FROM
DAPD.FT                   12 : FEET ABOVE PERMANENT DATUM
EKB .FT                 2242 : KELLY BUSHING
EGL .FT                 2230 : GROUND LEVEL
DATE.               03/30/62 : RUN DATE
RUN .                      2 : RUN NUMBER
DD  .FT                 7155 : DEPTH DRILLER
DL  .FT                 7158 : DEPTH LOGGER
BLI .FT                 7157 : BOTTOM LOG INTERVAL
TLI .FT                 3200 : TOP LOG INTERVAL
CBD .FT                  735 : CASING BOTTOM DRILLER
BS  .IN                 8.75 : BIT SIZE
BSD .FT                 7155 : BIT SIZE AT DEPTH
DFT .                    GYP : DRILLING FLUID TYPE
DFD .                   10.5 : DRILLING FLUID DENSITY
DFV .                     90 : DRILLING FLUID VISCOSITY
DFPH.                      7 : DRILLING FLUID PH
DFL .                    6.8 : DRILLING FLUID LOSS
RMS .OHMM                1.8 : RESISTIVITY MUD SAMPLE
MST .DEGF                 60 : MUD SAMPLE TEMPERATURE
RMF .OHMM                1.2 : RESISTIVITY MUD FILTRATE SAMPLE
MFST.DEGF                 70 : MUD FILTRATE SAMPLE TEMPERATURE
RMC .OHMM                2.0 : RESISTIVITY MUD CAKE
MCST.DEGF                 70 : MUD CAKE SAMPLE TEMPERATURE
RMB .OHMM                1.8 : RESISTIVITY MUD AT BHT
TCS .HRS                 2.5 : TIME CIRCULATED STOPPED
LUN .                   1534 : LOGGING UNIT NUMBER
LUL .                    EDM : LOGGING UNIT LOCATION
ENGI.                SKILTON : RECORDING ENGINEER
WITN.                BUCKLEY : WITNESSED BY
CLNT.                A2DTECH : CLIENT CODE
ORIG.            2" 5" PRINT : ORIGIN OF DATA
UWI .       100121806005W500 : UNIQUE WELL ID
DICO. A2D Technologies, Inc. : DIGITIZING COMPANY
~Other -----------------------------------------------------
~ASCII -----------------------------------------------------
  700.00000    -999.25    -999.25    -999.25    -999.25    -999.25    -999.25    -999.25    -999.25   34.21180   34.21180    -999.25    -999.25    -999.25    -999.25    -999.25
  750.00000   12.92950   12.92950  216.16160  242.18350    4.12910    -999.25  141.50580  141.50580   51.92480   51.92480    4.12910    5.36480  -17.84580   -2.25190    5.36480
  800.00000    9.28930    9.28930  198.03590  201.27200    4.96840    -999.25  128.91370  128.91370   55.01950   55.01950    4.96840    5.37530  -20.78770   -5.54560    5.37530
  850.00000    9.42250    9.42250  124.01720  110.84510    9.02160    -999.25  102.14800  102.14800  116.28440  116.28440    9.02160    8.67830  -17.59180   -2.70380    8.67830
  900.00000    9.20200    9.20200   69.86070   75.77250   13.19740    -999.25   92.22750   92.22750   64.47300   64.47300   13.19740   13.53020  -29.26950  -14.73330   13.53020
  950.00000   11.06300   11.06300  226.65820  253.58830    3.94340    -999.25  142.27450  142.27450   45.67390   45.67390    3.94340    4.37650  -15.04470   -0.86260    4.37650
 1000.00000   13.25290   13.25290  164.97940  189.79290    5.26890    -999.25  152.55210  152.55210   47.11490   47.11490    5.26890    5.74060  -17.96230   -4.13200    5.74060
 1050.00000    8.64610    8.64610  197.74450  203.58310    4.91200    -999.25  118.23030  118.23030   46.95660   46.95660    4.91200    5.27650  -16.36150   -2.88300    5.27650
 1100.00000    8.69980    8.69980  149.13980  138.85610    7.20170    -999.25  104.11180  104.11180   43.67260   43.67260    7.20170    7.08400  -19.53430   -6.40990    7.08400
 1150.00000   13.84370   13.84370  267.60420  294.67230    3.39360    -999.25  140.25610  140.25610   35.87790   35.87790    3.39360    4.34300  -15.99280   -3.22020    4.34300
 1200.00000    9.36770    9.36770  180.69490  189.78210    5.26920    -999.25  104.95570  104.95570   47.71030   47.71030    5.26920    5.62640  -15.00650   -2.58800    5.62640
 1250.00000    9.21950    9.21950  164.66010  162.97790    6.13580    -999.25  108.69360  108.69360   40.90780   40.90780    6.13580    6.44820  -19.74600   -7.67930    6.44820
 1300.00000   11.70570   11.70570  190.35050  199.82420    5.00440    -999.25  112.45180  112.45180   43.20980   43.20980    5.00440    5.68710  -15.03730   -3.24640    5.68710
 1350.00000   10.27960   10.27960  186.61370  196.80000    5.08130    -999.25  116.56190  116.56190   47.97630   47.97630    5.08130    6.09530  -14.37630   -2.38600    6.09530
 1400.00000    9.37320    9.37320  163.90810  165.49720    6.04240    -999.25  115.63320  115.63320   46.74930   46.74930    6.04240    6.46580  -15.11220   -2.92380    6.46580
 1450.00000    8.94240    8.94240  150.11420  149.45670    6.69090    -999.25  115.10010  115.10010   35.16260   35.16260    6.69090    6.93070  -17.40160   -5.01380    6.93070
 1500.00000   11.38630   11.38630  310.70180  349.14980    2.86410    -999.25  141.86640  141.86640   48.10390   48.10390    2.86410    4.30090  -14.42310   -1.83730    4.30090
 1550.00000   10.22050   10.22050  218.25700  245.26640    4.07720    -999.25  113.65540  113.65540   41.95480   41.95480    4.07720    5.05570  -14.05050   -1.26660    5.05570
 1600.00000    9.58590    9.58590  163.62320  162.93540    6.13740    -999.25  100.53940  100.53940   43.33940   43.33940    6.13740    6.10090  -14.58590   -1.60260    6.10090
 1650.00000   12.16680   12.16680  217.26850  243.22620    4.11140    -999.25  112.25500  112.25500   44.95120   44.95120    4.11140    5.29170  -16.18760   -3.00620    5.29170
 1700.00000   11.89870   11.89870  191.55870  206.20680    4.84950    -999.25   98.70560   98.70560   47.18390   47.18390    4.84950    5.55060  -15.10590   -1.72510    5.55060
 1750.00000   11.06090   11.06090  162.65790  159.88740    6.25440    -999.25  109.27140  109.27140   53.18570   53.18570    6.25440    7.06790  -16.92380   -3.34490    7.06790
 1800.00000   11.18310   11.18310  136.74160  131.66560    7.59500    -999.25  102.69970  102.69970   64.82410   64.82410    7.59500    7.83380  -21.57250   -7.79550    7.83380
 1850.00000   11.49890   11.49890  170.89770  176.40110    5.66890    -999.25  107.39060  107.39060   58.85740   58.85740    5.66890    6.80530  -21.52810   -7.55170    6.80530
 1900.00000   11.45380   11.45380  126.96310  115.32830    8.67090    -999.25  102.21120  102.21120   52.81570   52.81570    8.67090    9.05080  -24.86990  -10.69540    9.05080
 1950.00000   13.35680   13.35680  143.38220  135.65020    7.37190    -999.25  104.52420  104.52420   58.93040   58.93040    7.37190    8.13610  -22.96760   -8.59370    8.13610
 2000.00000   12.85730   12.85730  164.65280  160.83890    6.21740    -999.25  113.84940  113.84940   71.40240   71.40240    6.21740    8.08770  -17.75120   -3.17920    8.08770
 2050.00000   12.08520   12.08520  139.97150  132.65060    7.53860    -999.25  110.35270  110.35270   67.55060   67.55060    7.53860    9.21220  -17.98200   -3.49350    9.21220
 2100.00000   12.12640   12.12640  133.97790  126.22120    7.92260    -999.25  109.70800  109.70800   69.76870   69.76870    7.92260    8.95780  -20.21760   -5.96060    8.95780
 2150.00000    9.80940    9.80940  170.66170  172.05780    5.81200    -999.25  105.42570  105.42570   68.04770   68.04770    5.81200    6.85070  -21.52010   -7.49310    6.85070
 2200.00000   12.07150   12.07150  108.57430  105.57770    9.47170    -999.25  102.08710  102.08710   65.44620   65.44620    9.47170   10.30910  -20.54470   -6.74920   10.30910
 2250.00000   12.68960   12.68960  123.59970  116.09280    8.61380    -999.25   92.15860   92.15860   61.72010   61.72010    8.61380    9.29110  -23.51130   -9.94580    9.29110
 2300.00000   14.29470   14.29470  128.12060  120.90000    8.27130    -999.25  104.35900  104.35900   65.43620   65.43620    8.27130    8.70840  -23.11980   -9.78430    8.70840
 2350.00000   13.73730   13.73730  122.93910  117.60560    8.50300    -999.25   97.31530   97.31530   64.42020   64.42020    8.50300    9.28220  -23.81050  -10.70650    9.28220
 2400.00000    9.91170    9.91170  138.07790  131.13890    7.62550    -999.25   98.00530   98.00530   69.56200   69.56200    7.62550    8.05490  -23.19590  -10.32180    8.05490
 2450.00000   13.93040   13.93040  115.90050  112.20570    8.91220    -999.25   92.28890   92.28890   58.40130   58.40130    8.91220    9.22850  -22.77080  -10.12820    9.22850
 2500.00000   14.55980   14.55980  136.02960  130.37470    7.67020    -999.25   96.78790   96.78790   62.40620   62.40620    7.67020    8.29360  -21.89670   -9.48410    8.29360
 2550.00000   14.01840   14.01840  144.44600  139.99520    7.14310    -999.25  107.17950  107.17950   66.85520   66.85520    7.14310    8.00960  -20.28020   -8.09760    8.00960
 2600.00000   11.66610   11.66610  145.29910  139.83280    7.15140    -999.25  108.36340  108.36340   74.88770   74.88770    7.15140    8.49540  -15.61630   -3.66520    8.49540
 2650.00000    9.65260    9.65260  130.60280  124.17730    8.05300    -999.25  107.93390  107.93390   77.95410   77.95410    8.05300    9.79730  -14.13910   -2.56190    9.79730
 2700.00000    9.52220    9.52220  139.46940  134.89630    7.41310    -999.25  111.83150  111.83150   76.91740   76.91740    7.41310    9.01870  -13.75830   -3.19900    9.01870
 2750.00000    9.53860    9.53860  135.53960  131.37840    7.61160    -999.25  107.52510  107.52510   79.51580   79.51580    7.61160   10.14700  -11.97000   -2.42190   10.14700
 2800.00000    9.91400    9.91400  117.15710  110.37280    9.06020    -999.25   80.87850   80.87850   66.56600   66.56600    9.06020   11.47090  -16.35600   -7.81910   11.47090
 2850.00000   12.51280   12.51280  184.16440  192.03440    5.20740    -999.25  105.34860  105.34860   71.96410   71.96410    5.20740    6.73500  -13.55610   -6.03710    6.73500
 2900.00000   11.87890   11.87890  166.52070  163.51630    6.11560    -999.25  100.31760  100.31760   69.10780   69.10780    6.11560    7.42590  -11.80210   -5.29430    7.42590
 2950.00000   12.37730   12.37730  186.65640  200.51730    4.98710    -999.25   99.18320   99.18320   69.77170   69.77170    4.98710    6.61660  -10.92830   -5.43840    6.61660
