~Version ---------------------------------------------------
VERS.      2.0 : CWLS log ASCII Standard -VERSION 2.0
WRAP.       NO : One line per depth step
CREA. 09/06/13 : LAS Creation Date
~Well ------------------------------------------------------
STRT.M                           350.0 : START DEPTH
STOP.M                          4000.0 : STOP DEPTH
STEP.M                        50.00000 : STEP LENGTH
NULL.                          -999.25 : NULL VALUE
COMP. CHEVRON CANADA RESOURCES LIMITED : COMPANY
WELL.     CHEVRON SIMONETTE 11-6-64-26 : WELL
FLD .                                  : FIELD
LOC .                                  : LOCATION
CTRY.                           CANADA : COUNTRY
SRVC.                          Unknown : SERVICE COMPANY
DATE.                      18-Feb-1991 : LOGDATE
PROV.                          Alberta : PROVINCE
UWI .                 100110606426W500 : UNIQUE WELL ID
SLAT.WGS84                    54.51141 : SURFACE LATITUDE
SLON.WGS84                   -117.9251 : SURFACE LONGITUDE
~Curve Information -----------------------------------------
DEPT    .M      : DEPTH METER
C1ED    .MM     : CALIPER 1 FROM CNL-LDT LOG [ADJ. TO PISFL LOG]
C2ED    .MM     : CALIPER 2 FROM CNL-LDT LOG [ADJ. TO PISFL LOG]
CALSED  .MM     : CALIPER FROM BCS LOG [ADJ. TO PISFL LOG]
CALWS   .MM     : CALIPER [C1ED]
CONDWS  .MMHO   : CONDUCTIVITY [1000/DRESWS]
DCORWS  .KG/M3  : DENSITY CORRECTION [DRHOED]
DENWS   .KG/M3  : FORMATION BULK DENSITY [RHOBED SPL. TO CALC DPHILSED,M=2710,F=1000,@3678-3704.3M]
DPHILSED.V/V    : DENSITY POROSITY LIMESTONE [M=2710,F=1000] FROM CNL-LDT LOG [ADJ. TO PISFL LOG]
DPHISSED.V/V    : DENSITY POROSITY SANDSTONE [M=2650,F=1000] FROM CNL-LDT LOG [ADJ. TO PISFL LOG]
DPOLSWS .V/V    : DENSITY POROSITY LIMESTONE [CALC FROM DENWS,M=2710,F=1000]
DRESWS  .OHMM   : DEEP RESISTIVITY [IDPHED]
DRHOED  .KG/M3  : BULK DENSITY CORRECTION FROM CNL-LDT LOG [ADJ. TO PISFL LOG]
DT1ED   .US/M   : DELTA-T FROM ARRAY SONIC-STC-VDL LOG
DTCOED  .US/M   : DELTA TIME COMPRESSIONAL FROM ARRAY SONIC-STC-VDL LOG [ADJ. TO PISFL LOG]
DTED    .US/M   : DELTA TIME FROM BCS LOG [ADJ. TO RESISTIVITY LOG]
DTLED   .US/M   : DELTA-T LONG SPACING FROM ARRAY SONIC-STC-VDL LOG [ADJ. TO PISFL LOG]
DTLFED  .US/M   : DELTA TIME LONG SPACING FAR DETECTOR FROM ARRAY SONIC-STC-VDL LOG [ADJ. TO PISFL LOG]
DTLNED  .US/M   : DELTA TIME LONG SPACING NEAR DETECTOR FROM ARRAY SONIC-STC-VDL LOG [ADJ. TO PISFL LOG]
DTSMED  .US/M   : DELTA TIME SHEAR WAVE FROM ARRAY SONIC-STC-VDL LOG [ADJ. TO PISFL LOG]
DTSWS   .US/M   : SHEAR SONIC [DTSMED]
DTWS    .US/M   : COMPRESSIONAL SONIC [DTED SPL @3686.7-3724.5M TO DT1ED]
GRR1ED  .GAPI   : GAMMA RAY FROM DLL LOG [ADJ. TO PISFL LOG]
GRRED   .GAPI   : GAMMA RAY FROM PISFL LOG
GRSED   .GAPI   : GAMMA RAY [GRS SPL. TO GRS_1@3668M] FROM BCS-ARRAY SONIC-STC-VDL LOG [ADJ. TO PISFL LOG]
GRWS    .GAPI   : GAMMA RAY [GRRED SPL. TO GRSED @ 4031M]
HDSED   .MM     : HOLE DIAMETER FROM SONIC LOG [ADJ. TO PISFL LOG]
IDPHED  .OHMM   : DEEP INDUCTION RESISTIVITY FROM PISFL LOG
IMPHED  .OHMM   : MEDIUM INDUCTION RESISTIVITY FROM PISFL LOG
LLDED   .OHMM   : SHALLOW RESISTIVITY FROM DLL LOG [ADJ. TO PISFL LOG]
LLSED   .OHMM   : DEEP RESISTIVITY FROM DLL LOG [ADJ. TO PISFL LOG]
MRESWS  .OHMM   : MEDIUM RESISTIVITY [IMPHED]
NPHILSED.V/V    : NEUTRON POROSITY LIMESTONE FROM CNL-LDT LOG [ADJ. TO PISFL LOG]
NPHISSED.V/V    : NEUTRON POROSITY SANDSTONE FROM CNL-LDT LOG [ADJ. TO PISFL LOG]
NPOLSWS .V/V    : NEUTRON POROSITY LIMESTONE [NPHISSED CONVERTED TO LIMESTONE MATRIX,SPL. TO NPHILSED @2696M]
PEFED   .B/E    : PHOTOELECTRIC FACTOR FROM CNL-LDT LOG [ADJ. TO PISFL LOG]
PEFWS   .B/E    : PHOTOELECTRIC FACTOR [PEFED]
RHOBED  .KG/M3  : BULK DENSITY FROM CNL-LDT LOG [ADJ. TO PISFL LOG]
SFLUED  .OHMM   : SHALLOW FOCUS RESISTIVITY FROM PISFL LOG
SGRDDED .GAPI   : GAMMA RAY COMBINED FROM CNL-LDT LOG [ADJ. TO PISFL LOG]
SPR1ED  .MV     : SPONTANEOUS POTENTIAL  FROM DLL LOG [ADJ. TO PISFL LOG]
SPRED   .MV     : SPONTANEOUS POTENTIAL FROM PISFL LOG
SPWS    .MV     : SPONTANEOUS POTENTIAL [BASELINE 0 MV, SPRED]
SRESWS  .OHMM   : SHALLOW RESISTIVITY [SFLUED]
TENDED  .N      : TENSION FROM CNL-LDT LOG [ADJ. TO PISFL LOG]
TENRED  .N      : TENSION FROM PISFL-DLL LOG
TENSED  .N      : TENSION [TENS SPL. TO TENS_1@3724M] FROM BCS-ARRAY SONIC-STC-VDL LOG [ADJ. TO PISFL LOG]
~Params ----------------------------------------------------
PD  .                         GL : PERMANENT DATUM
EPD .M                     916.7 : ELEVATION PERMANENT DATUM
LMF .                         KB : LOG MEASURED FROM
DAPD.M                       6.7 : FEET ABOVE PERMANENT DATUM
DMF .                         KB : DRILLING MEASURED FROM
EKB .M                     923.4 : KELLY BUSHING
EDF .M                       923 : DRILLING FLOOR
EGL .M                     916.7 : GROUND LEVEL
DATE.                   02/18/91 : RUN DATE
RUN .                          1 : RUN NUMBER
DD  .M                      3725 : DEPTH DRILLER
DL  .M                    3705.6 : DEPTH LOGGER
BLI .M                    3704.8 : BOTTOM LOG INTERVAL
TLI .M                     450.4 : TOP LOG INTERVAL
CS  .MM                    244.5 : CASING SIZE
CBD .M                       451 : CASING BOTTOM DRILLER
CBL .M                     450.4 : CASING BOTTOM LOGGER
BS  .MM                      222 : BIT SIZE
BSD .M                      3725 : BIT SIZE AT DEPTH
DFT .                   GEL CHEM : DRILLING FLUID TYPE
DFD .                       1160 : DRILLING FLUID DENSITY
DFV .                         83 : DRILLING FLUID VISCOSITY
DFPH.                        9.5 : DRILLING FLUID PH
DFL .                          7 : DRILLING FLUID LOSS
MSS .                   MEASURED : MUD SAMPLE SOURCE
RMS .OHMM                   1.54 : RESISTIVITY MUD SAMPLE
MST .DEGC                     20 : MUD SAMPLE TEMPERATURE
RMF .OHMM                   1.15 : RESISTIVITY MUD FILTRATE SAMPLE
MFST.DEGC                     16 : MUD FILTRATE SAMPLE TEMPERATURE
RMC .OHMM                   0.86 : RESISTIVITY MUD CAKE
MCST.DEGC                      9 : MUD CAKE SAMPLE TEMPERATURE
MFSS.                   MEASURED : MUD FILTRATE SAMPLE SOURCE
MCSS.                   MEASURED : MUD CAKE SAMPLE SOURCE
RMB .OHMM                  0.602 : RESISTIVITY MUD AT BHT
TCS .HRS                     400 : TIME CIRCULATED STOPPED
TLAB.HRS                    1638 : TIME LOGGER AT BOTTOM
LUN .                       8204 : LOGGING UNIT NUMBER
LUL .              GRANE PRAIRIE : LOGGING UNIT LOCATION
ENGI.                     HAYDEN : RECORDING ENGINEER
WITN.                      CROWE : WITNESSED BY
CLNT.                    A2DTECH : CLIENT CODE
ORIG. 6.5"/100M 16.5"/100M PRINT : ORIGIN OF DATA
UWI .           100110606426W500 : UNIQUE WELL ID
DICO.     A2D Technologies, Inc. : DIGITIZING COMPANY
~Other -----------------------------------------------------
PI-SFL-DLL-CNL-LDT-STC-VDL-BCS TOOL RUN
~ASCII -----------------------------------------------------
# ...
 1150.00000  265.14440  268.29450  267.54320  265.14440   36.24400    -999.25    -999.25    -999.25    -999.25    -999.25   27.59080    -999.25    -999.25    -999.25  267.31200    -999.25    -999.25    -999.25    -999.25    -999.25  267.31200    -999.25   32.99450   33.03360   32.99450    -999.25   27.59080   23.79540    -999.25    -999.25   23.79540    -999.25    -999.25    -999.25    -999.25    -999.25    -999.25   17.10700    -999.25    -999.25  -44.42570  -23.57660   17.10700 13301.21680    -999.25 10444.99120
 1200.00000  383.09040  279.73950  304.75910  383.09040  149.79700    -999.25    -999.25    -999.25    -999.25    -999.25    6.67570    -999.25    -999.25    -999.25  296.45130    -999.25    -999.25    -999.25    -999.25    -999.25  296.45130    -999.25   55.90820   55.20620   55.90820    -999.25    6.67570    5.90210    -999.25    -999.25    5.90210    -999.25    -999.25    -999.25    -999.25    -999.25    -999.25    5.56280    -999.25    -999.25  -26.39620   -4.09340    5.56280 14004.75000    -999.25 10769.83690
 1250.00000  313.19020  327.65960  321.63610  313.19020  112.48720    -999.25    -999.25    -999.25    -999.25    -999.25    8.88990    -999.25    -999.25    -999.25  298.92450    -999.25    -999.25    -999.25    -999.25    -999.25  298.92450    -999.25   74.93600   74.64990   74.93600    -999.25    8.88990    7.99650    -999.25    -999.25    7.99650    -999.25    -999.25    -999.25    -999.25    -999.25    -999.25    7.36650    -999.25    -999.25  -29.76600   -4.16210    7.36650 14309.02340    -999.25 11079.77440
 1300.00000  298.87650  357.02380  331.20450  298.87650   87.74010    -999.25    -999.25    -999.25    -999.25    -999.25   11.39730    -999.25    -999.25    -999.25  288.31440    -999.25    -999.25    -999.25    -999.25    -999.25  288.31440    -999.25   73.91900   74.19790   73.91900    -999.25   11.39730    9.99440    -999.25    -999.25    9.99440    -999.25    -999.25    -999.25    -999.25    -999.25    -999.25   10.43350    -999.25    -999.25  -30.06210   -5.24740   10.43350 14309.25100    -999.25 11262.95020
 1350.00000  311.42770  298.65070  331.78830  311.42770   97.14300    -999.25    -999.25    -999.25    -999.25    -999.25   10.29410    -999.25    -999.25    -999.25  268.86180    -999.25    -999.25    -999.25    -999.25    -999.25  268.86180    -999.25   75.73090   76.07850   75.73090    -999.25   10.29410    9.18890    -999.25    -999.25    9.18890    -999.25    -999.25    -999.25    -999.25    -999.25    -999.25    8.80410    -999.25    -999.25  -29.24000   -4.37770    8.80410 15059.13570    -999.25 11351.80760
 1400.00000  306.32210  326.31740  337.91640  306.32210  105.91870    -999.25    -999.25    -999.25    -999.25    -999.25    9.44120    -999.25    -999.25    -999.25  293.75160    -999.25    -999.25    -999.25    -999.25    -999.25  293.75160    -999.25   74.09430   74.09840   74.09430    -999.25    9.44120    7.91430    -999.25    -999.25    7.91430    -999.25    -999.25    -999.25    -999.25    -999.25    -999.25    8.02350    -999.25    -999.25  -27.11920   -2.20920    8.02350 15493.61620    -999.25 11852.80080
 1450.00000  269.60550  257.29450  258.15590  269.60550   26.49860   46.67590 2437.48930    -999.25    0.10510    0.15940   37.73780   46.67590    -999.25    -999.25  246.77480    -999.25    -999.25    -999.25    -999.25    -999.25  246.77480    -999.25   22.58970   22.78420   22.58970    -999.25   37.73780   34.73470    -999.25    -999.25   34.73470    -999.25    0.21820    0.17460    3.17190    3.17190 2437.48930   42.84110   24.85820    -999.25  -50.95160  -26.69390   42.84110 14981.93460    -999.25 11980.71680
 1500.00000  330.31090  289.02440  297.73930  330.31090   82.06270   34.17630 2035.93900    -999.25    0.37510    0.39420   12.18580   34.17630    -999.25    -999.25  263.90660    -999.25    -999.25    -999.25    -999.25    -999.25  263.90660    -999.25   83.51440   83.68440   83.51440    -999.25   12.18580   10.30890    -999.25    -999.25   10.30890    -999.25    0.33400    0.29020    3.63300    3.63300 2035.93900    9.95140   87.99070    -999.25  -26.78510   -4.17040    9.95140 15602.00780    -999.25 12162.72460
 1550.00000  322.51690  275.41370  282.51920  322.51690  100.43790   75.17940 2119.41820    -999.25    0.32640    0.34540    9.95640   75.17940    -999.25    -999.25  287.99250    -999.25    -999.25    -999.25    -999.25    -999.25  287.99250    -999.25   93.69000   96.00090   93.69000    -999.25    9.95640    9.13940    -999.25    -999.25    9.13940    -999.25    0.34870    0.30500    5.02650    5.02650 2119.41820   10.02070   95.54630    -999.25  -22.96600   -1.99430   10.02070 15905.70120    -999.25 12210.44340
 1600.00000  298.87130  264.27410  269.21080  298.87130   81.83570  122.06820 2180.39480    -999.25    0.28390    0.30970   12.21960  122.06820    -999.25    -999.25  285.77740    -999.25    -999.25    -999.25    -999.25    -999.25  285.77740    -999.25   95.45780   95.35180   95.45780    -999.25   12.21960   11.82510    -999.25    -999.25   11.82510    -999.25    0.36140    0.31790    5.02940    5.02940 2180.39480   12.64510  102.40650    -999.25  -24.93080   -5.84340   12.64510 16899.11520    -999.25 12923.56840
 1650.00000  286.32620  268.85030  256.27040  286.32620   51.24420  134.32770 2235.87110    -999.25    0.25330    0.27730   19.51440  134.32770    -999.25    -999.25  271.43990    -999.25    -999.25    -999.25    -999.25    -999.25  271.43990    -999.25   85.13190   85.29870   85.13190    -999.25   19.51440   21.65910    -999.25    -999.25   21.65910    -999.25    0.33670    0.29290    5.71260    5.71260 2235.87110   22.79970   99.83070    -999.25  -24.19780   -7.93660   22.79970 17498.90630    -999.25 13281.58110
 1700.00000  300.79970  273.70950  266.79520  300.79970   97.84450  125.96110 2209.49680    -999.25    0.26600    0.29270   10.22030  125.96110    -999.25    -999.25  302.62130    -999.25    -999.25    -999.25    -999.25    -999.25  302.62130    -999.25   89.85880   89.05680   89.85880    -999.25   10.22030    9.88920    -999.25    -999.25    9.88920    -999.25    0.38770    0.34460    5.48630    5.48630 2209.49680   11.28050  100.48040    -999.25  -21.64130   -5.50610   11.28050 17466.58590    -999.25 13486.74510
 1750.00000  340.61780  335.15370  310.92650  340.61780  127.97870   62.57050 1987.37990    -999.25    0.39820    0.42260    7.81380   62.57050    -999.25    -999.25  271.87020    -999.25    -999.25    -999.25    -999.25    -999.25  271.87020    -999.25   75.14750   76.45220   75.14750    -999.25    7.81380    7.02340    -999.25    -999.25    7.02340    -999.25    0.36640    0.32300    4.65850    4.65850 1987.37990    6.83500   86.43340    -999.25  -22.64570   -6.36950    6.83500 17394.69530    -999.25 13726.03910
 1800.00000  328.36300  278.37690  284.12190  328.36300   73.53000  137.93420 2328.59990    -999.25    0.18710    0.22300   13.59990  137.93420    -999.25    -999.25  245.72270    -999.25    -999.25    -999.25    -999.25    -999.25  245.72270    -999.25   66.24560   66.11250   66.24560    -999.25   13.59990   12.07570    -999.25    -999.25   12.07570    -999.25    0.21080    0.16720    4.61510    4.61510 2328.59990   11.45750   74.02680    -999.25  -22.09050   -6.94200   11.45750 17559.79490    -999.25 14113.25000
 1850.00000  372.47700  273.60460  296.07210  372.47700  102.90710  148.72050 2371.74410    -999.25    0.16730    0.19780    9.71750  148.72050    -999.25    -999.25  260.85550    -999.25    -999.25    -999.25    -999.25    -999.25  260.85550    -999.25   74.55820   75.21260   74.55820    -999.25    9.71750    9.54610    -999.25    -999.25    9.54610    -999.25    0.32170    0.27780    3.75490    3.75490 2371.74410    9.12380   87.36610    -999.25  -17.04620   -5.62460    9.12380 17466.88870    -999.25 14137.05270
 1900.00000  375.90510  251.76460  287.79400  375.90510  127.09710   70.24220 2292.33330    -999.25    0.22300    0.24420    7.86800   70.24220    -999.25    -999.25  350.19740    -999.25    -999.25    -999.25    -999.25    -999.25  350.19740    -999.25  208.52800  208.66720  208.52800    -999.25    7.86800    8.12680    -999.25    -999.25    8.12680    -999.25    0.41080    0.36810    3.87170    3.87170 2292.33330    9.99850  221.90450    -999.25  -11.22710   -5.57180    9.99850 17065.34960    -999.25 14414.59080
