~Version ---------------------------------------------------
VERS.      2.0 : CWLS log ASCII Standard -VERSION 2.0
WRAP.       NO : One line per depth step
CREA. 11/22/17 : LAS Creation Date
~Well ------------------------------------------------------
STRT.FT                       1150.0 : START DEPTH
STOP.FT                      11000.0 : STOP DEPTH
STEP.FT                     50.00000 : STEP LENGTH
NULL.                        -999.25 : NULL VALUE
COMP.         PACIFIC PETROLEUMS LTD : COMPANY
WELL. PACIFIC PAN AM TONY 10-9-63-21 : WELL
FLD .                                : FIELD
LOC .                                : LOCATION
CTRY.                         CANADA : COUNTRY
SRVC.             LANE-WELLS COMPANY : SERVICE COMPANY
DATE.                    20-Jan-1968 : LOGDATE
PROV.                        Alberta : PROVINCE
UWI .               100100906321W500 : UNIQUE WELL ID
SLAT.WGS84                  54.43786 : SURFACE LATITUDE
SLON.WGS84                 -117.1097 : SURFACE LONGITUDE
~Curve Information -----------------------------------------
DEPT  .FT    : Depth Curve
CALWS .IN    : CALIPER [MCALED]
CILDED.MMHO  : DEEP INDUCTION CONDUCTIVITY FROM RESISTIVITY LOG
CONDWS.MMHO  : CONDUCTIVITY [1000/DRESWS]
DRESWS.OHMM  : DEEP RESISTIVITY [1000/CILDED,IF ILDED<2,ILDED]
DTED  .US/F  : DELTA-T FROM SONIC LOG
DTWS  .US/F  : COMPRESSIONAL SONIC [DTED]
GRSED .GAPI  : GAMMA RAY FROM SONIC LOG
GRWS  .GAPI  : GAMMA RAY [GRSED]
ILDED .OHMM  : DEEP INDUCTION RESISTIVITY FROM RESISTIVITY LOG
MCALED.IN    : MICRO CALIPER  FROM MINI LOG
SNED  .OHMM  : 16 INCH  SHORT NORMAL FROM RESISTIVITY LOG
SPRED .MV    : SPONTANEOUS POTENTIAL FROM RESISTIVITY LOG
SPWS  .MV    : SPONTANEOUS POTENTIAL [BASELINE 0 MV,SPRED]
SRESWS.OHMM  : SHALLOW RESISTIVITY [SNED]
~Params ----------------------------------------------------
PD  .                     GL : PERMANENT DATUM
EPD .FT                 2637 : ELEVATION PERMANENT DATUM
LMF .                     KB : LOG MEASURED FROM
DAPD.FT                   15 : FEET ABOVE PERMANENT DATUM
DMF .                     KB : DRILLING MEASURED FROM
EKB .FT                 2652 : KELLY BUSHING
EGL .FT                 2637 : GROUND LEVEL
DATE.               01/20/68 : RUN DATE
RUN .                      1 : RUN NUMBER
DD  .FT                11040 : DEPTH DRILLER
DL  .FT                11036 : DEPTH LOGGER
BLI .FT                11032 : BOTTOM LOG INTERVAL
TLI .FT                 1126 : TOP LOG INTERVAL
CS  .IN               13.375 : CASING SIZE
CBD .FT                 1125 : CASING BOTTOM DRILLER
CBL .FT                 1126 : CASING BOTTOM LOGGER
BS  .IN                 8.75 : BIT SIZE
BSD .FT                11040 : BIT SIZE AT DEPTH
DFT .                MUD GEL : DRILLING FLUID TYPE
DFD .                    9.3 : DRILLING FLUID DENSITY
DFV .                     95 : DRILLING FLUID VISCOSITY
DFPH.                     10 : DRILLING FLUID PH
DFL .                      8 : DRILLING FLUID LOSS
MSS .                   CIRC : MUD SAMPLE SOURCE
RMS .OHMM                1.5 : RESISTIVITY MUD SAMPLE
MST .DEGF                 62 : MUD SAMPLE TEMPERATURE
RMF .OHMM                1.4 : RESISTIVITY MUD FILTRATE SAMPLE
MFST.DEGF                 62 : MUD FILTRATE SAMPLE TEMPERATURE
RMC .OHMM                1.6 : RESISTIVITY MUD CAKE
MCST.DEGF                 62 : MUD CAKE SAMPLE TEMPERATURE
MFSS.                   MEAS : MUD FILTRATE SAMPLE SOURCE
MCSS.                   MEAS : MUD CAKE SAMPLE SOURCE
RMB .OHMM                0.4 : RESISTIVITY MUD AT BHT
TCS .HRS                   4 : TIME CIRCULATED STOPPED
LUN .                   1255 : LOGGING UNIT NUMBER
LUL .                     RD : LOGGING UNIT LOCATION
ENGI.                DOMSTAD : RECORDING ENGINEER
WITN.                HEUSDEN : WITNESSED BY
CLNT.                A2DTECH : CLIENT CODE
ORIG.            2" 5" PRINT : ORIGIN OF DATA
UWI .       100100906321W500 : UNIQUE WELL ID
DICO. A2D Technologies, Inc. : DIGITIZING COMPANY
~Other -----------------------------------------------------
~ASCII -----------------------------------------------------
# ...
 8500.00000   10.56930    8.39190    3.31690  301.48910   49.60850   49.60850   17.13000   17.13000  301.48910   10.56930  116.63710 -128.54500  -81.24500  116.63710
 8550.00000   10.81620    8.56750    3.01690  331.46720   50.07610   50.07610   14.96770   14.96770  331.46720   10.81620   87.08700 -116.62460  -69.44930   87.08700
 8600.00000   11.60340   10.19520    6.07520  164.60250   52.36750   52.36750   17.30110   17.30110  164.60250   11.60340   80.07630  -93.23730  -46.18670   80.07630
 8650.00000   11.32780   10.98070    5.29700  188.78550   47.30240   47.30240   17.28470   17.28470  188.78550   11.32780  131.35420  -95.64730  -48.72140  131.35420
 8700.00000   11.43630   13.15960    8.78610  113.81560   54.48800   54.48800   14.11400   14.11400  113.81560   11.43630   67.93940 -100.17000  -53.36870   67.93940
 8750.00000   11.20180   11.15310    5.14130  194.50390   52.51810   52.51810   17.03300   17.03300  194.50390   11.20180   99.61340 -130.37220  -83.69560   99.61340
 8800.00000   11.12520    9.14810    4.84410  206.43530   50.81290   50.81290   17.02230   17.02230  206.43530   11.12520  108.41040 -169.53100 -122.97910  108.41040
 8850.00000   11.47390   11.01010    5.66870  176.40750   52.80310   52.80310   17.33830   17.33830  176.40750   11.47390   73.22220 -171.27880 -124.85160   73.22220
 8900.00000   12.03660   10.54640    6.23720  160.32960   53.28380   53.28380   16.26740   16.26740  160.32960   12.03660  107.96910 -161.31230 -115.00970  107.96910
 8950.00000   11.63880   10.88740    5.13080  194.90100   53.15560   53.15560   16.24640   16.24640  194.90100   11.63880   86.09710 -135.47960  -89.30170   86.09710
 9000.00000   11.11680   23.96880   18.43990   54.23030   52.78120   52.78120   16.96130   16.96130   54.23030   11.11680   54.28500 -139.95060  -93.89740   54.28500
 9050.00000   11.35790   22.26180   15.73160   63.56630   53.71200   53.71200   17.03020   17.03020   63.56630   11.35790   49.33780 -164.02200 -118.09340   49.33780
 9100.00000   10.01490   21.55810   19.36600   51.63700   51.56010   51.56010   16.49000   16.49000   51.63700   10.01490   44.24600 -181.25190 -135.44800   44.24600
 9150.00000   11.21510   15.51050   11.39890   87.72790   51.02340   51.02340   14.79190   14.79190   87.72790   11.21510   60.20260 -188.10160 -142.42240   60.20260
 9200.00000    9.70560   14.27380   11.69300   85.52160   51.29510   51.29510   23.74710   23.74710   85.52160    9.70560   88.36220 -164.00110 -118.44660   88.36220
 9250.00000    9.17100   24.45270   19.67600   50.82340   52.72080   52.72080   15.88890   15.88890   50.82340    9.17100   77.29560 -172.47630 -127.04640   77.29560
 9300.00000   11.21670   24.54800   20.84830   47.96560   54.98060   54.98060   26.22550   26.22550   47.96560   11.21670   43.48310 -140.42050  -95.11530   43.48310
 9350.00000    9.95120   10.80010    4.93970  202.44290   49.62670   49.62670   18.12350   18.12350  202.44290    9.95120   86.99960 -134.94920  -89.76870   86.99960
 9400.00000   10.89050    9.16270    5.78980  172.71770   50.97740   50.97740    6.98110    6.98110  172.71770   10.89050   64.95160 -122.10580  -77.05000   64.95160
 9450.00000    9.98220    6.90070    2.71300  368.59510   52.66070   52.66070   12.61260   12.61260  368.59510    9.98220  105.97880  -66.58230  -21.65110  105.97880
 9500.00000    9.62470   12.70900    8.27740  120.81070   52.74810   52.74810   16.84430   16.84430  120.81070    9.62470   96.88900  -89.48900  -44.68250   96.88900
 9550.00000    9.66560   12.96180    6.95860  143.70730   53.37080   53.37080   14.98800   14.98800  143.70730    9.66560  109.54560  -93.83210  -49.15030  109.54560
 9600.00000    9.77190   15.00640   11.00190   90.89380   53.21100   53.21100   22.97830   22.97830   90.89380    9.77190   74.45490 -109.84260  -65.28550   74.45490
 9650.00000   10.06850   39.43510   34.17450   29.26160   63.57390   63.57390   48.23410   48.23410   29.26160   10.06850   29.19330 -114.90040  -70.46790   29.19330
 9700.00000   10.92790   88.11190   84.24170   11.87060   69.07190   69.07190   56.79290   56.79290   11.87060   10.92790   17.09020 -129.80320  -85.49540   17.09020
 9750.00000   10.74620  116.82850  113.74620    8.79150   72.13820   72.13820   49.80290   49.80290    8.79150   10.74620   16.07110 -129.94650  -85.76340   16.07110
 9800.00000   10.45980  189.05410  167.22410    5.98000   70.43010   70.43010   49.93530   49.93530    5.98000   10.45980   12.98730 -160.48120 -116.42280   12.98730
 9850.00000   10.09620  224.26770  206.38560    4.84530   82.89900   82.89900   54.61300   54.61300    4.84530   10.09620    8.37830 -129.41920  -85.48540    8.37830
 9900.00000    9.82690  242.87140  230.42010    4.33990   74.00770   74.00770   37.95290   37.95290    4.33990    9.82690    7.14130 -104.55890  -60.74980    7.14130
 9950.00000   10.35880  355.79230  310.66510    3.21890   77.49340   77.49340   70.83110   70.83110    3.21890   10.35880    4.85580 -130.58910  -86.90470    4.85580
 10000.00000   11.70360  385.34900  316.85680    3.15600   85.31080   85.31080   53.35340   53.35340    3.15600   11.70360    4.08530 -132.26030  -88.70060    4.08530
 10050.00000   11.96410  426.56540  383.62680    2.60670   90.08540   90.08540   70.02910   70.02910    2.60670   11.96410    4.04730 -107.94970  -64.51460    4.04730
 10100.00000    9.62110  138.76210  126.38230    7.91250   66.64380   66.64380   32.06770   32.06770    7.91250    9.62110   12.09410 -101.72020  -58.40980   12.09410
 10150.00000    9.54980  204.57480  199.92400    5.00190   70.99410   70.99410   50.44000   50.44000    5.00190    9.54980    8.30840  -74.69830  -31.51260    8.30840
 10200.00000    9.55760  173.59460  177.33330    5.63910   67.07380   67.07380   36.81200   36.81200    5.63910    9.55760    9.91720  -54.79380  -11.73280    9.91720
 10250.00000    9.61740  251.12120  224.26550    4.45900   76.55540   76.55540   68.20930   68.20930    4.45900    9.61740    7.03490  -91.60930  -50.28840    7.03490
 10300.00000    9.56980  264.56410  223.70360    4.47020   80.63100   80.63100   67.55960   67.55960    4.47020    9.56980    6.72580 -115.13270  -76.03440    6.72580
 10350.00000    9.60790  264.51180  233.90720    4.27520   76.60780   76.60780   49.91770   49.91770    4.27520    9.60790    6.76560 -132.17320  -95.29750    6.76560
 10400.00000    9.57990  296.43940  288.47540    3.46650   86.27950   86.27950   53.08810   53.08810    3.46650    9.57990    5.49140 -236.48010 -201.82700    5.49140
 10450.00000    9.53440   32.79880   31.80490   31.44170   74.88940   74.88940   47.59570   47.59570   31.44170    9.53440   45.70410 -213.37050 -180.94000   45.70410
 10500.00000    9.48320    8.99040    5.60700  178.34970   81.76370   81.76370   69.76540   69.76540  178.34970    9.48320   96.31650 -156.10630 -125.89840   96.31650
 10550.00000    9.60190   48.85520   42.96460   23.27500   65.54950   65.54950   89.07490   89.07490   23.27500    9.60190   31.00360 -119.40090  -91.41560   31.00360
 10600.00000   10.44940   30.39120   28.64750   34.90710   79.67370   79.67370  110.47190  110.47190   34.90710   10.44940   34.58400  -79.24780  -53.48510   34.58400
 10650.00000    9.80910   28.57330   26.55390   37.65930   49.28310   49.28310   53.01620   53.01620   37.65930    9.80910   56.29850  -29.43640   -5.89640   56.29850
 10700.00000    8.95200  102.43490  105.00670    9.52320   59.05040   59.05040   14.78430   14.78430    9.52320    8.95200   25.54410 -121.52200  -99.58220   25.54410
 10750.00000    8.82710   67.94260   67.83520   14.74160   57.12750   57.12750   18.07470   18.07470   14.74160    8.82710   33.95640 -191.14460 -169.20480   33.95640
 10800.00000    8.78230   29.57400   29.43870   33.96890   54.81240   54.81240   12.93100   12.93100   33.96890    8.78230   63.06710 -212.80790 -190.86810   63.06710
 10850.00000    9.19620   10.44800    7.23190  138.27670   49.26810   49.26810   16.22570   16.22570  138.27670    9.19620  144.32690 -239.51580 -217.57600  144.32690
 10900.00000   11.34420    6.90710    3.64040  274.69640   52.32500   52.32500   15.66430   15.66430  274.69640   11.34420   93.28230 -229.62190 -207.68210   93.28230
