~Version ---------------------------------------------------
VERS.      2.0 : CWLS log ASCII Standard -VERSION 2.0
WRAP.       NO : One line per depth step
CREA. 12/18/17 : LAS Creation Date
~Well ------------------------------------------------------
STRT.FT                             1350.0 : START DEPTH
STOP.FT                            11950.0 : STOP DEPTH
STEP.FT                           50.00000 : STEP LENGTH
NULL.                              -999.25 : NULL VALUE
COMP.                 CHEVRON STANDARD LTD : COMPANY
WELL. CHEVRON AMOCO WASKAHIGAN 10-17-64-24 : WELL
FLD .                                      : FIELD
LOC .                                      : LOCATION
CTRY.                               CANADA : COUNTRY
SRVC.                         Schlumberger : SERVICE COMPANY
DATE.                          17-Sep-1977 : LOGDATE
PROV.                              Alberta : PROVINCE
UWI .                     100101706424W500 : UNIQUE WELL ID
SLAT.WGS84                        54.54045 : SURFACE LATITUDE
SLON.WGS84                       -117.5875 : SURFACE LONGITUDE
~Curve Information -----------------------------------------
DEPT    .FT    : Depth Curve
CALDED  .IN    : CALIPER FROM DENSITY LOG [ADJ. TO RESISTIVITY LOG]
CALSED  .IN    : CALIPER FROM SONIC LOG  [ADJ. TO RESISTIVITY LOG]
CALWS   .IN    : CALIPER [CALSED]
CONDWS  .MMHO  : CONDUCTIVITY [1000/DRESWS]
DCORWS  .G/C3  : DENSITY CORRECTION [DRHOED]
DENWS   .G/C3  : FORMATION BULK DENSITY [RHOBED SPL. TO CALC, FROM DPHILSED M=2.71, F=1.00 FROM 11478'-11488']
DPHILSED.V/V   : DENSITY POROSITY LIMESTONE [M=2.71, F=1.00] FROM DENSITY LOG  [ADJ. TO RESISTIVITY LOG]
DPHISSED.V/V   : DENSITY POROSITY SANDSTONE [M=2.65, F=1.00] FROM DENSITY LOG  [ADJ. TO RESISTIVITY LOG]
DPOLSWS .V/V   : DENSITY POROSITY SANDSTONE [CALC. FROM DENWS  [M=2.71, F=1.00]
DRESWS  .OHMM  : DEEP RESISTIVITY [ILDED]
DRHOED  .G/C3  : DENSITY CORRECTION FROM DENSITY LOG [ [ADJ. TO RESISTIVITY / DPHISSED & DPHILSED]
DTED    .US/F  : DELTA TIME FROM SONIC LOG  [ADJ. TO RESISTIVITY LOG]
DTWS    .US/F  : COMPRSSIONAL SONIC[ DTED]
GRDED   .GAPI  : GAMMA RAY FROM DENSITY LOG  [ADJ. TO RESISTIVITY LOG]
GRSED   .GAPI  : GAMMA RAY FROM SONIC LOG  [ADJ. TO RESISTIVITY LOG]
GRWS    .GAPI  : GAMMA RAY [GRSED SPL. TO GRDED @ 11900']
ILDED   .OHMM  : DEEP INDUCTION LOG RESISTIVITY FROM RESISTIVITY LOG
ILMED   .OHMM  : MEDIUM INDUCTION LOG RESISTIVITY FROM RESISTIVITY LOG
LL8ED   .OHMM  : LATEROLOG FROM RESISTIVITY LOG
MRESWS  .OHMM  : MEDIUM RESISTIVITY [ILMED]
NPHILSED.V/V   : NEUTRON POROSITY LIMESTONE FROM DENSITY LOG  [ADJ. TO RESISTIVITY LOG]
NPHISSED.V/V   : NEUTRON POROSITY SANDSTONE FROM DENSITY LOG  [ADJ. TO RESISTIVITY LOG]
NPOLSWS .V/V   : NEUTRON POROSITY LIMESTONE[NPHISSED MATRIX CONVERSION FOR LIMESTONE SPL. TO NPHILSED @ 9050'
RHOBED  .G/C3  : BULK DENSITY FROM DENSITY LOG [ [ADJ. TO RESISTIVITY/ DPHISSED & DPHILSED]
SPRED   .MV    : SPONTANEOUS POTENTIAL FROM RESISTIVITY LOG
SPWS    .MV    : SPONTANEOUS POTENTIAL [BASELINE 0 MV,SPRED]
SRESWS  .OHMM  : SHALLOW RESISTIVITY [LL8ED]
TENDED  .LBF   : TENSION FROM DENSITY LOG  [ADJ. TO RESISTIVITY LOG]
TENSED  .LBF   : TENSION FROM SONIC LOG  [ADJ. TO RESISTIVITY LOG]
~Params ----------------------------------------------------
PD  .                     GL : PERMANENT DATUM
EPD .FT               2874.1 : ELEVATION PERMANENT DATUM
LMF .                     KB : LOG MEASURED FROM
DAPD.FT                 18.5 : FEET ABOVE PERMANENT DATUM
EKB .FT               2892.6 : KELLY BUSHING
EGL .FT               2874.1 : GROUND LEVEL
DATE.               09/17/77 : RUN DATE
RUN .                      1 : RUN NUMBER
DD  .FT                11989 : DEPTH DRILLER
DL  .FT                11985 : DEPTH LOGGER
BLI .FT                11979 : BOTTOM LOG INTERVAL
TLI .FT                 1516 : TOP LOG INTERVAL
CBD .FT              1516.87 : CASING BOTTOM DRILLER
CBL .FT                 1516 : CASING BOTTOM LOGGER
BS  .IN                 8.75 : BIT SIZE
BSD .FT                11989 : BIT SIZE AT DEPTH
DFT .                    GEL : DRILLING FLUID TYPE
DFD .                      9 : DRILLING FLUID DENSITY
DFV .                     90 : DRILLING FLUID VISCOSITY
DFPH.                    9.5 : DRILLING FLUID PH
DFL .                    8.4 : DRILLING FLUID LOSS
MSS .               FLOWLINE : MUD SAMPLE SOURCE
RMS .OHMM               1.53 : RESISTIVITY MUD SAMPLE
MST .DEGF                 68 : MUD SAMPLE TEMPERATURE
RMF .OHMM               1.36 : RESISTIVITY MUD FILTRATE SAMPLE
MFST.DEGF                 62 : MUD FILTRATE SAMPLE TEMPERATURE
RMC .OHMM               1.37 : RESISTIVITY MUD CAKE
MCST.DEGF                 62 : MUD CAKE SAMPLE TEMPERATURE
TCS .HRS                   5 : TIME CIRCULATED STOPPED
LUN .                   7772 : LOGGING UNIT NUMBER
LUL .                    EDM : LOGGING UNIT LOCATION
ENGI.         BERNISKY TRACY : RECORDING ENGINEER
WITN.             RICHARDSON : WITNESSED BY
CLNT.                A2DTECH : CLIENT CODE
ORIG.            2" 5" PRINT : ORIGIN OF DATA
UWI .       100101706424W500 : UNIQUE WELL ID
DICO. A2D Technologies, Inc. : DIGITIZING COMPANY
~Other -----------------------------------------------------
DIL-CNFD-SONIC LOG RUN
SONIC 2' DEEP TO DIL. GAP IN GRDED FROM 6074'-6090'& 6110' -6132' & GAP IN NPHISSED FROM 6087'-6102' & 6124'-6138' DUE TO REMOVE INVALID VALUE
~ASCII -----------------------------------------------------
# ...
 7600.00000    9.51290    9.16440    9.16440   38.39490    0.03680    2.65220    -999.25   -0.00430    0.03380   26.04510    0.03680   60.91460   60.91460   85.30630   73.32170   73.32170   26.04510   28.21380   30.15650   28.21380    -999.25    0.11660    0.07450    2.65220 -109.38110  -24.43120   30.15650 3459.86860 3289.76540
 7650.00000    9.59230    9.05220    9.05220   30.17930    0.03120    2.67240    -999.25   -0.01130    0.02200   33.13530    0.03120   61.49020   61.49020   91.39980   82.06870   82.06870   33.13530   38.03400   39.82140   38.03400    -999.25    0.11020    0.06830    2.67240  -87.80270   -6.77530   39.82140 3428.65130 4378.52700
 7700.00000    9.21150    8.87030    8.87030   30.52340    0.04910    2.72980    -999.25   -0.05070   -0.01160   32.76170    0.04910   59.55290   59.55290   92.80530   83.36340   83.36340   32.76170   36.10070   37.76410   36.10070    -999.25    0.10170    0.06020    2.72980  -86.81530   -9.71030   37.76410 3402.57710 4233.10220
 7750.00000    9.47700    9.13890    9.13890   33.42370    0.03840    2.71120    -999.25   -0.05010   -0.00070   29.91890    0.03840   64.23840   64.23840  109.46730   98.24210   98.24210   29.91890   41.42820   52.21020   41.42820    -999.25    0.15040    0.10780    2.71120  -78.93320   -5.24660   52.21020 3387.96620 4219.27110
 7800.00000    9.41690    9.03900    9.03900   24.55190    0.03650    2.68550    -999.25   -0.02160    0.01430   40.73090    0.03650   61.11500   61.11500  118.47380  111.38590  111.38590   40.73090   48.87770   63.56560   48.87770    -999.25    0.16790    0.12500    2.68550 -102.59390  -30.26000   63.56560 3351.73570 4181.40780
 7850.00000    8.63350    8.37840    8.37840   66.07860    0.09610    2.61830    -999.25    0.02820    0.05360   15.13350    0.09610   64.88600   64.88600   15.86510   12.60560   12.60560   15.13350   28.44020   55.74680   28.44020    -999.25    0.09840    0.05720    2.61830 -200.00000 -129.03240   55.74680 3373.43990 4115.80960
 7900.00000    8.30220    8.14350    8.14350  649.77260    0.11810    2.42070    -999.25    0.14610    0.16920    1.53900    0.11810   66.58670   66.58670   32.50480   26.91730   26.91730    1.53900    2.29720   17.34250    2.29720    -999.25    0.22580    0.18210    2.42070 -170.91350 -101.30540   17.34250 3336.38560 4299.48840
 7950.00000    9.30140    8.83630    8.83630   20.23430    0.03520    2.75670    -999.25   -0.07940   -0.02730   49.42100    0.03520   52.40330   52.40330   52.34400   47.48310   47.48310   49.42100   84.19470 1355.90370   84.19470    -999.25    0.06570    0.02850    2.75670 -115.57580  -47.32720 1355.90370 3273.59650 4314.65340
 8000.00000    8.27020    7.95890    7.95890   52.29250    0.13340    2.62140    -999.25    0.01530    0.05180   19.12320    0.13340   55.87560   55.87560   18.38620   17.49850   17.49850   19.12320   39.43430  123.84770   39.43430    -999.25    0.17970    0.13660    2.62140 -155.75020  -88.86110  123.84770 3329.51070 4381.82630
 8050.00000    9.51750    9.01130    9.01130    0.66630    0.04240    2.94460    -999.25   -0.16040   -0.13720 1500.78830    0.04240   49.00070   49.00070   23.38380   16.82430   16.82430 1500.78830 1562.89840 1423.97260 1562.89840    -999.25    0.02840   -0.00000    2.94460 -141.04710  -75.51070 1423.97260 3291.71010 4208.40120
 8100.00000    8.99900    8.80390    8.80390    4.55990    0.02290    2.78620    -999.25   -0.09530   -0.04460  219.30260    0.02290   50.39300   50.39300   40.43730   41.74650   41.74650  219.30260  288.93740  201.98710  288.93740    -999.25    0.10620    0.06450    2.78620 -106.59120  -42.42110  201.98710 3277.22760 4528.57340
 8150.00000    8.60270    8.66310    8.66310    6.60410    0.00840    2.80020    -999.25   -0.09660   -0.05270  151.42020    0.00840   49.97050   49.97050   76.23270   39.63800   39.63800  151.42020  235.81390  382.72400  235.81390    -999.25    0.10620    0.06450    2.80020 -110.55030  -47.73970  382.72400 3316.64920 4460.22080
 8200.00000    -999.25    8.58630    8.58630  114.26350    -999.25    -999.25    -999.25    -999.25    -999.25    8.75170    -999.25   52.07130   52.07130    -999.25   18.64670   18.64670    8.75170   19.91620   81.90350   19.91620    -999.25    -999.25    -999.25    -999.25 -200.56530 -139.11420   81.90350    -999.25 4458.21110
 8250.00000    -999.25    8.14860    8.14860   99.21420    -999.25    -999.25    -999.25    -999.25    -999.25   10.07920    -999.25   56.23180   56.23180    -999.25   15.34570   15.34570   10.07920   19.02360   52.54490   19.02360    -999.25    -999.25    -999.25    -999.25 -200.00000 -139.90840   52.54490    -999.25 4438.26770
 8300.00000    -999.25    8.78130    8.78130    8.40300    -999.25    -999.25    -999.25    -999.25    -999.25  119.00610    -999.25   49.67700   49.67700    -999.25   21.03000   21.03000  119.00610  743.09020  695.54300  743.09020    -999.25    -999.25    -999.25    -999.25 -179.00970 -120.27080  695.54300    -999.25 4258.13510
 8350.00000    -999.25    9.16930    9.16930   30.62230    -999.25    -999.25    -999.25    -999.25    -999.25   32.65590    -999.25   59.18420   59.18420    -999.25   63.64850   63.64850   32.65590   32.15270   39.18970   32.15270    -999.25    -999.25    -999.25    -999.25 -131.15020  -73.77760   39.18970    -999.25 4151.12320
 8400.00000    -999.25    8.73720    8.73720   94.46880    -999.25    -999.25    -999.25    -999.25    -999.25   10.58550    -999.25   52.25670   52.25670    -999.25   37.56050   37.56050   10.58550   12.67530   37.00690   12.67530    -999.25    -999.25    -999.25    -999.25 -155.51860  -99.50550   37.00690    -999.25 4144.66570
 8450.00000    -999.25    8.95470    8.95470  101.28020    -999.25    -999.25    -999.25    -999.25    -999.25    9.87360    -999.25   63.41340   63.41340    -999.25   75.31710   75.31710    9.87360   13.77000   22.85680   13.77000    -999.25    -999.25    -999.25    -999.25 -145.31550  -90.66190   22.85680    -999.25 3999.46950
 8500.00000    -999.25    8.78990    8.78990  108.14080    -999.25    -999.25    -999.25    -999.25    -999.25    9.24720    -999.25   56.62710   56.62710    -999.25   41.92450   41.92450    9.24720   11.70450   25.22810   11.70450    -999.25    -999.25    -999.25    -999.25 -113.08000  -59.78590   25.22810    -999.25 3970.53690
 8550.00000    -999.25    8.91780    8.91780  140.10810    -999.25    -999.25    -999.25    -999.25    -999.25    7.23670    -999.25   54.19850   54.19850    -999.25   36.66620   36.66620    7.23670    8.52290   23.45020    8.52290    -999.25    -999.25    -999.25    -999.25 -129.01410  -77.07270   23.45020    -999.25 3851.83670
 8600.00000    -999.25    8.95040    8.95040    1.18430    -999.25    -999.25    -999.25    -999.25    -999.25  844.40140    -999.25   51.30220   51.30220    -999.25   10.05730   10.05730  844.40140 1509.82620 1445.78210 1509.82620    -999.25    -999.25    -999.25    -999.25 -200.00000 -149.42490 1445.78210    -999.25 3721.28170
 8650.00000    -999.25    8.72040    8.72040    8.19780    -999.25    -999.25    -999.25    -999.25    -999.25  121.98460    -999.25   48.18530   48.18530    -999.25   11.66490   11.66490  121.98460  391.64030  452.33870  391.64030    -999.25    -999.25    -999.25    -999.25 -169.92180 -120.70620  452.33870    -999.25 3624.91590
 8700.00000    -999.25    9.19270    9.19270    2.08620    -999.25    -999.25    -999.25    -999.25    -999.25  479.33090    -999.25   48.86960   48.86960    -999.25   12.54180   12.54180  479.33090 1288.98000 1249.21310 1288.98000    -999.25    -999.25    -999.25    -999.25 -135.98340  -88.12730 1249.21310    -999.25 3849.83960
 8750.00000    -999.25    9.03970    9.03970   78.95340    -999.25    -999.25    -999.25    -999.25    -999.25   12.66570    -999.25   59.83570   59.83570    -999.25   83.61470   83.61470   12.66570   14.50090   29.30100   14.50090    -999.25    -999.25    -999.25    -999.25  -47.77420   -2.39220   29.30100    -999.25 3489.31560
 8800.00000    -999.25    8.97460    8.97460  160.67100    -999.25    -999.25    -999.25    -999.25    -999.25    6.23120    -999.25   59.36030   59.36030    -999.25   63.06820   63.06820    6.23120    7.60760   16.97850    7.60760    -999.25    -999.25    -999.25    -999.25  -63.12750  -19.47900   16.97850    -999.25 3521.59920
