~Version ---------------------------------------------------
VERS.      2.0 : CWLS log ASCII Standard -VERSION 2.0
WRAP.       NO : One line per depth step
CREA. 12/14/17 : LAS Creation Date
~Well ------------------------------------------------------
STRT.FT                        1500.0 : START DEPTH
STOP.FT                        9650.0 : STOP DEPTH
STEP.FT                      50.00000 : STEP LENGTH
NULL.                         -999.25 : NULL VALUE
COMP.           OCELOT INDUSTRIES LTD : COMPANY
WELL. OIL ET AL VIRGHILLS 11-15-63-13 : WELL
FLD .                                 : FIELD
LOC .                                 : LOCATION
CTRY.                          CANADA : COUNTRY
SRVC.                   Dresser Atlas : SERVICE COMPANY
DATE.                     19-Jun-1978 : LOGDATE
PROV.                         Alberta : PROVINCE
UWI .                100111506313W500 : UNIQUE WELL ID
SLAT.WGS84                   54.45302 : SURFACE LATITUDE
SLON.WGS84                  -115.8819 : SURFACE LONGITUDE
~Curve Information -----------------------------------------
DEPT     .FT    : Depth Curve
CALD1ED  .IN    : CALIPER FROM CNFD LOG [AJ. TO RESISTIVITY LOG]
CALDED   .IN    : CALIPER FROM CDL-CNL LOG [AJ. TO RESISTIVITY LOG]
CALWS    .IN    : CALIPER [CALD1ED SPL. TO CALDED @ 1881.3M]
CONDWS   .MMHO  : CONDUCTIVITY [1000/DRESWS]
CORRED   .G/C3  : DENSITY CORRECTION FROM CDL-CNL LOG [ADJ. TO RESISTIVITY LOG/DPHILSED/DPHISSED] [CORRED*1000]
DCORED   .G/C3  : DENSITY CORRECTION FROM CNFD LOG [ADJ. TO RESISTIVITY LOG/DPHISS1ED] [DCOR1ED*1000]
DCORWS   .G/C3  : DENSITY CORRECTION [DCORED SPL.TO CORRED @ 5900']
DENWS    .G/C3  : FORMATION BULK DENSITY [CALC. FROM DPOLSWS M=2.71,F=1.00]
DPHILSED .V/V   : DENSITY POROSITY LIMESTONE [M=2.71,F=1.0] FROM CDL-CNL LOG [AJ. TO RESISTIVITY LOG]
DPHISS1ED.V/V   : DENSITY POROSITY SANDSTONE [M=2.65,F=1.0] FROM CNFD LOG [AJ. TO RESISTIVITY LOG]
DPHISSED .V/V   : DENSITY POROSITY SANDSTONE [M=2.65,F=1.0] FROM CDL-CNL LOG [AJ. TO RESISTIVITY LOG]
DPOLSWS  .V/V   : DENSITY POROSITY LIMESTONE [DPHISS1ED CONVERTED TO LIMESTONE MATRIX, M=2.71,F=1.00, SPL. TO DPHILSED @ 5604']
DRESWS   .OHMM  : DEEP RESISTIVITY [ILDED]
GRD1ED   .GAPI  : GAMMA RAY FROM CNFD LOG [AJ. TO RESISTIVITY LOG]
GRDED    .GAPI  : GAMMA RAY FROM CDL-CNL LOG [AJ. TO RESISTIVITY LOG]
GRWS     .GAPI  : GAMMA RAY [GRD1ED SPL. TO GRDED @ 5873']
ILDED    .OHMM  : DEEP INDUCTION FROM RESISTIVITY LOG
ILMED    .OHMM  : MEDIUM INDUCTION FROM RESISTIVITY LOG
MRESWS   .OHMM  : MEDIUM RESISTIVITY [ILMED]
NPHILSED .V/V   : NEUTRON POROSITY LIMESTONE FROM CDL-CNL LOG [AJ. TO RESISTIVITY LOG]
NPHISS1ED.V/V   : NEUTRON POROSITY SANDSTONE FROM CNFD LOG [AJ. TO RESISTIVITY LOG]
NPHISSED .V/V   : NEUTRON POROSITY SANDSTONE FROM CDL-CNL LOG [AJ. TO RESISTIVITY LOG]
NPOLSWS  .V/V   : NEUTRON POROSITY LIMESTONE [NPHISSED MATRIX CONVERSION FOR LIMESTONE FROM SCHLUMBERGER (CNL), SPL. TO NPHILSED @ 5604']
RHOB1ED  .G/C3  : BULK DENSITY FROM CNFD LOG [ADJ. TO RESISTIVITY LOG/DPHISS1ED]
RHOBED   .G/C3  : BULK DENSITY FROM CDL-CNL LOG [ADJ. TO RESISTIVITY LOG/DPHILSED/DPHISSED]
SFLED    .OHMM  : SPHERICALLY FOCUSED FROM RESISTIVITY LOG
SPRED    .MV    : SPONTANEOUS POTENTIAL FROM RESISTIVITY LOG
SPWS     .MV    : SPONTANEOUS POTENTIAL [BASELINE 0 MV, SPRED]
SRESWS   .OHMM  : SHALLOW RESISTIVITY [SFLED]
~Params ----------------------------------------------------
PD  .                     GL : PERMANENT DATUM
EPD .FT               3435.5 : ELEVATION PERMANENT DATUM
LMF .                     KB : LOG MEASURED FROM
DAPD.FT                 15.5 : FEET ABOVE PERMANENT DATUM
DMF .                     KB : DRILLING MEASURED FROM
EKB .FT                 3451 : KELLY BUSHING
EGL .FT               3435.5 : GROUND LEVEL
DATE.               06/19/78 : RUN DATE
RUN .                      1 : RUN NUMBER
DD  .FT                 9683 : DEPTH DRILLER
DL  .FT                 9684 : DEPTH LOGGER
BLI .FT                 9681 : BOTTOM LOG INTERVAL
TLI .FT                 1517 : TOP LOG INTERVAL
CS  .IN                8.625 : CASING SIZE
CBD .FT                 1517 : CASING BOTTOM DRILLER
CBL .FT                 1517 : CASING BOTTOM LOGGER
BS  .IN                7.875 : BIT SIZE
BSD .FT                 9683 : BIT SIZE AT DEPTH
DFT .               GEL CHEM : DRILLING FLUID TYPE
DFD .                    9.1 : DRILLING FLUID DENSITY
DFV .                     65 : DRILLING FLUID VISCOSITY
DFPH.                      9 : DRILLING FLUID PH
DFL .                     11 : DRILLING FLUID LOSS
MSS .                   CIRC : MUD SAMPLE SOURCE
RMS .OHMM                  3 : RESISTIVITY MUD SAMPLE
MST .DEGF                 76 : MUD SAMPLE TEMPERATURE
RMF .OHMM                2.8 : RESISTIVITY MUD FILTRATE SAMPLE
MFST.DEGF                 72 : MUD FILTRATE SAMPLE TEMPERATURE
RMC .OHMM                2.5 : RESISTIVITY MUD CAKE
MCST.DEGF                 72 : MUD CAKE SAMPLE TEMPERATURE
MFSS.                   MEAS : MUD FILTRATE SAMPLE SOURCE
MCSS.                   MEAS : MUD CAKE SAMPLE SOURCE
RMB .OHMM               1.23 : RESISTIVITY MUD AT BHT
TCS .HRS                   5 : TIME CIRCULATED STOPPED
LUN .                HL 6155 : LOGGING UNIT NUMBER
LUL .                     VV : LOGGING UNIT LOCATION
ENGI.                 GORDON : RECORDING ENGINEER
WITN.                  BROCK : WITNESSED BY
CLNT.                A2DTECH : CLIENT CODE
ORIG.            2" 5" PRINT : ORIGIN OF DATA
UWI .       100111506313W500 : UNIQUE WELL ID
DICO. A2D Technologies, Inc. : DIGITIZING COMPANY
~Other -----------------------------------------------------
DIL-CNFD-CNL-CDL LOG RUN
RHOBED,RHOB1ED,CORRED & DCORED VERIFY FROM 2" SCALE
~ASCII -----------------------------------------------------
 1500.00000    -999.25    -999.25    -999.25    -999.25    -999.25    -999.25    -999.25    -999.25    -999.25    -999.25    -999.25    -999.25    -999.25   50.72700    -999.25   50.72700    -999.25    -999.25    -999.25    -999.25    0.50140    -999.25    0.46170    -999.25    -999.25    -999.25    -999.25    -999.25    -999.25
 1550.00000   13.46920    -999.25   13.46920  362.65290    -999.25    0.10080    0.10080    1.76080    -999.25    0.55840    -999.25    0.55510    2.76130   82.96330    -999.25   82.96330    2.76130    3.24540    3.24540    -999.25    0.53060    -999.25    0.49240    1.76080    -999.25    6.75750  -49.65470  -16.89280    6.75750
 1600.00000    9.62660    -999.25    9.62660  184.26730    -999.25    0.12370    0.12370    2.27030    -999.25    0.23010    -999.25    0.25710    5.42690   79.37970    -999.25   79.37970    5.42690    5.78700    5.78700    -999.25    0.42200    -999.25    0.37960    2.28520    -999.25    5.13990  -47.41460  -14.65270    5.13990
 1650.00000   10.02120    -999.25   10.02120  176.93610    -999.25    0.09900    0.09900    2.10760    -999.25    0.32870    -999.25    0.35230    5.66000   88.52870    -999.25   88.52870    5.66000    6.41190    6.41190    -999.25    0.56820    -999.25    0.53220    2.09110    -999.25    7.02810  -44.16040  -11.39850    7.02810
 1700.00000   10.04110    -999.25   10.04110  214.44500    -999.25    0.03080    0.03080    2.32580    -999.25    0.19650    -999.25    0.22470    4.66320   80.36370    -999.25   80.36370    4.66320    4.85200    4.85200    -999.25    0.44550    -999.25    0.40370    2.32200    -999.25    6.68180  -40.87620   -8.11430    6.68180
 1750.00000   10.35390    -999.25   10.35390  333.07800    -999.25    0.03590    0.03590    2.22960    -999.25    0.25480    -999.25    0.28090    3.00230   82.45950    -999.25   82.45950    3.00230    3.27800    3.27800    -999.25    0.55150    -999.25    0.51440    2.24990    -999.25    5.05080  -38.73080   -5.96890    5.05080
 1800.00000   13.13710    -999.25   13.13710  148.24210    -999.25    0.09350    0.09350    1.71140    -999.25    0.56080    -999.25    0.58400    6.75010   60.25850    -999.25   60.25850    6.75010    7.21680    7.21680    -999.25    0.48990    -999.25    0.44960    1.71140    -999.25    8.65150  -37.30590   -4.54400    8.65150
 1850.00000    9.88930    -999.25    9.88930  294.13490    -999.25    0.18010    0.18010    1.99400    -999.25    0.39890    -999.25    0.41870    3.39980   91.31760    -999.25   91.31760    3.39980    3.86250    3.86250    -999.25    0.46970    -999.25    0.42860    1.99400    -999.25    5.64330  -37.30930   -4.57790    5.64330
 1900.00000    9.98420    -999.25    9.98420  232.34960    -999.25    0.17700    0.17700    2.00640    -999.25    0.39010    -999.25    0.41150    4.30850   90.51040    -999.25   90.51040    4.30850    4.66170    4.66170    -999.25    0.45740    -999.25    0.41590    1.97240    -999.25    5.08030  -35.42110   -2.97900    5.08030
 1950.00000    9.61690    -999.25    9.61690  252.65290    -999.25    0.18860    0.18860    2.27940    -999.25    0.22460    -999.25    0.25180    3.95800   94.58620    -999.25   94.58620    3.95800    4.28230    4.28230    -999.25    0.40410    -999.25    0.36130    2.27700    -999.25    4.63670  -35.66170   -3.51090    4.63670
 2000.00000    8.51650    -999.25    8.51650  200.29240    -999.25    0.10640    0.10640    2.28500    -999.25    0.22120    -999.25    0.24850    4.99270   97.76720    -999.25   97.76720    4.99270    5.51340    5.51340    -999.25    0.38100    -999.25    0.33780    2.27680    -999.25    8.35780  -36.44620   -4.58480    8.35780
 2050.00000    8.83240    -999.25    8.83240  252.11900    -999.25    0.11350    0.11350    2.28200    -999.25    0.22310    -999.25    0.25030    3.97330   92.44110    -999.25   92.44110    3.97330    4.33240    4.33240    -999.25    0.42140    -999.25    0.37900    2.28600    -999.25    7.72790  -36.53600   -4.96400    7.72790
 2100.00000    9.41540    -999.25    9.41540  355.05060    -999.25    0.07850    0.07850    2.29820    -999.25    0.21320    -999.25    0.24080    2.81650   90.51960    -999.25   90.51960    2.81650    2.98800    2.98800    -999.25    0.47630    -999.25    0.43550    2.30230    -999.25    4.75730  -35.17410   -3.89340    4.75730
 2150.00000    8.29570    -999.25    8.29570  109.94990    -999.25    0.06500    0.06500    2.29080    -999.25    0.21770    -999.25    0.24510    9.09510   59.09090    -999.25   59.09090    9.09510   10.31960   10.31960    -999.25    0.38100    -999.25    0.33770    2.28720    -999.25    7.63500  -53.51550  -22.52410    7.63500
 2200.00000    9.77240    -999.25    9.77240  306.79550    -999.25    0.15170    0.15170    1.98440    -999.25    0.40340    -999.25    0.42430    3.25950   95.38920    -999.25   95.38920    3.25950    3.50180    3.50180    -999.25    0.59300    -999.25    0.55850    2.02750    -999.25    3.81770  -33.63170   -2.93160    3.81770
 2250.00000    9.50030    -999.25    9.50030  325.06580    -999.25    0.12260    0.12260    2.08160    -999.25    0.34450    -999.25    0.36750    3.07630   80.36430    -999.25   80.36430    3.07630    3.47570    3.47570    -999.25    0.43580    -999.25    0.39370    2.07770    -999.25    5.06340  -34.30080   -3.89010    5.06340
 2300.00000    8.06060    -999.25    8.06060  128.16520    -999.25    0.06430    0.06430    2.22700    -999.25    0.25630    -999.25    0.28240    7.81080   64.38330    -999.25   64.38330    7.81080    8.53750    8.53750    -999.25    0.41420    -999.25    0.37170    2.22290    -999.25    7.91860  -53.04730  -22.92600    7.91860
 2350.00000    8.42290    -999.25    8.42290  214.78120    -999.25    0.03720    0.03720    2.34160    -999.25    0.18690    -999.25    0.21540    4.65590   81.04050    -999.25   81.04050    4.65590    5.06090    5.06090    -999.25    0.42070    -999.25    0.37830    2.34860    -999.25    5.81420  -35.86010   -6.03010    5.81420
 2400.00000    8.30650    -999.25    8.30650  118.43500    -999.25    0.07060    0.07060    2.26270    -999.25    0.23470    -999.25    0.26160    8.44350   58.42040    -999.25   58.42040    8.44350    8.68460    8.68460    -999.25    0.42790    -999.25    0.38560    2.25840    -999.25    9.19890  -41.72490  -12.18420    9.19890
 2450.00000    7.30330    -999.25    7.30330   88.53470    -999.25    0.07570    0.07570    2.20520    -999.25    0.26960    -999.25    0.29520   11.29500   54.71150    -999.25   54.71150   11.29500   13.02950   13.02950    -999.25    0.41870    -999.25    0.37620    2.19230    -999.25   11.78670  -50.90130  -21.65190   11.78670
 2500.00000    9.72980    -999.25    9.72980  286.19670    -999.25    0.11760    0.11760    2.18120    -999.25    0.28410    -999.25    0.30920    3.49410   74.39420    -999.25   74.39420    3.49410    3.92550    3.92550    -999.25    0.42980    -999.25    0.38760    2.19570    -999.25    7.58520  -32.29780   -3.33780    7.58520
 2550.00000    9.05630    -999.25    9.05630  263.70840    -999.25    0.01490    0.01490    2.35710    -999.25    0.17750    -999.25    0.20640    3.79500   73.04370    -999.25   73.04370    3.79500    4.24720    4.24720    -999.25    0.41320    -999.25    0.37060    2.35250    -999.25    4.69720  -33.03070   -4.36010    4.69720
 2600.00000    8.51950    -999.25    8.51950  102.10750    -999.25    0.01710    0.01710    2.31880    -999.25    0.20070    -999.25    0.22870    9.79360   64.31090    -999.25   64.31090    9.79360   10.48980   10.48980    -999.25    0.38310    -999.25    0.33990    2.31280    -999.25    8.68900  -38.15190  -10.38320    8.68900
 2650.00000    7.88420    -999.25    7.88420  159.83640    -999.25    0.06890    0.06890    2.28550    -999.25    0.22090    -999.25    0.24820    6.28160   68.60770    -999.25   68.60770    6.28160    7.07120    7.07120    -999.25    0.40510    -999.25    0.36230    2.27570    -999.25    6.90620  -48.63840  -21.91370    6.90620
 2700.00000    7.65860    -999.25    7.65860  190.85060    -999.25    0.08490    0.08490    2.25000    -999.25    0.24240    -999.25    0.26900    5.23970   63.08300    -999.25   63.08300    5.23970    6.12200    6.12200    -999.25    0.46950    -999.25    0.42840    2.24070    -999.25    8.86850  -43.56460  -17.89070    8.86850
