~Version ---------------------------------------------------
VERS.      2.0 : CWLS log ASCII Standard -VERSION 2.0
WRAP.       NO : One line per depth step
CREA. 08/31/13 : LAS Creation Date
~Well ------------------------------------------------------
STRT.M                         450.0 : START DEPTH
STOP.M                        3050.0 : STOP DEPTH
STEP.M                      50.00000 : STEP LENGTH
NULL.                        -999.25 : NULL VALUE
COMP.  AMOCO CANADA COMPANY LIMITED. : COMPANY
WELL. AMOCO ET AL MEEKWAP 4-33-66-16 : WELL
FLD .                                : FIELD
LOC .                                : LOCATION
CTRY.                         CANADA : COUNTRY
SRVC.                  Dresser Atlas : SERVICE COMPANY
DATE.                    27-Feb-1984 : LOGDATE
PROV.                        Alberta : PROVINCE
UWI .               100043306616W500 : UNIQUE WELL ID
SLAT.WGS84                  54.75214 : SURFACE LATITUDE
SLON.WGS84                  -116.363 : SURFACE LONGITUDE
~Curve Information -----------------------------------------
DEPT    .M      : DEPTH METER
ACED    .US/M   : ACOUSTIC FROM SONIC LOG [ADJ. TO RESISTIVITY LOG]
C13ED   .MM     : CALIPER 1-3 PAD ELECTRODE FROM DENSITY LOG [ADJ. TO RESISTIVITY LOG]
C24ED   .MM     : CALIPER 2-4 PAD ELECTRODE FROM DENSITY LOG [ADJ. TO RESISTIVITY LOG]
CALSED  .MM     : CALIPER FROM SONIC LOG [ADJ. TO RESISTIVITY LOG]
CALWS   .MM     : CALIPER [CALSED]
CONDWS  .MMHO   : CONDUCTIVITY [1000/DRESWS]
CORRED  .KG/M3  : DENSITY CORRECTION FROM DENSITY LOG
DCORWS  .KG/M3  : DENSITY CORRECTION [CORRED]
DENWS   .KG/M3  : FORMATION BULK DENSITY [CALC. FROM DPOLSWS, M=2710, F=1000]
DPHILSED.V/V    : DENSITY POROSITY LIMESTONE [M=2710, F=1000] FROM DENSITY LOG [ADJ. TO RESISTIVITY LOG]
DPHISSED.V/V    : DENSITY POROSITY SANDSTONE [M=2650, F=1000] FROM DENSITY LOG [ADJ. TO RESISTIVITY LOG]
DPOLSWS .V/V    : DENSITY POROSITY LIMESTONE [DPHISSED MATRIX CONVERSION FOR LIMESTONE SPL. TO DPHILSED @ 1523 M]
DRESWS  .OHMM   : DEEP RESISTIVITY [RILDED]
DTWS    .US/M   : COMPRESSIONAL SONIC [ACED]
GRDED   .GAPI   : GAMMA RAY FROM DENSITY LOG
GRRED   .GAPI   : GAMMA RAY FROM RESISTIVITY LOG
GRWS    .GAPI   : GAMMA RAY [GRRED]
MRESWS  .OHMM   : MEDIUM RESISTIVITY [RILMED]
NPHILSED.V/V    : NEUTRON POROSITY LIMESTONE FROM DENSITY LOG [ADJ. TO RESISTIVITY LOG]
NPHISSED.V/V    : NEUTRON POROSITY SANDSTONE FROM DENSITY LOG [ADJ. TO RESISTIVITY LOG]
NPOLSWS .V/V    : NEUTRON POROSITY LIMESTONE [NPHISSED MATRIX CONVERSION FOR LIMESTONE SPL. TO NPHILSED @ 1502 M]
RFOCED  .OHMM   : SHALLOW FOCUSED LOG RESISTIVITY FROM RESISTIVITY LOG
RHOBED  .KG/M3  : BULK DENSITY FROM DENSITY LOG [ADJ. TO RESISTIVITY LOG]
RILDED  .OHMM   : INDUCTION DEEP RESISTIVITY FROM RESISTIVITY LOG
RILMED  .OHMM   : INDUCTION MEDIUM RESISTIVITY FROM RESISTIVITY LOG
SPRED   .MV     : SPONTANEOUS POTENTIAL FROM RESISTIVITY LOG
SPWS    .MV     : SPONTANEOUS POTENTIAL [BASELINE 0 MV, SPRED]
SRESWS  .OHMM   : SHALLOW RESISTIVITY [RFOCED]
TENDED  .N      : TENSION FROM DENSITY LOG [ADJ. TO RESISTIVITY LOG]
TENRED  .N      : TENSION FROM RESISTIVITY LOG
~Params ----------------------------------------------------
PD  .                         GL : PERMANENT DATUM
EPD .M                    849.31 : ELEVATION PERMANENT DATUM
LMF .                         KB : LOG MEASURED FROM
DAPD.M                       5.5 : FEET ABOVE PERMANENT DATUM
DMF .                         KB : DRILLING MEASURED FROM
EGL .M                    849.31 : GROUND LEVEL
DATE.                   02/27/84 : RUN DATE
RUN .                          1 : RUN NUMBER
DD  .M                      3064 : DEPTH DRILLER
DL  .M                    3062.6 : DEPTH LOGGER
BLI .M                      3062 : BOTTOM LOG INTERVAL
TLI .M                       466 : TOP LOG INTERVAL
CS  .MM                    244.5 : CASING SIZE
CBD .M                       466 : CASING BOTTOM DRILLER
CBL .M                       466 : CASING BOTTOM LOGGER
BS  .MM                    215.9 : BIT SIZE
BSD .M                      3064 : BIT SIZE AT DEPTH
DFT .                   GEL CHEM : DRILLING FLUID TYPE
DFD .                       1070 : DRILLING FLUID DENSITY
DFPH.                          9 : DRILLING FLUID PH
MSS .                CIRCULATION : MUD SAMPLE SOURCE
RMS .OHMM                      2 : RESISTIVITY MUD SAMPLE
MST .DEGC                   14.4 : MUD SAMPLE TEMPERATURE
RMF .OHMM                    1.8 : RESISTIVITY MUD FILTRATE SAMPLE
MFST.DEGC                   14.4 : MUD FILTRATE SAMPLE TEMPERATURE
RMC .OHMM                    2.5 : RESISTIVITY MUD CAKE
MCST.DEGC                   14.4 : MUD CAKE SAMPLE TEMPERATURE
MFSS.                       MEAS : MUD FILTRATE SAMPLE SOURCE
MCSS.                       MEAS : MUD CAKE SAMPLE SOURCE
LUN .                    HL 6219 : LOGGING UNIT NUMBER
LUL .                         GP : LOGGING UNIT LOCATION
ENGI.                      MARYC : RECORDING ENGINEER
CLNT.                    A2DTECH : CLIENT CODE
ORIG. 6.5"/100M 16.5"/100M PRINT : ORIGIN OF DATA
UWI .           100043306616W500 : UNIQUE WELL ID
DICO.     A2D Technologies, Inc. : DIGITIZING COMPANY
~Other -----------------------------------------------------
DIFL-BHC-GR LOG RAN IN COMBO & CNFD LOG RAN
TELLURIC DRIFT EFFECTING SP REPEATABILITY OFF BOTTOM
NEUTRON POROSITY COMPUTED WITH CALIPER CORRECTION
~ASCII -----------------------------------------------------
# ...
 1650.00000  183.67410  258.18760  264.40490  243.85210  243.85210   74.35660   71.71300   71.71300 2701.27900    0.00510    -999.25    0.00510   13.44870  183.67410   44.61670   41.28190   41.28190   17.10970    0.12560    -999.25    0.12560   41.41820 2703.08840   13.44870   17.10970  -87.66510  -39.06580   41.41820 7770253.66550 -257452.31580
 1700.00000  186.60580  260.65710  273.08860  245.89130  245.89130   61.00460  107.24620  107.24620 2741.46400   -0.01840    -999.25   -0.01840   16.39220  186.60580   44.80920   40.08810   40.08810   18.59130    0.07860    -999.25    0.07860   24.44930 2742.77250   16.39220   18.59130  -88.29890  -22.00940   24.44930 8492157.23700 -167376.24590
 1750.00000  176.27950  251.36750  284.83830  248.62330  248.62330   37.86270   77.93240   77.93240 2677.16800    0.01920    -999.25    0.01920   26.41120  176.27950    9.42080   11.14600   11.14600   39.84090    0.04840    -999.25    0.04840  156.50610 2672.43950   26.41120   39.84090 -188.33990 -109.52730  156.50610 7993688.12040 -203780.26950
 1800.00000  208.10070  273.64650  284.77530  258.63680  258.63680  307.57870  126.08360  126.08360 2762.49700   -0.03070    -999.25   -0.03070    3.25120  208.10070   66.11840   61.16170   61.16170    3.86930    0.13540    -999.25    0.13540   17.88540 2767.16890    3.25120    3.86930 -149.42290  -80.24140   17.88540 9239411.42960 -217693.11570
 1850.00000  179.10630  230.26600  236.54990  216.50540  216.50540   12.61590  123.64050  123.64050 2782.67500   -0.04250    -999.25   -0.04250   79.26500  179.10630   36.21920   36.08960   36.08960   86.84750    0.03410    -999.25    0.03410  233.70900 2775.28980   79.26500   86.84750  -75.23340  -36.36050  233.70900 8305765.33110 -193777.60480
 1900.00000  177.65650  229.38220  220.39840  197.27780  197.27780   21.20240  105.27570  105.27570 2760.27400   -0.02940    -999.25   -0.02940   47.16440  177.65650   27.12390   25.09930   25.09930   49.77910    0.03390    -999.25    0.03390   54.80930 2761.82130   47.16440   49.77910  -37.55930  -27.79240   54.80930 8142044.21580 -224562.42640
 1950.00000  212.13460  246.38780  270.53980  226.08270  226.08270   61.69640  130.54350  130.54350 2701.96300    0.00470    -999.25    0.00470   16.20840  212.13460   62.01900   61.45610   61.45610   17.17190    0.12820    -999.25    0.12820   21.33040 2700.13700   16.20840   17.17190  -66.42990  -69.44210   21.33040 7780966.70080 -252961.98330
 2000.00000  162.82370  234.08530  266.56230  221.33830  221.33830    5.64760   68.07770   68.07770 2748.13300   -0.02230    -999.25   -0.02230  177.06520  162.82370   10.13320   11.28270   11.28270  159.79720    0.01570    -999.25    0.01570  335.34470 2753.01270  177.06520  159.79720 -136.05730 -151.84860  335.34470 7594320.64200 -218106.22630
 2050.00000  159.96440  229.96010  260.45940  211.10720  211.10720    4.61580   74.20210   74.20210 2736.33400   -0.01540    -999.25   -0.01540  216.64940  159.96440    7.04310    8.49870    8.49870  196.39710    0.01540    -999.25    0.01540  266.17300 2729.72270  216.64940  196.39710 -181.52980 -210.10020  266.17300 8677008.95890 -295033.70460
 2100.00000  166.51240  231.15350  258.17470  219.50990  219.50990   11.52980   94.35890   94.35890 2712.22300   -0.00130    -999.25   -0.00130   86.73180  166.51240    5.13410    7.11150    7.11150   91.29380    0.02750    -999.25    0.02750  178.52300 2716.05250   86.73180   91.29380 -117.12020 -158.46970  178.52300 7249500.82480 -340320.50400
 2150.00000  160.83230  229.60300  274.29760  213.84100  213.84100    0.50000  108.54870  108.54870 2730.86200   -0.01220    -999.25   -0.01220 2000.00000  160.83230    7.06030   10.75830   10.75830 2004.62080    0.00510    -999.25    0.00510 2000.00000 2769.85110 2000.00000 2004.62080 -141.46150 -195.59020 2000.00000 8265459.20850 -180261.70400
 2200.00000  156.75240  231.06750  280.76060  219.91740  219.91740    7.50690  152.93800  152.93800 2772.92800   -0.03680    -999.25   -0.03680  133.21050  156.75240   17.34420   19.12690   19.12690   62.89580    0.03390    -999.25    0.03390  130.70820 2773.24630  133.21050   62.89580 -116.17750 -183.08530  130.70820 7789826.12680 -64572.77750
 2250.00000  160.49000  255.98090  220.91980  218.33680  218.33680   24.35180  119.26860  119.26860 2751.89500   -0.02450    -999.25   -0.02450   41.06470  160.49000   19.40780   21.44830   21.44830   54.88460    0.09220    -999.25    0.09220   89.78470 2740.62870   41.06470   54.88460    2.17520  -80.29810   89.78470 7613107.29510 -307409.95910
 2300.00000  169.64570  252.73920  223.01000  211.09560  211.09560   17.01150   95.63690   95.63690 2701.79200    0.00480    -999.25    0.00480   58.78380  169.64570    9.62180   13.69060   13.69060   51.56590    0.04700    -999.25    0.04700  135.02870 2697.70290   58.78380   51.56590 -133.23870 -234.68320  135.02870 7819941.88880 -191960.81630
 2350.00000  174.97330  244.08370  321.97150  240.82190  240.82190   92.61230  143.75630  143.75630 2687.42800    0.01320    -999.25    0.01320   10.79770  174.97330   67.64390   60.73110   60.73110   10.44940    0.10520    -999.25    0.10520   14.11890 2656.16430   10.79770   10.44940  -38.44730 -158.86290   14.11890 8410166.45970 -173748.02770
 2400.00000  272.52410  380.97920    -999.25  356.23730  356.23730  244.64830  139.57260  139.57260 1806.94900    0.52810    -999.25    0.52810    4.08750  272.52410   77.66480   70.59090   70.59090    3.31090    0.28500    -999.25    0.28500    4.26360 1810.55930    4.08750    3.31090  -20.46670 -162.21650    4.26360 8740840.83150 -145148.20190
 2450.00000  255.39060  368.59850    -999.25  347.06030  347.06030  186.25100  331.33660  331.33660 2313.10900    0.23210    -999.25    0.23210    5.36910  255.39060   76.04590   70.26530   70.26530    4.76400    0.24180    -999.25    0.24180    5.62610 2276.74950    5.36910    4.76400  -17.00930 -181.62970    5.62610 6614985.41020 -305939.82420
 2500.00000  222.04130  261.74530  272.12150  249.43900  249.43900  101.68800  120.39240  120.39240 2657.67400    0.03060    -999.25    0.03060    9.83400  222.04130   73.95050   68.91710   68.91710   10.52200    0.16220    -999.25    0.16220   11.08140 2706.88230    9.83400   10.52200   57.72160 -127.03440   11.08140 8121854.78280 -238762.65390
 2550.00000  247.98510  277.76720  360.48550  294.39730  294.39730  177.75250  318.27600  318.27600 2590.47100    0.06990    -999.25    0.06990    5.62580  247.98510   89.47560   89.00540   89.00540    5.82270    0.20650    -999.25    0.20650    6.39810 2571.37260    5.62580    5.82270   -1.31130 -202.96690    6.39810 8684614.68410 -202620.86570
 2600.00000  228.35330  242.93680  306.13800  239.73160  239.73160  143.19470  105.30020  105.30020 2573.71300    0.07970    -999.25    0.07970    6.98350  228.35330   83.91540   79.65090   79.65090    7.59180    0.18950    -999.25    0.18950    8.91210 2574.25830    6.98350    7.59180   65.19550 -153.35970    8.91210 8242518.09970 -229435.33520
 2650.00000  253.87240  272.72180  376.74670  289.49270  289.49270  130.54660  311.43710  311.43710 2417.59000    0.17100    -999.25    0.17100    7.66010  253.87240   89.77140   86.80870   86.80870    8.01800    0.22410    -999.25    0.22410    9.11500 2418.30080    7.66010    8.01800  171.45740  -63.99740    9.11500 7044363.57680 -173214.57620
 2700.00000  166.62290  238.24240  232.34000  242.52490  242.52490   10.47450  102.49110  102.49110 2802.68200   -0.05420    -999.25   -0.05420   95.46990  166.62290   36.20440   34.07080   34.07080  157.35340    0.02780    -999.25    0.02780  230.84750 2790.24440   95.46990  157.35340  183.10400  -69.25040  230.84750 8156962.89650 -201837.75170
 2750.00000  210.12590  248.54960  232.35540  222.00280  222.00280   73.87650  375.03880  375.03880 2712.39400   -0.00140    -999.25   -0.00140   13.53610  210.12590   70.15260   65.19280   65.19280   14.06700    0.17220    -999.25    0.17220   17.10690 2731.12060   13.53610   14.06700  249.02150   -7.72300   17.10690 8549752.03780 -203380.62990
