~Version ---------------------------------------------------
VERS.      2.0 : CWLS log ASCII Standard -VERSION 2.0
WRAP.       NO : One line per depth step
CREA. 11/14/17 : LAS Creation Date
~Well ------------------------------------------------------
STRT.FT                             950.0 : START DEPTH
STOP.FT                           10850.0 : STOP DEPTH
STEP.FT                          50.00000 : STEP LENGTH
NULL.                             -999.25 : NULL VALUE
COMP.        CANADIAN HOMESTEAD OILS LTD. : COMPANY
WELL. HOMESTEAD ET AL ROSEVEAR 11-5-55-15 : WELL
FLD .                                     : FIELD
LOC .                                     : LOCATION
CTRY.                              CANADA : COUNTRY
SRVC.              Schlumberger of Canada : SERVICE COMPANY
DATE.                         05-Oct-1975 : LOGDATE
PROV.                             Alberta : PROVINCE
UWI .                    100110505515W500 : UNIQUE WELL ID
SLAT.WGS84                       53.72589 : SURFACE LATITUDE
SLON.WGS84                      -116.1973 : SURFACE LONGITUDE
~Curve Information -----------------------------------------
DEPT    .FT    : Depth Curve
CALDED  .IN    : CALIPER FROM DENSITY LOG
CALSED  .IN    : CALIPER FROM SONIC LOG
CALWS   .IN    : CALIPER [CALDED]
CONDWS  .MMHO  : CONDUCTIVITY [1000/DRESWS]
DCORWS  .G/C3  : DENSITY CORRECTION [DRHOED]
DENWS   .G/C3  : FORMATION BULK DENSITY [RHOBED]
DPHILSED.V/V   : DENSITY POROSITY LIME [M=2.71, F=1.00] FROM DENSITY LOG [ADJ. TO RHOBED]
DPHISSED.V/V   : DENSITY POROSITY SAND [M=2.65, F=1.00] FROM DENSITY LOG [ADJ. TO RHOBED]
DPOLSWS .V/V   : DENSITY POROSITY LIME [CALC FROM DENWS, M=2.71, F=1.00]
DRESWS  .OHMM  : DEEP RESISTIVITY [ILDED]
DRHOED  .G/C3  : DENSITY CORRECTION FROM DENSITY LOG
DTED    .US/F  : DELTA-T FROM SONIC LOG [ADJ. TO DENSITY LOG]
DTWS    .US/F  : COMPRESSIONAL SONIC [DTED]
GRDED   .GAPI  : GAMMA RAY FROM DENSITY LOG
GRSED   .GAPI  : GAMMA RAY FROM SONIC LOG
GRWS    .GAPI  : GAMMA RAY [GRSED SPL. TO GRDED @ 1083']
ILDED   .OHMM  : DEEP INDUCTION RESISTIVITY FROM RESISTIVITY LOG
ILMED   .OHMM  : INDUCTION MEDIUM RESISTIVITY FROM RESISTIVITY LOG
LL8ED   .OHMM  : LATEROLOG-8 RESISTIVITY FROM RESISTIVITY LOG
MRESWS  .OHMM  : MEDIUM RESISTIVITY [ILMED]
NPHILSED.V/V   : NEUTRON POROSITY LIME FROM DENSITY LOG
NPHISSED.V/V   : NEUTRON POROSITY SAND FROM DENSITY LOG
NPOLSWS .V/V   : NEUTRON POROSITY LIME [SS MATRIX CONVERT TO LS & SPL. TO LS @ 7306']
RHOBED  .G/C3  : BULK DENSITY FROM DENSITY LOG
SPRED   .MV    : SPONTANEOUS POTENTIAL FROM RESISTIVITY LOG
SPWS    .MV    : SPONTANEOUS POTENTIAL [BASELINE 0 MV, SPRED]
SRESWS  .OHMM  : SHALLOW RESISTIVITY [LL8ED]
~Params ----------------------------------------------------
PD  .                     GL : PERMANENT DATUM
EPD .FT               2836.1 : ELEVATION PERMANENT DATUM
LMF .                     KB : LOG MEASURED FROM
DAPD.FT                15.85 : FEET ABOVE PERMANENT DATUM
EKB .FT              2851.95 : KELLY BUSHING
EGL .FT               2836.1 : GROUND LEVEL
DATE.               10/05/75 : RUN DATE
RUN .                      1 : RUN NUMBER
DD  .FT                10878 : DEPTH DRILLER
DL  .FT                10878 : DEPTH LOGGER
BLI .FT                10872 : BOTTOM LOG INTERVAL
TLI .FT                 1099 : TOP LOG INTERVAL
CBD .FT                 1096 : CASING BOTTOM DRILLER
CBL .FT                 1099 : CASING BOTTOM LOGGER
BS  .IN                 8.75 : BIT SIZE
BSD .FT                10878 : BIT SIZE AT DEPTH
DFT .               GEL CHEM : DRILLING FLUID TYPE
DFD .                    9.7 : DRILLING FLUID DENSITY
DFV .                    487 : DRILLING FLUID VISCOSITY
DFPH.                   10.5 : DRILLING FLUID PH
MSS .             CIRCULATED : MUD SAMPLE SOURCE
RMS .OHMM               1.34 : RESISTIVITY MUD SAMPLE
MST .DEGF                 64 : MUD SAMPLE TEMPERATURE
RMF .OHMM               0.91 : RESISTIVITY MUD FILTRATE SAMPLE
MFST.DEGF                 74 : MUD FILTRATE SAMPLE TEMPERATURE
RMB .OHMM               0.34 : RESISTIVITY MUD AT BHT
TCS .HRS                   4 : TIME CIRCULATED STOPPED
LUN .                   7690 : LOGGING UNIT NUMBER
LUL .                    EDM : LOGGING UNIT LOCATION
ENGI.     WILLIGER WILTSHIRE : RECORDING ENGINEER
WITN.                  SLOAN : WITNESSED BY
CLNT.                A2DTECH : CLIENT CODE
ORIG.            2" 5" PRINT : ORIGIN OF DATA
UWI .       100110505515W500 : UNIQUE WELL ID
DICO. A2D Technologies, Inc. : DIGITIZING COMPANY
~Other -----------------------------------------------------
~ASCII -----------------------------------------------------
# ...
 4850.00000   13.63860   15.43300   13.63860  112.57460    0.13710    2.43050    -999.25    0.14340    0.16350    8.88300    0.13710   82.50120   82.50120   96.41500   27.30450   96.41500    8.88300    8.37460   10.21750    8.37460    -999.25    0.31790    0.27400    2.43050 -135.92410   -8.55750   10.21750
 4900.00000   12.11780   15.41700   12.11780  110.15400    0.16460    2.57340    -999.25    0.04750    0.07990    9.07820    0.16460   82.55200   82.55200  109.93920   27.14990  109.93920    9.07820    8.95950    8.50760    8.95950    -999.25    0.28640    0.24240    2.57340 -136.29790   -9.30240    8.50760
 4950.00000   11.52050   14.21040   11.52050  124.17420    0.11080    2.65320    -999.25    0.00120    0.03320    8.05320    0.11080   81.77680   81.77680  106.37450   28.43210  106.37450    8.05320    7.75090    9.00590    7.75090    -999.25    0.29770    0.25370    2.65320 -134.27010   -7.64820    9.00590
 5000.00000   12.34460   15.42660   12.34460  126.15110    0.08540    2.59300    -999.25    0.03610    0.06840    7.92700    0.08540   84.91480   84.91480  107.15470   27.18330  107.15470    7.92700    7.75090    8.55120    7.75090    -999.25    0.33930    0.29560    2.59300 -134.00790   -7.75710    8.55120
 5050.00000   13.09050   15.34470   13.09050  125.66320    0.20130    1.99970    -999.25    0.38920    0.41540    7.95780    0.20130   79.70190   79.70190   93.08970   28.21590   93.08970    7.95780    7.81350    8.56430    7.81350    -999.25    0.34950    0.30580    1.99970 -134.28610   -8.40640    8.56430
 5100.00000   13.58800   15.42950   13.58800  127.71560    0.17350    2.04230    -999.25    0.37480    0.39050    7.82990    0.17350   84.63070   84.63070   87.74620   24.09300   87.74620    7.82990    6.85990    8.30360    6.85990    -999.25    0.41070    0.36800    2.04230 -134.56700   -9.06090    8.30360
 5150.00000    9.14690   12.33370    9.14690   65.30950    0.23880    2.48940    -999.25    0.09970    0.12900   15.31170    0.23880   77.86120   77.86120   54.20300   20.88030   54.20300   15.31170   13.32500   18.85390   13.32500    -999.25    0.24660    0.20270    2.48940 -138.66220  -13.52720   18.85390
 5200.00000   11.44750   13.37010   11.44750   77.77320    0.14390    2.23400    -999.25    0.25330    0.27840   12.85790    0.14390   75.71940   75.71940   93.28660   27.72600   93.28660   12.85790   11.16630   13.48500   11.16630    -999.25    0.23710    0.19330    2.23400 -133.87190   -9.11050   13.48500
 5250.00000   13.28520   11.31390   13.28520   86.03700    0.11360    2.32170    -999.25    0.20500    0.22710   11.62290    0.11360   78.66530   78.66530  102.04740   27.58500  102.04740   11.62290   10.76440   11.94220   10.76440    -999.25    0.25840    0.21450    2.32170 -133.59510   -9.20480   11.94220
 5300.00000   12.96220   12.04980   12.96220   79.18980    0.19170    1.94260    -999.25    0.43380    0.44880   12.62820    0.19170   77.45630   77.45630   96.91950   24.59350   96.91950   12.62820   10.36930   13.58040   10.36930    -999.25    0.31210    0.26820    1.94260 -132.92510   -8.90590   13.58040
 5350.00000   11.17440   14.17240   11.17440   90.55840    0.19760    2.25800    -999.25    0.24440    0.26430   11.04260    0.19760   79.03280   79.03280  107.26790   28.81350  107.26790   11.04260    9.61780   10.86250    9.61780    -999.25    0.29650    0.25250    2.25800 -132.13620   -8.49060   10.86250
 5400.00000   10.47700   11.52540   10.47700  125.79250    0.07400    2.20370    -999.25    0.27150    0.29610    7.94960    0.07400   85.66910   85.66910  105.51560   25.16780  105.51560    7.94960    7.32450    8.54170    7.32450    -999.25    0.35780    0.31430    2.20370 -131.09450   -7.82000    8.54170
 5450.00000   12.70900   14.21560   12.70900  106.31620    0.20340    2.26950    -999.25    0.23160    0.25760    9.40590    0.20340   84.94440   84.94440   92.76980   24.27380   92.76980    9.40590    7.25710   10.06750    7.25710    -999.25    0.39210    0.34910    2.26950 -130.58890   -7.68800   10.06750
 5500.00000   12.01200   12.01530   12.01200  110.96190    0.15680    2.17930    -999.25    0.29800    0.31040    9.01210    0.15680   89.13320   89.13320  112.52090   25.86280  112.52090    9.01210    7.41080    9.36920    7.41080    -999.25    0.38530    0.34220    2.17930 -129.83580   -7.30600    9.36920
 5550.00000    -999.25   10.08010    -999.25   76.10930    0.12000    1.54250    -999.25    0.45040    0.68270   13.13900    0.12000   95.41510   95.41510  101.23330   19.96510  101.23330   13.13900    8.24280   13.23820    8.24280    -999.25    0.55960    0.51790    1.54250 -129.42200   -7.26340   13.23820
 5600.00000   11.52370   12.17250   11.52370   75.74550    0.24000    2.51340    -999.25    0.07210    0.11500   13.20210    0.24000   85.56670   85.56670  108.06000   28.27630  108.06000   13.20210   11.26150   16.55270   11.26150    -999.25    0.40070    0.35780    2.51340 -129.11280   -7.32770   16.55270
 5650.00000   14.98500    9.86400   14.98500   78.53610    0.16860    2.01210    -999.25    0.38930    0.40810   12.73300    0.16860   90.19200   90.19200  110.81440   28.13870  110.81440   12.73300   10.79450   14.88140   10.79450    -999.25    0.37140    0.32800    2.01210 -128.34010   -6.92620   14.88140
 5700.00000   12.47100   11.22820   12.47100   69.54200    0.23030    2.00890    -999.25    0.40050    0.41000   14.37980    0.23030   95.15990   95.15990  104.96240   24.84960  104.96240   14.37980   11.82880   17.40850   11.82880    -999.25    0.39680    0.35390    2.00890 -127.63610   -6.59570   17.40850
 5750.00000    -999.25   10.78560    -999.25  118.65070    0.16890    1.73980    -999.25    0.45020    0.56740    8.42810    0.16890  146.97720  146.97720   91.08910   20.65030   91.08910    8.42810    6.68480    9.24680    6.68480    -999.25    0.54830    0.50660    1.73980 -126.45530   -5.78610    9.24680
 5800.00000    -999.25   15.43840    -999.25   87.43890    0.11990    1.55510    -999.25    0.45030    0.67540   11.43670    0.11990   92.30180   92.30180   86.67600   26.92690   86.67600   11.43670    9.16070   12.50660    9.16070    -999.25    0.47280    0.43120    1.55510 -128.34410   -8.04600   12.50660
 5850.00000    -999.25   10.61490    -999.25  110.21710    0.07670    1.46780    -999.25    0.44900    0.72640    9.07300    0.07670   93.62000   93.62000   67.90900   19.57750   67.90900    9.07300    3.59100    7.74660    3.59100    -999.25    0.59800    0.55630    1.46780 -127.50220   -7.57770    7.74660
 5900.00000    -999.25   14.15240    -999.25   82.92290    0.13900    1.72640    -999.25    0.45010    0.57520   12.05940    0.13900  101.24190  101.24190   86.34730   23.73690   86.34730   12.05940   10.84360   12.76210   10.84360    -999.25    0.42460    0.38230    1.72640 -127.92340   -8.37000   12.76210
 5950.00000   12.93490   10.27660   12.93490  147.20600    0.06230    2.66250    -999.25   -0.00970    0.02780    6.79320    0.06230   78.92680   78.92680   96.57340   24.98370   96.57340    6.79320    5.81790    7.09160    5.81790    -999.25    0.23290    0.18910    2.66250 -126.63170   -7.45190    7.09160
 6000.00000   14.74760   12.38190   14.74760  106.60750    0.14850    2.53440    -999.25    0.05010    0.10270    9.38020    0.14850   87.71640   87.71640   96.03190   22.07960   96.03190    9.38020    7.90770   11.55720    7.90770    -999.25    0.33730    0.29350    2.53440 -127.00380   -8.19510   11.55720
 6050.00000   14.99820   10.69940   14.99820  110.39820    0.05220    2.62860    -999.25    0.01410    0.04760    9.05820    0.05220   89.16630   89.16630  102.77160   25.48280  102.77160    9.05820    7.04080    9.56620    7.04080    -999.25    0.27030    0.22640    2.62860 -126.10670   -7.66910    9.56620
 6100.00000    -999.25   15.24580    -999.25  133.63450    0.04790    2.55950    -999.25    0.06240    0.08800    7.48310    0.04790   86.58190   86.58190  101.67390   22.40890  101.67390    7.48310    5.79130    7.12670    5.79130    -999.25    0.29670    0.25270    2.55950 -125.12440   -7.06040    7.12670
