~Version ---------------------------------------------------
VERS.      2.0 : CWLS log ASCII Standard -VERSION 2.0
WRAP.       NO : One line per depth step
CREA. 10/25/17 : LAS Creation Date
~Well ------------------------------------------------------
STRT.FT                 1200.0 : START DEPTH
STOP.FT                12350.0 : STOP DEPTH
STEP.FT               50.00000 : STEP LENGTH
NULL.                  -999.25 : NULL VALUE
COMP.     CHEVRON STANDARD LTD : COMPANY
WELL. CHEVRON EDSON 7-28-52-17 : WELL
FLD .                          : FIELD
LOC .                          : LOCATION
CTRY.                   CANADA : COUNTRY
SRVC.             Schlumberger : SERVICE COMPANY
DATE.              18-Oct-1968 : LOGDATE
PROV.                  Alberta : PROVINCE
UWI .         100072805217W500 : UNIQUE WELL ID
SLAT.WGS84             53.5164 : SURFACE LATITUDE
SLON.WGS84           -116.4412 : SURFACE LONGITUDE
~Curve Information -----------------------------------------
DEPT    .FT    : Depth Curve
CALDED  .IN    : CALIPER FROM FDC LOG [ADJ.TO RESISTIVITY LOG]
CALNED  .IN    : CALIPER FROM SNP LOG [ADJ.TO RESISTIVITY LOG]
CALSED  .IN    : CALIPER FROM SONIC LOG [ADJ. TO RESISTIVITY LOG]
CALWS   .IN    : CALIPER [CALSED]
CILDED  .MMHO  : DEEP CONDUCTIVITY FROM RESISTIVITY LOG
CONDWS  .MMHO  : CONDUCTIVITY [1000/DRESWS]
DCORED  .G/C3  : DENSITY CORRECTION FROM FDC LOG  [ADJ.TO RESISTIVITY LOG]
DCORWS  .G/C3  : DENSITY CORRECTION [DCORED]
DENWS   .G/C3  : FORMATION BULK DENSITY [RHOBED]
DPHILSED.V/V   : DENSITY POROSITY LIMESTONE [M=2.71, F=1.00] FROM FDC LOG [ADJ. TO RESISTIVITY LOG]
DPOLSWS .V/V   : DENSITY POROSITY LIMESTONE [DPHILSED]
DRESWS  .OHMM  : DEEP RESISTIVITY [ILDED]
DTED    .US/F  : DELTA TIME FROM SONIC LOG [ADJ. TO RESISTIVITY LOG]
DTWS    .US/F  : COMPRESSIONAL SONIC [DTED]
GRDED   .GAPI  : GAMMA RAY FROM SNP-FDC LOG [ADJ. TO RESISTIVITY LOG]
GRNED   .GAPI  : GAMMA RAY FROM SNP LOG  [ADJ. TO RESISTIVITY LOG]
GRSED   .GAPI  : GAMMA RAY FROM SONIC LOG [ADJ. TO RESISTIVITY LOG]
GRWS    .GAPI  : GAMMA RAY [GRSED SPL. TO GRDED @ 12330']
ILDED   .OHMM  : DEEP INDUCTION FROM RESISTIVITY LOG
NPOLSWS .V/V   : NEUTRON POROSITY LIMESONTE [SNPLSED]
RHOBED  .G/C3  : BULK DENSITY FROM FDC LOG [ADJ.TO RESISTIVITY LOG]
SNED    .OHMM  : SHORT NORMAL 16" FROM RESISTIVITY LOG
SNPLSED .V/V   : SIDEWALL NEUTRON POROSITY LIMESONTE FROM SNP LOG [ADJ.TO RESISTIVITY LOG]
SPRED   .MV    : SPONTANEOUS POTENTIAL FROM RESISTIVITY LOG
SPWS    .MV    : SPONTANEOUS POTENTIAL [BASELINE 0 MV, SPRED]
SRESWS  .OHMM  : SHALLOW RESISTIVITY [SNED]
~Params ----------------------------------------------------
PD  .                     GL : PERMANENT DATUM
EPD .FT                 3060 : ELEVATION PERMANENT DATUM
LMF .                     KB : LOG MEASURED FROM
DAPD.FT                   13 : FEET ABOVE PERMANENT DATUM
EKB .FT                 3073 : KELLY BUSHING
EGL .FT                 3060 : GROUND LEVEL
DATE.               10/18/68 : RUN DATE
RUN .                      1 : RUN NUMBER
DD  .FT                12360 : DEPTH DRILLER
DL  .FT                12367 : DEPTH LOGGER
BLI .FT                12366 : BOTTOM LOG INTERVAL
TLI .FT                 1258 : TOP LOG INTERVAL
CBD .FT                 1258 : CASING BOTTOM DRILLER
CBL .FT                 1258 : CASING BOTTOM LOGGER
BS  .IN                 8.75 : BIT SIZE
BSD .FT                12360 : BIT SIZE AT DEPTH
DFT .                    GEL : DRILLING FLUID TYPE
DFD .                    9.8 : DRILLING FLUID DENSITY
DFV .                     69 : DRILLING FLUID VISCOSITY
DFPH.                   10.5 : DRILLING FLUID PH
DFL .                    6.3 : DRILLING FLUID LOSS
RMF .OHMM               0.93 : RESISTIVITY MUD FILTRATE SAMPLE
MFST.DEGF                 63 : MUD FILTRATE SAMPLE TEMPERATURE
RMC .OHMM               1.94 : RESISTIVITY MUD CAKE
MCST.DEGF                 67 : MUD CAKE SAMPLE TEMPERATURE
TCS .HRS                   4 : TIME CIRCULATED STOPPED
LUN .                   7501 : LOGGING UNIT NUMBER
LUL .                    EDM : LOGGING UNIT LOCATION
ENGI.               CHADDOCK : RECORDING ENGINEER
WITN.                HOVDEBO : WITNESSED BY
CLNT.                A2DTECH : CLIENT CODE
ORIG.            2" 5" PRINT : ORIGIN OF DATA
UWI .       100072805217W500 : UNIQUE WELL ID
DICO. A2D Technologies, Inc. : DIGITIZING COMPANY
~Other -----------------------------------------------------
~ASCII -----------------------------------------------------
# ...
 6600.00000    -999.25    -999.25   12.24780   12.74990   98.23150  104.63430    -999.25    -999.25    -999.25    -999.25    -999.25    9.55710   79.18840   79.18840    -999.25    -999.25   76.24820   72.42790    9.55710    -999.25    -999.25   10.37720    -999.25 -143.01090   -3.91310   10.37720
 6650.00000    -999.25    -999.25   13.16150   13.73580   79.42630   90.40940    -999.25    -999.25    -999.25    -999.25    -999.25   11.06080   80.36390   80.36390    -999.25    -999.25   80.14730   82.36210   11.06080    -999.25    -999.25   12.98720    -999.25 -142.31460   -4.05710   12.98720
 6700.00000    -999.25    -999.25   13.22280   13.58950  115.06870  125.83360    -999.25    -999.25    -999.25    -999.25    -999.25    7.94700   83.11170   83.11170    -999.25    -999.25   75.60010   77.31890    7.94700    -999.25    -999.25    9.76320    -999.25 -140.49930   -3.08760    9.76320
 6750.00000    -999.25    -999.25   14.37790   15.20220   95.62100   98.24050    -999.25    -999.25    -999.25    -999.25    -999.25   10.17910   90.97210   90.97210    -999.25    -999.25   76.78430   76.74650   10.17910    -999.25    -999.25    9.69810    -999.25 -138.92230   -2.35100    9.69810
 6800.00000    -999.25    -999.25   11.62380   13.73130  100.29900  107.87930    -999.25    -999.25    -999.25    -999.25    -999.25    9.27030   91.39820   91.39820    -999.25    -999.25   80.57150   79.06700    9.27030    -999.25    -999.25   11.16150    -999.25 -137.22210   -1.49110   11.16150
 6850.00000    -999.25    -999.25   15.00000   15.00000   81.80620   90.54280    -999.25    -999.25    -999.25    -999.25    -999.25   11.04450   86.78560   86.78560    -999.25    -999.25   74.96320   84.12990   11.04450    -999.25    -999.25   11.54670    -999.25 -136.92500   -2.03990   11.54670
 6900.00000    -999.25    -999.25   11.24900   11.43040   84.15280   92.41800    -999.25    -999.25    -999.25    -999.25    -999.25   10.82040   87.61500   87.61500    -999.25    -999.25   94.55850   96.22850   10.82040    -999.25    -999.25   13.07790    -999.25 -135.88750   -1.84270   13.07790
 6950.00000    -999.25    -999.25   14.38060   12.99860   82.29670   89.25620    -999.25    -999.25    -999.25    -999.25    -999.25   11.20370   89.91400   89.91400    -999.25    -999.25   81.66840   78.43150   11.20370    -999.25    -999.25   13.27660    -999.25 -134.35750   -1.15850   13.27660
 7000.00000    -999.25    -999.25   13.76350   12.87590   89.25670   95.60870    -999.25    -999.25    -999.25    -999.25    -999.25   10.45930   88.34460   88.34460    -999.25    -999.25   83.37000   88.53140   10.45930    -999.25    -999.25   15.64490    -999.25 -134.21620   -1.85760   15.64490
 7050.00000    -999.25    -999.25   15.21140   15.01370   48.76990   51.97420    -999.25    -999.25    -999.25    -999.25    -999.25   19.28420   88.89800   88.89800    -999.25    -999.25   93.21080   94.16080   19.28420    -999.25    -999.25   15.91730    -999.25 -133.83170   -2.31340   15.91730
 7100.00000    -999.25    -999.25   15.00000   15.00000  110.58470  118.70700    -999.25    -999.25    -999.25    -999.25    -999.25    8.42410  105.67600  105.67600    -999.25    -999.25   56.23390   52.99390    8.42410    -999.25    -999.25    6.49060    -999.25 -134.28580   -3.26410    6.49060
 7150.00000    -999.25    -999.25   15.00000   15.00000  110.89780  121.94680    -999.25    -999.25    -999.25    -999.25    -999.25    8.20030   87.67530   87.67530    -999.25    -999.25   75.81180   77.85170    8.20030    -999.25    -999.25   10.11670    -999.25 -132.72600   -1.86410   10.11670
 7200.00000    -999.25    -999.25   15.00000   14.70920   74.33250   81.64000    -999.25    -999.25    -999.25    -999.25    -999.25   12.24890  109.57250  109.57250    -999.25    -999.25   63.92760   72.20260   12.24890    -999.25    -999.25   11.78230    -999.25 -133.51540   -2.81440   11.78230
 7250.00000    -999.25    -999.25   15.02110   15.24730  159.96130  167.34160    -999.25    -999.25    -999.25    -999.25    -999.25    5.97580   92.23680   92.23680    -999.25    -999.25   66.16310   66.01410    5.97580    -999.25    -999.25    5.93420    -999.25 -135.10650   -4.56530    5.93420
 7300.00000    -999.25    -999.25   14.23860   15.03810  139.62690  146.30020    -999.25    -999.25    -999.25    -999.25    -999.25    6.84200   87.80130   87.80130    -999.25    -999.25   68.32820   67.85650    6.84200    -999.25    -999.25    6.70790    -999.25 -133.37290   -2.99150    6.70790
 7350.00000    -999.25    -999.25   15.00000   15.00000  173.28980  182.41850    -999.25    -999.25    -999.25    -999.25    -999.25    5.48190   86.94370   86.94370    -999.25    -999.25   56.01690   56.16460    5.48190    -999.25    -999.25    4.84870    -999.25 -132.72360   -2.50310    4.84870
 7400.00000    -999.25    -999.25   12.18940   11.95480  134.21140  147.96180    -999.25    -999.25    -999.25    -999.25    -999.25    6.75850   80.95650   80.95650    -999.25    -999.25   73.54870   73.18240    6.75850    -999.25    -999.25    8.51950    -999.25 -132.15960   -2.09890    8.51950
 7450.00000    -999.25    -999.25   13.49900   12.13430  153.97460  171.74750    -999.25    -999.25    -999.25    -999.25    -999.25    5.82250   82.54870   82.54870    -999.25    -999.25   68.73050   77.80860    5.82250    -999.25    -999.25    7.25240    -999.25 -131.18930   -1.28940    7.25240
 7500.00000    -999.25    -999.25   15.00000   15.28360  157.32570  168.49770    -999.25    -999.25    -999.25    -999.25    -999.25    5.93480   92.99350   92.99350    -999.25    -999.25   64.21500   69.35890    5.93480    -999.25    -999.25    7.04280    -999.25 -132.30550   -2.57880    7.04280
 7550.00000    -999.25    -999.25   14.41180   15.00000  280.53310  319.62540    -999.25    -999.25    -999.25    -999.25    -999.25    3.12900   97.06300   97.06300    -999.25    -999.25  123.82060   60.63110    3.12900    -999.25    -999.25    4.84570    -999.25 -131.64010   -2.14340    4.84570
 7600.00000    -999.25    -999.25   15.00000   13.53970  201.05830  224.62320    -999.25    -999.25    -999.25    -999.25    -999.25    4.45190   89.77870   89.77870    -999.25    -999.25   64.36110   73.39300    4.45190    -999.25    -999.25    4.88240    -999.25 -131.14360   -1.87850    4.88240
 7650.00000    -999.25    -999.25   15.00000   10.54770   77.89540   74.77140    -999.25    -999.25    -999.25    -999.25    -999.25   13.37410   68.92500   68.92500    -999.25    -999.25   52.54800   40.35680   13.37410    -999.25    -999.25   12.73450    -999.25 -131.47800   -2.44290   12.73450
 7700.00000    -999.25    -999.25    9.03740    9.31420   58.60410   61.43790    -999.25    -999.25    -999.25    -999.25    -999.25   16.27660   69.36470   69.36470    -999.25    -999.25   54.29220   56.17740   16.27660    -999.25    -999.25   18.36300    -999.25 -133.87390   -5.07030   18.36300
 7750.00000    -999.25    -999.25   10.17580   10.70600   89.76120   92.64660    -999.25    -999.25    -999.25    -999.25    -999.25   10.79370   68.86890   68.86890    -999.25    -999.25   50.79600   55.25630   10.79370    -999.25    -999.25   10.49820    -999.25 -133.20180   -4.62820   10.49820
 7800.00000    -999.25    -999.25   13.23800   12.08340  118.43020  131.45210    -999.25    -999.25    -999.25    -999.25    -999.25    7.63010   79.12450   79.12450    -999.25    -999.25   58.21980   63.04340    7.63010    -999.25    -999.25    8.07880    -999.25 -129.51890   -1.17540    8.07880
 7850.00000    -999.25    -999.25    9.04170    9.02630   67.49470   73.22840    -999.25    -999.25    -999.25    -999.25    -999.25   13.65590   70.30940   70.30940    -999.25    -999.25   51.28590   57.01060   13.65590    -999.25    -999.25   17.34230    -999.25 -133.91360   -8.56300   17.34230
 7900.00000    -999.25    -999.25    8.90220    8.87650   61.24280   65.07030    -999.25    -999.25    -999.25    -999.25    -999.25   15.36800   65.48960   65.48960    -999.25    -999.25   37.47190   36.06170   15.36800    -999.25    -999.25   18.01450    -999.25 -138.89160  -17.38940   18.01450
