~Version ---------------------------------------------------
VERS.      2.0 : CWLS log ASCII Standard -VERSION 2.0
WRAP.       NO : One line per depth step
CREA. 08/31/17 : LAS Creation Date
~Well ------------------------------------------------------
STRT.FT                            1200.0 : START DEPTH
STOP.FT                           11900.0 : STOP DEPTH
STEP.FT                          50.00000 : STEP LENGTH
NULL.                             -999.25 : NULL VALUE
COMP.                THE PURE OIL COMPANY : COMPANY
WELL. PURE AMERADA ANTE CREEK 12-17-66-26 : WELL
FLD .                                     : FIELD
LOC .                                     : LOCATION
CTRY.                              CANADA : COUNTRY
SRVC.              Schlumberger of Canada : SERVICE COMPANY
DATE.                         16-Mar-1961 : LOGDATE
PROV.                             Alberta : PROVINCE
UWI .                    100121706626W500 : UNIQUE WELL ID
SLAT.WGS84                       54.71423 : SURFACE LATITUDE
SLON.WGS84                      -117.9041 : SURFACE LONGITUDE
~Curve Information -----------------------------------------
DEPT  .FT         : Depth Curve
CALWS .IN         : CALIPER [MCALED]
CILDED.MMHO       : DEEP CONDUCTIVITY INDUCTION FROM IEL LOG
CONDWS.MMHO       : CONDUCTIVITY [1000/DRESWS]
DRESWS.OHMM       : DEEP RESISTIVITY [ILDED]
DTED  .US/F       : ACOUSTIC TRANSIT TIME SLOWNESS, DELTA T FROM BCS LOG [ADJ. TO NEUTED]
DTWS  .US/F       : COMPRESSIONAL SONIC [DTED]
GRNED .UgRa-Eq/T  : GAMMA RAY NEUTRON FROM GRN LOG
GRSED .UgRa-Eq/T  : GAMMA RAY FROM BCS LOG [ADJ. TO GRNED]
GRWS  .GAPI       : GAMMA RAY [GRSED SPL. TO GRNED @ 8833', GRWS*16.50]
ILDED .OHMM       : DEEP INDUCTION RESISTIVITY FROM IEL LOG
MCALED.IN         : MLT MICROLOG CALIPER FROM ML LOG
NEUTED.NAPI       : NEUTRON FROM GRN LOG
NEUTWS.NAPI       : NEUTRON [NEUTED]
SNED  .OHMM       : SHORT NORMAL FROM IEL LOG
SPRED .MV         : SPONTANEOUS POTENTIAL FROM IEL LOG
SPWS  .MV         : SPONTANEOUS POTENTIAL [BASELINED 0 MV, SPRED]
SRESWS.OHMM       : SHALLOW RESISTIVITY [SNED]
~Params ----------------------------------------------------
LMF .                     KB : LOG MEASURED FROM
DMF .                     KB : DRILLING MEASURED FROM
EKB .FT                 2620 : KELLY BUSHING
EGL .FT                 2606 : GROUND LEVEL
DATE.               06/16/61 : RUN DATE
RUN .                      1 : RUN NUMBER
DD  .FT                11935 : DEPTH DRILLER
DL  .FT                11937 : DEPTH LOGGER
BLI .FT                11932 : BOTTOM LOG INTERVAL
TLI .FT                 1235 : TOP LOG INTERVAL
CBD .FT                 1236 : CASING BOTTOM DRILLER
CBL .FT                 1235 : CASING BOTTOM LOGGER
BS  .IN                    9 : BIT SIZE
BSD .FT                11935 : BIT SIZE AT DEPTH
DFT .                    GEL : DRILLING FLUID TYPE
DFD .                   10.1 : DRILLING FLUID DENSITY
DFV .                    600 : DRILLING FLUID VISCOSITY
DFPH.                    9.5 : DRILLING FLUID PH
DFL .                    7.8 : DRILLING FLUID LOSS
MSS .             CIRCULATED : MUD SAMPLE SOURCE
RMS .OHMM               3.65 : RESISTIVITY MUD SAMPLE
MST .DEGF                 56 : MUD SAMPLE TEMPERATURE
RMF .OHMM                2.8 : RESISTIVITY MUD FILTRATE SAMPLE
MFST.DEGF                 70 : MUD FILTRATE SAMPLE TEMPERATURE
RMC .OHMM                3.5 : RESISTIVITY MUD CAKE
MCST.DEGF                 70 : MUD CAKE SAMPLE TEMPERATURE
TCS .HRS                 600 : TIME CIRCULATED STOPPED
LUN .                  1573C : LOGGING UNIT NUMBER
LUL .                     WC : LOGGING UNIT LOCATION
ENGI.              HAUSEGGER : RECORDING ENGINEER
WITN.              ZASEYBIDA : WITNESSED BY
CLNT.                A2DTECH : CLIENT CODE
ORIG.            2" 5" PRINT : ORIGIN OF DATA
UWI .       100121706626W500 : UNIQUE WELL ID
DICO. A2D Technologies, Inc. : DIGITIZING COMPANY
~Other -----------------------------------------------------
~ASCII -----------------------------------------------------
# ...
 7350.00000    9.41940   51.66410   57.15620   17.49590   68.63300   68.63300    -999.25    6.04550   99.75070   17.49590    9.41940    -999.25    -999.25   27.69390  -90.13990   -3.26650   27.69390
 7400.00000    9.37110   81.35590   92.10140   10.85760   64.78430   64.78430    -999.25    4.72140   77.90310   10.85760    9.37110    -999.25    -999.25   27.01790 -115.16850  -29.53990   27.01790
 7450.00000    9.25970   36.42960   41.46870   24.11460   63.41730   63.41730    -999.25    5.28310   87.17110   24.11460    9.25970    -999.25    -999.25   34.40720 -114.47050  -29.61530   34.40720
 7500.00000    9.17420   14.04970   14.59580   68.51270   57.27100   57.27100    -999.25    4.51290   74.46290   68.51270    9.17420    -999.25    -999.25   70.95970 -110.28180  -26.08710   70.95970
 7550.00000    9.17310   22.35850   24.29950   41.15310   63.86620   63.86620    -999.25    5.90070   97.36150   41.15310    9.17310    -999.25    -999.25   58.52990 -107.12790  -23.59360   58.52990
 7600.00000    8.61930   23.53190   26.36190   37.93360   61.66950   61.66950    -999.25    6.44950  106.41670   37.93360    8.61930    -999.25    -999.25   50.15780 -124.13060  -41.25680   50.15780
 7650.00000    9.58270   26.96350   30.69600   32.57750   65.59470   65.59470    -999.25    7.04120  116.17980   32.57750    9.58270    -999.25    -999.25   45.46180  -88.21130   -5.99800   45.46180
 7700.00000    9.26570   40.07700   45.41350   22.01990   60.38020   60.38020    -999.25    2.59690   42.84890   22.01990    9.26570    -999.25    -999.25   74.62450 -193.34770 -110.46440   74.62450
 7750.00000    7.88590  164.90280  211.56410    4.72670   63.32880   63.32880    -999.25    1.81560   29.95740    4.72670    7.88590    -999.25    -999.25   36.18250 -249.40550 -162.89110   36.18250
 7800.00000    9.14940  213.97250  342.72400    2.91780   60.20330   60.20330    -999.25    7.32640  120.88560    2.91780    9.14940    -999.25    -999.25    8.08610 -106.33290  -16.18730    8.08610
 7850.00000    9.14360    6.90470    8.22630  121.56170   48.86450   48.86450    -999.25    2.13560   35.23740  121.56170    9.14360    -999.25    -999.25  132.43800 -138.39450  -44.61770  132.43800
 7900.00000    9.19870    8.94670   10.14640   98.55670   49.90520   49.90520    -999.25    2.00230   33.03800   98.55670    9.19870    -999.25    -999.25  121.26160 -122.15690  -24.81600  121.26160
 7950.00000    9.27080   12.12250   13.07120   76.50400   52.94520   52.94520    -999.25    2.05710   33.94220   76.50400    9.27080    -999.25    -999.25  111.18950 -141.71960  -44.07970  111.18950
 8000.00000    8.91880    3.41590    4.31830  231.57350   47.30380   47.30380    -999.25    1.70780   28.17870  231.57350    8.91880    -999.25    -999.25  210.26260 -146.09090  -49.86400  210.26260
 8050.00000    8.33290   71.86780   83.96730   11.90940   54.24320   54.24320    -999.25    1.61240   26.60460   11.90940    8.33290    -999.25    -999.25   48.49430 -216.59290 -121.77890   48.49430
 8100.00000    8.87650   94.66390   99.39960   10.06040   58.97270   58.97270    -999.25    2.87310   47.40610   10.06040    8.87650    -999.25    -999.25   24.90410 -155.46880  -62.06780   24.90410
 8150.00000    7.91890  188.87750  211.57300    4.72650   57.76630   57.76630    -999.25    1.64720   27.17880    4.72650    7.91890    -999.25    -999.25   45.59920 -249.68700 -157.69890   45.59920
 8200.00000    9.44670   79.51580  101.65290    9.83740   57.26750   57.26750    -999.25    1.80030   29.70500    9.83740    9.44670    -999.25    -999.25   29.07650 -179.69960  -89.12440   29.07650
 8250.00000    7.80420  328.39750  665.11470    1.50350   68.33100   68.33100    -999.25    2.19800   36.26700    1.50350    7.80420    -999.25    -999.25   19.52560 -238.58340 -149.42120   19.52560
 8300.00000    8.91720   83.70070   99.61550   10.03860   60.95050   60.95050    -999.25    3.56020   58.74330   10.03860    8.91720    -999.25    -999.25   22.14130 -143.65640  -55.90710   22.14130
 8350.00000    8.95960  156.15570  186.17120    5.37140   62.47530   62.47530    -999.25    2.00370   33.06100    5.37140    8.95960    -999.25    -999.25   26.74010 -166.98210  -80.64580   26.74010
 8400.00000    9.17610   31.51220   35.59920   28.09050   65.00450   65.00450    -999.25    4.25500   70.20750   28.09050    9.17610    -999.25    -999.25   55.75070 -120.06750  -35.15830   55.75070
 8450.00000    7.89100   59.06650   91.13610   10.97260   51.97530   51.97530    -999.25    2.87330   47.40950   10.97260    7.89100    -999.25    -999.25   79.02820 -229.30340 -146.04280   79.02820
 8500.00000    8.79250  383.63870 1069.97650    0.93460   70.17700   70.17700    -999.25    2.08120   34.33980    0.93460    8.79250    -999.25    -999.25   16.93710 -221.47740 -139.86550   16.93710
 8550.00000    8.89060  322.71220  510.75130    1.95790   66.42300   66.42300    -999.25    2.44700   40.37550    1.95790    8.89060    -999.25    -999.25   19.16160 -172.22270  -92.25950   19.16160
 8600.00000    9.12910   14.79040   16.56780   60.35820   52.17520   52.17520    -999.25    1.55870   25.71860   60.35820    9.12910    -999.25    -999.25   74.11590 -102.46670  -24.15210   74.11590
 8650.00000    8.98750    5.91580    6.82250  146.57280   48.23130   48.23130    -999.25    0.75430   12.44600  146.57280    8.98750    -999.25    -999.25  189.38530 -140.83830  -64.17240  189.38530
 8700.00000    8.98810   10.50210   11.55400   86.54980   50.03970   50.03970    -999.25    1.22530   20.21740   86.54980    8.98810    -999.25    -999.25  101.41130 -162.53640  -87.51920  101.41130
 8750.00000    8.84670    6.00620    7.07820  141.27910   51.83300   51.83300    -999.25    0.99310   16.38620  141.27910    8.84670    -999.25    -999.25  185.51880 -181.05570 -107.68720  185.51880
 8800.00000    8.87250    5.18810    5.54480  180.34950   49.32250   49.32250    -999.25    1.49300   24.63450  180.34950    8.87250    -999.25    -999.25  174.13220 -142.58650  -70.86670  174.13220
 8850.00000    8.99310  130.25470  168.99890    5.91720   66.28900   66.28900    5.45630    6.03010   90.02890    5.91720    8.99310  230.65330  230.65330   13.03130  -88.73480  -18.66370   13.03130
 8900.00000    9.05940   81.76780   83.20990   12.01780   57.85250   57.85250    3.57390    3.37610   58.96930   12.01780    9.05940  271.94550  271.94550   23.44070 -100.00290  -31.58040   23.44070
 8950.00000    8.80110   99.41770  113.57960    8.80440   59.65750   59.65750    3.59360    4.52730   59.29440    8.80440    8.80110  326.24250  326.24250   23.39980 -123.18430  -56.41050   23.39980
 9000.00000    9.25200   59.55610   64.09230   15.60250    -999.25    -999.25    4.11560    -999.25   67.90740   15.60250    9.25200  260.05210  260.05210   29.58690  -90.57110  -25.44590   29.58690
 9050.00000    -999.25   29.78380   33.18220   30.13660    -999.25    -999.25    2.95670    -999.25   48.78560   30.13660    -999.25  288.85650  288.85650   51.68600  -97.82440  -34.34790   51.68600
 9100.00000    -999.25  153.13010  106.69060    9.37290    -999.25    -999.25    4.20530    -999.25   69.38750    9.37290    -999.25  243.24420  243.24420   11.82530  -91.46230  -29.63450   11.82530
 9150.00000    -999.25   23.87640   20.20790   49.48550    -999.25    -999.25    1.74250    -999.25   28.75120   49.48550    -999.25  365.24550  365.24550   57.26240  -63.80310   -3.38070   57.26240
 9200.00000    -999.25   44.41520   40.56880   24.64950    -999.25    -999.25    2.96520    -999.25   48.92580   24.64950    -999.25  291.06280  291.06280   35.34720  -68.52090   -8.69910   35.34720
 9250.00000    -999.25   28.89310   27.49000   36.37690    -999.25    -999.25    2.66950    -999.25   44.04680   36.37690    -999.25  339.24770  339.24770   50.32500  -69.47820  -10.14940   50.32500
 9300.00000    -999.25   24.33530   23.10950   43.27230    -999.25    -999.25    3.24250    -999.25   53.50130   43.27230    -999.25  317.10460  317.10460   58.34130  -77.28960  -18.45390   58.34130
 9350.00000    -999.25   51.20850   41.60580   24.03510    -999.25    -999.25    4.43480    -999.25   73.17420   24.03510    -999.25  256.96540  256.96540   30.49510  -89.25340  -30.91060   30.49510
