~Version ---------------------------------------------------
VERS.      2.0 : CWLS log ASCII Standard -VERSION 2.0
WRAP.       NO : One line per depth step
CREA. 11/21/17 : LAS Creation Date
~Well ------------------------------------------------------
STRT.FT                          1000.0 : START DEPTH
STOP.FT                         13800.0 : STOP DEPTH
STEP.FT                        50.00000 : STEP LENGTH
NULL.                           -999.25 : NULL VALUE
COMP. HUDSONS BAY OIL & GAS COMPANY LTD : COMPANY
WELL. HB AMOCO FINA BAYBERNE 11-5-57-18 : WELL
FLD .                                   : FIELD
LOC .                                   : LOCATION
CTRY.                            CANADA : COUNTRY
SRVC.                           Unknown : SERVICE COMPANY
DATE.                       13-Aug-1977 : LOGDATE
PROV.                           Alberta : PROVINCE
UWI .                  100110505718W500 : UNIQUE WELL ID
SLAT.WGS84                     53.89911 : SURFACE LATITUDE
SLON.WGS84                    -116.6428 : SURFACE LONGITUDE
~Curve Information -----------------------------------------
DEPT    .FT    : Depth Curve
CALDED  .IN    : CALIPER FROM DENSITY LOG [ADJ. TO RESISTIVITY LOG]
CALSED  .IN    : CALIPER FROM SONIC LOG
CALWS   .IN    : CALIPER [CALSED SPL. TO CALDED @ 5994']
CILDED  .MMHO  : CONDUCTIVITY FROM RESISTIVITY LOG
CONDWS  .MMHO  : CONDUCTIVITY [1000/DRESWS]
DCORWS  .G/C3  : DENSITY CORRECTION [DRHOED]
DENWS   .G/C3  : FORMATION BULK DENSITY [RHOBED]
DPHILSED.V/V   : DENSITY POROSITY LIMESTONE [M=2.71, F=1.00] FROM DENSITY LOG [ADJ. TO RESISTIVITY LOG]
DPHISSED.V/V   : DENSITY POROSITY SANDSTONE [M=2.65, F=1.00] FROM DENSITY LOG [ADJ. TO RESISTIVITY LOG]
DPOLSWS .V/V   : DENSITY POROSITY LIMESTONE [CALC. FROM DENWS, M=2.71, F=1.00]
DRESWS  .OHMM  : DEEP RESISTIVITY [ILDED]
DRHOED  .G/C3  : DENSITY CORRECTION FROM DENSITY LOG [ADJ. TO RESISTIVITY LOG]
DTED    .US/F  : DELTA TIME FROM SONIC LOG
DTWS    .US/F  : COMPRESSIONAL SONIC [DTED]
GRDED   .GAPI  : GAMMA RAY FROM DENSITY LOG [ADJ. TO RESISTIVITY LOG]
GRSED   .GAPI  : GAMMA RAY FROM SONIC LOG
GRWS    .GAPI  : GAMMA RAY [GRSED SPL. TO GRDED @ 13780']
ILDED   .OHMM  : DEEP INDUCTION RESISTIVITY FROM RESISTIVITY LOG
ILMED   .OHMM  : MEDIUM INDUCTION RESISTIVITY FROM RESISTIVITY LOG
LL8ED   .OHMM  : LATEROLOG-8 RESISTIVITY FROM RESISTIVITY LOG
MRESWS  .OHMM  : MEDIUM RESISTIVITY [ILMED]
NPHILSED.V/V   : NEUTRON POROSITY LIMESTONE FROM DENSITY LOG [ADJ. TO RESISTIVITY LOG]
NPHISSED.V/V   : NEUTRON POROSITY SANDSTONE FROM DENSITY LOG [ADJ. TO RESISTIVITY LOG]
NPOLSWS .V/V   : NEUTRON POROSITY LIMESTONE [NPHISSED MATRIX CONVERSION FOR LIMESTONE, SPL. TO NPHILSED @ 8509']
RHOBED  .G/C3  : BULK DENSITY FROM DENSITY LOG [ADJ. TO RESISTIVITY LOG]
SPRED   .MV    : SPONTANEOUS POTENTIAL FROM RESISTIVITY LOG [ADJ. TO RESISTIVITY LOG]
SPWS    .MV    : SPONTANEOUS POTENTIAL [BASELINE 0 MV, SPRED]
SRESWS  .OHMM  : SHALLOW RESISTIVITY [LL8ED]
~Params ----------------------------------------------------
PD  .                     GL : PERMANENT DATUM
EPD .FT               3898.7 : ELEVATION PERMANENT DATUM
LMF .                     KB : LOG MEASURED FROM
DAPD.FT                 20.4 : FEET ABOVE PERMANENT DATUM
DMF .                     KB : DRILLING MEASURED FROM
EKB .FT               3919.1 : KELLY BUSHING
EGL .FT               3898.7 : GROUND LEVEL
DATE.               08/13/77 : RUN DATE
RUN .                      2 : RUN NUMBER
DD  .FT                13825 : DEPTH DRILLER
DL  .FT                13826 : DEPTH LOGGER
BLI .FT                13820 : BOTTOM LOG INTERVAL
TLI .FT                 8771 : TOP LOG INTERVAL
CBD .FT                 8770 : CASING BOTTOM DRILLER
CBL .FT                 8771 : CASING BOTTOM LOGGER
BS  .IN                  8.5 : BIT SIZE
BSD .FT                13825 : BIT SIZE AT DEPTH
DFT .                    GEL : DRILLING FLUID TYPE
DFD .                    8.9 : DRILLING FLUID DENSITY
DFV .                    120 : DRILLING FLUID VISCOSITY
DFPH.                     11 : DRILLING FLUID PH
DFL .                   11.2 : DRILLING FLUID LOSS
MSS .                    MUD : MUD SAMPLE SOURCE
RMS .OHMM               1.38 : RESISTIVITY MUD SAMPLE
MST .DEGF                 62 : MUD SAMPLE TEMPERATURE
RMF .OHMM                1.0 : RESISTIVITY MUD FILTRATE SAMPLE
MFST.DEGF                 62 : MUD FILTRATE SAMPLE TEMPERATURE
RMC .OHMM               1.72 : RESISTIVITY MUD CAKE
MCST.DEGF                 64 : MUD CAKE SAMPLE TEMPERATURE
RMB .OHMM               0.24 : RESISTIVITY MUD AT BHT
TCS .HRS                 3.5 : TIME CIRCULATED STOPPED
LUN .                   7809 : LOGGING UNIT NUMBER
LUL .                    EDM : LOGGING UNIT LOCATION
ENGI.     CROCKFORD DEROCHIE : RECORDING ENGINEER
WITN.       NORTON GILBREATH : WITNESSED BY
CLNT.                A2DTECH : CLIENT CODE
ORIG.            2" 5" PRINT : ORIGIN OF DATA
UWI .       100110505718W500 : UNIQUE WELL ID
DICO. A2D Technologies, Inc. : DIGITIZING COMPANY
~Other -----------------------------------------------------
DIL-FDC-CNL-BHC LOG RUN
ALL RESISTIVITY & SONIC DATA FROM SMALL SECTION @ TOP-5928'
CALS INVALID FROM 4993' TO CASING ON MAIN PASS, THEREFORE THIS SECTION WAS RELOGGED
~ASCII -----------------------------------------------------
# ...
 3500.00000    -999.25   16.33910   16.33910  316.30580  335.44660    -999.25    -999.25    -999.25    -999.25    -999.25    2.98110    -999.25   92.83850   92.83850    -999.25  124.30430  124.30430    2.98110    -999.25    2.40630    -999.25    -999.25    -999.25    -999.25    -999.25  -99.68380   -3.91150    2.40630
 3550.00000    -999.25   14.07230   14.07230  210.26080  215.93820    -999.25    -999.25    -999.25    -999.25    -999.25    4.63370    -999.25   92.17510   92.17510    -999.25  106.41810  106.41810    4.63370    -999.25    3.76100    -999.25    -999.25    -999.25    -999.25    -999.25  -98.41160   -2.58520    3.76100
 3600.00000    -999.25   13.53400   13.53400   81.80250   75.10160    -999.25    -999.25    -999.25    -999.25    -999.25   13.31530    -999.25   72.02190   72.02190    -999.25   68.05960   68.05960   13.31530    -999.25   10.15150    -999.25    -999.25    -999.25    -999.25    -999.25 -104.97530   -9.09440   10.15150
 3650.00000    -999.25   16.39010   16.39010  192.59140  202.31450    -999.25    -999.25    -999.25    -999.25    -999.25    4.94280    -999.25   95.70010   95.70010    -999.25  111.87010  111.87010    4.94280    -999.25    3.50530    -999.25    -999.25    -999.25    -999.25    -999.25 -100.40790   -4.47290    3.50530
 3700.00000    -999.25   16.52630   16.52630  179.18060  177.28920    -999.25    -999.25    -999.25    -999.25    -999.25    5.64050    -999.25   87.64480   87.64480    -999.25  121.08240  121.08240    5.64050    -999.25    4.33100    -999.25    -999.25    -999.25    -999.25    -999.25  -99.54530   -3.55590    4.33100
 3750.00000    -999.25   13.94440   13.94440  166.40740  167.69240    -999.25    -999.25    -999.25    -999.25    -999.25    5.96330    -999.25   87.08840   87.08840    -999.25  136.96370  136.96370    5.96330    -999.25    4.91310    -999.25    -999.25    -999.25    -999.25    -999.25 -100.28440   -4.24090    4.91310
 3800.00000    -999.25   15.82250   15.82250  231.40380  228.82070    -999.25    -999.25    -999.25    -999.25    -999.25    4.37590    -999.25  103.60510  103.60510    -999.25  136.01100  136.01100    4.37590    -999.25    3.80510    -999.25    -999.25    -999.25    -999.25    -999.25 -100.70710   -4.60950    3.80510
 3850.00000    -999.25   13.97590   13.97590  152.19370  149.48350    -999.25    -999.25    -999.25    -999.25    -999.25    6.68970    -999.25   84.64830   84.64830    -999.25  119.45120  119.45120    6.68970    -999.25    6.18170    -999.25    -999.25    -999.25    -999.25    -999.25 -100.56310   -4.41100    6.18170
 3900.00000    -999.25   14.73290   14.73290  196.01190  195.65260    -999.25    -999.25    -999.25    -999.25    -999.25    5.11110    -999.25   85.55120   85.55120    -999.25  119.04240  119.04240    5.11110    -999.25    4.31680    -999.25    -999.25    -999.25    -999.25    -999.25  -98.79010   -2.58390    4.31680
 3950.00000    -999.25   16.75010   16.75010  168.00820  168.76210    -999.25    -999.25    -999.25    -999.25    -999.25    5.92550    -999.25   80.02950   80.02950    -999.25  135.42080  135.42080    5.92550    -999.25    4.17110    -999.25    -999.25    -999.25    -999.25    -999.25  -99.59990   -3.33920    4.17110
 4000.00000    -999.25   14.11940   14.11940  207.00410  211.32710    -999.25    -999.25    -999.25    -999.25    -999.25    4.73200    -999.25   87.97170   87.97170    -999.25  120.76800  120.76800    4.73200    -999.25    3.80610    -999.25    -999.25    -999.25    -999.25    -999.25  -98.62180   -2.30700    3.80610
 4050.00000    -999.25   15.56410   15.56410  154.60710  152.83490    -999.25    -999.25    -999.25    -999.25    -999.25    6.54660    -999.25   83.09660   83.09660    -999.25  120.14610  120.14610    6.54660    -999.25    5.61600    -999.25    -999.25    -999.25    -999.25    -999.25  -99.44740   -3.07850    5.61600
 4100.00000    -999.25   12.99800   12.99800  108.89030  104.93950    -999.25    -999.25    -999.25    -999.25    -999.25    9.52930    -999.25   76.55350   76.55350    -999.25   77.53510   77.53510    9.52930    -999.25    8.14900    -999.25    -999.25    -999.25    -999.25    -999.25 -100.46790   -4.04450    8.14900
 4150.00000    -999.25   14.32890   14.32890  233.37600  237.98190    -999.25    -999.25    -999.25    -999.25    -999.25    4.20200    -999.25   85.29590   85.29590    -999.25  109.16650  109.16650    4.20200    -999.25    3.29750    -999.25    -999.25    -999.25    -999.25    -999.25 -101.23240   -4.75490    3.29750
 4200.00000    -999.25   13.95950   13.95950  317.92100  330.74250    -999.25    -999.25    -999.25    -999.25    -999.25    3.02350    -999.25   96.82400   96.82400    -999.25  125.54060  125.54060    3.02350    -999.25    2.41130    -999.25    -999.25    -999.25    -999.25    -999.25 -101.81060   -5.27870    2.41130
 4250.00000    -999.25   12.42610   12.42610  235.89670  245.73650    -999.25    -999.25    -999.25    -999.25    -999.25    4.06940    -999.25   89.99420   89.99420    -999.25  120.31880  120.31880    4.06940    -999.25    3.17760    -999.25    -999.25    -999.25    -999.25    -999.25 -101.20440   -4.61840    3.17760
 4300.00000    -999.25   15.02980   15.02980  301.19650  318.01460    -999.25    -999.25    -999.25    -999.25    -999.25    3.14570    -999.25   93.69900   93.69900    -999.25  117.19750  117.19750    3.14570    -999.25    2.63440    -999.25    -999.25    -999.25    -999.25    -999.25 -101.73800   -5.09790    2.63440
 4350.00000    -999.25   17.51410   17.51410  256.45130  223.45870    -999.25    -999.25    -999.25    -999.25    -999.25    4.47510    -999.25  117.14490  117.14490    -999.25  115.46920  115.46920    4.47510    -999.25    3.51300    -999.25    -999.25    -999.25    -999.25    -999.25 -104.14380   -7.44920    3.51300
 4400.00000    -999.25   17.18950   17.18950  163.15520  162.35350    -999.25    -999.25    -999.25    -999.25    -999.25    6.15940    -999.25   81.53060   81.53060    -999.25  107.47610  107.47610    6.15940    -999.25    4.50510    -999.25    -999.25    -999.25    -999.25    -999.25 -108.06010  -11.31140    4.50510
 4450.00000    -999.25   15.60810   15.60810  158.04620  159.32190    -999.25    -999.25    -999.25    -999.25    -999.25    6.27660    -999.25   81.81810   81.81810    -999.25  107.94950  107.94950    6.27660    -999.25    4.86300    -999.25    -999.25    -999.25    -999.25    -999.25 -101.72560   -4.92240    4.86300
 4500.00000    -999.25   18.00000   18.00000  192.44150  196.66070    -999.25    -999.25    -999.25    -999.25    -999.25    5.08490    -999.25   84.15800   84.15800    -999.25  105.76110  105.76110    5.08490    -999.25    3.61040    -999.25    -999.25    -999.25    -999.25    -999.25  -99.70610   -2.84880    3.61040
 4550.00000    -999.25   16.72740   16.72740  159.71770  155.98730    -999.25    -999.25    -999.25    -999.25    -999.25    6.41090    -999.25   87.48210   87.48210    -999.25   90.94890   90.94890    6.41090    -999.25    6.47800    -999.25    -999.25    -999.25    -999.25    -999.25 -100.67730   -3.76590    6.47800
 4600.00000    -999.25   18.00000   18.00000  198.01420  197.84740    -999.25    -999.25    -999.25    -999.25    -999.25    5.05440    -999.25   88.71020   88.71020    -999.25  101.77420  101.77420    5.05440    -999.25    3.95770    -999.25    -999.25    -999.25    -999.25    -999.25 -100.43790   -3.47200    3.95770
 4650.00000    -999.25   18.52800   18.52800  154.64380  154.57150    -999.25    -999.25    -999.25    -999.25    -999.25    6.46950    -999.25   85.44280   85.44280    -999.25   94.26860   94.26860    6.46950    -999.25    4.77700    -999.25    -999.25    -999.25    -999.25    -999.25 -101.37550   -4.35550    4.77700
 4700.00000    -999.25   16.91430   16.91430  127.70200  125.65810    -999.25    -999.25    -999.25    -999.25    -999.25    7.95810    -999.25   76.07780   76.07780    -999.25   77.33930   77.33930    7.95810    -999.25    6.24890    -999.25    -999.25    -999.25    -999.25    -999.25 -101.20440   -4.13000    6.24890
