~Version ---------------------------------------------------
VERS.      2.0 : CWLS log ASCII Standard -VERSION 2.0
WRAP.       NO : One line per depth step
CREA. 01/05/18 : LAS Creation Date
~Well ------------------------------------------------------
STRT.FT                      950.0 : START DEPTH
STOP.FT                    10300.0 : STOP DEPTH
STEP.FT                   50.00000 : STEP LENGTH
NULL.                      -999.25 : NULL VALUE
COMP.         PETROFINA CANADA LTD : COMPANY
WELL. FINA ET AL KAYBOB 10-7-60-17 : WELL
FLD .                              : FIELD
LOC .                              : LOCATION
CTRY.                       CANADA : COUNTRY
SRVC.                 Schlumberger : SERVICE COMPANY
DATE.                  18-Jan-1976 : LOGDATE
PROV.                      Alberta : PROVINCE
UWI .             100100706017W500 : UNIQUE WELL ID
SLAT.WGS84                54.17689 : SURFACE LATITUDE
SLON.WGS84               -116.5329 : SURFACE LONGITUDE
~Curve Information -----------------------------------------
DEPT    .FT    : Depth Curve
CALDED  .IN    : CALIPER FROM DENSITY LOG [ADJ. TO RESISTIVITY LOG]
CALSED  .IN    : CALIPER FROM SONIC LOG
CALWS   .IN    : CALIPER [CALDED SPL. TO CALSED @ 1046']
CILDED  .MMHO  : CONDUCTIVITY FROM RESISTIVITY LOG
CONDWS  .MMHO  : CONDUCTIVITY [1000/DRESWS]
DCORED  .G/C3  : DENSITY CORRECTION FROM DENSITY LOG [ADJ. TO RESISTIVITY LOG]
DCORWS  .G/C3  : DENSITY CORRECTION [DCORED]
DENWS   .G/C3  : FORMATION BULK DENSITY [CALC. FROM DPOLSWS, M=M=2.71 F=1.00]
DPHILSED.V/V   : DENSITY POROSITY LIMESTONE [M=M=2.71 F=1.00] FROM DENSITY LOG [ADJ. TO RESISTIVITY LOG]
DPHISSED.V/V   : DENSITY POROSITY SANDSTONE [M=2.65 F=1.00] FROM DENSITY LOG [ADJ. TO RESISTIVITY LOG]
DPOLSWS .V/V   : DENSITY POROSITY LIMESTONE [DPHISSED CONVERTED TO LIMESTONE (M=2.71 F=1.00), SPL. TO DPHILSED @ 6847']
DRESWS  .OHMM  : DEEP RESISTIVITY [1000/CILDED, IF ILDED < 2, ILDED & SPL. TO ILDED @ 1043'-3980']
DTED    .US/F  : DELTA TIME FROM SONIC LOG
DTWS    .US/F  : COMPRESSIONAL SONIC [DTED]
GRDED   .GAPI  : GAMMA RAY FROM DENSITY LOG [ADJ. TO RESISTIVITY LOG]
GRSED   .GAPI  : GAMMA RAY FROM SONIC LOG
GRWS    .GAPI  : GAMMA RAY [GRSED]
ILDED   .OHMM  : DEEP  INDUCTION LOG RESISTIVITY FROM RESISTIVITY LOG
ILMED   .OHMM  : MEDIUM INDUCTION LOG RESISTIVITY FROM RESISTIVITY LOG
LL8ED   .OHMM  : 8 INCH LATEROLOG RESISTIVITY FROM RESISTIVITY LOG
MRESWS  .OHMM  : MEDIUM RESISTIVITY [ILMED]
NPHILSED.V/V   : NEUTRON POROSITY LIMESTONE FROM DENSITY LOG [ADJ. TO RESISTIVITY LOG]
NPHISSED.V/V   : NEUTRON POROSITY SANDSTONE FROM DENSITY LOG [ADJ. TO RESISTIVITY LOG]
NPOLSWS .V/V   : NEUTRON POROSITY LIMESTONE [NPHISSED MATRIX CONVERSION FOR LIMESTONE, SPL. TO NPHILSED @ 6847']
RHOBED  .G/C3  : BULK DENSITY FROM DENSITY LOG [ADJ. TO RESISTIVITY LOG]
SPRED   .MV    : SPONTANEOUS POTENTIAL FROM RESISTIVITY LOG
SPWS    .MV    : SPONTANEOUS POTENTIAL [BASELINE 0 MV, SPRED]
SRESWS  .OHMM  : SHALLOW RESISTIVITY [LL8ED]
~Params ----------------------------------------------------
PD  .                     GL : PERMANENT DATUM
EPD .FT              2627.65 : ELEVATION PERMANENT DATUM
LMF .                     KB : LOG MEASURED FROM
DAPD.FT                 14.2 : FEET ABOVE PERMANENT DATUM
EKB .FT              2641.85 : KELLY BUSHING
EGL .FT              2627.65 : GROUND LEVEL
DATE.               01/18/76 : RUN DATE
RUN .                      1 : RUN NUMBER
DD  .FT                10330 : DEPTH DRILLER
DL  .FT                10336 : DEPTH LOGGER
BLI .FT                10330 : BOTTOM LOG INTERVAL
TLI .FT                 1038 : TOP LOG INTERVAL
CBD .FT                 1039 : CASING BOTTOM DRILLER
CBL .FT                 1038 : CASING BOTTOM LOGGER
BS  .IN                 8.75 : BIT SIZE
BSD .FT                10330 : BIT SIZE AT DEPTH
DFT .            GEL CAUSTIC : DRILLING FLUID TYPE
DFD .                    9.1 : DRILLING FLUID DENSITY
DFV .                    220 : DRILLING FLUID VISCOSITY
DFPH.                   10.5 : DRILLING FLUID PH
DFL .                    9.5 : DRILLING FLUID LOSS
MSS .             CIRCULATED : MUD SAMPLE SOURCE
RMS .OHMM               2.67 : RESISTIVITY MUD SAMPLE
MST .DEGF                 52 : MUD SAMPLE TEMPERATURE
RMF .OHMM               2.43 : RESISTIVITY MUD FILTRATE SAMPLE
MFST.DEGF                 73 : MUD FILTRATE SAMPLE TEMPERATURE
RMB .OHMM               0.88 : RESISTIVITY MUD AT BHT
TCS .HRS                   4 : TIME CIRCULATED STOPPED
LUN .                   7667 : LOGGING UNIT NUMBER
LUL .                    EDM : LOGGING UNIT LOCATION
ENGI.                 DENNIS : RECORDING ENGINEER
WITN.                JOHNSON : WITNESSED BY
CLNT.                A2DTECH : CLIENT CODE
ORIG.            2" 5" PRINT : ORIGIN OF DATA
UWI .       100100706017W500 : UNIQUE WELL ID
DICO. A2D Technologies, Inc. : DIGITIZING COMPANY
~Other -----------------------------------------------------
~ASCII -----------------------------------------------------
# ...
 9700.00000    8.96430    9.09810    9.09810    -999.25    0.67900    0.04250    0.04250    2.57180    0.08080    -999.25    0.08080 1472.80150   70.97930   70.97930  184.15490  187.06450  187.06450 1472.80150 1565.92360 1535.08170 1565.92360    0.16470    -999.25    0.16470    2.57060  -41.78430   -9.12470 1535.08170
 9750.00000    8.92950    9.03430    9.03430    -999.25    1.61160    0.03150    0.03150    2.59990    0.06440    -999.25    0.06440  620.49010   68.63200   68.63200  127.58320  121.37590  121.37590  620.49010 1115.64950 1073.38620 1115.64950    0.14150    -999.25    0.14150    2.59520  -35.74540   -2.67250 1073.38620
 9800.00000    9.05140    9.04270    9.04270    -999.25    2.71210    0.06880    0.06880    2.61890    0.05320    -999.25    0.05320  368.77110   69.15940   69.15940  121.32720  112.67890  112.67890  368.77110 1329.22370  480.79910 1329.22370    0.15050    -999.25    0.15050    2.61040  -44.42400  -11.02350  480.79910
 9850.00000   11.28870    9.39140    9.39140    -999.25    0.67910    0.25030    0.25030    2.58720    0.07180    -999.25    0.07180 1472.47570   51.11840   51.11840   11.79610   11.84800   11.84800 1472.47570 1595.69460 1546.00070 1595.69460    0.01260    -999.25    0.01260    2.56270 -149.08120 -116.14930 1546.00070
 9900.00000    9.19980    9.06630    9.06630    -999.25    0.68000    0.07950    0.07950    2.70760    0.00140    -999.25    0.00140 1470.61770   48.73820   48.73820   11.36160   11.18250   11.18250 1470.61770 1287.80520  598.21310 1287.80520    0.02120    -999.25    0.02120    2.71880 -128.53470  -96.06920  598.21310
 9950.00000   10.62710    9.42720    9.42720    -999.25    0.70360    0.23480    0.23480    2.42800    0.16490    -999.25    0.16490 1421.17640   49.51210   49.51210   12.42680   13.07940   13.07940 1421.17640 1483.11400  889.86160 1483.11400    0.02560    -999.25    0.02560    2.42920 -121.00550  -89.00630  889.86160
 10000.00000    8.92720    8.88670    8.88670    -999.25    0.69690    0.06710    0.06710    2.67410    0.02100    -999.25    0.02100 1434.98460   47.77550   47.77550   11.83540   12.56920   12.56920 1434.98460 1541.46680  581.62990 1541.46680    0.02410    -999.25    0.02410    2.66650 -134.02270 -102.48980  581.62990
 10050.00000    6.57810    8.80030    8.80030    -999.25   67.49920    0.19090    0.19090    2.80940   -0.05810    -999.25   -0.05810   14.86800   52.97130   52.97130   13.26920   12.66410   12.66410   14.86800   15.76820   56.88100   15.76820    0.15050    -999.25    0.15050    2.81610 -180.53890 -149.46990   56.88100
 10100.00000    8.65900   10.38970   10.38970    -999.25    0.92320    0.07480    0.07480    2.74210   -0.01880    -999.25   -0.01880 1083.16930   50.42220   50.42220   12.94090   12.20880   12.20880 1083.16930  311.53150  591.54000  311.53150    0.06100    -999.25    0.06100    2.73760 -152.37430 -121.77400  591.54000
 10150.00000    7.99760   10.17720   10.17720    -999.25   10.10830    0.25000    0.25000    2.58070    0.07560    -999.25    0.07560   98.92900   47.84430   47.84430   14.14470   14.27740   14.27740   98.92900  187.84740  193.29060  187.84740    0.12560    -999.25    0.12560    2.58900 -170.73390 -140.59990  193.29060
 10200.00000    8.80870    8.81630    8.81630    -999.25    2.76420    0.24780    0.24780    2.65390    0.03280    -999.25    0.03280  361.77240   48.60550   48.60550   16.72300   17.87050   17.87050  361.77240  422.95820  229.50840  422.95820    0.08510    -999.25    0.08510    2.66370 -151.22570 -121.55800  229.50840
 10250.00000    9.64210    8.87540    8.87540    -999.25    3.63830    0.24950    0.24950    2.73980   -0.01740    -999.25   -0.01740  274.85530   49.26370   49.26370   23.11450   18.53060   18.53060  274.85530  291.44200  303.29040  291.44200    0.00480    -999.25    0.00480    2.73790 -109.20070  -79.99940  303.29040
 10300.00000    8.72550   10.48300   10.48300    -999.25   27.23240    0.05810    0.05810    2.76420   -0.03170    -999.25   -0.03170   36.72220   59.56000   59.56000  114.92930  110.08950  110.08950   36.72220   49.04570  128.68510   49.04570    0.11120    -999.25    0.11120    2.76150  -32.62100   -3.88360  128.68510
