~Version ---------------------------------------------------
VERS.      2.0 : CWLS log ASCII Standard -VERSION 2.0
WRAP.       NO : One line per depth step
CREA. 08/02/13 : LAS Creation Date
~Well ------------------------------------------------------
STRT.FT                      2600.0 : START DEPTH
STOP.FT                     12600.0 : STOP DEPTH
STEP.FT                    50.00000 : STEP LENGTH
NULL.                       -999.25 : NULL VALUE
COMP. AMOCO CANADA COMPANY LIMITED. : COMPANY
WELL.        AMOCO NIPAC 6-20-50-15 : WELL
FLD .                               : FIELD
LOC .                               : LOCATION
CTRY.                        CANADA : COUNTRY
SRVC.                  Schlumberger : SERVICE COMPANY
DATE.                   07-Aug-1978 : LOGDATE
PROV.                       Alberta : PROVINCE
UWI .              100062005015W500 : UNIQUE WELL ID
SLAT.WGS84                 53.32816 : SURFACE LATITUDE
SLON.WGS84                -116.1619 : SURFACE LONGITUDE
~Curve Information -----------------------------------------
DEPT   .FT     : DEPTH FEET
CALD   .MM     : CALIPER [CAL SPL. TO CALD_1 @ 10900'] FROM DENSITY LOG
CALS   .MM     : CALIPER FROM SONIC LOG
DCORED .KG/M3  : DENSITY CORRECTION FROM DENSITY LOG [ADJ. TO RESISTIVITY LOG]
DPHI_LS.dec    : DENSITY POROSITY LIMESTONE [M=2.71,F=1.0] FROM DENSITY LOG
DPHI_SS.dec    : DENSITY POROSITY SANDSTONE [M=2.65,F=1.0] FROM DENSITY LOG
DT     .US/F   : DELTA-T FROM SONIC LOG
GRD    .GAPI   : GAMMA RAY FROM DENSITY LOG
GRS    .GAPI   : GAMMA RAY  [GRS_1 SPL. TO GRS @ 10900']FRPM SONIC LOG
ILD    .OHMM   : DEEP INDUCTION RESISTIVITY FROM RESISTIVITY LOG
ILM    .OHMM   : MEDIUM INDUCTION RESISTIVITY FROM RESISTIVITY LOG
LL8    .OHMM   : LATEROLOG 8 RESISTIVITY FROM RESISTIVITY LOG
NPHI_LS.dec    : NEUTRON POROSITY LIMESTONE FROM DENSITY LOG
NPHI_SS.dec    : NEUTRON POROSITY SANDSTONE FROM DENSITY LOG
RHOB   .KG/M3  : BULK DENSITY  [RHOB SPL. TO RHOB_1 @ 10900']FROM DENSITY LOG
SFL    .OHMM   : SPHERICALLY FOCUSED RESISTIVITY FROM RESISTIVITY LOG
SPR    .MV     : SPONTANEOUS POTENTIAL FROM RESISTIVITY LOG
~Params ----------------------------------------------------
PD  .                     GL : PERMANENT DATUM
EPD .FT               101.84 : ELEVATION PERMANENT DATUM
LMF .                     KB : LOG MEASURED FROM
DAPD.FT                 6.22 : FEET ABOVE PERMANENT DATUM
DMF .                     KB : DRILLING MEASURED FROM
EKB .FT              1017.06 : KELLY BUSHING
EGL .FT              1010.84 : GROUND LEVEL
DATE.               08/07/78 : RUN DATE
RUN .                      3 : RUN NUMBER
DD  .FT               3846.6 : DEPTH DRILLER
DL  .FT                 3846 : DEPTH LOGGER
BLI .FT                 3845 : BOTTOM LOG INTERVAL
TLI .FT                 3290 : TOP LOG INTERVAL
CBD .FT                 2742 : CASING BOTTOM DRILLER
CBL .FT                 2741 : CASING BOTTOM LOGGER
BS  .MM                  216 : BIT SIZE
BSD .FT               3846.6 : BIT SIZE AT DEPTH
RMF .OHMM               1.36 : RESISTIVITY MUD FILTRATE SAMPLE
MFST.DEGF               22.2 : MUD FILTRATE SAMPLE TEMPERATURE
RMC .OHMM               0.94 : RESISTIVITY MUD CAKE
MCST.DEGF               24.4 : MUD CAKE SAMPLE TEMPERATURE
LUN .                   7809 : LOGGING UNIT NUMBER
LUL .                    EDM : LOGGING UNIT LOCATION
ENGI.            GUNN DRONEN : RECORDING ENGINEER
WITN.                CULSHAW : WITNESSED BY
CLNT.                A2DTECH : CLIENT CODE
ORIG.            2" 5" PRINT : ORIGIN OF DATA
UWI .       100062005015W500 : UNIQUE WELL ID
DICO. A2D Technologies, Inc. : DIGITIZING COMPANY
~Other -----------------------------------------------------
~ASCII -----------------------------------------------------
# ...
 11200.00000  278.86530  238.23250  175.38100   -0.01250    -999.25  133.27570   33.59430   42.54910   25.94810   27.30090    -999.25    0.03920    -999.25 2686.55910   34.43290  -37.11160
 11250.00000  280.86900  241.39210  126.55400   -0.00400    -999.25  139.88980   73.87210   72.18560   14.64450   19.75150    -999.25    0.05660    -999.25 2653.47340   35.34410  -31.28450
 11300.00000  304.91330  259.49170  102.79630   -0.00030    -999.25  146.91340   73.86980   77.35420    8.19810    8.82460    -999.25    0.16730    -999.25 2673.96800   12.61440    -999.25
 11350.00000  271.12790  247.37830   -7.41570   -0.00230    -999.25  154.63730   98.35730   95.78250    8.86300    9.94730    -999.25    0.17990    -999.25 2710.31350   12.04570    -999.25
 11400.00000  359.63350  277.37150   92.79940    0.03380    -999.25  150.61330   89.68610   97.12620    6.51320    7.31300    -999.25    0.22070    -999.25 2581.67940    9.10580    -999.25
 11450.00000  316.47160  264.37290  144.02610    0.13610    -999.25  161.45780   87.86700   92.80690    6.93790    7.74000    -999.25    0.21890    -999.25 2489.22730    9.46830    -999.25
 11500.00000  335.26030  255.10670  166.56800    0.06880    -999.25  168.05240  112.95660  116.61610    5.40960    5.85380    -999.25    0.21320    -999.25 2623.00680    7.61070    -999.25
 11550.00000  252.89320  235.72110   33.29080    0.02000    -999.25  161.54410   92.37290   96.63360    6.64360    7.51720    -999.25    0.18840    -999.25 2665.86960    9.26700    -999.25
 11600.00000  298.78980  243.31100  145.51840    0.05710    -999.25  155.47630  101.88610   96.92070    6.28590    7.04280    -999.25    0.20940    -999.25 2580.36180    8.72760  -31.91000
 11650.00000  240.96910  228.15790   45.23770    0.02890    -999.25  161.83760  104.59380  103.53660    7.14480    8.15010    -999.25    0.19300    -999.25 2691.87670   10.63570    -999.25
 11700.00000  238.14320  225.75450   32.86960   -0.00830    -999.25  160.97190   95.80750  101.72900    6.13720    6.95880    -999.25    0.19800    -999.25 2746.13330    8.83300    -999.25
 11750.00000  236.10710  220.57990   -3.77690   -0.02100    -999.25  148.31850   80.74980   80.32850   11.20150   13.41630    -999.25    0.15010    -999.25 2720.76100   17.94750  -30.35750
 11800.00000  232.27590  219.55970    2.04950    0.02840    -999.25  159.34140  102.46230   99.25680   12.47630   16.87300    -999.25    0.21750    -999.25 2636.98410   16.17560  -30.28220
 11850.00000  235.19510  220.88040   43.02030    0.01310    -999.25  161.80440  126.05400  123.24960    8.38540    8.74610    -999.25    0.24040    -999.25 2671.28520   13.24870    -999.25
 11900.00000  230.99510  220.98450  -14.75720    0.05910    -999.25  154.88550   77.11770   71.98900   56.44090   64.14910    -999.25    0.08720    -999.25 2600.05740   76.58470    -999.25
 11950.00000  232.63650  222.29210   -6.22110    0.11170    -999.25  189.25180  143.97060  127.83960   27.17260   33.46810    -999.25    0.20840    -999.25 2534.67020   52.20940    -999.25
 12000.00000  234.47290  225.48270   -5.05360   -0.00470    -999.25  159.23710   82.45130   89.47810    7.37590    8.62590    -999.25    0.19080    -999.25 2741.06520   11.55730    -999.25
 12050.00000  231.07240  220.28170  -15.04890   -0.01100    -999.25  130.31790   44.06980   44.19590   47.95360   55.91810    -999.25    0.07440    -999.25 2732.62550   79.59410    -999.25
 12100.00000  232.57520  220.76640   -3.09250   -0.02900    -999.25  133.74450   56.21780   56.67880   22.00760   29.00640    -999.25    0.09060    -999.25 2727.32200   38.84110    -999.25
 12150.00000  233.25410  219.97710   -8.39520   -0.02560    -999.25  130.27080   61.67340   49.66930   19.39230   22.19460    -999.25    0.09150    -999.25 2722.22140   26.68750  -13.63350
 12200.00000  233.21340  222.05810    0.79400   -0.03790    -999.25  131.73860   40.34460   44.21870   39.91340   44.59310    -999.25    0.07430    -999.25 2770.53440   60.22730  -12.29090
 12250.00000  233.82760  221.97780   -5.97850   -0.02300    -999.25  128.00480   37.98620   40.22290   50.92670   61.06410    -999.25    0.05720    -999.25 2745.59940   85.17580   -7.09600
 12300.00000  233.34840  221.72710    1.79580   -0.01200    -999.25  122.07000   20.25200   24.90730  249.61010  275.78520    -999.25    0.01700    -999.25 2745.20410 1461.74490    -999.25
 12350.00000  234.41240  224.02980   -5.12250   -0.02760    -999.25  123.13510   24.41890   30.18860  275.03870  698.20610    -999.25    0.02940    -999.25 2735.05370  292.14330  -14.96020
 12400.00000  234.15590  222.23200    4.28610   -0.02370    -999.25  133.56270   50.15120   52.44380   70.79480   80.88810    -999.25    0.09060    -999.25 2746.84130  128.72200    -999.25
 12450.00000  234.57630  222.89100  -12.28250   -0.02050    -999.25  118.79290   23.77510   19.49450 1017.43870 1516.97890    -999.25    0.03280    -999.25 2734.53830 1460.34740  -52.51010
 12500.00000  229.24130  220.07700   -4.09570    0.02280    -999.25  142.62390  134.71900  142.54320  140.67410  149.49340    -999.25    0.15090    -999.25 2714.00560  303.53680  -62.10890
 12550.00000  229.60970  222.56910   76.98850    0.09580    -999.25  112.38700   17.82660   15.72590   34.51540   76.30020    -999.25    0.10710    -999.25 2515.02050   93.98770 -141.64540
 12600.00000  210.93990  218.48690  116.28500    0.06690    -999.25  115.95620    -999.25    -999.25   45.49800   61.28870    -999.25    -999.25    -999.25 2634.76070   93.90470 -143.42740
