~Version ---------------------------------------------------
VERS.      2.0 : CWLS log ASCII Standard -VERSION 2.0
WRAP.       NO : One line per depth step
CREA. 10/27/17 : LAS Creation Date
~Well ------------------------------------------------------
STRT.FT                           900.0 : START DEPTH
STOP.FT                          9800.0 : STOP DEPTH
STEP.FT                        50.00000 : STEP LENGTH
NULL.                           -999.25 : NULL VALUE
COMP.      CANADIAN HOMESTEAD OILS LTD. : COMPANY
WELL. HOMESTEAD SHELL SNIPE 12-29-68-18 : WELL
FLD .                                   : FIELD
LOC .                                   : LOCATION
CTRY.                            CANADA : COUNTRY
SRVC.                      Schlumberger : SERVICE COMPANY
DATE.                       11-Apr-1970 : LOGDATE
PROV.                           Alberta : PROVINCE
UWI .                  100122906818W500 : UNIQUE WELL ID
SLAT.WGS84                     54.91763 : SURFACE LATITUDE
SLON.WGS84                    -116.7151 : SURFACE LONGITUDE
~Curve Information -----------------------------------------
DEPT    .FT    : Depth Curve
CALSED  .IN    : CALIPER FROM SONIC LOG [ADJ. TO RESISTIVITY LOG]
CALWS   .IN    : CALIPER [CALSED]
CONDWS  .MMHO  : CONDUCTIVITY [1000/DRESWS]
DRESWS  .OHMM  : DEEP RESISTIVITY [ILDED]
DTED    .US/F  : DELTA TIME FROM SONIC LOG [ADJ. TO RESISTIVITY LOG]
DTWS    .US/F  : COMPRESSIONAL SONIC [DTED]
GRSED   .GAPI  : GAMMA RAY FROM SONIC LOG [ADJ. TO RESISTIVITY LOG]
GRWS    .GAPI  : GAMMA RAY [GRSED]
ILDED   .OHMM  : DEEP INDUCTION RESISTIVITY FROM RESISTIVITY LOG
ILMED   .OHMM  : MEDIUM INDUCTION RESISTIVITY FROM RESISTIVITY LOG
LL8ED   .OHMM  : LATEROLOG 8 FROM RESISTIVITY LOG
MRESWS  .OHMM  : MEDIUM RESISTIVITY [ILMED]
SPHILSED.V/V   : SONIC POROSITY LIMESTONE [DTM=47.6,DTF=189.0] FROM SONIC LOG [ADJ. TO RESISTIVITY LOG]
SPHISSED.V/V   : SONIC POROSITY SANDSTONE [DTM=55.6,DTF=189.0] FROM SONIC LOG [ADJ. TO RESISTIVITY LOG]
SPOWS   .V/V   : SONIC POROSITY [SPHISSED SPL. TO SPHILSED @ 5500']
SPRED   .MV    : SPONTANEOUS POTENTIAL FROM RESISTIVITY LOG
SPWS    .MV    : SPONTANEOUS POTENTIAL [BASELINE 0 MV, SPRED]
SRESWS  .OHMM  : SHALLOW RESISTIVITY [LL8ED]
~Params ----------------------------------------------------
PD  .                     GL : PERMANENT DATUM
EPD .FT                 2869 : ELEVATION PERMANENT DATUM
LMF .                     KB : LOG MEASURED FROM
DAPD.FT                   14 : FEET ABOVE PERMANENT DATUM
EKB .FT                 2883 : KELLY BUSHING
EGL .FT                 2869 : GROUND LEVEL
DATE.               04/11/70 : RUN DATE
RUN .                      1 : RUN NUMBER
DD  .FT                 9835 : DEPTH DRILLER
DL  .FT                 9820 : DEPTH LOGGER
BLI .FT                 9816 : BOTTOM LOG INTERVAL
TLI .FT                 1012 : TOP LOG INTERVAL
CBD .FT                 1008 : CASING BOTTOM DRILLER
CBL .FT                 1012 : CASING BOTTOM LOGGER
BS  .IN                7.875 : BIT SIZE
BSD .FT                 9835 : BIT SIZE AT DEPTH
DFT .               CHEM GEL : DRILLING FLUID TYPE
DFD .                     93 : DRILLING FLUID DENSITY
DFV .                     75 : DRILLING FLUID VISCOSITY
DFPH.                   10.5 : DRILLING FLUID PH
DFL .                    9.2 : DRILLING FLUID LOSS
MSS .               FLOWLINE : MUD SAMPLE SOURCE
RMS .OHMM               2.03 : RESISTIVITY MUD SAMPLE
MST .DEGF                 73 : MUD SAMPLE TEMPERATURE
RMF .OHMM               1.92 : RESISTIVITY MUD FILTRATE SAMPLE
MFST.DEGF                 71 : MUD FILTRATE SAMPLE TEMPERATURE
RMC .OHMM               2.16 : RESISTIVITY MUD CAKE
MCST.DEGF                 73 : MUD CAKE SAMPLE TEMPERATURE
TCS .HRS                   3 : TIME CIRCULATED STOPPED
LUN .                   5630 : LOGGING UNIT NUMBER
LUL .                    EDM : LOGGING UNIT LOCATION
ENGI.                 SLADEN : RECORDING ENGINEER
WITN.           SLOAN ELFORD : WITNESSED BY
CLNT.                A2DTECH : CLIENT CODE
ORIG.            2" 5" PRINT : ORIGIN OF DATA
UWI .       100122906818W500 : UNIQUE WELL ID
DICO. A2D Technologies, Inc. : DIGITIZING COMPANY
~Other -----------------------------------------------------
DIL-BCS TOOL RUN
~ASCII -----------------------------------------------------
# ...
 6750.00000    8.92460    8.92460   40.64840   24.60120   61.94450   61.94450   47.24510   47.24510   24.60120   26.02000   32.03390   26.02000    0.09970    -999.25    0.09970  -22.58330  -46.70370   32.03390
 6800.00000    8.90770    8.90770   51.60850   19.38160   63.95330   63.95330   56.05840   56.05840   19.38160   20.18250   21.74160   20.18250    0.11360    -999.25    0.11360  -22.93010  -45.31560   21.74160
 6850.00000    9.22660    9.22660   94.36900   10.59670   89.57830   89.57830  139.19330  139.19330   10.59670   11.01080   14.59890   11.01080    0.30580    -999.25    0.30580   -0.65630  -21.29560   14.59890
 6900.00000    9.27440    9.27440  188.68990    5.31250  103.97080  103.97080  160.00000  160.00000    5.31250    4.47260    7.43750    4.47260    0.41440    -999.25    0.41440    3.04500  -15.98500    7.43750
 6950.00000    8.71250    8.71250    0.61340 1630.17150   50.91140   50.91140    9.61660    9.61660 1630.17150 1675.74840 1724.41060 1675.74840    0.02320    -999.25    0.02320  -41.40950  -60.43950 1724.41060
 7000.00000    8.86000    8.86000    5.24270  190.74070   51.70600   51.70600    9.62270    9.62270  190.74070  237.55300  172.31040  237.55300    0.02870    -999.25    0.02870  -42.21700  -61.24700  172.31040
 7050.00000    9.02340    9.02340    0.59920 1669.09280   50.30860   50.30860   10.55940   10.55940 1669.09280 1751.00440 1733.37460 1751.00440    0.01920    -999.25    0.01920  -17.58920  -36.61920 1733.37460
 7100.00000    9.18750    9.18750    0.63260 1580.74510   51.07710   51.07710    7.78880    7.78880 1580.74510 1658.97300 1474.50850 1658.97300    0.02470    -999.25    0.02470  -43.77680  -62.80680 1474.50850
 7150.00000    8.77500    8.77500    2.94200  381.81500   50.60580   50.60580    8.78280    8.78280  381.81500  205.56170  190.74930  205.56170    0.02080    -999.25    0.02080  -28.20240  -47.23240  190.74930
 7200.00000    8.72660    8.72660    6.84560  146.08030   51.22010   51.22010    5.05420    5.05420  146.08030  360.27010  882.75240  360.27010    0.02610    -999.25    0.02610  -82.01140 -101.04140  882.75240
 7250.00000    9.11520    9.11520    5.71790  174.89020   51.13940   51.13940    6.11980    6.11980  174.89020  335.21830  271.24150  335.21830    0.02470    -999.25    0.02470 -108.88250 -127.91250  271.24150
 7300.00000    8.83330    8.83330   24.91960   40.14890   52.91770   52.91770    8.30710    8.30710   40.14890   73.35470  427.08420   73.35470    0.03740    -999.25    0.03740 -194.80470 -213.83470  427.08420
 7350.00000    9.30420    9.30420    0.59990 1666.87240   50.93800   50.93800   10.39190   10.39190 1666.87240 1778.12810 1728.61330 1778.12810    0.02370    -999.25    0.02370 -194.24370 -213.27370 1728.61330
 7400.00000    9.42980    9.42980    0.60490 1653.16630   50.57530   50.57530    8.74710    8.74710 1653.16630 1735.08280 1656.78410 1735.08280    0.02080    -999.25    0.02080 -199.35980 -218.38980 1656.78410
 7450.00000    8.83390    8.83390    0.59620 1677.18790   50.55850   50.55850    8.94170    8.94170 1677.18790 1770.96480 1722.50420 1770.96480    0.02070    -999.25    0.02070 -159.64870 -178.67870 1722.50420
 7500.00000    8.63140    8.63140    0.61220 1633.53190   50.81390   50.81390    8.00440    8.00440 1633.53190 1751.65950 1699.36760 1751.65950    0.02260    -999.25    0.02260 -122.97710 -142.00720 1699.36760
 7550.00000    7.87250    7.87250   34.37050   29.09800   54.96820   54.96820    5.85000    5.85000   29.09800   60.65540  191.54010   60.65540    0.05100    -999.25    0.05100 -166.72810 -185.75820  191.54010
 7600.00000    8.25320    8.25320   41.13110   24.31250   53.23970   53.23970    7.07780    7.07780   24.31250   46.29240  435.39400   46.29240    0.03910    -999.25    0.03910 -169.11590 -188.14600  435.39400
 7650.00000    8.76550    8.76550    2.47420  408.29760   51.02320   51.02320    8.95450    8.95450  408.29760 1579.38330 1494.65390 1579.38330    0.02350    -999.25    0.02350 -108.23130 -127.26140 1494.65390
 7700.00000    8.63830    8.63830  180.86130    5.52910   57.44650   57.44650   22.18220   22.18220    5.52910    7.07090   10.65960    7.07090    0.06870    -999.25    0.06870  -94.05500 -113.08510   10.65960
 7750.00000    8.48330    8.48330   18.48650   54.09340   51.82780   51.82780   14.96220   14.96220   54.09340   88.78030  225.64920   88.78030    0.02690    -999.25    0.02690 -101.57010 -120.60020  225.64920
 7800.00000    8.81670    8.81670   22.71020   45.70730   51.69550   51.69550   21.60620   21.60620   45.70730   35.07440   50.76810   35.07440    0.02840    -999.25    0.02840  -74.70880  -93.73890   50.76810
 7850.00000    8.60610    8.60610   77.39580   12.92060   53.83920   53.83920   22.45500   22.45500   12.92060   13.83910   33.98120   13.83910    0.04310    -999.25    0.04310  -65.48430  -84.51440   33.98120
 7900.00000    8.69180    8.69180   54.19850   18.60810   56.36750   56.36750   36.78220   36.78220   18.60810   20.42820   26.54980   20.42820    0.06230    -999.25    0.06230  -35.92980  -54.95990   26.54980
 7950.00000    8.47910    8.47910    0.63930 1564.22580   51.66410   51.66410    8.31550    8.31550 1564.22580 1651.78300  998.92130 1651.78300    0.02950    -999.25    0.02950  -40.24860  -59.27870  998.92130
 8000.00000    8.59080    8.59080   94.31920   10.60230   62.82580   62.82580   53.98690   53.98690   10.60230   10.89040   11.03280   10.89040    0.10600    -999.25    0.10600  -18.52030  -37.55040   11.03280
 8050.00000   10.70070   10.70070  165.03520    6.05980   73.15610   73.15610   62.91170   62.91170    6.05980    6.30990    7.72600    6.30990    0.17680    -999.25    0.17680    6.04760  -12.98250    7.72600
 8100.00000    9.14640    9.14640   91.37840   10.94350   60.56530   60.56530   44.98600   44.98600   10.94350   11.07340   22.05560   11.07340    0.08770    -999.25    0.08770    8.83620  -13.88060   22.05560
 8150.00000   12.81120   12.81120  215.76880    4.63460   76.97240   76.97240   78.47840   78.47840    4.63460    4.19150    5.45670    4.19150    0.20870    -999.25    0.20870  -49.50840  -80.00830    5.45670
 8200.00000   15.10290   15.10290  257.78510    3.87920   83.21690   83.21690   79.84170   79.84170    3.87920    3.10820    4.71590    3.10820    0.25510    -999.25    0.25510  -66.48470 -104.81890    4.71590
 8250.00000   15.00000   15.00000  253.06210    3.95160   82.33980   82.33980   74.00660   74.00660    3.95160    3.26680    4.61890    3.26680    0.24910    -999.25    0.24910  -65.64880 -111.76600    4.61890
 8300.00000   15.00000   15.00000  229.12470    4.36440   79.60320   79.60320   71.17820   71.17820    4.36440    3.66070    4.99000    3.66070    0.22960    -999.25    0.22960  -55.06560 -108.96590    4.99000
 8350.00000   15.00000   15.00000  233.79230    4.27730   81.27180   81.27180   77.92000   77.92000    4.27730    3.74510    5.24950    3.74510    0.23960    -999.25    0.23960   -1.77970  -63.51430    5.24950
 8400.00000   15.00000   15.00000  289.04660    3.45960   84.61200   84.61200   78.55990   78.55990    3.45960    3.07320    4.54550    3.07320    0.26670    -999.25    0.26670   28.54960  -40.96810    4.54550
 8450.00000   15.00000   15.00000  269.49820    3.71060   83.13160   83.13160   80.05190   80.05190    3.71060    3.50230    5.08550    3.50230    0.25550    -999.25    0.25550   74.75120   -2.60070    5.08550
 8500.00000    8.61940    8.61940   81.86520   12.21520   65.29110   65.29110   67.62330   67.62330   12.21520   13.57420   16.80140   13.57420    0.12500    -999.25    0.12500   32.42140  -37.35030   16.80140
 8550.00000    8.59510    8.59510   95.79210   10.43930   68.16110   68.16110   74.70280   74.70280   10.43930   11.10390   13.61380   11.10390    0.14320    -999.25    0.14320  -55.40240 -112.47270   13.61380
 8600.00000   10.37360   10.37360  147.49700    6.77980   72.29410   72.29410   77.80530   77.80530    6.77980    7.04790    8.80740    7.04790    0.17000    -999.25    0.17000  -96.46110 -140.74640    8.80740
 8650.00000    9.54240    9.54240  120.09500    8.32680   70.93880   70.93880   72.41160   72.41160    8.32680    9.13590   11.46440    9.13590    0.16420    -999.25    0.16420 -102.96130 -134.54520   11.46440
