~Version ---------------------------------------------------
VERS.      2.0 : CWLS log ASCII Standard -VERSION 2.0
WRAP.       NO : One line per depth step
CREA. 10/04/13 : LAS Creation Date
~Well ------------------------------------------------------
STRT.M                             350.0 : START DEPTH
STOP.M                            2450.0 : STOP DEPTH
STEP.M                          50.00000 : STEP LENGTH
NULL.                            -999.25 : NULL VALUE
COMP. CALPINE CANADA NATURAL GAS COMPANY : COMPANY
WELL.       NORWICH TOGL TWIN 4-28-33-23 : WELL
FLD .                                    : FIELD
LOC .                                    : LOCATION
CTRY.                             CANADA : COUNTRY
SRVC.                                BPB : SERVICE COMPANY
DATE.                        21-Feb-1989 : LOGDATE
PROV.                            Alberta : PROVINCE
UWI .                   100042803323W400 : UNIQUE WELL ID
SLAT.WGS84                      51.85486 : SURFACE LATITUDE
SLON.WGS84                     -113.2132 : SURFACE LONGITUDE
~Curve Information -----------------------------------------
DEPT    .M      : DEPTH METER
CALSED  .MM     : CALIPER FROM SONIC LOG [ADJ. TO RESISTIVITY LOG]
CALWS   .MM     : CALIPER [CALXDED]
CALXDED .MM     : CALIPER X FROM DENSITY LOG [ADJ. TO RESISTIVITY LOG]
CALYDED .MM     : CALIPER Y FROM DENSITY LOG [ADJ. TO RESISTIVITY LOG]
CONDWS  .MMHO   : CONDUCTIVITY [1000/DRESWS]
DCORED  .KG/M3  : DENSITY CORRECTION FROM DENSITY LOG [ADJ. TO DPHISSED/DPHILSED/RESISTIVITY LOG]
DCORWS  .KG/M3  : DENSITY CORRECTION [DCORED]
DENED   .KG/M3  : BULK DENSITY FROM DENSITY LOG [ADJ. TO DPHISSED/DPHILSED/RESISTIVITY LOG]
DENWS   .KG/M3  : FORMATION BULK DENSITY [CALC. FROM DPOLSWS, M=2710, F=1000]
DPHILSED.V/V    : DENSITY POROSITY LIMESTONE [M=2710, F=1000] FROM DENSITY LOG [ADJ. TO RESISTIVITY LOG]
DPHISSED.V/V    : DENSITY POROSITY SANDSTONE [M=2650, F=1000] FROM DENSITY LOG [ADJ. TO DPHILSED/RESISTIVITY LOG]
DPOLSWS .V/V    : DENSITY POROSITY LIMESTONE [DPHISSED CONVERTED TO LIMESTONE MATRIX, M=2710, F=1000 SPL. TO DPHILSED @ 1562 M]
DRESWS  .OHMM   : DEEP RESISTIVITY [ILDED]
DTED    .US/M   : DELTA TIME FROM SONIC LOG [ADJ. TO RESISTIVITY LOG]
DTWS    .US/M   : COMPRESSIONAL SONIC [DTED]
FPEED   .B/E    : FAR PHOTOELECTRIC FROM DENSITY LOG [ADJ. TO RESISTIVITY LOG]
GRDED   .GAPI   : GAMMA RAY FROM DENSITY LOG [ADJ. TO RESISTIVITY LOG]
GRRED   .GAPI   : GAMMA RAY FROM RESISTIVITY LOG
GRSED   .GAPI   : GAMMA RAY FROM SONIC LOG [ADJ. TO RESISTIVITY LOG]
GRWS    .GAPI   : GAMMA RAY [GRSED]
ILDED   .OHMM   : DEEP INDUCTION RESISTIVITY FROM RESISTIVITY LOG
ILMED   .OHMM   : MEDIUM INDUCTION RESISTIVITY FROM RESISTIVITY LOG
MRESWS  .OHMM   : MEDIUM RESISTIVITY [ILMED]
NPEED   .B/E    : NEAR PHOTOELECTRIC FROM DENSITY LOG [ADJ. TO RESISTIVITY LOG]
NPHILSED.V/V    : NEUTRON POROSITY LIMESTONE FROM DENSITY LOG [ADJ. TO RESISTIVITY LOG]
NPHISSED.V/V    : NEUTRON POROSITY SANDSTONE FROM DENSITY LOG [ADJ. TO NPHISSED/RESISTIVITY LOG]
NPOLSWS .V/V    : NEUTRON POROSITY LIMESTONE [NPHISSED CONVERTED TO LIMESTONE MATRIX, SPL. TO NPHILSED @ 1562 M]
PEFWS   .B/E    : PHOTOELECTRIC FACTOR [FPEED]
SFEED   .OHMM   : SHALLOW FOCUSED ELECTRIC RESISTIVITY FROM RESISTIVITY LOG
SPRED   .MV     : SPONTANEOUS POTENTIAL FROM RESISTIVITY LOG
SPWS    .MV     : SPONTANEOUS POTENTIAL [BASELINE 0 MV, SPRED]
SRESWS  .OHMM   : SHALLOW RESISTIVITY [SFEED]
TENDED  .N      : TENSION FROM DENSITY LOG [ADJ. TO RESISTIVITY LOG]
TENSED  .N      : TENSION FROM SONIC LOG [ADJ. TO RESISTIVITY LOG]
~Params ----------------------------------------------------
PD  .                         GL : PERMANENT DATUM
EPD .M                    839.17 : ELEVATION PERMANENT DATUM
DAPD.M                      7.19 : FEET ABOVE PERMANENT DATUM
DMF .                         KB : DRILLING MEASURED FROM
EKB .M                    846.36 : KELLY BUSHING
EGL .M                    839.17 : GROUND LEVEL
DATE.                   02/21/89 : RUN DATE
RUN .                          1 : RUN NUMBER
DD  .M                      2455 : DEPTH DRILLER
DL  .M                    2457.3 : DEPTH LOGGER
BLI .M                      2457 : BOTTOM LOG INTERVAL
TLI .M                     396.3 : TOP LOG INTERVAL
CBD .M                       398 : CASING BOTTOM DRILLER
CBL .M                     396.3 : CASING BOTTOM LOGGER
BS  .MM                      222 : BIT SIZE
BSD .M                      2455 : BIT SIZE AT DEPTH
DFT .                   GEL CHEM : DRILLING FLUID TYPE
DFD .                       1150 : DRILLING FLUID DENSITY
DFV .                         75 : DRILLING FLUID VISCOSITY
DFPH.                       11.5 : DRILLING FLUID PH
DFL .                       10.4 : DRILLING FLUID LOSS
MSS .                   FLOWLINE : MUD SAMPLE SOURCE
RMS .OHMM                   0.48 : RESISTIVITY MUD SAMPLE
MST .DEGC                     20 : MUD SAMPLE TEMPERATURE
RMF .OHMM                   0.39 : RESISTIVITY MUD FILTRATE SAMPLE
MFST.DEGC                     20 : MUD FILTRATE SAMPLE TEMPERATURE
RMC .OHMM                   0.82 : RESISTIVITY MUD CAKE
MCST.DEGC                     20 : MUD CAKE SAMPLE TEMPERATURE
MFSS.                      PRESS : MUD FILTRATE SAMPLE SOURCE
MCSS.                      PRESS : MUD CAKE SAMPLE SOURCE
RMB .OHMM                   0.22 : RESISTIVITY MUD AT BHT
TCS .HRS                       9 : TIME CIRCULATED STOPPED
LUN .                     V 1024 : LOGGING UNIT NUMBER
LUL .                        GPR : LOGGING UNIT LOCATION
ENGI.                    TRACHUK : RECORDING ENGINEER
WITN.                   REICHERT : WITNESSED BY
CLNT.                    A2DTECH : CLIENT CODE
ORIG. 6.5"/100M 16.5"/100M PRINT : ORIGIN OF DATA
UWI .           100042803323W400 : UNIQUE WELL ID
DICO.     A2D Technologies, Inc. : DIGITIZING COMPANY
~Other -----------------------------------------------------
CNL-LDT-DIL-BCS LOG RAN.
RHOB & DCOR FROM 2" DATA LOG.
GRRED HAS GAPS DUE TO POOR QUALITY OF IMAGE.
~ASCII -----------------------------------------------------
# ...
 1400.00000  370.97750  325.58970  325.58970  241.91340  204.31100  284.90000  284.90000 2268.40000 2261.26000    -999.25    0.23560    0.26240    4.89450  280.19840  280.19840    2.18890   97.16530   92.77310   92.12120   92.12120    4.89450    4.64490    4.64490    1.28140    -999.25    0.37450    0.33260    2.18890    5.02410  -56.03860   -9.98920    5.02410 7478.11710 7431.12340
 1450.00000  282.14250  275.53760  275.53760  251.25010  107.95060   26.60000   26.60000 2587.20000 2593.90000    -999.25    0.03400    0.06790    9.26350  252.84010  252.84010    3.04360   75.74060   73.62690   75.31530   75.31530    9.26350    8.68480    8.68480    2.84230    -999.25    0.29610    0.25340    3.04360    8.91770  -68.58920  -36.12640    8.91770 7644.38760 7484.21830
 1500.00000  281.35750  277.15160  277.15160  271.01070  100.51770   28.30000   28.30000 2558.50000 2560.73500    -999.25    0.05410    0.08730    9.94850  240.84410  240.84410    2.49460   71.68750   72.98680   73.11760   73.11760    9.94850    9.35150    9.35150    2.69090    -999.25    0.29730    0.25460    2.49460   11.96620  -73.60970  -60.73370   11.96620 7809.58170 7696.16360
 1550.00000  276.10770  265.40100  265.40100  276.91810   94.45460   28.70000   28.70000 2581.90000 2581.69000    -999.25    0.04140    0.07500   10.58710  245.47780  245.47780    2.53670   86.14090   95.44670  100.71480  100.71480   10.58710   10.91210   10.91210    2.56800    -999.25    0.29620    0.25350    2.53670   11.91550  -27.90890  -24.78710   11.91550 8103.42410 7653.09460
 1600.00000  290.51380  276.32700  276.32700  289.87670   36.79580  138.20000  138.20000 2597.70000 2716.49800   -0.00380    0.02740   -0.00380   27.17700  194.78380  194.78380    3.02680   44.49530   44.89860   44.57630   44.57630   27.17700   22.05530   22.05530    2.96340    0.13090    -999.25    0.13090    3.02680   34.13180  -41.03970  -37.91790   34.13180 8744.37900 7860.29630
 1650.00000  283.48540  284.27050  284.27050  309.53990   87.62170   17.70000   17.70000 2692.90000 2695.46500    0.00850    -999.25    0.00850   11.41270  220.20820  220.20820    3.66910   50.38450   54.86200   54.96190   54.96190   11.41270   11.93130   11.93130    4.20450    0.20330    -999.25    0.20330    3.66910   14.52350    -999.25    -999.25   14.52350 8307.00890 8372.05530
 1700.00000  322.52480  300.01500  300.01500  292.56230   97.00170   97.90000   97.90000 2710.00000 2699.91100    0.00590    -999.25    0.00590   10.30910  223.91250  223.91250    3.74320   65.40450   72.97600   72.84300   72.84300   10.30910   10.63530   10.63530    3.57220    0.19320    -999.25    0.19320    3.74320   14.71360    -999.25    -999.25   14.71360 8632.35140 8408.28340
 1750.00000  274.66740  279.90840  279.90840  273.56190   14.12070   14.20000   14.20000 2933.50000 2925.28900   -0.12590    -999.25   -0.12590   70.81800  180.18210  180.18210    4.64710   16.37270   12.84310   12.99510   12.99510   70.81800   50.30720   50.30720    4.86890    0.06960    -999.25    0.06960    4.64710  185.40200    -999.25    -999.25  185.40200 8987.60200 8639.44190
 1800.00000  281.81590  285.15460  285.15460  276.51450    6.82140   27.30000   27.30000 2899.30000 2893.31200   -0.10720    -999.25   -0.10720  146.59690  165.33250  165.33250    4.03300   11.00300   15.36100   15.39310   15.39310  146.59690   75.45230   75.45230    4.14830    0.10810    -999.25    0.10810    4.03300  239.86190    -999.25    -999.25  239.86190 9069.23930 8859.06310
 1850.00000  365.08190  347.89220  347.89220  337.28450   71.77870  106.80000  106.80000 2641.90000 2526.34600    0.10740    -999.25    0.10740   13.93170  206.34840  206.34840    3.46230   12.52340   12.80830   12.92780   12.92780   13.93170    4.31010    4.31010    3.44160    0.16630    -999.25    0.16630    3.46230  645.11420    -999.25    -999.25  645.11420 9166.48720 9151.06170
 1900.00000  277.21270  262.23460  262.23460  274.91480    3.57410   41.00000   41.00000 2980.70000 2977.78600   -0.15660    -999.25   -0.15660  279.79320  169.87550  169.87550    4.41150   14.03250   13.19890   13.14910   13.14910  279.79320  116.88870  116.88870    5.37340    0.01340    -999.25    0.01340    4.41150  563.38050    -999.25    -999.25  563.38050 9252.78090 9187.14560
 1950.00000  293.00050  282.45410  282.45410  274.58450   26.64640   26.30000   26.30000 2802.50000 2807.98300   -0.05730    -999.25   -0.05730   37.52850  158.03440  158.03440    3.05600   27.82690   25.05000   25.45570   25.45570   37.52850   34.28880   34.28880    3.34530    0.13890    -999.25    0.13890    3.05600   69.45020    -999.25    -999.25   69.45020 9547.10640 9381.95730
 2000.00000  281.84050  271.29760  271.29760  277.78380   20.78160   19.30000   19.30000 2722.80000 2724.53500   -0.00850    -999.25   -0.00850   48.11960  188.96910  188.96910    4.20180   57.03540   60.64840   61.96290   61.96290   48.11960   42.64160   42.64160    4.51130    0.15170    -999.25    0.15170    4.20180   69.64610    -999.25    -999.25   69.64610 9821.72540 9511.56650
 2050.00000  269.09200  260.60710  260.60710  270.91220   46.26310   24.30000   24.30000 2728.50000 2729.49400   -0.01140    -999.25   -0.01140   21.61550  204.01840  204.01840    3.73730   98.76410   96.95560   97.40320   97.40320   21.61550   23.05070   23.05070    4.02130    0.17200    -999.25    0.17200    3.73730   28.32480    -999.25    -999.25   28.32480 10149.26400 9698.66840
 2100.00000  246.79000  235.52720  235.52720  249.32100    1.99080    9.90000    9.90000 2665.90000 2666.22400    0.02560    -999.25    0.02560  502.31060  190.43740  190.43740    4.45810   59.16120   67.19530   66.99050   66.99050  502.31060  393.62010  393.62010    4.86420    0.10540    -999.25    0.10540    4.45810 1503.31790    -999.25    -999.25 1503.31790 10300.10800 9842.43850
 2150.00000  258.04460  248.75580  248.75580  240.03900    7.17540   12.40000   12.40000 2708.10000 2703.16000    0.00400    -999.25    0.00400  139.36600  177.72200  177.72200    4.76160   45.02480   41.68120   41.68840   41.68840  139.36600  129.23370  129.23370    4.61100    0.09340    -999.25    0.09340    4.76160  263.48730    -999.25    -999.25  263.48730 10381.30230 10185.48720
 2200.00000  267.58800  256.95460  256.95460  237.92580    4.03450  139.40000  139.40000 2682.20000 2695.80700    0.00830    -999.25    0.00830  247.86170  171.85590  171.85590    4.13460   25.90330   33.76620   32.02110   32.02110  247.86170  221.77070  221.77070    3.31680    0.09370    -999.25    0.09370    4.13460  371.74160    -999.25    -999.25  371.74160 10605.32940 10297.30170
 2250.00000  280.84380  282.08120  282.08120  237.18640    4.72890   68.80000   68.80000 2571.10000 2579.35600    0.07640    -999.25    0.07640  211.46640  169.11080  169.11080    3.78240   23.14970   27.11310   26.07530   26.07530  211.46640  107.43210  107.43210    3.67220    0.09450    -999.25    0.09450    3.78240  275.86810    -999.25    -999.25  275.86810 11147.94400 10434.65610
 2300.00000  343.06350  307.08090  307.08090  263.43080    2.77160  281.00000  281.00000 2563.00000 2611.67500    0.05750    -999.25    0.05750  360.80450  164.57840  164.57840    3.63140   19.71490   20.59840   20.00450   20.00450  360.80450  178.77460  178.77460    2.99180    0.04640    -999.25    0.04640    3.63140 1774.12350    -999.25    -999.25 1774.12350 11147.14150 10564.43740
 2350.00000  249.52530  220.41540  220.41540  242.41490   37.66750   64.80000   64.80000 2635.90000 2642.96800    0.03920    -999.25    0.03920   26.54810  170.20350  170.20350    4.18190    8.66260    8.86100    9.31750    9.31750   26.54810   31.87110   31.87110    4.25120    0.06660    -999.25    0.06660    4.18190   65.28590    -999.25    -999.25   65.28590 11120.59320 10793.76190
 2400.00000  274.73310  220.14850  220.14850  270.09780    1.97350   33.40000   33.40000 2723.00000 2727.78400   -0.01040    -999.25   -0.01040  506.72520  160.69020  160.69020    4.39610   16.14370   16.15440   16.29080   16.29080  506.72520  804.84880  804.84880    4.55210    0.02230    -999.25    0.02230    4.39610 1973.39470    -999.25    -999.25 1973.39470 11291.20470 10943.75770
