~Version ---------------------------------------------------
VERS.      2.0 : CWLS log ASCII Standard -VERSION 2.0
WRAP.       NO : One line per depth step
CREA. 11/14/17 : LAS Creation Date
~Well ------------------------------------------------------
STRT.FT                             950.0 : START DEPTH
STOP.FT                           10850.0 : STOP DEPTH
STEP.FT                          50.00000 : STEP LENGTH
NULL.                             -999.25 : NULL VALUE
COMP.        CANADIAN HOMESTEAD OILS LTD. : COMPANY
WELL. HOMESTEAD ET AL ROSEVEAR 11-5-55-15 : WELL
FLD .                                     : FIELD
LOC .                                     : LOCATION
CTRY.                              CANADA : COUNTRY
SRVC.              Schlumberger of Canada : SERVICE COMPANY
DATE.                         05-Oct-1975 : LOGDATE
PROV.                             Alberta : PROVINCE
UWI .                    100110505515W500 : UNIQUE WELL ID
SLAT.WGS84                       53.72589 : SURFACE LATITUDE
SLON.WGS84                      -116.1973 : SURFACE LONGITUDE
~Curve Information -----------------------------------------
DEPT    .FT    : Depth Curve
CALDED  .IN    : CALIPER FROM DENSITY LOG
CALSED  .IN    : CALIPER FROM SONIC LOG
CALWS   .IN    : CALIPER [CALDED]
CONDWS  .MMHO  : CONDUCTIVITY [1000/DRESWS]
DCORWS  .G/C3  : DENSITY CORRECTION [DRHOED]
DENWS   .G/C3  : FORMATION BULK DENSITY [RHOBED]
DPHILSED.V/V   : DENSITY POROSITY LIME [M=2.71, F=1.00] FROM DENSITY LOG [ADJ. TO RHOBED]
DPHISSED.V/V   : DENSITY POROSITY SAND [M=2.65, F=1.00] FROM DENSITY LOG [ADJ. TO RHOBED]
DPOLSWS .V/V   : DENSITY POROSITY LIME [CALC FROM DENWS, M=2.71, F=1.00]
DRESWS  .OHMM  : DEEP RESISTIVITY [ILDED]
DRHOED  .G/C3  : DENSITY CORRECTION FROM DENSITY LOG
DTED    .US/F  : DELTA-T FROM SONIC LOG [ADJ. TO DENSITY LOG]
DTWS    .US/F  : COMPRESSIONAL SONIC [DTED]
GRDED   .GAPI  : GAMMA RAY FROM DENSITY LOG
GRSED   .GAPI  : GAMMA RAY FROM SONIC LOG
GRWS    .GAPI  : GAMMA RAY [GRSED SPL. TO GRDED @ 1083']
ILDED   .OHMM  : DEEP INDUCTION RESISTIVITY FROM RESISTIVITY LOG
ILMED   .OHMM  : INDUCTION MEDIUM RESISTIVITY FROM RESISTIVITY LOG
LL8ED   .OHMM  : LATEROLOG-8 RESISTIVITY FROM RESISTIVITY LOG
MRESWS  .OHMM  : MEDIUM RESISTIVITY [ILMED]
NPHILSED.V/V   : NEUTRON POROSITY LIME FROM DENSITY LOG
NPHISSED.V/V   : NEUTRON POROSITY SAND FROM DENSITY LOG
NPOLSWS .V/V   : NEUTRON POROSITY LIME [SS MATRIX CONVERT TO LS & SPL. TO LS @ 7306']
RHOBED  .G/C3  : BULK DENSITY FROM DENSITY LOG
SPRED   .MV    : SPONTANEOUS POTENTIAL FROM RESISTIVITY LOG
SPWS    .MV    : SPONTANEOUS POTENTIAL [BASELINE 0 MV, SPRED]
SRESWS  .OHMM  : SHALLOW RESISTIVITY [LL8ED]
~Params ----------------------------------------------------
PD  .                     GL : PERMANENT DATUM
EPD .FT               2836.1 : ELEVATION PERMANENT DATUM
LMF .                     KB : LOG MEASURED FROM
DAPD.FT                15.85 : FEET ABOVE PERMANENT DATUM
EKB .FT              2851.95 : KELLY BUSHING
EGL .FT               2836.1 : GROUND LEVEL
DATE.               10/05/75 : RUN DATE
RUN .                      1 : RUN NUMBER
DD  .FT                10878 : DEPTH DRILLER
DL  .FT                10878 : DEPTH LOGGER
BLI .FT                10872 : BOTTOM LOG INTERVAL
TLI .FT                 1099 : TOP LOG INTERVAL
CBD .FT                 1096 : CASING BOTTOM DRILLER
CBL .FT                 1099 : CASING BOTTOM LOGGER
BS  .IN                 8.75 : BIT SIZE
BSD .FT                10878 : BIT SIZE AT DEPTH
DFT .               GEL CHEM : DRILLING FLUID TYPE
DFD .                    9.7 : DRILLING FLUID DENSITY
DFV .                    487 : DRILLING FLUID VISCOSITY
DFPH.                   10.5 : DRILLING FLUID PH
MSS .             CIRCULATED : MUD SAMPLE SOURCE
RMS .OHMM               1.34 : RESISTIVITY MUD SAMPLE
MST .DEGF                 64 : MUD SAMPLE TEMPERATURE
RMF .OHMM               0.91 : RESISTIVITY MUD FILTRATE SAMPLE
MFST.DEGF                 74 : MUD FILTRATE SAMPLE TEMPERATURE
RMB .OHMM               0.34 : RESISTIVITY MUD AT BHT
TCS .HRS                   4 : TIME CIRCULATED STOPPED
LUN .                   7690 : LOGGING UNIT NUMBER
LUL .                    EDM : LOGGING UNIT LOCATION
ENGI.     WILLIGER WILTSHIRE : RECORDING ENGINEER
WITN.                  SLOAN : WITNESSED BY
CLNT.                A2DTECH : CLIENT CODE
ORIG.            2" 5" PRINT : ORIGIN OF DATA
UWI .       100110505515W500 : UNIQUE WELL ID
DICO. A2D Technologies, Inc. : DIGITIZING COMPANY
~Other -----------------------------------------------------
~ASCII -----------------------------------------------------
# ...
 7450.00000    9.58230    7.80210    9.58230    0.66610    0.07890    2.71350   -0.00310    -999.25   -0.00200 1501.38460    0.07890   56.20860   56.20860   40.57910   10.08620   40.57910 1501.38460 2013.86870 1350.38510 2013.86870    0.05360    -999.25    0.05360    2.71350 -131.57760  -27.33180 1350.38510
 7500.00000   10.38610    9.28010   10.38610   37.88870    0.07090    2.75920   -0.02430    -999.25   -0.02880   26.39310    0.07090   55.65350   55.65350   57.46380   17.06640   57.46380   26.39310   27.20180   24.43790   27.20180    0.09180    -999.25    0.09180    2.75920 -127.32800  -24.64990   24.43790
 7550.00000    9.83620   10.15390    9.83620   72.62910    0.03970    2.91430   -0.10690    -999.25   -0.11940   13.81170    0.03970   50.27400   50.27400   35.44040    7.92040   35.44040   13.81170   14.95000   72.80430   14.95000    0.03020    -999.25    0.03020    2.91430 -147.46580  -46.35550   72.80430
 7600.00000   10.12420    9.44270   10.12420   31.85330    0.03160    2.95740   -0.10720    -999.25   -0.14470   31.39390    0.03160   50.13810   50.13810   36.67400   10.65320   36.67400   31.39390   28.36390   43.60020   28.36390    0.00570    -999.25    0.00570    2.95740 -125.70320  -26.17090   43.60020
 7650.00000   10.60260    9.69590   10.60260    0.67160    0.03100    2.93300   -0.07650    -999.25   -0.13040 1488.88810    0.03100   49.82250   49.82250   11.23250    4.84550   11.23250 1488.88810 2021.49160 1629.32690 2021.49160   -0.00480    -999.25   -0.00480    2.93300 -163.56630  -65.60170 1629.32690
 7700.00000    9.87280    9.37080    9.87280   61.16580    0.10770    2.71360   -0.00270    -999.25   -0.00210   16.34900    0.10770   56.80160   56.80160   17.49800    6.13920   17.49800   16.34900   35.15330  774.27120   35.15330    0.12820    -999.25    0.12820    2.71360 -192.10020  -95.71370  774.27120
 7750.00000   10.85320    9.31030   10.85320   36.94170    0.19090    2.75110   -0.03730    -999.25   -0.02400   27.06970    0.19090   58.75250   58.75250   59.15350   17.69270   59.15350   27.06970   64.70420 1488.70010   64.70420    0.11710    -999.25    0.11710    2.75110 -133.37550  -38.55670 1488.70010
 7800.00000   10.29280    9.09340   10.29280   93.20990    0.06290    2.77690   -0.04150    -999.25   -0.03910   10.73110    0.06290   39.97420   39.97420   72.41000   23.37150   72.41000   10.73110   10.88370   13.89850   10.88370    0.16020    -999.25    0.16020    2.77690 -108.14860  -14.89750   13.89850
 7850.00000   10.88020    9.26250   10.88020   64.79750    0.04710    2.79440   -0.04220    -999.25   -0.04940   15.43270    0.04710   57.82280   57.82280   55.73080   20.15800   55.73080   15.43270   14.58010   19.64050   14.58010    0.10590    -999.25    0.10590    2.79440 -101.90510  -10.23200   19.64050
 7900.00000   11.26310    8.94350   11.26310   51.35130    0.06290    2.77990   -0.03990    -999.25   -0.04090   19.47370    0.06290   40.00350   40.00350   40.22070   11.45480   40.22070   19.47370   22.44590   66.40630   22.44590    0.01790    -999.25    0.01790    2.77990 -104.76990  -14.66460   66.40630
 7950.00000   11.70350    9.30920   11.70350   58.97970    0.06130    2.75280   -0.03160    -999.25   -0.02500   16.95500    0.06130   58.45190   58.45190   55.31330   15.28890   55.31330   16.95500   14.88980   22.67080   14.88980    0.07380    -999.25    0.07380    2.75280 -106.09930  -17.57200   22.67080
 8000.00000   10.51090    9.24270   10.51090   40.39360    0.06160    2.74300   -0.03560    -999.25   -0.01930   24.75640    0.06160   57.87330   57.87330   43.21770   12.88860   43.21770   24.75640   26.56920   34.79790   26.56920    0.04660    -999.25    0.04660    2.74300  -90.81840   -3.69540   34.79790
 8050.00000    9.75400    8.50680    9.75400   26.04720    0.05300    2.77500   -0.04150    -999.25   -0.03800   38.40090    0.05300   55.36370   55.36370   39.17290   11.49580   39.17290   38.40090   41.84520   59.34870   41.84520    0.04090    -999.25    0.04090    2.77500  -99.17700  -12.16070   59.34870
 8100.00000    9.72970    8.97590    9.72970    4.25090    0.04900    2.81040   -0.06920    -999.25   -0.05870  235.24470    0.04900   51.44540   51.44540   26.64380    7.73200   26.64380  235.24470  554.86690 1352.40530  554.86690    0.01210    -999.25    0.01210    2.81040 -112.54250  -25.63360 1352.40530
 8150.00000    9.67300    8.99140    9.67300    7.43040    0.01210    2.71580   -0.00370    -999.25   -0.00340  134.58200    0.01210   54.74020   54.74020   41.32200   14.78910   41.32200  134.58200  174.59250  274.26010  174.59250    0.03620    -999.25    0.03620    2.71580  -99.43270  -12.63040  274.26010
 8200.00000    9.74560    9.04070    9.74560   24.39160    0.03440    2.71830   -0.00500    -999.25   -0.00490   40.99770    0.03440   58.60970   58.60970   60.00530   16.47220   60.00530   40.99770   44.19480   59.56020   44.19480    0.06670    -999.25    0.06670    2.71830  -92.86890   -6.17400   59.56020
 8250.00000    9.52210    8.79220    9.52210    5.57230    0.03480    2.73170   -0.00990    -999.25   -0.01270  179.45880    0.03480   56.83350   56.83350   58.40890   15.40560   58.40890  179.45880  242.27150  266.59750  242.27150    0.04430    -999.25    0.04430    2.73170 -104.77470  -18.18650  266.59750
 8300.00000    9.55070    8.92270    9.55070   26.95190    0.03470    2.71720   -0.00400    -999.25   -0.00420   37.10320    0.03470   39.99160   39.99160   85.26200   23.04550   85.26200   37.10320   39.85060   51.46240   39.85060    0.08130    -999.25    0.08130    2.71720 -108.74020  -22.25860   51.46240
 8350.00000   12.33310    9.78350   12.33310    0.61290    0.24960    2.63900    0.03860    -999.25    0.04150 1631.60400    0.24960   48.10000   48.10000   16.65540    5.90270   16.65540 1631.60400 2074.92680 1484.55660 2074.92680    0.00510    -999.25    0.00510    2.63900 -157.40390  -71.02970 1484.55660
 8400.00000   11.46380    9.26270   11.46380    0.61850    -999.25    2.73810   -0.02340    -999.25   -0.01640 1616.74580    -999.25   48.68580   48.68580   22.49870    7.75170   22.49870 1616.74580 2128.41040 1459.45430 2128.41040    0.00520    -999.25    0.00520    2.73810 -148.73800  -62.47050 1459.45430
 8450.00000   11.79890    9.31000   11.79890    0.64510    0.18390    2.71950   -0.01030    -999.25   -0.00560 1550.11060    0.18390   48.76180   48.76180   15.44970    7.79420   15.44970 1550.11060  643.91220 1358.70470  643.91220    0.00370    -999.25    0.00370    2.71950 -164.47220  -78.31210 1358.70470
 8500.00000   13.14490    9.55500   13.14490    0.61220    0.24150    2.56950    0.08180    -999.25    0.08220 1633.58570    0.24150   48.70160   48.70160   15.46090    5.27400   15.46090 1633.58570 2009.35740 1455.00330 2009.35740    0.00300    -999.25    0.00300    2.56950 -160.81130  -74.75780 1455.00330
 8550.00000    -999.25    9.37590    -999.25    0.61690    0.20790    2.70480    0.00740    -999.25    0.00310 1621.00780    0.20790   48.43560   48.43560   13.60440    7.21750   13.60440 1621.00780  200.09490  298.02740  200.09490   -0.00740    -999.25   -0.00740    2.70480 -168.22650  -82.27970  298.02740
 8600.00000    -999.25    9.46770    -999.25    3.92060    0.11510    2.59270    0.07260    -999.25    0.06860  255.06410    0.11510   51.60000   51.60000   21.42240    6.88040   21.42240  255.06410   81.62800  128.93660   81.62800    0.00500    -999.25    0.00500    2.59270 -165.05670  -79.21730  128.93660
 8650.00000   10.61250    8.84610   10.61250    7.79280    0.18880    2.80270   -0.05850    -999.25   -0.05420  128.32290    0.18880   49.15760   49.15760   12.17410    5.92040   12.17410  128.32290  148.49530  613.57620  148.49530    0.02260    -999.25    0.02260    2.80270 -172.01850  -86.28570  613.57620
 8700.00000   13.88500    9.16790   13.88500    0.60150    0.24760    2.00470    0.30090    -999.25    0.41250 1662.55430    0.24760   50.68470   50.68470   20.27220    6.16810   20.27220 1662.55430 1308.03280 1443.52730 1308.03280    0.00980    -999.25    0.00980    2.00470 -168.84160  -83.21620 1443.52730
