~Version ---------------------------------------------------
VERS.      2.0 : CWLS log ASCII Standard -VERSION 2.0
WRAP.       NO : One line per depth step
CREA. 08/25/13 : LAS Creation Date
~Well ------------------------------------------------------
STRT.M                       400.0 : START DEPTH
STOP.M                      3100.0 : STOP DEPTH
STEP.M                    50.00000 : STEP LENGTH
NULL.                      -999.25 : NULL VALUE
COMP.    GULF CANADA RESOURCES INC : COMPANY
WELL. GULF ET AL KAYBOB 15-1-63-18 : WELL
FLD .                              : FIELD
LOC .                              : LOCATION
CTRY.                       CANADA : COUNTRY
SRVC.                      Unknown : SERVICE COMPANY
DATE.                  12-Feb-1985 : LOGDATE
PROV.                      Alberta : PROVINCE
UWI .             100150106318W500 : UNIQUE WELL ID
SLAT.WGS84                54.42611 : SURFACE LATITUDE
SLON.WGS84               -116.5821 : SURFACE LONGITUDE
~Curve Information -----------------------------------------
DEPT    .M      : DEPTH METER
CALDED  .MM     : CALIPER FROM DENSITY LOG [ADJ. TO RESISTIVITY LOG]
CALSED  .MM     : CALIPER FROM SONIC LOG
CALWS   .MM     : CALIPER [CALSED SPL. TO CALDED @ 1578M]
CONDWS  .MMHO   : CONDUCTIVITY [1000/DRESWS]
DCORWS  .KG/M3  : DENSITY CORRECTION [DRHOED]
DENWS   .KG/M3  : FORMATION BULK DENSITY [CALC FROM DPOLSWS, M=2710, F=1000]
DPHILSED.V/V    : DENSITY POROSITY LIMESTONE [M=2710, F=1000] FROM DENSITY LOG [ADJ. TO RESISTIVITY LOG]
DPHISSED.V/V    : DENSITY POROSITY SANDSTONE [M=2650, F=1000] FROM DENSITY LOG [ADJ. TO RESISTIVITY LOG]
DPOLSWS .V/V    : DENSITY POROSITY LIMESTONE [DPHISSED MATRIX CONVERTED TO LS & SPL. TO DPHILSED @ 1795.1M]
DRESWS  .OHMM   : DEEP RESISTIVITY [ILDED]
DRHOED  .KG/M3  : DENSITY CORRECTION FROM DENSITY LOG [ADJ. TO RESISTIVITY LOG]
DTED    .US/M   : DELTA TIME FROM SONIC LOG
DTWS    .US/M   : COMPRESSIONAL SONIC [DTED]
GRSED   .GAPI   : GAMMA RAY FROM SONIC LOG
GRWS    .GAPI   : GAMMA RAY [GRSED SPL. TO GRDED @ 3107.5M]
ILDED   .OHMM   : DEEP INDUCTION RESISTIVITY FROM RESISTIVITY LOG
ILMED   .OHMM   : MEDIUM INDUCTION RESISTIVITY FROM RESISTIVITY LOG
LAED    .MM     : LARGE ARM CALIPER FROM DENSITY LOG [ADJ. TO RESISTIVITY LOG]
MRESWS  .OHMM   : MEDIUM RESISTIVITY [ILMED]
NPHILSED.V/V    : NEUTRON POROSITY LIMESTONE FROM DENSITY LOG [ADJ. TO RESISTIVITY LOG]
NPHISSED.V/V    : NEUTRON POROSITY SANDSTONE FROM DENSITY LOG [ADJ. TO RESISTIVITY LOG]
NPOLSWS .V/V    : NEUTRON POROSITY LIMESTONE [NPHISSED MATRIX CONVERTED TO LS & SPL. TO NPHILSED @ 1795.1M]
RHOBED  .KG/M3  : BULK DENSITY FROM DENSITY LOG [ADJ. TO RESISTIVITY LOG]
SFLUED  .OHMM   : SPHERICALLY FOCUSED LOG RESISTIVITY FROM RESISTIVITY LOG
SGRDDED .GAPI   : GAMMA RAY FROM DENSITY LOG [ADJ. TO RESISTIVITY LOG]
SPRED   .MV     : SPONTANEOUS POTENTIAL FROM RESISTIVITY LOG
SPWS    .MV     : SPONTANEOUS POTENTIAL [BASELINE 0 MV, SPRED]
SRESWS  .OHMM   : SHALLOW RESISTIVITY [SFLUED]
~Params ----------------------------------------------------
PD  .                         GL : PERMANENT DATUM
EPD .M                     886.4 : ELEVATION PERMANENT DATUM
LMF .                         KB : LOG MEASURED FROM
DAPD.M                       7.1 : FEET ABOVE PERMANENT DATUM
DMF .                         KB : DRILLING MEASURED FROM
EKB .M                     893.5 : KELLY BUSHING
EGL .M                     886.4 : GROUND LEVEL
DATE.                   02/12/85 : RUN DATE
RUN .                          1 : RUN NUMBER
DD  .M                      3130 : DEPTH DRILLER
DL  .M                      3130 : DEPTH LOGGER
BLI .M                      3129 : BOTTOM LOG INTERVAL
TLI .M                       426 : TOP LOG INTERVAL
CS  .MM                      244 : CASING SIZE
CBD .M                       426 : CASING BOTTOM DRILLER
CBL .M                       426 : CASING BOTTOM LOGGER
BS  .MM                      222 : BIT SIZE
BSD .M                      3130 : BIT SIZE AT DEPTH
DFT .                        GEL : DRILLING FLUID TYPE
DFD .                       1120 : DRILLING FLUID DENSITY
DFV .                         95 : DRILLING FLUID VISCOSITY
DFPH.                       10.5 : DRILLING FLUID PH
DFL .                       10.5 : DRILLING FLUID LOSS
MSS .                   FLOWLINE : MUD SAMPLE SOURCE
RMS .OHMM                    2.2 : RESISTIVITY MUD SAMPLE
MST .DEGC                   17.7 : MUD SAMPLE TEMPERATURE
RMF .OHMM                   1.83 : RESISTIVITY MUD FILTRATE SAMPLE
MFST.DEGC                   17.7 : MUD FILTRATE SAMPLE TEMPERATURE
MFSS.                       MEAS : MUD FILTRATE SAMPLE SOURCE
RMB .OHMM                  0.843 : RESISTIVITY MUD AT BHT
TCS .HRS                    2200 : TIME CIRCULATED STOPPED
TLAB.HRS                     350 : TIME LOGGER AT BOTTOM
LUN .                       8110 : LOGGING UNIT NUMBER
LUL .                        EDM : LOGGING UNIT LOCATION
ENGI.                     OSIKOS : RECORDING ENGINEER
WITN.                MOLDENHAUER : WITNESSED BY
CLNT.                    A2DTECH : CLIENT CODE
ORIG. 6.5"/100M 16.5"/100M PRINT : ORIGIN OF DATA
UWI .           100150106318W500 : UNIQUE WELL ID
DICO.     A2D Technologies, Inc. : DIGITIZING COMPANY
~Other -----------------------------------------------------
DIL-SFL-BHC RUN IN COMBO & CNL-FDC LOG RAN
RHOB & DCOR FROM SMALL SCALE LOG
~ASCII -----------------------------------------------------
  400.00000    -999.25    -999.25    -999.25    -999.25    -999.25    -999.25    -999.25    -999.25    -999.25    -999.25    -999.25    -999.25    -999.25   35.45080   35.45080    -999.25    -999.25    -999.25    -999.25    -999.25    -999.25    -999.25    -999.25    -999.25    -999.25    -999.25    -999.25    -999.25
  450.00000    -999.25  276.48960  276.48960  249.61310    -999.25    -999.25    -999.25    -999.25    -999.25    4.00620    -999.25  351.37300  351.37300   61.65160   61.65160    4.00620    3.65460    -999.25    3.65460    -999.25    -999.25    -999.25    -999.25    3.60060    -999.25  -56.22900   -4.57500    3.60060
  500.00000    -999.25  276.63420  276.63420  202.02840    -999.25    -999.25    -999.25    -999.25    -999.25    4.94980    -999.25  341.23790  341.23790   97.34210   97.34210    4.94980    4.42590    -999.25    4.42590    -999.25    -999.25    -999.25    -999.25    5.97780    -999.25  -56.15000   -4.66040    5.97780
  550.00000    -999.25  247.88470  247.88470  250.38810    -999.25    -999.25    -999.25    -999.25    -999.25    3.99380    -999.25  346.67310  346.67310   70.47510   70.47510    3.99380    3.76970    -999.25    3.76970    -999.25    -999.25    -999.25    -999.25    3.69460    -999.25  -55.63730   -4.31200    3.69460
  600.00000    -999.25  291.33750  291.33750  267.71610    -999.25    -999.25    -999.25    -999.25    -999.25    3.73530    -999.25  344.39840  344.39840   85.46370   85.46370    3.73530    3.43410    -999.25    3.43410    -999.25    -999.25    -999.25    -999.25    3.85510    -999.25  -56.24550   -5.08440    3.85510
  650.00000    -999.25  264.07760  264.07760  202.06920    -999.25    -999.25    -999.25    -999.25    -999.25    4.94880    -999.25  326.07700  326.07700   66.31750   66.31750    4.94880    4.28970    -999.25    4.28970    -999.25    -999.25    -999.25    -999.25    5.39860    -999.25  -58.03530   -7.03860    5.39860
  700.00000    -999.25  265.86020  265.86020  259.77400    -999.25    -999.25    -999.25    -999.25    -999.25    3.84950    -999.25  372.74280  372.74280   61.19580   61.19580    3.84950    3.46710    -999.25    3.46710    -999.25    -999.25    -999.25    -999.25    3.12020    -999.25  -55.30430   -4.47180    3.12020
  750.00000    -999.25  244.39140  244.39140  161.20190    -999.25    -999.25    -999.25    -999.25    -999.25    6.20340    -999.25  308.49470  308.49470   57.86190   57.86190    6.20340    6.50080    -999.25    6.50080    -999.25    -999.25    -999.25    -999.25    7.29590    -999.25  -53.11600   -2.44790    7.29590
  800.00000    -999.25  261.11010  261.11010  213.63870    -999.25    -999.25    -999.25    -999.25    -999.25    4.68080    -999.25  312.62400  312.62400   59.26770   59.26770    4.68080    4.27250    -999.25    4.27250    -999.25    -999.25    -999.25    -999.25    3.84660    -999.25  -54.08130   -3.21540    3.84660
  850.00000    -999.25  287.07420  287.07420  209.37590    -999.25    -999.25    -999.25    -999.25    -999.25    4.77610    -999.25  307.02170  307.02170   61.69910   61.69910    4.77610    4.31150    -999.25    4.31150    -999.25    -999.25    -999.25    -999.25    4.47250    -999.25  -54.71650   -3.34930    4.47250
  900.00000    -999.25  267.20920  267.20920  218.35970    -999.25    -999.25    -999.25    -999.25    -999.25    4.57960    -999.25  327.49800  327.49800   68.44160   68.44160    4.57960    4.18660    -999.25    4.18660    -999.25    -999.25    -999.25    -999.25    4.27490    -999.25  -53.85780   -1.64640    4.27490
  950.00000    -999.25  253.04420  253.04420  259.49760    -999.25    -999.25    -999.25    -999.25    -999.25    3.85360    -999.25  334.03030  334.03030   67.07260   67.07260    3.85360    3.92670    -999.25    3.92670    -999.25    -999.25    -999.25    -999.25    4.05400    -999.25  -58.67340   -4.83280    4.05400
 1000.00000    -999.25  274.80340  274.80340  131.08570    -999.25    -999.25    -999.25    -999.25    -999.25    7.62860    -999.25  300.52750  300.52750   71.45630   71.45630    7.62860    6.97740    -999.25    6.97740    -999.25    -999.25    -999.25    -999.25    6.93260    -999.25  -59.99490   -4.52510    6.93260
 1050.00000    -999.25  301.77550  301.77550  149.60210    -999.25    -999.25    -999.25    -999.25    -999.25    6.68440    -999.25  306.24090  306.24090   99.47280   99.47280    6.68440    5.97640    -999.25    5.97640    -999.25    -999.25    -999.25    -999.25    6.41540    -999.25  -62.03700   -4.93790    6.41540
 1100.00000    -999.25  265.97500  265.97500  134.10040    -999.25    -999.25    -999.25    -999.25    -999.25    7.45710    -999.25  303.98460  303.98460   99.73950   99.73950    7.45710    7.03370    -999.25    7.03370    -999.25    -999.25    -999.25    -999.25    6.10240    -999.25  -71.33630   -3.51350    6.10240
 1150.00000    -999.25  272.94700  272.94700  118.96830    -999.25    -999.25    -999.25    -999.25    -999.25    8.40560    -999.25  280.77330  280.77330   99.78440   99.78440    8.40560    8.00720    -999.25    8.00720    -999.25    -999.25    -999.25    -999.25    8.03190    -999.25  -70.23750   -2.76060    8.03190
 1200.00000    -999.25  266.69170  266.69170  110.20500    -999.25    -999.25    -999.25    -999.25    -999.25    9.07400    -999.25  271.09770  271.09770   92.37760   92.37760    9.07400    8.88200    -999.25    8.88200    -999.25    -999.25    -999.25    -999.25    8.60140    -999.25  -70.89970   -5.83040    8.60140
 1250.00000    -999.25  258.17160  258.17160  120.81670    -999.25    -999.25    -999.25    -999.25    -999.25    8.27700    -999.25  275.82990  275.82990   98.71730   98.71730    8.27700    7.83990    -999.25    7.83990    -999.25    -999.25    -999.25    -999.25    7.38320    -999.25  -69.53530   -6.90240    7.38320
 1300.00000    -999.25  262.85170  262.85170  152.61120    -999.25    -999.25    -999.25    -999.25    -999.25    6.55260    -999.25  297.84550  297.84550  109.76170  109.76170    6.55260    6.31790    -999.25    6.31790    -999.25    -999.25    -999.25    -999.25    6.97600    -999.25  -66.12290   -5.94710    6.97600
 1350.00000    -999.25  238.18450  238.18450   83.65470    -999.25    -999.25    -999.25    -999.25    -999.25   11.95390    -999.25  263.59690  263.59690  102.77630  102.77630   11.95390   13.39300    -999.25   13.39300    -999.25    -999.25    -999.25    -999.25   23.24520    -999.25  -61.14990   -5.92250   23.24520
 1400.00000    -999.25  238.92510  238.92510  120.12880    -999.25    -999.25    -999.25    -999.25    -999.25    8.32440    -999.25  273.78950  273.78950  100.81450  100.81450    8.32440    8.86370    -999.25    8.86370    -999.25    -999.25    -999.25    -999.25   10.64480    -999.25  -54.45630   -4.98130   10.64480
 1450.00000    -999.25  261.43410  261.43410  177.58200    -999.25    -999.25    -999.25    -999.25    -999.25    5.63120    -999.25  281.39880  281.39880  111.28060  111.28060    5.63120    5.81990    -999.25    5.81990    -999.25    -999.25    -999.25    -999.25    6.09900    -999.25  -55.97030   -9.97710    6.09900
 1500.00000    -999.25  311.10060  311.10060  204.30260    -999.25    -999.25    -999.25    -999.25    -999.25    4.89470    -999.25  295.89760  295.89760  110.83770  110.83770    4.89470    4.76620    -999.25    4.76620    -999.25    -999.25    -999.25    -999.25    5.37410    -999.25  -52.95910   -6.05390    5.37410
 1550.00000  254.31010  300.02760  300.02760  254.11020   90.43740 1913.44000    -999.25    0.44640    0.46580    3.93530   90.43740  290.32680  290.32680   90.35440   90.35440    3.93530    3.79320  356.24070    3.79320    -999.25    0.43380    0.39170 1901.60960    4.30390   79.61350  -50.46250   -3.31170    4.30390
 1600.00000  310.47430  269.33040  310.47430  653.55210   49.58190 2195.92000    -999.25    0.27520    0.30060    1.53010   49.58190  374.14250  374.14250   94.22710   94.22710    1.53010    1.41350  299.79590    1.41350    -999.25    0.51880    0.47710 2195.03320    1.91280   86.69620  -46.66810   -0.70190    1.91280
