~Version ---------------------------------------------------
VERS.      2.0 : CWLS log ASCII Standard -VERSION 2.0
WRAP.       NO : One line per depth step
CREA. 08/31/17 : LAS Creation Date
~Well ------------------------------------------------------
STRT.FT                          1500.0 : START DEPTH
STOP.FT                         11900.0 : STOP DEPTH
STEP.FT                        50.00000 : STEP LENGTH
NULL.                           -999.25 : NULL VALUE
COMP.  AMOCO CANADA PETROLEUM CO., LTD. : COMPANY
WELL. AMOCO HB FINA FIR S-I  7-26-59-20 : WELL
FLD .                                   : FIELD
LOC .                                   : LOCATION
CTRY.                            CANADA : COUNTRY
SRVC.            Schlumberger of Canada : SERVICE COMPANY
DATE.                       07-Jan-1978 : LOGDATE
PROV.                           Alberta : PROVINCE
UWI .                  100072605920W500 : UNIQUE WELL ID
SLAT.WGS84                     54.12779 : SURFACE LATITUDE
SLON.WGS84                    -116.8825 : SURFACE LONGITUDE
~Curve Information -----------------------------------------
DEPT    .FT    : Depth Curve
CALDED  .IN    : CALIPER FROM CNFD LOG
CALSED  .IN    : CALIPER FROM BCS LOG [ADJ. TO GRDED]
CALWS   .IN    : CALIPER [CALSED]
CONDWS  .MMHO  : CONDUCTIVITY [1000/DRESWS]
DCORED  .G/C3  : DENSITY CORRECTION FROM CNFD LOG
DCORWS  .G/C3  : DENSITY CORRECTION [DCORED]
DENWS   .G/C3  : FORMATION BULK DENSITY [RHOBED]
DPHILSED.V/V   : DENSITY POROSITY LIMESTONE [M=2.71, F=1.0] FROM CNFD LOG [ADJ. TO RHOBED]
DPHISSED.V/V   : DENSITY POROSITY SANDSTONE [M=2.65, F=1.0] FROM CNFD LOG [ADJ. TO RHOBED]
DPOLSWS .V/V   : DENSITY POROSITY LIMESTONE [CALCULATED FROM DENWS, M=2.71, F=1.0]
DRESWS  .OHMM  : DEEP RESISTIVITY [ILDED]
DTED    .US/F  : ACOUSTIC TRANSIT TIME SLOWNESS, DELTA T FROM BCS LOG [ADJ. TO GRDED]
DTWS    .US/F  : COMPRESSIONAL SONIC [DTED]
GRDED   .GAPI  : GAMMA RAY FROM CNFD LOG
GRSED   .GAPI  : GAMMA RAY FROM BCS LOG [ADJ. TO GRDED]
GRWS    .GAPI  : GAMMA RAY [GRSED]
ILDED   .OHMM  : DEEP INDUCTION FROM DILL LOG
ILMED   .OHMM  : MEDIUM INDUCTION FROM DILL LOG
LL8ED   .OHMM  : LATEROLOG RESISTIVITY FROM DILL LOG
MRESWS  .OHMM  : MEDIUM RESISTIVITY [ILMED]
NPHILSED.V/V   : NEUTRON POROSITY LIMESTONE FROM CNFD LOG [ADJ. TO RHOBED]
NPHISSED.V/V   : NEUTRON POROSITY SANDSTONE FROM CNFD LOG [ADJ. TO RHOBED]
NPOLSWS .V/V   : NEUTRON POROSITY LIMESTONE [NPHISSED CONVERTED TO LIMESTONE MATRIX, SPL. TO NPHILSED @ 2468.27M]
RHOBED  .G/C3  : HRDD HIGH RESOLUTION FORMATION DENSITY FROM CNFD LOG
SPRED   .MV    : SPONTANEOUS POTENTIAL FROM DILL LOG
SRESWS  .OHMM  : SHALLOW RESISTIVITY [LL8ED]
~Params ----------------------------------------------------
PD  .                     GL : PERMANENT DATUM
EPD .FT              3289.04 : ELEVATION PERMANENT DATUM
LMF .                     KB : LOG MEASURED FROM
DAPD.FT                 21.2 : FEET ABOVE PERMANENT DATUM
EKB .FT              3310.24 : KELLY BUSHING
EGL .FT              3289.04 : GROUND LEVEL
DATE.               01/07/78 : RUN DATE
RUN .                      1 : RUN NUMBER
DD  .FT                11910 : DEPTH DRILLER
DL  .FT                11919 : DEPTH LOGGER
BLI .FT                11913 : BOTTOM LOG INTERVAL
TLI .FT                 1534 : TOP LOG INTERVAL
CBD .FT                 1534 : CASING BOTTOM DRILLER
CBL .FT                 1534 : CASING BOTTOM LOGGER
BS  .IN                 8.75 : BIT SIZE
BSD .FT                11910 : BIT SIZE AT DEPTH
DFT .                    GEL : DRILLING FLUID TYPE
DFD .                    9.5 : DRILLING FLUID DENSITY
DFV .                    105 : DRILLING FLUID VISCOSITY
DFPH.                    9.5 : DRILLING FLUID PH
DFL .                    9.0 : DRILLING FLUID LOSS
MSS .               FLOWLINE : MUD SAMPLE SOURCE
RMS .OHMM               1.78 : RESISTIVITY MUD SAMPLE
MST .DEGF                 85 : MUD SAMPLE TEMPERATURE
RMF .OHMM               1.74 : RESISTIVITY MUD FILTRATE SAMPLE
MFST.DEGF                 54 : MUD FILTRATE SAMPLE TEMPERATURE
TCS .HRS                   5 : TIME CIRCULATED STOPPED
LUN .                   7730 : LOGGING UNIT NUMBER
LUL .                    EDM : LOGGING UNIT LOCATION
ENGI.   ACKERMAN STEENBERGEN : RECORDING ENGINEER
CLNT.                A2DTECH : CLIENT CODE
ORIG.            2" 5" PRINT : ORIGIN OF DATA
UWI .       100072605920W500 : UNIQUE WELL ID
DICO. A2D Technologies, Inc. : DIGITIZING COMPANY
~Other -----------------------------------------------------
~ASCII -----------------------------------------------------
# ...
 9600.00000    9.35110    9.38400    9.38400    0.65140    0.21960    0.21960    2.64250    0.03180    -999.25    0.03950 1535.26110   49.45370   49.45370   10.48790   18.18890   18.18890 1329.60180 1329.60180 1398.77750 1329.60180    0.00500    -999.25    0.00500    2.64250 -201.48340 1398.77750
 9650.00000   10.01590    9.37440    9.37440    2.72660    0.25450    0.25450    2.44530    0.15890    -999.25    0.15480  378.68270   48.94520   48.94520    7.41900   11.36960   11.36960  346.70560  346.70560 1120.37490  346.70560    0.00230    -999.25    0.00230    2.44530 -185.11040 1120.37490
 9700.00000    9.81750    9.47130    9.47130    0.66140    0.25340    0.25340    2.36800    0.20430    -999.25    0.20000 1511.95120   49.22650   49.22650   12.55080   12.87380   12.87380 1299.00550 1299.00550 1380.05200 1299.00550    0.00810    -999.25    0.00810    2.36800 -179.61660 1380.05200
 9750.00000   11.33180    9.67040    9.67040    0.68800    0.25520    0.25520    2.16590    0.32090    -999.25    0.31820 1453.45290   49.67930   49.67930   14.61190   13.76680   13.76680 1042.75160 1042.75160 1016.41820 1042.75160    0.01010    -999.25    0.01010    2.16590 -189.94560 1016.41820
 9800.00000   10.79150    9.61360    9.61360    0.67540    0.25270    0.25270    2.32440    0.23270    -999.25    0.22550 1480.68990   50.01800   50.01800   14.00010   20.17500   20.17500 1306.27420 1306.27420 1378.08710 1306.27420    0.00930    -999.25    0.00930    2.32440 -188.39440 1378.08710
 9850.00000   10.60120    9.62870    9.62870    0.69490    0.24010    0.24010    2.23690    0.28940    -999.25    0.27670 1438.99840   49.24600   49.24600   12.63170   17.58330   17.58330  888.36700  888.36700 1036.70290  888.36700    0.01840    -999.25    0.01840    2.23690 -192.44740 1036.70290
 9900.00000    8.28450    9.64520    9.64520    0.66710    0.00860    0.00860    2.68030   -0.00100    -999.25    0.01740 1499.11200   49.40190   49.40190   13.80380   21.67170   21.67170 1380.41990 1380.41990 1147.53680 1380.41990    0.00870    -999.25    0.00870    2.68030 -195.14820 1147.53680
 9950.00000    8.32030    9.41170    9.41170    0.80170    0.04480    0.04480    2.69450    0.00930    -999.25    0.00910 1247.41890   49.00990   49.00990   10.10720   13.44470   13.44470 1323.34440 1323.34440  525.49650 1323.34440    0.00650    -999.25    0.00650    2.69450 -183.50160  525.49650
 10000.00000    8.48050    9.28470    9.28470    0.66390    0.04130    0.04130    2.65280    0.03230    -999.25    0.03350 1506.21250   48.19750   48.19750   11.87190   11.77920   11.77920 1434.67190 1434.67190 1346.58370 1434.67190    0.00580    -999.25    0.00580    2.65280 -187.92430 1346.58370
 10050.00000    7.89220    8.41060    8.41060    5.62660    0.19900    0.19900    2.62820    0.04430    -999.25    0.04780  178.83550   47.56710   47.56710   11.41790   16.64600   16.64600 1512.74500 1512.74500 1304.38720 1512.74500    0.03770    -999.25    0.03770    2.62820 -186.61160 1304.38720
 10100.00000    8.34950    9.23000    9.23000    3.57500    0.05430    0.05430    2.83780   -0.07460    -999.25   -0.07470  279.71810   48.12870   48.12870   31.56250   40.66080   40.66080  994.22280  994.22280  417.43080  994.22280    0.03760    -999.25    0.03760    2.83780 -166.90130  417.43080
 10150.00000    9.20920    9.60030    9.60030   10.62550    0.21440    0.21440    2.47950    0.14720    -999.25    0.13480   95.80520   50.53660   50.53660   18.14180   21.78380   21.78380   69.04860   69.04860   99.74500   69.04860    0.11140    -999.25    0.11140    2.47950 -173.74750   99.74500
 10200.00000   11.11270    9.54370    9.54370   11.64260    0.26020    0.26020    2.20480    0.26500    -999.25    0.29540   85.89110   53.40520   53.40520   25.91280   33.71140   33.71140   52.78830   52.78830   61.59180   52.78830    0.10750    -999.25    0.10750    2.20480 -148.64750   61.59180
 10250.00000    9.24310    9.42800    9.42800    3.83600    0.23540    0.23540    2.64990    0.03760    -999.25    0.03510  260.68530   49.66090   49.66090   25.75100   29.65580   29.65580 1272.41160 1272.41160  325.24950 1272.41160    0.02090    -999.25    0.02090    2.64990 -103.55810  325.24950
 10300.00000    8.53520    9.28680    9.28680   10.38720    0.09660    0.09660    2.70390    0.00820    -999.25    0.00360   96.27640   52.06890   52.06890   36.63260   43.75590   43.75590  105.44390  105.44390  128.29030  105.44390    0.04040    -999.25    0.04040    2.70390  -71.96480  128.29030
 10350.00000    8.70900    9.30030    9.30030    4.86090    0.18100    0.18100    2.72510   -0.01860    -999.25   -0.00880  205.72170   50.99250   50.99250   26.60030   31.75800   31.75800  697.87080  697.87080  297.17810  697.87080    0.01830    -999.25    0.01830    2.72510  -83.27410  297.17810
 10400.00000    8.97470    9.14790    9.14790    6.32900    0.18280    0.18280    2.66700    0.01920    -999.25    0.02520  158.12180   50.79390   50.79390   24.54670   33.97310   33.97310  307.69210  307.69210  280.50080  307.69210    0.02220    -999.25    0.02220    2.66700  -74.74350  280.50080
 10450.00000    8.29770    9.13520    9.13520   11.85760    0.00790    0.00790    2.64990    0.03000    -999.25    0.03510   84.33430   52.42500   52.42500   34.85910   47.79540   47.79540  129.37550  129.37550  120.86740  129.37550    0.03880    -999.25    0.03880    2.64990  -71.18250  120.86740
 10500.00000    8.28970    9.12600    9.12600    7.40080    0.00770    0.00770    2.67690    0.01640    -999.25    0.01940  135.12110   51.41360   51.41360   27.27470   36.19730   36.19730  250.64340  250.64340  178.57010  250.64340    0.02880    -999.25    0.02880    2.67690  -83.41420  178.57010
 10550.00000    8.29240    9.18970    9.18970   11.41310    0.04330    0.04330    2.71540   -0.00410    -999.25   -0.00310   87.62270   52.18050   52.18050   26.71040   38.72590   38.72590  118.68590  118.68590  127.68520  118.68590    0.04230    -999.25    0.04230    2.71540  -82.66590  127.68520
 10600.00000    8.51320    9.20730    9.20730   18.55010    0.00120    0.00120    2.64430    0.03450    -999.25    0.03840   53.90820   54.42300   54.42300   35.69380   44.56830   44.56830   71.18050   71.18050   81.25420   71.18050    0.06920    -999.25    0.06920    2.64430  -79.56320   81.25420
 10650.00000    8.65300    9.46340    9.46340   62.60840    0.01220    0.01220    2.64420    0.03820    -999.25    0.03850   15.97330   61.17930   61.17930   57.00040   69.14130   69.14130   19.20090   19.20090   24.36820   19.20090    0.13370    -999.25    0.13370    2.64420  -71.92070   24.36820
 10700.00000    8.52720    9.56310    9.56310   74.63470    0.15840    0.15840    2.66910    0.03920    -999.25    0.02390   13.39860   65.79580   65.79580   90.13680  118.31010  118.31010   16.90690   16.90690   25.44150   16.90690    0.20830    -999.25    0.20830    2.66910  -67.09430   25.44150
 10750.00000    8.65700    9.43120    9.43120   52.82960    0.02670    0.02670    2.66820    0.03070    -999.25    0.02440   18.92880   61.00020   61.00020   63.24610   89.98560   89.98560   20.53760   20.53760   33.17200   20.53760    0.12210    -999.25    0.12210    2.66820  -66.21290   33.17200
 10800.00000    8.49900    9.36990    9.36990  108.20280    0.09520    0.09520    2.64830    0.02820    -999.25    0.03610    9.24950   74.96050   74.96050   99.04290  128.25880  128.25880   10.22930   10.22930   13.18230   10.22930    0.23760    -999.25    0.23760    2.64830  -64.30300   13.18230
 10850.00000    8.30120    9.15500    9.15500   56.66360    0.01100    0.01100    2.64780    0.03320    -999.25    0.03640   17.64800   70.47090   70.47090   78.29310   95.73290   95.73290   18.71820   18.71820   24.21910   18.71820    0.17810    -999.25    0.17810    2.64780  -60.89950   24.21910
 10900.00000    8.33260    9.11210    9.11210   61.33820    0.01220    0.01220    2.69480    0.00520    -999.25    0.00890   16.31120   63.75340   63.75340   82.81750   98.22630   98.22630   19.13920   19.13920   26.53360   19.13920    0.16350    -999.25    0.16350    2.69480  -59.75560   26.53360
