~Version ---------------------------------------------------
VERS. 2.0 : CWLS log ASCII Standard -VERSION 2.0
WRAP.  NO : One line per depth step
~Well ------------------------------------------------------
STRT.FT                          900.0 : START DEPTH
STOP.FT                         9150.0 : STOP DEPTH
STEP.FT                       50.00000 : STEP LENGTH
NULL.                          -999.25 : NULL VALUE
COMP.    UNO-TEX PETROLEUM CORPORATION : COMPANY
WELL. UNO-TEX ET AL BOULDER 4-31-70-19 : WELL
FLD .                                  : FIELD
LOC .                                  : LOCATION
CTRY.                           CANADA : COUNTRY
SRVC.                     Schlumberger : SERVICE COMPANY
DATE.                      14-Sep-1974 : LOGDATE
PROV.                          Alberta : PROVINCE
UWI .                 100043107019W500 : UNIQUE WELL ID
SLAT.WGS84               55.1008449393 : SURFACE LATITUDE
SLON.WGS84             -116.8929272887 : SURFACE LONGITUDE
~Curve Information -----------------------------------------
DEPT.FT    : DEPTH
CALS.IN    : CALIPER FROM SONIC LOG
CILD.MMHO  : CONDUCTIVITY FROM LOG
DT  .US/F  : DELTA TIME
GRS .GAPI  : GAMMA RAY FROM SONIC LOG
ILD .OHMM  : DEEP INDUCTION RESISTIVITY
ILM .OHMM  : MEDIUM INDUCTION RESISTIVITY
LL8 .OHMM  : LATEROLOG-8 RESISTIVITY
SPR .MV    : Spontaneous Potential from Resistivity Log
~Params ----------------------------------------------------
PD  .                     GL : PERMANENT DATUM
EPD .FT                 2502 : ELEVATION PERMANENT DATUM
LMF .                     KB : LOG MEASURED FROM
DAPD.FT                   15 : FEET ABOVE PERMANENT DATUM
EKB .FT                 2517 : KELLY BUSHING
EGL .FT                 2502 : GROUND LEVEL
DATE.               09/14/74 : RUN DATE
RUN .                      1 : RUN NUMBER
DD  .FT                 9141 : DEPTH DRILLER
DL  .FT                 9155 : DEPTH LOGGER
BLI .FT                 9149 : BOTTOM LOG INTERVAL
TLI .FT                  912 : TOP LOG INTERVAL
CBD .FT                  912 : CASING BOTTOM DRILLER
CBL .FT                  912 : CASING BOTTOM LOGGER
BS  .IN                7.875 : BIT SIZE
BSD .FT                 9141 : BIT SIZE AT DEPTH
DFT .                    GEL : DRILLING FLUID TYPE
DFD .                    9.2 : DRILLING FLUID DENSITY
DFV .                    104 : DRILLING FLUID VISCOSITY
DFPH.                    9.5 : DRILLING FLUID PH
DFL .                    7.0 : DRILLING FLUID LOSS
MSS .             CIRCULATED : MUD SAMPLE SOURCE
RMS .OHMM               1.32 : RESISTIVITY MUD SAMPLE
MST .DEGF                 60 : MUD SAMPLE TEMPERATURE
RMF .OHMM               2.14 : RESISTIVITY MUD FILTRATE SAMPLE
MFST.DEGF                 71 : MUD FILTRATE SAMPLE TEMPERATURE
RMB .OHMM               0.97 : RESISTIVITY MUD AT BHT
TCS .HRS                   9 : TIME CIRCULATED STOPPED
LUN .                   7670 : LOGGING UNIT NUMBER
LUL .                    FDM : LOGGING UNIT LOCATION
ENGI.                   WOON : RECORDING ENGINEER
WITN.                 HARRIS : WITNESSED BY
CLNT.                A2DTECH : CLIENT CODE
ORIG.            2" 5" PRINT : ORIGIN OF DATA
UWI .       100043107019W500 : UNIQUE WELL ID
DICO. A2D Technologies, Inc. : DIGITIZING COMPANY
~Other -----------------------------------------------------
~ASCII -----------------------------------------------------
# ...
 4900.00000    8.95750    -999.25   68.78400   22.31070    4.94270   10.56440   29.47860  -70.00890
 4950.00000    8.79530    -999.25   62.17870   40.51780    4.22150    6.04920   18.68340  -78.65810
 5000.00000    8.80380    -999.25   99.16960   23.49450    9.41530   19.28680   79.57900 -127.47970
 5050.00000    8.59690    -999.25   56.65510   14.68970   11.16780   23.16510   88.27170 -143.20170
 5100.00000    8.74940    -999.25   55.54920   25.21610   20.46430   33.75760   83.42500   28.28490
 5150.00000    9.07530    -999.25   72.19640   48.16640    1.52080    2.01180   10.61540  -32.80320
 5200.00000    8.55550    -999.25   60.06950   20.89150   10.52950   17.31390   23.78440   17.37210
 5250.00000    8.91410    -999.25   61.24540   24.93630    2.90760    4.56880   18.17550  -88.90540
 5300.00000    8.81730    -999.25   60.27530   43.77790   13.24620   23.97360   75.84810  -81.90330
 5350.00000    9.29550    -999.25   67.93150   69.02110    8.48480   10.44690   11.49020   -7.04340
 5400.00000    8.76290    -999.25   57.51160   28.66490   21.40730   31.49120   37.99270  -58.70730
 5450.00000    8.80670    -999.25   60.02270   34.21900    4.28850    5.95640   30.92460  -86.22110
 5500.00000    9.03990    -999.25   60.84450   28.46870    5.97780    7.14700   23.07680  -62.40830
 5550.00000    9.10850    -999.25   61.16500   43.49120    4.52370    5.78290   11.77170  -65.02070
 5600.00000    8.85180    -999.25   59.74860   14.46750   11.23620   23.67730   31.72650   -0.37020
 5650.00000    9.40200    -999.25   59.96100   25.26530    4.43700    7.53710   70.29520  -59.22480
 5700.00000    9.01430    -999.25   58.21440   17.18780    8.09210   15.97380   97.76650  -67.43100
 5750.00000    9.36450    -999.25   58.06920   17.37420    6.22500   13.01450  110.83700 -113.05800
 5800.00000    9.08720    -999.25   58.53650   12.41340   11.47610   19.75240   86.83690 -142.95290
 5850.00000    9.77960    -999.25   63.29510   60.91430    4.30870    5.27740    8.26310 -111.52820
 5900.00000    9.63120    -999.25   69.96990   67.69710    3.67000    4.21250    7.60160 -135.75270
 5950.00000    9.36620    -999.25   59.86940   69.21350    9.28070   11.41720   12.48180  -99.30110
 6000.00000    8.88900    -999.25   60.14920    9.01550   19.50300   25.24140   20.16220  -65.83590
 6050.00000    9.13830    -999.25   58.23490   23.17900   20.64220   26.64720   23.31070  -32.93520
 6100.00000    8.50420    -999.25   60.44160   15.55610    8.14430   17.13440   84.99940 -173.31750
 6150.00000    8.81170    -999.25   52.99420   56.32110   29.37920   55.44840  175.75360  -62.22760
 6200.00000    8.52670    -999.25   59.61870   34.66720   19.75270   28.63210   27.58170  -57.05350
 6250.00000    8.55880    -999.25   57.43720   29.60420   24.54600   34.34120   37.78080  -97.94410
 6300.00000    9.14360    -999.25   68.32860   69.01250    9.85910   12.74260   13.53490 -112.77080
 6350.00000    8.74790    -999.25   62.54010   42.09300   17.08590   23.35020   20.24130 -107.70200
 6400.00000    8.84920    -999.25   63.36810   45.37500   13.96140   19.04000   20.33460  -77.34060
 6450.00000    8.82100    -999.25   64.16610   47.69680   15.86650   22.50130   21.54270   -0.79840
 6500.00000    9.24500    -999.25   66.52500   73.39000    8.09510    9.78460   10.54680   20.86680
 6550.00000    8.85710    -999.25   51.83000   11.05960  208.63220  285.82830  216.25620  -94.60720
 6600.00000    8.99860    -999.25   50.26410   15.75440  710.43030  322.10710  266.36390 -183.42790
 6650.00000    9.08460    -999.25   50.11460   16.08790  504.84870  274.53000  188.12400 -123.12190
 6700.00000    9.25150    -999.25   49.68900   11.77050  435.19010  287.28870  212.64890  -70.76200
 6750.00000    8.96960    -999.25   48.79210   12.53000 1530.38390  559.72950  298.25190  -47.56230
 6800.00000    9.16970    -999.25   49.94630   12.67440  552.27920  309.05740  242.33820  -54.04650
 6850.00000    9.34260    -999.25   52.19510   11.62370   47.05440   84.48880  223.92820 -139.75090
 6900.00000    9.21110    -999.25   52.79240   14.44540   49.64030   82.06110  242.91890 -119.66890
 6950.00000    9.06080    -999.25   51.22820   12.47070   63.45140   69.68860  118.37050 -108.65510
 7000.00000    9.13300    -999.25   48.56100   11.94030 1710.57410 1455.54810 1556.74190  -39.16670
 7050.00000    8.98380    -999.25   49.58570   12.44220 1509.21200 1199.69230 1169.08810  -53.14510
 7100.00000    8.93120    -999.25   48.81710   11.36260 1668.19530 1498.71660 1575.06860  -27.43660
 7150.00000    8.95620    -999.25   47.81840   12.42280 1706.11940 1538.93770 1596.33240  -12.57380
 7200.00000    8.73450    -999.25   48.30590    8.15830 1686.42900 1410.58740 1376.48360  -69.68930
 7250.00000    8.59990    -999.25   51.56320    8.94550   25.57630   35.15240  125.77540 -164.86160
 7300.00000    8.26620    -999.25   55.09930   12.13560   12.48450   30.42140  103.35500 -134.60030
 7350.00000    8.37260    -999.25   55.53250   30.02050    6.70120   10.95590   13.05210   -5.17510
 7400.00000    8.29650    -999.25   61.56200   38.81660    4.88640    7.68810   27.86290  -19.11630
 7450.00000    8.41500    -999.25   50.05060   23.42300   54.08940   90.88340   78.11430  -65.10720
 7500.00000    8.48800    -999.25   52.26330   27.72330   12.09000   17.09220   24.40540  -80.16350
 7550.00000    8.46630    -999.25   52.68180   35.85780  105.53710  137.80170  134.85490    2.05500
 7600.00000    8.53330    -999.25   50.80160   14.96030  168.67140  221.73000  178.77580  -79.52950
 7650.00000    8.55730    -999.25   62.05880   57.79010    9.81970   13.20870   12.38690 -101.43640
 7700.00000    8.88800    -999.25   69.13310   71.05050   11.26820   13.53870   12.84690 -127.94910
 7750.00000   10.43410    -999.25   78.50970   79.23240    5.55830    6.55910    7.39020 -100.02010
 7800.00000   10.45430    -999.25   79.19860   64.41730    5.00440    5.97980    6.96010  -47.56630
 7850.00000   13.66530    -999.25   82.37290   90.41380    4.28310    4.54300    5.48250  -52.13200
 7900.00000   14.25730    -999.25   78.78240   80.29390    4.59510    4.82030    5.68560  -59.46070
 7950.00000   14.08570    -999.25   78.12350   86.88970    5.12400    5.56780    6.54010 -125.42100
 8000.00000   12.66130    -999.25   79.34320   78.40900    5.07690    5.57830    6.25200  -87.50810
 8050.00000   10.21740    -999.25   75.89480   76.41480    5.11300    5.71590    6.58490  -15.40400
 8100.00000   10.62270    -999.25   82.82400   88.43610    3.86190    4.09890    5.13840  -30.86360
 8150.00000   12.09020    -999.25   85.27930   96.63190    3.90560    4.38560    5.32330   -3.93350
 8200.00000    8.32510    -999.25   64.53960   58.16100    9.93540   14.95970   13.97960  -49.53260
 8250.00000    8.27180    -999.25   65.71180   58.47530   11.43180   16.81990   15.04090   -4.69400
 8300.00000    8.29900    -999.25   68.50730   61.71120    8.13240   10.76560   11.43450  -20.15930
 8350.00000    8.57480    -999.25   70.22170   83.70880    9.11870   11.85550   12.82550 -127.81990
 8400.00000    8.46940    -999.25   67.83800   81.46450    9.96850   11.98100   13.04690 -172.20510
 8450.00000    9.55910    -999.25   78.55780   59.16550    6.44260    7.88620    8.80800 -144.69120
 8500.00000    8.76690    -999.25   70.05430   76.01430    7.94570   10.25390   12.53030 -109.72390
 8550.00000    8.60840    -999.25   68.35430   82.40890    9.48140   12.34620   13.68960 -177.28810
 8600.00000    9.04980    -999.25   72.81380  104.97910    5.88500    7.51510    8.81570 -149.07800
 8650.00000    8.30070    -999.25   62.38800   61.11410   42.14910   69.07280   94.91460    -999.25
 8700.00000    8.83900    -999.25   80.84680  113.42460    6.74170    8.55500    9.76760  -64.32980
 8750.00000    8.38500    -999.25   68.74910   68.24180    7.74470   10.63440   11.40670  -48.67330
 8800.00000    8.25900    -999.25   58.32060   39.12080   22.84910   31.72940   29.09410   46.78540
 8850.00000    8.07230    -999.25   50.69860   10.17290   42.08860   50.82040   96.62380   29.84690
