~Version ---------------------------------------------------
VERS.      2.0 : CWLS log ASCII Standard -VERSION 2.0
WRAP.       NO : One line per depth step
CREA. 11/17/17 : LAS Creation Date
~Well ------------------------------------------------------
STRT.FT                  950.0 : START DEPTH
STOP.FT                 9500.0 : STOP DEPTH
STEP.FT               50.00000 : STEP LENGTH
NULL.                  -999.25 : NULL VALUE
COMP.    CANADIAN FINA OIL LTD : COMPANY
WELL. FINA GOOSE R 11-16-68-19 : WELL
FLD .                          : FIELD
LOC .                          : LOCATION
CTRY.                   CANADA : COUNTRY
SRVC.                  Unknown : SERVICE COMPANY
DATE.              04-Mar-1970 : LOGDATE
PROV.                  Alberta : PROVINCE
UWI .         100111606819W500 : UNIQUE WELL ID
SLAT.WGS84            54.88958 : SURFACE LATITUDE
SLON.WGS84           -116.8394 : SURFACE LONGITUDE
~Curve Information -----------------------------------------
DEPT   .FT    : Depth Curve
CALDED .IN    : CALIPER FROM DENSITY LOG
CALSED .IN    : CALIPER FROM SONIC LOG
CALWS  .IN    : CALIPER [SPIL. CALSED TO CALDED @ 5005']
CONDWS .MMHO  : CONDUCTIVITY [1000/DRESWS]
DCORWS .G/C3  : DENSITY CORRECTION [DRHOED]
DENWS  .G/C3  : FORMATION BULK DENSITY [RHOBED]
DPOLSWS.V/V   : DENSITY POROSITY LIMESTONE [CALC. FROM DENWS, M=2.71, F=1.00]
DRESWS .OHMM  : DEEP RESISTIVITY [ILDED]
DRHOED .G/C3  : DENSITY CORRECTION FROM DENSITY LOG
DTED   .US/F  : DELTA TIME FROM SONIC LOG
DTWS   .US/F  : COMPRESSIONAL SONIC [DTED]
GRDED  .GAPI  : GAMMA RAY FROM DENSITY LOG
GRWS   .GAPI  : GAMMA RAY [GRDED]
ILDED  .OHMM  : DEEP  INDUCTION RESISTIVITY FROM RESISTIVITY LOG
ILMED  .OHMM  : MEDIUM INDUCTION RESISTIVITY FROM RESISTIVITY LOG
LL8ED  .OHMM  : 8 INCH LATEROLOG RESISTIVITY FROM RESISTIVITY LOG
MRESWS .OHMM  : MEDIUM RESISTIVITY [ILMED]
RHOBED .G/C3  : BULK DENSITY FROM DENSITY LOG
SPRED  .MV    : SPONTANEOUS POTENTIAL FROM RESISTIVITY LOG
SPWS   .MV    : SPONTANEOUS POTENTIAL [BASELINE 0 MV, SPRED]
SRESWS .OHMM  : SHALLOW RESISTIVITY [LL8ED]
~Params ----------------------------------------------------
PD  .                     GL : PERMANENT DATUM
EPD .FT                 2553 : ELEVATION PERMANENT DATUM
LMF .                     KB : LOG MEASURED FROM
DAPD.FT                   13 : FEET ABOVE PERMANENT DATUM
EKB .FT                 2566 : KELLY BUSHING
EGL .FT                 2553 : GROUND LEVEL
DATE.               03/04/70 : RUN DATE
RUN .                      1 : RUN NUMBER
DD  .FT                 9523 : DEPTH DRILLER
DL  .FT                 9520 : DEPTH LOGGER
BLI .FT                 9514 : BOTTOM LOG INTERVAL
TLI .FT                  972 : TOP LOG INTERVAL
CBD .FT                  972 : CASING BOTTOM DRILLER
CBL .FT                  972 : CASING BOTTOM LOGGER
BS  .IN                7.875 : BIT SIZE
BSD .FT                 9523 : BIT SIZE AT DEPTH
DFT .               GEL CHEM : DRILLING FLUID TYPE
DFD .                    9.3 : DRILLING FLUID DENSITY
DFV .                    100 : DRILLING FLUID VISCOSITY
DFPH.                    9.5 : DRILLING FLUID PH
DFL .                    6.4 : DRILLING FLUID LOSS
RMS .OHMM               1.46 : RESISTIVITY MUD SAMPLE
MST .DEGF                 82 : MUD SAMPLE TEMPERATURE
RMF .OHMM               1.39 : RESISTIVITY MUD FILTRATE SAMPLE
MFST.DEGF                 65 : MUD FILTRATE SAMPLE TEMPERATURE
RMB .OHMM               0.59 : RESISTIVITY MUD AT BHT
TCS .HRS                   3 : TIME CIRCULATED STOPPED
LUN .                   7003 : LOGGING UNIT NUMBER
LUL .                     RD : LOGGING UNIT LOCATION
ENGI.               ROBINSON : RECORDING ENGINEER
WITN.               MCINTYRE : WITNESSED BY
CLNT.                A2DTECH : CLIENT CODE
ORIG.            2" 5" PRINT : ORIGIN OF DATA
UWI .       100111606819W500 : UNIQUE WELL ID
DICO. A2D Technologies, Inc. : DIGITIZING COMPANY
~Other -----------------------------------------------------
~ASCII -----------------------------------------------------
# ...
 7550.00000    8.90140    8.67600    8.90140   21.48700    0.00980    2.70140    0.00500   46.54130    0.00980   51.10830   51.10830   12.40580   12.40580   46.54130   48.80760  117.93690   48.80760    2.70140 -186.35640 -164.60680  117.93690
 7600.00000    8.39730    8.50260    8.39730   26.98340    0.01210    2.68770    0.01300   37.05980    0.01210   50.51460   50.51460    7.56010    7.56010   37.05980   48.05400  153.65500   48.05400    2.68770 -212.07060 -188.98600  153.65500
 7650.00000    8.24330    8.40260    8.24330  179.05100    0.03090    2.74200   -0.01870    5.58500    0.03090   53.53890   53.53890   32.59750   32.59750    5.58500    7.67940   17.50040    7.67940    2.74200 -175.90580 -151.49290   17.50040
 7700.00000    9.34910    8.57740    9.34910   25.37660    0.18310    2.70360    0.00370   39.40640    0.18310   47.66090   47.66090   13.01710   13.01710   39.40640   47.93400  133.69130   47.93400    2.70360 -159.61040 -133.86920  133.69130
 7750.00000    8.93110    8.38650    8.93110    5.86210    0.06400    2.76160   -0.03020  170.58590    0.06400   48.53590   48.53590   14.78090   14.78090  170.58590  199.95860  292.66580  199.95860    2.76160 -147.42810 -120.35860  292.66580
 7800.00000    8.24100    8.30380    8.24100   57.27540    0.02750    2.76780   -0.03380   17.45990    0.02750   50.03930   50.03930   23.23210   23.23210   17.45990   17.21910   25.77670   17.21910    2.76780 -107.84960  -79.45840   25.77670
 7850.00000    8.24280    8.31320    8.24280   17.76850    0.02160    2.71390   -0.00230   56.27950    0.02160   53.32270   53.32270   37.02220   37.02220   56.27950   58.64750   64.91360   58.64750    2.71390  -46.38690  -16.66080   64.91360
 7900.00000    8.14860    8.30330    8.14860    5.53870    0.01220    2.71180   -0.00110  180.54790    0.01220   50.20240   50.20240   15.68000   15.68000  180.54790  258.59000  480.79910  258.59000    2.71180  -66.42460  -34.77890  480.79910
 7950.00000    8.17800    8.21170    8.17800   21.55460    0.00630    2.72330   -0.00780   46.39380    0.00630   54.33880   54.33880   25.01780   25.01780   46.39380   49.48170   54.39780   49.48170    2.72330  -44.17700  -10.16570   54.39780
 8000.00000    9.00090    8.62950    9.00090   72.61270    0.00850    2.67140    0.02260   13.77170    0.00850   57.77810   57.77810   40.06450   40.06450   13.77170   13.67930   17.69680   13.67930    2.67140  -54.66420  -19.45540   17.69680
 8050.00000   12.38840   10.84270   12.38840  143.54200    0.17860    2.35780    0.20600    6.97340    0.17860   73.14500   73.14500   74.13470   74.13470    6.97340    6.20470    6.81740    6.20470    2.35780 -110.85070  -75.40160    6.81740
 8100.00000   15.03220   12.71960   15.03220  160.75880    0.09370    2.32110    0.22740    6.22050    0.09370   72.22120   72.22120   60.15300   60.15300    6.22050    5.84810    7.65170    5.84810    2.32110 -114.10290  -78.41090    7.65170
 8150.00000   15.00000   14.10890   15.00000  213.00160    0.09220    1.53770    0.68560    4.69480    0.09220   81.81740   81.81740   70.72150   70.72150    4.69480    3.57920    5.17220    3.57920    1.53770 -104.38540  -68.45180    5.17220
 8200.00000   15.00000   14.89570   15.00000  229.02690    0.06320    1.42730    0.75010    4.36630    0.06320   85.68750   85.68750   61.79200   61.79200    4.36630    3.26300    4.89800    3.26300    1.42730  -49.41490  -13.23970    4.89800
 8250.00000   15.00000   14.88430   15.00000  223.39880    0.06330    1.42490    0.75150    4.47630    0.06330   82.54570   82.54570   60.91420   60.91420    4.47630    3.42140    5.00990    3.42140    1.42490  -53.77550  -17.35880    5.00990
 8300.00000   15.00000   14.87870   15.00000  206.72920    0.05210    1.43750    0.74420    4.83730    0.05210   79.62060   79.62060   60.14370   60.14370    4.83730    3.86350    5.63600    3.86350    1.43750  -92.86900  -56.21190    5.63600
 8350.00000   15.00000   14.56020   15.00000  248.52130    0.07090    1.54280    0.68260    4.02380    0.07090   84.34540   84.34540   71.24660   71.24660    4.02380    3.43270    4.79880    3.43270    1.54280  -97.82820  -60.92820    4.79880
 8400.00000   15.00000   14.82720   15.00000  261.76640    0.05100    1.50320    0.70570    3.82020    0.05100   84.89610   84.89610   75.62300   75.62300    3.82020    3.03150    4.53830    3.03150    1.50320 -132.06330  -94.92170    4.53830
 8450.00000    5.03580    8.61960    5.03580   57.04180    0.21050    1.93900    0.45090   17.53100    0.21050   72.40530   72.40530   98.36270   98.36270   17.53100   21.27580   32.76550   21.27580    1.93900 -119.10270  -81.71950   32.76550
 8500.00000    8.60590    8.48990    8.60590   89.83760    0.24930    2.64640    0.03720   11.13120    0.24930   65.34050   65.34050   61.49650   61.49650   11.13120   12.47840   14.35300   12.47840    2.64640  -98.55580  -60.93100   14.35300
 8550.00000    8.70670    8.62940    8.70670  115.68040    0.23400    2.45360    0.15000    8.64480    0.23400   66.91840   66.91840   80.04560   80.04560    8.64480    8.91310   10.51130    8.91310    2.45360  -80.04640  -42.18120   10.51130
 8600.00000    9.88620    8.67560    9.88620  109.79600    0.24990    2.65030    0.03490    9.10780    0.24990   69.32250   69.32250   78.36130   78.36130    9.10780    9.34520   12.03840    9.34520    2.65030  -40.90970   -2.86530   12.03840
 8650.00000    9.03930    8.71810    9.03930  121.58350    0.25000    2.41250    0.17400    8.22480    0.25000   76.15960   76.15960   68.51870   68.51870    8.22480    8.52980    9.97250    8.52980    2.41250  -52.60270  -16.42380    9.97250
 8700.00000    9.17610    8.77240    9.17610  113.91600    0.24930    2.49100    0.12810    8.77840    0.24930   70.90690   70.90690   67.50840   67.50840    8.77840    9.10040   11.31460    9.10040    2.49100  -89.80640  -55.49090   11.31460
 8750.00000   11.60610   10.41810   11.60610  161.84110    0.19800    2.41060    0.17510    6.17890    0.19800   72.47570   72.47570   78.03200   78.03200    6.17890    6.96430    8.92200    6.96430    2.41060  -93.63320  -61.18120    8.92200
 8800.00000   10.18210    9.37400   10.18210  164.01100    0.24270    2.51190    0.11580    6.09770    0.24270   69.01890   69.01890   83.24060   83.24060    6.09770    6.93310    9.28650    6.93310    2.51190  -85.91400  -55.31610    9.28650
 8850.00000    9.22800    8.69000    9.22800  142.67370    0.20250    2.55040    0.09330    7.00900    0.20250   72.01010   72.01010   78.17380   78.17380    7.00900    7.38060    9.62740    7.38060    2.55040  -86.79990  -58.07480    9.62740
 8900.00000    9.19180    8.94800    9.19180  143.76490    0.24930    2.45300    0.15030    6.95580    0.24930   72.68050   72.68050   78.56670   78.56670    6.95580    7.14320    9.46790    7.14320    2.45300  -87.33730  -60.47560    9.46790
 8950.00000    7.92520    8.06870    7.92520   29.72030    0.03030    2.64540    0.03780   33.64700    0.03030   70.67810   70.67810   55.90100   55.90100   33.64700   37.73560   59.28250   37.73560    2.64540  -75.97360  -50.97540   59.28250
 9000.00000    8.02650    8.39680    8.02650   28.58040    0.07090    2.52590    0.10770   34.98900    0.07090   94.06400   94.06400  168.12360  168.12360   34.98900   52.52700   98.57730   52.52700    2.52590  -89.53120  -66.39640   98.57730
 9050.00000    8.02630    8.08560    8.02630   29.45770    0.04450    2.73530   -0.01480   34.02240    0.04450   57.25480   57.25480   41.37140   41.37140   34.02240   45.22110   52.83950   45.22110    2.73530  -63.72950  -42.44880   52.83950
 9100.00000    8.01130    8.14810    8.01130   15.77750    0.00570    2.70050    0.00560   63.38120    0.00570   52.62380   52.62380   24.01370   24.01370   63.38120   80.01820  106.28790   80.01820    2.70050  -45.47190  -26.06400  106.28790
 9150.00000    8.04190    8.15350    8.04190   52.70790    0.03260    2.73660   -0.01560   18.97250    0.03260   59.36230   59.36230   50.93420   50.93420   18.97250   23.14180   37.08280   23.14180    2.73660  -19.80090   -2.25640   37.08280
