~Version ---------------------------------------------------
VERS.      2.0 : CWLS log ASCII Standard -VERSION 2.0
WRAP.       NO : One line per depth step
CREA. 08/04/17 : LAS Creation Date
~Well ------------------------------------------------------
STRT.FT                      550.0 : START DEPTH
STOP.FT                    12450.0 : STOP DEPTH
STEP.FT                   50.00000 : STEP LENGTH
NULL.                      -999.25 : NULL VALUE
COMP.       CALIFORNIA STANDARD CO : COMPANY
WELL. STANDARD CYNTHIA 16-21-49-13 : WELL
FLD .                           WC : FIELD
LOC .                              : LOCATION
CTRY.                       CANADA : COUNTRY
SRVC.                 Schlumberger : SERVICE COMPANY
DATE.                  28-Dec-1957 : LOGDATE
PROV.                      Alberta : PROVINCE
UWI .             100162104913W500 : UNIQUE WELL ID
SLAT.WGS84                53.24881 : SURFACE LATITUDE
SLON.WGS84               -115.8321 : SURFACE LONGITUDE
~Curve Information -----------------------------------------
DEPT  .FT         : Depth Curve
CALMED.IN         : CALIPER FROM FROM MLL LOG
CALWS .IN         : CALIPER [MCALED]
CILDED.MMHO       : DEEP INDUCTION CONDUCTIVITY FROM IL LOG [ADJ. TO SPRED]
CONDWS.MMHO       : CONDUCTIVITY [1000/DRESWS]
DRESWS.OHMM       : DEEP RESISTIVITY [LNED]
GRNED .UgRa-Eq/T  : GAMMA RAY FROM GRN LOG
GRWS  .GAPI       : GAMMA RAY[GRNED*16.5]
ILDED .OHMM       : DEEP INDUCTION RESISTIVITY FROM IL LOG [ADJ. TO SPRED]
LL7ED .OHMM       : LATEROLOG 7 FROM LL LOG
LNED  .OHMM       : LONG NORMAL RESISTIVITY FROM EL LOG
LT18ED.OHMM       : LATERAL 18' FROM EL LOG
MCALED.IN         : MLT (MICROLOG) CALIPER FROM ML LOG
MLLED .OHMM       : MICRO FOCUSED LATEROLOG RESISTIVITY FROM MLL LOG
MRESWS.OHMM       : MEDIUM RESISTIVITY [LL7ED]
NEUTED.CPS        : NEUTRON FROM GRN LOG
NEUTWS.CPS        : NEUTRON [NEUTED]
SNED  .OHMM       : SHORT NORMAL RESISTIVITY FROM EL LOG
SPR1ED.MV         : SPONTANEOUS POTENTIAL FROM IL LOG [ADJ. TO SPRED]
SPR2ED.MV         : SPONTANEOUS POTENTIAL FROM LL LOG
SPRED .MV         : SPONTANEOUS POTENTIAL FROM EL LOG
SPWS  .MV         : SPONTANEOUS POTENTIAL [SPR1ED SPL. TO SPRED @644']
SRESWS.OHMM       : SHALLOW RESISTIVITY [SNED]
~Params ----------------------------------------------------
PD  .                        : PERMANENT DATUM
EPD .FT                    0 : ELEVATION PERMANENT DATUM
LMF .                     KB : LOG MEASURED FROM
DAPD.FT                    0 : FEET ABOVE PERMANENT DATUM
DMF .                     KB : DRILLING MEASURED FROM
EKB .FT                 3297 : KELLY BUSHING
EDF .FT                    0 : DRILLING FLOOR
EGL .FT                    0 : GROUND LEVEL
DATE.               12/28/57 : RUN DATE
RUN .                      4 : RUN NUMBER
DD  .FT                12492 : DEPTH DRILLER
DL  .FT                12492 : DEPTH LOGGER
BLI .FT                12491 : BOTTOM LOG INTERVAL
TLI .FT                 8904 : TOP LOG INTERVAL
CS  .IN                    0 : CASING SIZE
CBD .FT                  616 : CASING BOTTOM DRILLER
CBL .FT                  616 : CASING BOTTOM LOGGER
BS  .IN                    9 : BIT SIZE
BSD .FT                12492 : BIT SIZE AT DEPTH
DFT .               OIL EMUL : DRILLING FLUID TYPE
DFD .                   10.7 : DRILLING FLUID DENSITY
DFV .                    140 : DRILLING FLUID VISCOSITY
DFPH.                     13 : DRILLING FLUID PH
DFL .                    3.6 : DRILLING FLUID LOSS
MSS .                        : MUD SAMPLE SOURCE
RMS .OHMM                1.1 : RESISTIVITY MUD SAMPLE
MST .DEGF                 50 : MUD SAMPLE TEMPERATURE
RMF .OHMM                  0 : RESISTIVITY MUD FILTRATE SAMPLE
MFST.DEGF                  0 : MUD FILTRATE SAMPLE TEMPERATURE
RMC .OHMM                  0 : RESISTIVITY MUD CAKE
MCST.DEGF                  0 : MUD CAKE SAMPLE TEMPERATURE
MFSS.                        : MUD FILTRATE SAMPLE SOURCE
MCSS.                        : MUD CAKE SAMPLE SOURCE
RMB .OHMM               0.28 : RESISTIVITY MUD AT BHT
TCS .HRS                   3 : TIME CIRCULATED STOPPED
TLAB.HRS                   0 : TIME LOGGER AT BOTTOM
LUN .                   1749 : LOGGING UNIT NUMBER
LUL .                     DV : LOGGING UNIT LOCATION
ENGI.                  GOETZ : RECORDING ENGINEER
WITN.             CHARLESTON : WITNESSED BY
CLNT.                A2DTECH : CLIENT CODE
ORIG.            2" 5" PRINT : ORIGIN OF DATA
UWI .       100162104913W500 : UNIQUE WELL ID
DICO. A2D Technologies, Inc. : DIGITIZING COMPANY
OS  .                        : OTHER SERVICES
PWI .                        : PRIMARY WELL IDENTIFIER
R1  .                        : REMARKS 1
R2  .                        : REMARKS 2
LSRV.                        : LOG MNEMONIC
~Other -----------------------------------------------------
~ASCII -----------------------------------------------------
# ...
 8550.00000    7.85610    9.04220   47.70740    2.74780  363.93140    3.33430   55.01600  138.06420    -999.25  363.93140   44.87840    9.04220  305.79690    -999.25  337.22870  337.22870  169.73760    -999.25    -999.25  -92.43390  -55.39680  169.73760
 8600.00000    7.67650    8.54860   40.56480   16.31140   61.30690    1.84880   30.50520  200.06790    -999.25   61.30690  612.84140    8.54860   42.50630    -999.25  299.23800  299.23800  209.10530    -999.25    -999.25 -131.81890 -103.77930  209.10530
 8650.00000    7.78550    8.98340   38.55420    5.13770  194.63940    2.19140   36.15810  193.37210    -999.25  194.63940 4342.30560    8.98340  380.69750    -999.25  318.21460  318.21460  310.51800    -999.25    -999.25  -98.82370  -79.56880  310.51800
 8700.00000    -999.25    8.97160    -999.25    -999.25    -999.25    1.81120   29.88480    -999.25    -999.25    -999.25  234.46540    8.97160    -999.25    -999.25  257.51450  257.51450   59.21650    -999.25    -999.25  -57.46170  -40.95240   59.21650
 8750.00000    -999.25    8.34330    -999.25    3.13040  319.63030    7.56980  124.90210    -999.25  311.09750  319.63030  283.41700    8.34330    -999.25  311.09750  333.30530  333.30530  146.21300    -999.25  -61.03130  -32.63950  -31.49330  146.21300
 8800.00000    -999.25   11.65180    -999.25    2.31650  431.68670    2.35450   38.85010    -999.25  512.79590  431.68670  607.38080   11.65180    -999.25  512.79590  409.82780  409.82780  172.41800    -999.25  -80.07570  -59.89060  -58.35550  172.41800
 8850.00000    -999.25   10.22790    -999.25    2.00660  498.36230    2.43200   40.12800    -999.25  476.33360  498.36230  754.10000   10.22790    -999.25  476.33360  438.85120  438.85120  181.87300    -999.25 -113.26220 -123.66700 -120.52960  181.87300
 8900.00000    -999.25   10.39260    -999.25   35.10130   28.49840    6.01290   99.21200    -999.25   20.50500   28.49840   29.40840   10.39260    -999.25   20.50500  299.68500  299.68500   19.34480    -999.25  -74.71410 -106.84130 -101.75060   19.34480
 8950.00000    -999.25    9.94090    -999.25   61.14970   16.35330    6.63800  109.52700    -999.25    8.30670   16.35330   25.25520    9.94090    -999.25    8.30670  278.75500  278.75500    9.52440    -999.25  -63.44220  -60.54860  -53.88800    9.52440
 9000.00000    -999.25    9.78580    -999.25   50.58580   19.77740    4.42040   72.93700    -999.25   14.60560   19.77740   21.16040    9.78580    -999.25   14.60560  323.00140  323.00140   13.27790    -999.25  -85.53020  -84.73340  -75.72690   13.27790
 9050.00000    -999.25    9.28260    -999.25    7.40330  135.07430    4.06540   67.07990    -999.25   82.84450  135.07430  201.25550    9.28260    -999.25   82.84450  377.41480  377.41480   43.46450    -999.25  -49.21820  -50.42560  -40.41740   43.46450
 9100.00000    -999.25    8.99800    -999.25    6.92130  144.48160    3.31100   54.63150    -999.25   52.86930  144.48160  284.92280    8.99800    -999.25   52.86930  391.31580  391.31580   45.40160    -999.25  -58.97980  -60.32130  -48.32030   45.40160
 9150.00000    -999.25    8.98300    -999.25    8.76430  114.10980    3.16180   52.16890    -999.25   91.04740  114.10980  152.26490    8.98300    -999.25   91.04740  375.38720  375.38720   42.26250    -999.25  -43.26900  -44.41870  -30.99830   42.26250
 9200.00000    -999.25    9.09820    -999.25    8.69920  114.95290    3.43110   56.61310    -999.25   72.64250  114.95290  254.77710    9.09820    -999.25   72.64250  365.45780  365.45780   38.53310    -999.25  -44.14600  -45.78180  -30.78920   38.53310
 9250.00000    -999.25    9.11720    -999.25    5.05600  197.78370    3.74010   61.71040    -999.25  182.50140  197.78370  452.89310    9.11720    -999.25  182.50140  367.31490  367.31490   52.21740    -999.25  -40.96150  -41.70430  -24.84570   52.21740
 9300.00000    -999.25    9.05380    -999.25    6.72710  148.65170    4.32750   71.40290    -999.25  134.61090  148.65170  350.50150    9.05380    -999.25  134.61090  346.54490  346.54490   46.18080    -999.25  -31.81480  -33.53240  -15.05110   46.18080
 9350.00000    -999.25    9.24980    -999.25    4.76070  210.05110    5.01100   82.68150    -999.25  314.55620  210.05110  505.60560    9.24980    -999.25  314.55620  360.94760  360.94760   51.18180    -999.25  -25.22420  -26.94350   -7.02450   51.18180
 9400.00000    -999.25    9.73800    -999.25    9.80270  102.07740   24.02630  396.43320    -999.25   38.50240  102.07740   91.11490    9.73800    -999.25   38.50240  289.84680  289.84680   38.67450    -999.25  -32.02080  -33.66840  -12.81440   38.67450
 9450.00000    -999.25   14.75380    -999.25    1.76730  565.82240    3.48810   57.55370    -999.25 5668.46830  565.82240  597.61940   14.75380    -999.25 5668.46830  383.15980  383.15980   49.53780    -999.25  -61.76440  -62.39000  -40.65640   49.53780
 9500.00000    -999.25   12.78320    -999.25    2.17530  459.70700    2.78950   46.02710    -999.25  679.45840  459.70700  483.41430   12.78320    -999.25  679.45840  388.83980  388.83980   47.66500    -999.25  -83.51840  -82.75020  -60.07710   47.66500
 9550.00000    -999.25   10.25810    -999.25    7.10800  140.68630    2.46670   40.70050    -999.25  211.30260  140.68630  502.84550   10.25810    -999.25  211.30260  424.91230  424.91230   32.01090    -999.25  -97.55410  -99.16890  -75.41640   32.01090
 9600.00000    -999.25    8.68740    -999.25    9.19150  108.79660    1.69230   27.92300    -999.25  116.24870  108.79660  213.17870    8.68740    -999.25  116.24870  369.84610  369.84610   39.26670    -999.25 -120.91640 -120.97620  -96.25700   39.26670
 9650.00000    -999.25    9.49430    -999.25    5.09090  196.46390    2.14830   35.44690    -999.25  199.34150  196.46390  788.08170    9.49430    -999.25  199.34150  442.44700  442.44700   42.13090    -999.25 -119.93550 -119.18830  -93.62880   42.13090
 9700.00000    -999.25   10.33750    -999.25    4.89840  204.14970    1.83920   30.34680    -999.25  601.48070  204.14970  155.29060   10.33750    -999.25  601.48070  395.18300  395.18300   52.06540    -999.25 -126.13100 -127.40110 -100.93230   52.06540
 9750.00000    -999.25    8.85410    -999.25    5.31450  188.17360    1.71010   28.21670    -999.25  157.29850  188.17360  492.44360    8.85410    -999.25  157.29850  381.84470  381.84470   46.93970    -999.25 -137.33290 -135.29380 -107.56620   46.93970
 9800.00000    -999.25   12.67200    -999.25    7.08180  141.20770    2.25780   37.25370    -999.25  524.31990  141.20770   28.42270   12.67200    -999.25  524.31990  364.71550  364.71550   46.42350    -999.25 -130.64870 -128.85440 -100.42250   46.42350
 9850.00000    -999.25   11.54210    -999.25    3.77690  264.76940    2.25680   37.23720    -999.25  213.00370  264.76940  373.88590   11.54210    -999.25  213.00370  416.07730  416.07730   47.94250    -999.25 -119.69480 -118.33840  -88.96540   47.94250
 9900.00000    -999.25    8.67020    -999.25    5.27870  189.48350    1.97650   32.61140    -999.25  150.49050  189.48350  807.72420    8.67020    -999.25  150.49050  341.92480  341.92480   41.17580    -999.25 -157.56500 -154.60070 -124.37750   41.17580
 9950.00000    -999.25    9.47350    -999.25    3.01910  331.22470    2.05730   33.94550    -999.25  703.98440  331.22470  483.97410    9.47350    -999.25  703.98440  396.30470  396.30470   64.11390    -999.25 -139.02040 -139.97700 -108.72520   64.11390
 10000.00000    -999.25    9.10050    -999.25    9.44360  105.90700    1.65390   27.28860    -999.25   59.06080  105.90700  251.60870    9.10050    -999.25   59.06080  376.78680  376.78680   37.30190    -999.25 -177.37220 -176.56590 -144.41410   37.30190
 10050.00000    -999.25   10.00120    -999.25    2.30410  434.00350    1.85320   30.57780    -999.25 1278.09970  434.00350  501.07810   10.00120    -999.25 1278.09970  392.67810  392.67810   80.04640    -999.25 -136.01310 -135.77400 -102.66270   80.04640
 10100.00000    -999.25    9.23150    -999.25    5.54870  180.22400    3.40990   56.26330    -999.25  174.98760  180.22400  263.26050    9.23150    -999.25  174.98760  404.59980  404.59980   49.94450    -999.25 -113.49050 -115.28650  -81.57780   49.94450
