~Version ---------------------------------------------------
VERS.      2.0 : CWLS log ASCII Standard -VERSION 2.0
WRAP.       NO : One line per depth step
CREA. 11/17/17 : LAS Creation Date
~Well ------------------------------------------------------
STRT.FT                      850.0 : START DEPTH
STOP.FT                     7850.0 : STOP DEPTH
STEP.FT                   50.00000 : STEP LENGTH
NULL.                      -999.25 : NULL VALUE
COMP. PAN AMERICAN PETROLEUM CORP. : COMPANY
WELL. MUSKEG A-1 SANGUDO 2-18-57-6 : WELL
FLD .                              : FIELD
LOC .                              : LOCATION
CTRY.                       CANADA : COUNTRY
SRVC.                        Welex : SERVICE COMPANY
DATE.                  02-Feb-1965 : LOGDATE
PROV.                      Alberta : PROVINCE
UWI .             100021805706W500 : UNIQUE WELL ID
SLAT.WGS84                53.92069 : SURFACE LATITUDE
SLON.WGS84                -114.878 : SURFACE LONGITUDE
~Curve Information -----------------------------------------
DEPT  .FT    : Depth Curve
AC1ED .US/F  : ACOUSTIC 1' SPAN FROM SONIC LOG [ADJ, TO RESISTIVITY LOG]
ACED  .US/F  : ACOUSTIC 3' SPAN FROM SONIC LOG [ADJ, TO RESISTIVITY LOG]
CALSED.IN    : CALIPER FROM SONIC LOG [ADJ, TO RESISTIVITY LOG]
CALWS .IN    : CALIPER [CALSED]
CILDED.MMHO  : CONDUCTIVITY FROM IEL LOG
CONDWS.MMHO  : CONDUCTIVITY [1000/DRESWS]
DRESWS.OHMM  : DEEP RESISTIVITY [1000/CILDED IF ILDED <2,ILDED]
DTWS  .US/F  : COMPRESSIONAL SONIC [ACED]
GRSED .GAPI  : GAMMA RAY FROM SONIC LOG [ADJ, TO RESISTIVITY LOG]
GRWS  .GAPI  : GAMMA RAY [GRSED]
ILDED .OHMM  : 40" SPACING DEEP INDUCTION FROM IEL LOG
LATED .OHMM  : 16 FOOT LATERAL FROM RESISTIVITY LOG
SNED  .OHMM  : 18 INCH SPACING SHORT NORMAL FROM IEL LOG
SPRED .MV    : SPONTANEOUS POTENTIAL FROM IEL LOG
SPWS  .MV    : SPONTANEOUS POTENTIAL [BASELINE 0 MV,SPRED]
SRESWS.OHMM  : SHALLOW RESISTIVITY [SNED]
~Params ----------------------------------------------------
PD  .                     GL : PERMANENT DATUM
EPD .FT               2386.8 : ELEVATION PERMANENT DATUM
LMF .                     KB : LOG MEASURED FROM
DAPD.FT                 13.2 : FEET ABOVE PERMANENT DATUM
DMF .                     KB : DRILLING MEASURED FROM
EKB .FT                 2400 : KELLY BUSHING
EGL .FT               2386.8 : GROUND LEVEL
DATE.               02/02/65 : RUN DATE
RUN .                      1 : RUN NUMBER
DD  .FT                 7900 : DEPTH DRILLER
DL  .FT                 7901 : DEPTH LOGGER
BLI .FT                 7896 : BOTTOM LOG INTERVAL
TLI .FT                  819 : TOP LOG INTERVAL
CS  .IN                8.625 : CASING SIZE
CBD .FT                  819 : CASING BOTTOM DRILLER
CBL .FT                  819 : CASING BOTTOM LOGGER
BS  .IN                7.875 : BIT SIZE
BSD .FT                 7900 : BIT SIZE AT DEPTH
DFT .               GEL BASE : DRILLING FLUID TYPE
DFD .                   10.8 : DRILLING FLUID DENSITY
DFV .                    107 : DRILLING FLUID VISCOSITY
DFPH.                    9.5 : DRILLING FLUID PH
DFL .                    9.8 : DRILLING FLUID LOSS
MSS .                   CIRC : MUD SAMPLE SOURCE
RMS .OHMM               1.64 : RESISTIVITY MUD SAMPLE
MST .DEGF                 69 : MUD SAMPLE TEMPERATURE
RMF .OHMM                1.2 : RESISTIVITY MUD FILTRATE SAMPLE
MFST.DEGF                 74 : MUD FILTRATE SAMPLE TEMPERATURE
RMC .OHMM               1.78 : RESISTIVITY MUD CAKE
MCST.DEGF                 74 : MUD CAKE SAMPLE TEMPERATURE
MFSS.                   MEAS : MUD FILTRATE SAMPLE SOURCE
MCSS.                   MEAS : MUD CAKE SAMPLE SOURCE
RMB .OHMM               0.77 : RESISTIVITY MUD AT BHT
TCS .HRS                  11 : TIME CIRCULATED STOPPED
LUN .                    728 : LOGGING UNIT NUMBER
LUL .                     25 : LOGGING UNIT LOCATION
ENGI.                  BUSSE : RECORDING ENGINEER
WITN.                  SAMIS : WITNESSED BY
CLNT.                A2DTECH : CLIENT CODE
ORIG.            2" 5" PRINT : ORIGIN OF DATA
UWI .       100021805706W500 : UNIQUE WELL ID
DICO. A2D Technologies, Inc. : DIGITIZING COMPANY
~Other -----------------------------------------------------
IEL-SONIC LOG RUN
NULL VALUE IN AC1ED FROM 4176'-4180' DUE TO POOR IMAGE
~ASCII -----------------------------------------------------
# ...
 3000.00000    -999.25  121.87870   18.04700   18.04700   94.59380   99.80340   10.01970  121.87870   98.26710   98.26710   10.01970    8.63730    9.24000  -54.26590   -3.14050    9.24000
 3050.00000    -999.25  104.56960   17.11600   17.11600   81.54600   85.80230   11.65470  104.56960   92.83410   92.83410   11.65470    9.29390   10.22800  -53.84770   -3.09930   10.22800
 3100.00000    -999.25  112.58390   16.49940   16.49940   96.89300  101.84030    9.81930  112.58390  104.48630  104.48630    9.81930    9.37050    8.65560  -54.28870   -3.91730    8.65560
 3150.00000    -999.25   94.66480   16.87530   16.87530   94.90130   99.50150   10.05010   94.66480  103.87410  103.87410   10.05010    9.20610    9.46430  -52.30700   -2.31270    9.46430
 3200.00000    -999.25  109.66270   16.67990   16.67990   90.73910   93.64260   10.67890  109.66270  101.83930  101.83930   10.67890    8.96310   10.15250  -52.76080   -3.14350   10.15250
 3250.00000    -999.25  106.51640   17.30390   17.30390  101.64550  107.88880    9.26880  106.51640  104.55450  104.55450    9.26880    8.15370   10.13520  -51.13920   -1.89890   10.13520
 3300.00000    -999.25  112.54720   14.31500   14.31500   85.29700   87.42630   11.43820  112.54720  118.35310  118.35310   11.43820    8.94020   12.67450  -53.19480   -4.33160   12.67450
 3350.00000    -999.25  140.14020   14.70820   14.70820   99.59110  102.76860    9.73060  140.14020  107.84620  107.84620    9.73060    8.21900   10.90410  -51.43860   -2.95240   10.90410
 3400.00000    -999.25  101.10900   10.36300   10.36300   53.58200   52.93830   18.88990  101.10900  124.89310  124.89310   18.88990   13.40600   21.57010  -55.58960   -7.48040   21.57010
 3450.00000    -999.25  119.91060   11.57160   11.57160  100.34160  105.30750    9.49600  119.91060  119.45380  119.45380    9.49600    7.39310   13.15120  -52.57050   -4.83840   13.15120
 3500.00000    -999.25  104.69350   16.21910   16.21910  111.87410  118.70280    8.42440  104.69350  106.77560  106.77560    8.42440   10.97220    9.98770  -50.35640   -3.00130    9.98770
 3550.00000    -999.25   97.04250   18.74660   18.74660  109.98710  115.62430    8.64870   97.04250  104.32200  104.32200    8.64870    9.00800   10.07020  -49.89370   -3.21960   10.07020
 3600.00000    -999.25  100.14800   18.94620   18.94620  120.14410  129.50850    7.72150  100.14800  108.99990  108.99990    7.72150    7.44900    9.06400  -48.25780   -2.32690    9.06400
 3650.00000    -999.25   97.51290   20.21160   20.21160  106.72770  111.08270    9.00230   97.51290  113.10830  113.10830    9.00230    7.73050   10.42680  -49.85040   -4.66270   10.42680
 3700.00000    -999.25  111.18010   19.89920   19.89920  252.30740  293.88430    3.40270  111.18010  125.66660  125.66660    3.40270    5.28880    5.28870  -46.61440   -2.17000    5.28870
 3750.00000    -999.25  119.08100   21.47150   21.47150  275.70080  340.37920    2.93790  119.08100   97.76000   97.76000    2.93790    3.36100    3.87860  -46.94000   -3.23880    3.87860
 3800.00000    -999.25  115.12920   18.64530   18.64530  220.89930  253.28000    3.94820  115.12920   96.27650   96.27650    3.94820    3.33850    5.72450  -46.47020   -3.51220    5.72450
 3850.00000    -999.25   86.26430   10.33890   10.33890   72.81500   74.93050   13.34570   86.26430   83.52040   83.52040   13.34570    3.77930   14.67130  -55.52990  -13.25040   14.67130
 3900.00000   78.03680   85.17240    9.29190    9.29190   71.76720   73.62200   13.58290   85.17240   59.39980   59.39980   13.58290    8.16980   21.07480  -98.29760  -56.47980   21.07480
 3950.00000   70.97340   84.59100   11.13360   11.13360   73.43630   75.46830   13.25060   84.59100   59.74750   59.74750   13.25060    9.84420   18.33030  -79.20710  -37.85100   18.33030
 4000.00000  100.00000  138.09120   17.96390   17.96390  336.27290  412.23510    2.42580  138.09120   79.72630   79.72630    2.42580    2.46030    3.68600  -43.00170   -2.10730    3.68600
 4050.00000    -999.25   98.99910   13.76060   13.76060   85.02130   90.26170   11.07890   98.99910   83.33080   83.33080   11.07890    5.37400   12.61090  -49.66350   -9.23080   12.61090
 4100.00000    -999.25  100.28170   12.68540   12.68540   77.29270   80.20280   12.46840  100.28170   67.95520   67.95520   12.46840    7.04200   13.10530  -51.08850  -11.11750   13.10530
 4150.00000    -999.25   92.23530   12.96180   12.96180   67.17190   66.78200   14.97410   92.23530   80.05530   80.05530   14.97410   13.75420   17.44610  -46.74570   -7.23640   17.44610
 4200.00000   75.87470   87.85360   13.10780   13.10780   71.79970   73.88030   13.53540   87.85360   79.85800   79.85800   13.53540   12.35320   16.53910  -51.87020  -12.82270   16.53910
 4250.00000   76.51220   82.30340   14.47990   14.47990   77.92610   78.31710   12.76860   82.30340   83.20490   83.20490   12.76860    9.79770   13.53540  -48.29420   -9.70840   13.53540
 4300.00000   83.99710   84.68220   13.74490   13.74490   83.57910   87.28520   11.45670   84.68220   78.12440   78.12440   11.45670   10.92140   13.14720  -47.08690   -8.96280   13.14720
 4350.00000   80.41590   67.36690   12.78100   12.78100   80.70790   80.27490   12.45720   67.36690   70.69120   70.69120   12.45720    9.72500   16.99700  -54.11210  -16.44970   16.99700
 4400.00000   77.23630   82.42140   13.78070   13.78070   74.84760   77.20100   12.95320   82.42140   76.34300   76.34300   12.95320   15.08510   20.67790  -70.43050  -33.22980   20.67790
 4450.00000   76.65720   74.29920   12.88670   12.88670   80.41100   81.07410   12.33440   74.29920   81.38120   81.38120   12.33440   10.74590   14.90280  -38.84420   -2.10520   14.90280
 4500.00000   79.49480   85.78500   13.40980   13.40980   77.95460   84.50660   11.83340   85.78500   83.38900   83.38900   11.83340   17.59310   18.93870  -39.46900   -3.19170   18.93870
 4550.00000   59.54310   56.34790    8.69310    8.69310   28.81000   29.96320   33.37430   56.34790   35.13080   35.13080   33.37430   43.89450   72.94550 -111.51170  -73.91330   72.94550
 4600.00000   44.51420   72.60880   10.37010   10.37010  116.32430  113.57700    8.80460   72.60880   29.54840   29.54840    8.80460    7.36410   14.27400  -90.70660  -51.69320   14.27400
 4650.00000   64.13710   77.31510   10.34300   10.34300   40.51520   41.94210   23.84240   77.31510   30.10950   30.10950   23.84240  296.48870   44.06440  -84.71600  -44.28760   44.06440
 4700.00000   86.68620   56.03270   11.44910   11.44910   12.86940   14.48710   69.02680   56.03270   36.65420   36.65420   69.02680   18.18250   72.48350  -58.31790  -16.47460   72.48350
 4750.00000   56.90660   55.42340   11.05420   11.05420    8.94780   11.73330   85.22780   55.42340   40.73340   40.73340   85.22780  294.09680  129.43100  -66.06330  -22.80500  129.43100
 4800.00000   55.84510   69.26830   10.90670   10.90670   38.50650   38.96810   25.66200   69.26830   38.68300   38.68300   25.66200   93.58540   39.69950  -89.10160  -44.42830   39.69950
 4850.00000   54.67470   61.97530    9.83400    9.83400   26.87500   27.67510   36.13350   61.97530   47.35340   47.35340   36.13350   27.76280   43.90990  -62.83670  -16.74840   43.90990
 4900.00000    -999.25    -999.25   10.51320   10.51320   23.77070   24.89340   40.17130    -999.25   42.59960   42.59960   40.17130   48.70520   48.83420  -49.01490   -1.72390   48.83420
 4950.00000    -999.25   60.49030   10.05550   10.05550   17.02710   18.47970   54.11330   60.49030   38.53020   38.53020   54.11330   70.27440   68.42950  -52.18690   -4.89590   68.42950
 5000.00000    -999.25   61.35500    9.98970    9.98970   16.68510   18.76790   53.28240   61.35500   43.53630   43.53630   53.28240   74.20020   69.22410  -51.75610   -3.48410   69.22410
 5050.00000    -999.25   61.33480   10.06070   10.06070   19.43970   20.24760   49.38850   61.33480   46.11800   46.11800   49.38850   78.66250   66.24070  -49.06100   -6.04640   66.24070
 5100.00000    -999.25   62.75300   10.19380   10.19380   16.92440   18.35530   54.48030   62.75300   57.08930   57.08930   54.48030   88.37520   75.82650  -41.40830   -5.73060   75.82650
