~Version ---------------------------------------------------
VERS.      2.0 : CWLS log ASCII Standard -VERSION 2.0
WRAP.       NO : One line per depth step
CREA. 09/25/17 : LAS Creation Date
~Well ------------------------------------------------------
STRT.FT                             850.0 : START DEPTH
STOP.FT                            9900.0 : STOP DEPTH
STEP.FT                          50.00000 : STEP LENGTH
NULL.                             -999.25 : NULL VALUE
COMP.         BLUEMOUNT RESOURCES LIMITED : COMPANY
WELL. BLUEMOUNT ET AL GOODWIN 11-31-58-13 : WELL
FLD .                                     : FIELD
LOC .                                     : LOCATION
CTRY.                              CANADA : COUNTRY
SRVC.              Schlumberger of Canada : SERVICE COMPANY
DATE.                         07-Apr-1973 : LOGDATE
PROV.                             Alberta : PROVINCE
UWI .                    100113105813W500 : UNIQUE WELL ID
SLAT.WGS84                       54.06009 : SURFACE LATITUDE
SLON.WGS84                      -115.9256 : SURFACE LONGITUDE
~Curve Information -----------------------------------------
DEPT    .FT    : Depth Curve
CALDED  .IN    : CALIPER FROM DENSITY LOG [ADJ.TO RESISTIVITY LOG]
CALSED  .IN    : CALIPER FROM SONIC LOG [ADJ.TO RESISTIVITY LOG]
CALWS   .IN    : CALIPER [CALSED SPL.TO CALDED @ 2963.5'-9832']
CILDED  .MMHO  : CONDUCTIVITY FROM RESISTIVITY LOG
CONDWS  .MMHO  : CONDUCTIVITY [1000/DRESWS]
DCORWS  .G/C3  : DENSITY CORRECTION [DRHOED]
DENWS   .G/C3  : FORMATION BULK DENSITY [CALC. FROM DPHILSED, M=2.71, F=1.00, SPL.TO RHOBED @ 7938']
DPHILSED.V/V   : DENSITY POROSITY LIMESTONE [M=2.71, F=1.00] FROM DENSITY LOG [ADJ.TO RESISTIVITY LOG]
DPOLSWS .V/V   : DENSITY POROSITY LIMESTONE [CALC. FROM DENWS, M=2.71, F=1.00]
DRESWS  .OHMM  : DEEP RESISTIVITY [1000/CILDED IF ILDED <=2, ILDED, SPL.TO ILDED @ 3000']
DRHOED  .G/C3  : DENSITY CORRECTION FROM DENSITY LOG [ADJ.TO RESISTIVITY LOG]
DTED    .US/F  : DELTA TIME FROM SONIC LOG [ADJ.TO RESISTIVITY LOG]
DTWS    .US/F  : COMPRESSIONAL SONIC [DTED]
GRDED   .GAPI  : GAMMA RAY FROM DENSITY LOG [ADJ.TO RESISTIVITY LOG]
GRSED   .GAPI  : GAMMA RAY FROM SONIC LOG [ADJ.TO RESISTIVITY LOG]
GRWS    .GAPI  : GAMMA RAY [GRSED SPL.TO GRDED @ 2966.5']
ILDED   .OHMM  : DEEP INDUCTION FROM RESISTIVITY LOG
ILMED   .OHMM  : MEDIUM INDUCTION FROM RESISTIVITY LOG
LL8ED   .OHMM  : LATEROLOG 8 FROM RESISTIVITY LOG
MRESWS  .OHMM  : MEDIUM RESISTIVITY [ILMED]
NPHILSED.V/V   : NEUTRON POROSITY LIMESTONE FROM DENSITY LOG [ADJ.TO RESISTIVITY LOG]
NPOLSWS .V/V   : NEUTRON POROSITY LIMESTONE [NPHILSED]
RHOBED  .G/C3  : BULK DENSITY FROM DENSITY LOG [ADJ.TO RESISTIVITY LOG]
SPRED   .MV    : SPONTANEOUS POTENTIAL FROM RESISTIVITY LOG
SPWS    .MV    : SPONTANEOUS POTENTIAL [BASELINE 0 MV, SPRED]
SRESWS  .OHMM  : SHALLOW RESISTIVITY [LL8ED]
~Params ----------------------------------------------------
PD  .                     GL : PERMANENT DATUM
EPD .FT                 3069 : ELEVATION PERMANENT DATUM
LMF .                     KB : LOG MEASURED FROM
DAPD.FT                   17 : FEET ABOVE PERMANENT DATUM
EKB .FT                 3087 : KELLY BUSHING
EGL .FT                 3069 : GROUND LEVEL
DATE.               04/07/73 : RUN DATE
RUN .                      1 : RUN NUMBER
DD  .FT                 9938 : DEPTH DRILLER
DL  .FT                 9940 : DEPTH LOGGER
BLI .FT                 9935 : BOTTOM LOG INTERVAL
TLI .FT                 1025 : TOP LOG INTERVAL
CBD .FT                 1025 : CASING BOTTOM DRILLER
CBL .FT                 1030 : CASING BOTTOM LOGGER
BS  .IN                 8.75 : BIT SIZE
BSD .FT                 9938 : BIT SIZE AT DEPTH
DFT .               GEL CHEM : DRILLING FLUID TYPE
DFD .                    9.5 : DRILLING FLUID DENSITY
DFV .                     92 : DRILLING FLUID VISCOSITY
DFPH.                      9 : DRILLING FLUID PH
DFL .                     10 : DRILLING FLUID LOSS
MSS .             CALCULATED : MUD SAMPLE SOURCE
TCS .HRS                   5 : TIME CIRCULATED STOPPED
LUN .                   7667 : LOGGING UNIT NUMBER
LUL .                    EDM : LOGGING UNIT LOCATION
ENGI.                  LEWIS : RECORDING ENGINEER
WITN.              TUDDENHAM : WITNESSED BY
CLNT.                A2DTECH : CLIENT CODE
ORIG.            2" 5" PRINT : ORIGIN OF DATA
UWI .       100113105813W500 : UNIQUE WELL ID
DICO. A2D Technologies, Inc. : DIGITIZING COMPANY
~Other -----------------------------------------------------
DI-LL-FDC-CNL-SONIC LOG RUN.
SPRED CILDED,ILDED,LL8ED DIG IN 2" SCALE @ TOP TO 3000'
~ASCII -----------------------------------------------------
# ...
 2200.00000    -999.25    -999.25    -999.25  234.22350  219.76090    -999.25    -999.25    -999.25    -999.25    4.55040    -999.25    -999.25    -999.25    -999.25    -999.25    -999.25    4.55040    -999.25    7.46980    -999.25    -999.25    -999.25    -999.25 -220.26570  -11.62540    7.46980
 2250.00000    -999.25    -999.25    -999.25  183.43860  175.82110    -999.25    -999.25    -999.25    -999.25    5.68760    -999.25    -999.25    -999.25    -999.25    -999.25    -999.25    5.68760    -999.25    5.44630    -999.25    -999.25    -999.25    -999.25 -219.29750  -11.08950    5.44630
 2300.00000    -999.25    -999.25    -999.25  287.67810  276.66590    -999.25    -999.25    -999.25    -999.25    3.61610    -999.25    -999.25    -999.25    -999.25    -999.25    -999.25    3.61610    -999.25    3.77450    -999.25    -999.25    -999.25    -999.25 -220.19580  -12.41780    3.77450
 2350.00000    -999.25    -999.25    -999.25  228.76150  220.40020    -999.25    -999.25    -999.25    -999.25    4.53720    -999.25    -999.25    -999.25    -999.25    -999.25    -999.25    4.53720    -999.25    4.69660    -999.25    -999.25    -999.25    -999.25 -221.82990  -14.48630    4.69660
 2400.00000    -999.25    -999.25    -999.25   75.37160   60.14240    -999.25    -999.25    -999.25    -999.25   16.69460    -999.25    -999.25    -999.25    -999.25    -999.25    -999.25   16.69460    -999.25   13.50450    -999.25    -999.25    -999.25    -999.25 -219.57110  -12.65760   13.50450
 2450.00000    -999.25    -999.25    -999.25  304.71660  240.87100    -999.25    -999.25    -999.25    -999.25    4.15160    -999.25    -999.25    -999.25    -999.25    -999.25    -999.25    4.15160    -999.25    3.48300    -999.25    -999.25    -999.25    -999.25 -218.42460  -11.94550    3.48300
 2500.00000    -999.25    -999.25    -999.25  297.94790  220.38570    -999.25    -999.25    -999.25    -999.25    4.53750    -999.25    -999.25    -999.25    -999.25    -999.25    -999.25    4.53750    -999.25    3.88810    -999.25    -999.25    -999.25    -999.25 -218.60430  -12.55740    3.88810
 2550.00000    -999.25    -999.25    -999.25  302.90870  284.79710    -999.25    -999.25    -999.25    -999.25    3.51530    -999.25    -999.25    -999.25    -999.25    -999.25    -999.25    3.51530    -999.25    3.07020    -999.25    -999.25    -999.25    -999.25 -219.67720  -14.06040    3.07020
 2600.00000    -999.25    -999.25    -999.25  262.19170  239.40630    -999.25    -999.25    -999.25    -999.25    4.17700    -999.25    -999.25    -999.25    -999.25    -999.25    -999.25    4.17700    -999.25    3.81230    -999.25    -999.25    -999.25    -999.25 -219.35860  -14.17620    3.81230
 2650.00000    -999.25    -999.25    -999.25  218.60630  202.97760    -999.25    -999.25    -999.25    -999.25    4.92900    -999.25    -999.25    -999.25    -999.25    -999.25    -999.25    4.92900    -999.25    4.50210    -999.25    -999.25    -999.25    -999.25 -216.54880  -11.79650    4.50210
 2700.00000    -999.25    -999.25    -999.25  445.45670  419.53350    -999.25    -999.25    -999.25    -999.25    2.38360    -999.25    -999.25    -999.25    -999.25    -999.25    -999.25    2.38360    -999.25    2.49890    -999.25    -999.25    -999.25    -999.25 -215.97940  -11.66150    2.49890
 2750.00000    -999.25    -999.25    -999.25  164.05800  155.95030    -999.25    -999.25    -999.25    -999.25    6.41230    -999.25    -999.25    -999.25    -999.25    -999.25    -999.25    6.41230    -999.25    5.77450    -999.25    -999.25    -999.25    -999.25 -216.99330  -13.10760    5.77450
 2800.00000    -999.25    -999.25    -999.25  104.17640   99.65310    -999.25    -999.25    -999.25    -999.25   10.06600    -999.25    -999.25    -999.25    -999.25    -999.25    -999.25   10.06600    -999.25   10.39750    -999.25    -999.25    -999.25    -999.25 -214.90710  -11.45140   10.39750
 2850.00000    -999.25    -999.25    -999.25  206.37980  220.79930    -999.25    -999.25    -999.25    -999.25    4.52900    -999.25    -999.25    -999.25    -999.25    -999.25    -999.25    4.52900    -999.25    5.06370    -999.25    -999.25    -999.25    -999.25 -218.22640  -14.78160    5.06370
 2900.00000    -999.25    -999.25    -999.25   27.07930   31.66720    -999.25    -999.25    -999.25    -999.25   31.71960    -999.25    -999.25    -999.25    -999.25    -999.25    -999.25   31.71960    -999.25   40.83700    -999.25    -999.25    -999.25    -999.25 -217.97620  -14.53140   40.83700
 2950.00000    -999.25    -999.25    -999.25  238.79510  227.04050    -999.25    -999.25    -999.25    -999.25    4.40450    -999.25    -999.25    -999.25    -999.25    -999.25    -999.25    4.40450    -999.25    4.68800    -999.25    -999.25    -999.25    -999.25 -215.35380  -11.90900    4.68800
 3000.00000    7.84060    7.44780    7.84060   52.65570   47.47120    0.13970    2.53690    0.10120    0.10120   21.06540    0.13970   96.92160   96.92160   38.51560   42.68160   38.51560   21.06540   27.59530   17.88960   27.59530    0.25500    0.25500    2.53560 -220.13890  -16.69410   17.88960
 3050.00000    9.28460    8.40550    9.28460    -999.25  251.48300    0.27890    2.17720    0.31160    0.31160    3.97660    0.27890  117.33600  117.33600   65.94760   65.65610   65.94760    3.97660    3.85040    3.60670    3.85040    0.44390    0.44390    2.17960 -217.47390  -14.02910    3.60670
 3100.00000    9.11440    8.13990    9.11440    -999.25  220.03650    0.27340    2.33410    0.21980    0.21980    4.54470    0.27340  115.16320  115.16320   67.34240   65.82810   67.34240    4.54470    4.34540    4.21200    4.34540    0.37950    0.37950    2.33250 -212.77010   -9.32530    4.21200
 3150.00000    9.04280    8.14290    9.04280    -999.25  142.38510    0.18650    2.43400    0.16140    0.16140    7.03190    0.18650  102.79850  102.79850   52.04560   62.05940   52.04560    7.03190    8.11870    9.35880    8.11870    0.31180    0.31180    2.43580 -210.17380   -6.72900    9.35880
 3200.00000    8.40150    8.10960    8.40150    -999.25   52.87170    0.14020    2.55830    0.08870    0.08870   18.91370    0.14020   98.70390   98.70390   41.24940   45.73020   41.24940   18.91370   23.99040   16.54160   23.99040    0.22360    0.22360    2.55360 -217.27930  -13.83450   16.54160
 3250.00000   10.05780    8.14830   10.05780    -999.25  158.26290    0.23370    2.47250    0.13890    0.13890    6.31860    0.23370  108.82590  108.82590   58.65120   59.39100   58.65120    6.31860    6.71680    7.08130    6.71680    0.31670    0.31670    2.46930 -210.61310   -7.16830    7.08130
 3300.00000    9.86890    8.30240    9.86890    -999.25  200.97960    0.29670    2.19480    0.30130    0.30130    4.97590    0.29670  112.10280  112.10280   59.98700   60.85110   59.98700    4.97590    4.81100    4.43150    4.81100    0.36620    0.36620    2.19560 -207.57940   -4.13460    4.43150
 3350.00000    7.68670    7.58970    7.68670    -999.25  140.98210    0.09990    2.61610    0.05490    0.05490    7.09310    0.09990  103.29210  103.29210   61.42170   59.05100   61.42170    7.09310    8.02950    8.66940    8.02950    0.30640    0.30640    2.62020 -212.13920   -8.69440    8.66940
 3400.00000    7.86570    7.64460    7.86570    -999.25   47.48780    0.14620    2.66900    0.02400    0.02400   21.34750    0.14620   90.79290   90.79290   40.57060   41.57350   40.57060   21.34750   19.66150   19.82550   19.66150    0.22990    0.22990    2.66080 -217.10800  -13.66320   19.82550
 3450.00000    9.52390    8.97770    9.52390    -999.25  201.82450    0.20320    2.51340    0.11500    0.11500    4.95480    0.20320  109.29160  109.29160   66.04810   67.15970   66.04810    4.95480    5.16010    5.27100    5.16010    0.34960    0.34960    2.51280 -210.82100   -7.37620    5.27100
 3500.00000    8.65360    7.91490    8.65360    -999.25   84.18220    0.16100    2.57470    0.07910    0.07910   11.87900    0.16100  101.57780  101.57780   43.51070   50.95090   43.51070   11.87900   13.77520   13.94880   13.77520    0.27100    0.27100    2.57170 -219.71840  -16.27360   13.94880
