~Version ---------------------------------------------------
VERS.      2.0 : CWLS log ASCII Standard -VERSION 2.0
WRAP.       NO : One line per depth step
CREA. 09/26/17 : LAS Creation Date
~Well ------------------------------------------------------
STRT.FT                        1200.0 : START DEPTH
STOP.FT                       11400.0 : STOP DEPTH
STEP.FT                      50.00000 : STEP LENGTH
NULL.                         -999.25 : NULL VALUE
COMP.   THE ATLANTIC REFINING COMPANY : COMPANY
WELL. ATLANTIC ANTE CREEK 10-30-64-23 : WELL
FLD .                                 : FIELD
LOC .                                 : LOCATION
CTRY.                          CANADA : COUNTRY
SRVC.                    Schlumberger : SERVICE COMPANY
DATE.                     27-Mar-1963 : LOGDATE
PROV.                         Alberta : PROVINCE
UWI .                100103006423W500 : UNIQUE WELL ID
SLAT.WGS84                   54.56828 : SURFACE LATITUDE
SLON.WGS84                  -117.4641 : SURFACE LONGITUDE
~Curve Information -----------------------------------------
DEPT  .FT    : Depth Curve
CALSED.IN    : CALIPER FROM SONIC LOG
CALWS .IN    : CALIPER [CALSED]
CILDED.MMHO  : CONDUCTIVITY FROM RESISTIVITY LOG
CONDWS.MMHO  : CONDUCTIVITY [1000/DRESWS]
DRESWS.OHMM  : DEEP RESISTIVITY [1000/CILDED IF ILDED <= 5, ILDED]
DTED  .US/F  : DELTA TIME FROM SONIC LOG
DTWS  .US/F  : COMPRESSIONAL SONIC [DTED]
GRSED .GAPI  : GAMMA RAY FROM SONIC LOG
GRWS  .GAPI  : GAMMA RAY [GRSED]
ILDED .OHMM  : DEEP INDUCTION RESISTIVITY FROM RESISTIVITY LOG
MCALED.IN    : CALIPER FROM MICROLOG
SNED  .OHMM  : 16 INCH SHORT NORMAL FROM EL LOG
SPRED .MV    : SPONTANEOUS POTENTIAL FROM RESISTIVITY LOG
SPWS  .MV    : SPONTANEOUS POTENTIAL [BASELINE 0 MV, SPRED]
SRESWS.OHMM  : SHALLOW RESISTIVITY [SNED]
~Params ----------------------------------------------------
PD  .                     GL : PERMANENT DATUM
EPD .FT                 2707 : ELEVATION PERMANENT DATUM
LMF .                     KB : LOG MEASURED FROM
DAPD.FT                 14.5 : FEET ABOVE PERMANENT DATUM
EKB .FT               2722.3 : KELLY BUSHING
EGL .FT               2707.8 : GROUND LEVEL
DATE.               03/27/63 : RUN DATE
RUN .                      1 : RUN NUMBER
DD  .FT                11449 : DEPTH DRILLER
DL  .FT                11449 : DEPTH LOGGER
BLI .FT                11448 : BOTTOM LOG INTERVAL
TLI .FT                 1197 : TOP LOG INTERVAL
CBD .FT                 1197 : CASING BOTTOM DRILLER
CBL .FT                 1197 : CASING BOTTOM LOGGER
BS  .IN                 8.75 : BIT SIZE
BSD .FT                11449 : BIT SIZE AT DEPTH
DFT .               GEL CHEM : DRILLING FLUID TYPE
DFD .                    9.5 : DRILLING FLUID DENSITY
DFV .                     60 : DRILLING FLUID VISCOSITY
DFPH.                   10.5 : DRILLING FLUID PH
DFL .                    5.6 : DRILLING FLUID LOSS
RMS .OHMM               2.09 : RESISTIVITY MUD SAMPLE
MST .DEGF                 58 : MUD SAMPLE TEMPERATURE
RMF .OHMM               1.46 : RESISTIVITY MUD FILTRATE SAMPLE
MFST.DEGF                 67 : MUD FILTRATE SAMPLE TEMPERATURE
RMC .OHMM               2.43 : RESISTIVITY MUD CAKE
MCST.DEGF                 67 : MUD CAKE SAMPLE TEMPERATURE
TCS .HRS                   4 : TIME CIRCULATED STOPPED
LUN .                OSU 8 9 : LOGGING UNIT NUMBER
LUL .                     DC : LOGGING UNIT LOCATION
ENGI.                  MILLS : RECORDING ENGINEER
WITN.            COWAN SCOTT : WITNESSED BY
CLNT.                A2DTECH : CLIENT CODE
ORIG.            2" 5" PRINT : ORIGIN OF DATA
UWI .       100103006423W500 : UNIQUE WELL ID
DICO. A2D Technologies, Inc. : DIGITIZING COMPANY
~Other -----------------------------------------------------
IEL-ML-BHC LOG RUN
DATA FROM 1" LOG
~ASCII -----------------------------------------------------
# ...
 5800.00000   14.95880   14.95880  108.36750  109.15720    9.16110   67.71170   67.71170   66.48640   66.48640    9.16110   19.14590   18.69030  -95.06940   -4.99170   18.69030
 5850.00000   12.05820   12.05820  104.03810  101.78430    9.82640   79.17230   79.17230   40.77070   40.77070    9.82640   11.70170   21.72500 -107.29700  -17.21930   21.72500
 5900.00000   10.36890   10.36890   61.04810   58.46140   17.10530   55.39880   55.39880   70.20250   70.20250   17.10530   10.94330   23.10760  -99.64620   -9.56850   23.10760
 5950.00000   11.14450   11.14450   94.18880   95.63100   10.46130   56.30940   56.30940   87.26200   87.26200   10.46130   13.26960   15.59790  -94.69090   -4.61320   15.59790
 6000.00000   11.51330   11.51330   74.49020   73.23270   13.65510   54.76090   54.76090   78.28130   78.28130   13.65510   12.21710   18.56050  -98.51210   -8.43440   18.56050
 6050.00000   11.63110   11.63110   88.50100   88.25810   11.33040   62.18370   62.18370   69.31440   69.31440   11.33040   13.90150   14.38420  -94.20080   -4.12310   14.38420
 6100.00000   11.40860   11.40860  103.75770  102.84730    9.72310   54.38090   54.38090   62.55600   62.55600    9.72310   11.24650   15.88770 -110.05400  -19.97630   15.88770
 6150.00000   11.10490   11.10490   70.06400   66.79000   14.97230   53.60440   53.60440   66.11800   66.11800   14.97230   10.98400   20.85020 -105.76600  -15.68830   20.85020
 6200.00000    9.50990    9.50990   86.19240   83.30740   12.00690   53.27750   53.27750   47.83020   47.83020   12.00690    9.69400   21.02350 -136.05150  -45.97380   21.02350
 6250.00000   11.25750   11.25750   84.83350   82.70070   12.09180   53.85120   53.85120   55.12660   55.12660   12.09180   12.12810   13.60590 -106.04490  -15.96720   13.60590
 6300.00000   11.03040   11.03040   73.54500   71.22910   14.03920   54.69890   54.69890   78.46380   78.46380   14.03920   11.31330   17.45340  -94.75290   -4.67520   17.45340
 6350.00000   11.08470   11.08470   81.84790   74.79730   13.49470   55.32070   55.32070   99.17390   99.17390   13.49470   11.78080   15.78430  -95.20230   -5.30550   15.78430
 6400.00000   12.36280   12.36280   95.87900   95.50100   10.47110   59.00950   59.00950   84.89360   84.89360   10.47110   12.89870   12.80440  -98.33330   -9.41830   12.80440
 6450.00000   10.73570   10.73570   47.44800   41.18430   24.33770   52.48670   52.48670   60.25540   60.25540   24.33770   11.38990   22.17520 -108.78930  -20.86260   22.17520
 6500.00000   11.33730   11.33730   17.93470   12.82400   77.97890   72.91100   72.91100   30.80290   30.80290   77.97890   10.78910   46.00250  -99.70250  -12.75760   46.00250
 6550.00000   11.61850   11.61850   59.20570   54.30590   18.41420   49.32380   49.32380   70.82380   70.82380   18.41420   10.89630   21.75060  -96.13740  -10.17430   21.75060
 6600.00000   10.95990   10.95990   38.54710   31.76640   31.51370   51.81650   51.81650   55.88800   55.88800   31.51370   11.05530   28.24310  -95.29480  -10.32000   28.24310
 6650.00000   10.60230   10.60230   64.69980   61.51230   16.25690   49.47390   49.47390   68.07000   68.07000   16.25690   11.12680   20.03380  -94.97720  -10.98420   20.03380
 6700.00000   10.85530   10.85530   62.45270   58.77740   17.02370   50.59800   50.59800   92.76340   92.76340   17.02370   11.73370   20.33150  -94.94040  -11.93570   20.33150
 6750.00000   10.54240   10.54240   48.40290   42.77200   23.37980   51.56960   51.56960   56.05790   56.05790   23.37980   11.70830   24.08320 -103.93590  -21.91300   24.08320
 6800.00000    9.86630    9.86630   83.38340   81.83110   12.22030   53.10750   53.10750   85.12170   85.12170   12.22030   10.03710   17.64200 -102.84220  -21.80110   17.64200
 6850.00000    7.88200    7.88200  181.96140  185.72000    5.38550   54.95360   54.95360   30.43030   30.43030    5.38550    8.32150   19.37470 -185.49900 -105.44620   19.37470
 6900.00000   14.96370   14.96370  132.89700  123.55590    8.09350   67.38710   67.38710   86.21470   86.21470    8.09350   15.71530   11.41290  -95.87200  -16.80100   11.41290
 6950.00000   10.36380   10.36380   14.97600    7.54530  134.63970   56.31400   56.31400  222.53490  222.53490  134.63970   10.51520   87.99090 -104.82770  -26.74500   87.99090
 7000.00000   11.03530   11.03530   31.37670   24.24740   41.24160   50.14380   50.14380   74.78380   74.78380   41.24160   11.14220   35.35570 -117.95740  -40.85650   35.35570
 7050.00000   11.42850   11.42850   75.81560   72.65960   13.76280   50.62070   50.62070   82.98170   82.98170   13.76280   11.35640   17.88180 -120.23040  -44.11140   17.88180
 7100.00000   12.10480   12.10480   58.98840   54.12590   18.47640   51.82690   51.82690   84.51650   84.51650   18.47640   12.78990   18.54780 -105.12860  -29.99780   18.54780
 7150.00000    9.98400    9.98400   38.67730   31.23520   32.01520   49.33820   49.33820   68.58910   68.58910   32.01520   10.34730   30.45840 -119.06820  -44.91930   30.45840
 7200.00000   10.55940   10.55940   23.04240   17.46990   57.24270   48.28210   48.28210   80.87220   80.87220   57.24270   11.58020   42.26650  -90.45050  -17.28980   42.26650
 7250.00000   10.24680   10.24680   27.01530   19.31450   51.77450   48.93760   48.93760   79.82410   79.82410   51.77450   10.56580   41.37240  -88.66740  -16.48860   41.37240
 7300.00000   10.69450   10.69450   27.39900   20.00970   49.97570   49.19960   49.19960   76.68480   76.68480   49.97570   11.20480   37.79400  -78.88250   -7.68550   37.79400
 7350.00000    9.84450    9.84450   28.18050   21.78900   45.89710   47.96420   47.96420  126.26490  126.26490   45.89710   10.14010   47.84710 -112.23680  -41.70750   47.84710
 7400.00000    7.86340    7.86340  325.60600  325.60600    3.07120   49.04450   49.04450   39.50240   39.50240    2.81310    7.99890   25.00400 -213.55600 -142.92550   25.00400
 7450.00000    9.64270    9.64270   30.11740   23.56630   42.46670   45.64050   45.64050   48.23150   48.23150   42.46670   10.48570   46.64540 -127.73240  -57.00010   46.64540
 7500.00000    9.52390    9.52390   19.40590   12.53680   79.76510   45.07410   45.07410   62.95770   62.95770   79.76510    9.93850   69.23430 -132.56900  -61.73550   69.23430
 7550.00000    9.40550    9.40550    5.91570    2.00000  500.00000   43.51430   43.51430   26.39090   26.39090  500.00000    9.87760  279.66810 -138.42960  -67.49500  279.66810
 7600.00000    9.32640    9.32640    5.28630    2.00000  500.00000   44.17130   44.17130   28.93730   28.93730  500.00000    9.66640  160.39620 -122.12850  -51.09210  160.39620
 7650.00000    8.53120    8.53120   64.18490   60.73820   16.46410   45.24430   45.24430   39.44050   39.44050   16.46410    8.82920   61.39530 -182.85100 -111.71340   61.39530
 7700.00000    9.38760    9.38760   20.37140   11.66260   86.92480   46.15990   46.15990   31.82560   31.82560   86.92480   10.06390   53.91900 -131.00100  -59.76160   53.91900
 7750.00000    9.54200    9.54200   19.74170   13.83960   72.25640   44.65680   44.65680   23.26090   23.26090   72.25640   10.67580  100.15230 -180.52530 -109.18480  100.15230
 7800.00000    9.33440    9.33440   50.13720   43.60090   22.93530   48.09130   48.09130   66.81610   66.81610   22.93530    9.75180   35.75440 -100.28990  -28.84820   35.75440
 7850.00000    9.65710    9.65710   37.60550   31.17330   32.08680   49.40830   49.40830   71.45920   71.45920   32.08680   10.67290   39.81720  -76.13320   -4.58970   39.81720
 7900.00000    9.49830    9.49830   21.92710    9.42460  106.10550   45.60070   45.60070   29.65310   29.65310  106.10550   10.31720   66.69660  -94.21500  -22.57040   66.69660
 7950.00000    9.06550    9.06550   88.17150   85.87320   11.64530   46.22310   46.22310   38.85590   38.85590   11.64530    9.60740   29.35940 -148.41080  -76.66430   29.35940
 8000.00000    9.37920    9.37920   41.36210   35.09840   28.49130   48.21790   48.21790   56.49780   56.49780   28.49130    9.94870   34.12500 -113.00240  -41.15480   34.12500
 8050.00000    9.98980    9.98980    7.02250    2.39540  417.46150   44.88340   44.88340   28.63630   28.63630  417.46150   10.38230   79.85040 -124.67840  -52.72960   79.85040
