~Version ---------------------------------------------------
VERS.      2.0 : CWLS log ASCII Standard -VERSION 2.0
WRAP.       NO : One line per depth step
CREA. 01/04/18 : LAS Creation Date
~Well ------------------------------------------------------
STRT.FT                   1250.0 : START DEPTH
STOP.FT                  10000.0 : STOP DEPTH
STEP.FT                 50.00000 : STEP LENGTH
NULL.                    -999.25 : NULL VALUE
COMP. PHILLIPS PETROLEUM COMPANY : COMPANY
WELL. PHILLIPS KAYBOB 12-9-64-19 : WELL
FLD .                     KAYBOB : FIELD
LOC .                            : LOCATION
CTRY.                     CANADA : COUNTRY
SRVC.               Schlumberger : SERVICE COMPANY
DATE.                25-Oct-1959 : LOGDATE
PROV.                    Alberta : PROVINCE
UWI .           100120906419W500 : UNIQUE WELL ID
SLAT.WGS84              54.52519 : SURFACE LATITUDE
SLON.WGS84               -116.82 : SURFACE LONGITUDE
~Curve Information -----------------------------------------
DEPT  .FT    : Depth Curve
CALMED.IN    : CALIPER FROM MICROLOG (ADJ TO RES.)
CALWS .IN    : CALIPER (CALMED)
CONDWS.MMHO  : CONDUCTIVITY (1000/DRESWS)
DRESWS.OHMM  : DEEP RESISTIVITY (LAT9ED)
GRNED .CPS   : GAMMA RAY GRN/NEUTRON (ADJ TO RES.)
GRWS  .CPS   : GAMMA RAY (GRNED)
LAT9ED.OHMM  : LATERAL 9'
LT16ED.OHMM  : LATERAL 16'
NEUTED.CPS   : NEUTRON GR/NEUTRON LOG (ADJ TO RES.)
NEUTWS.CPS   : NEUTRON (NEUTED)
SNED  .OHMM  : SHORT NORMAL 16"
SPRED .MV    : Spontaneous Potential  ELOG
SPWS  .MV    : SPONTANEOUS POTENTIAL BASELINE 0 MV (SPRED)
SRESWS.OHMM  : SHALLOW RESISTIVITY (SNED)
~Params ----------------------------------------------------
PD  .                         SCF : PERMANENT DATUM
LMF .                          KB : LOG MEASURED FROM
DAPD.FT                        16 : FEET ABOVE PERMANENT DATUM
DMF .                          KB : DRILLING MEASURED FROM
EKB .FT                      2554 : KELLY BUSHING
EDF .FT                      2552 : DRILLING FLOOR
EGL .FT                      2538 : GROUND LEVEL
DATE.                    10/25/59 : RUN DATE
RUN .                           1 : RUN NUMBER
DD  .FT                     10025 : DEPTH DRILLER
DL  .FT                     10014 : DEPTH LOGGER
BLI .FT                     10013 : BOTTOM LOG INTERVAL
TLI .FT                      1257 : TOP LOG INTERVAL
CS  .IN                     9.625 : CASING SIZE
CBD .FT                      1256 : CASING BOTTOM DRILLER
CBL .FT                      1257 : CASING BOTTOM LOGGER
BS  .IN                     7.875 : BIT SIZE
BSD .FT                     10025 : BIT SIZE AT DEPTH
DFT . OIL EMULSION GEL CAUSTIC QX : DRILLING FLUID TYPE
DFD .                        10.6 : DRILLING FLUID DENSITY
DFV .                          68 : DRILLING FLUID VISCOSITY
DFPH.                        10.5 : DRILLING FLUID PH
DFL .                         5.9 : DRILLING FLUID LOSS
MSS .                  CIRCULATED : MUD SAMPLE SOURCE
RMS .OHMM                    2.18 : RESISTIVITY MUD SAMPLE
MST .DEGF                      64 : MUD SAMPLE TEMPERATURE
RMF .OHMM                    1.96 : RESISTIVITY MUD FILTRATE SAMPLE
MFST.DEGF                      66 : MUD FILTRATE SAMPLE TEMPERATURE
RMC .OHMM                    3.54 : RESISTIVITY MUD CAKE
MCST.DEGF                      64 : MUD CAKE SAMPLE TEMPERATURE
RMB .OHMM                    0.67 : RESISTIVITY MUD AT BHT
ENGI.                      FOWLER : RECORDING ENGINEER
WITN.             TIBBITTS HUNTER : WITNESSED BY
CLNT.                     A2DTECH : CLIENT CODE
ORIG.                 2" 5" PRINT : ORIGIN OF DATA
UWI .            100120906419W500 : UNIQUE WELL ID
DICO.      A2D Technologies, Inc. : DIGITIZING COMPANY
~Other -----------------------------------------------------
~ASCII -----------------------------------------------------
# ...
 3700.00000   11.06090   11.06090  103.46830    9.66550   87.25860   87.25860    9.66550    8.05140  288.03080  288.03080    5.52440  -70.02680   -6.74420    5.52440
 3750.00000   11.00430   11.00430  107.24550    9.32440   99.84340   99.84340    9.32440    8.82990  290.94830  290.94830    5.51620  -68.76340   -5.83590    5.51620
 3800.00000   11.00690   11.00690  142.73280    7.00610   98.94010   98.94010    7.00610    5.67200  284.84220  284.84220    4.67830  -68.52480   -5.95410    4.67830
 3850.00000   11.64630   11.64630  136.98440    7.30010  104.26960  104.26960    7.30010    5.95540  273.31680  273.31680    4.53820  -66.80670   -4.59280    4.53820
 3900.00000   10.88580   10.88580  110.74440    9.02980  111.36900  111.36900    9.02980    6.91070  286.74300  286.74300    6.25440  -66.91680   -5.05970    6.25440
 3950.00000   11.27810   11.27810  114.67720    8.72020  111.68430  111.68430    8.72020    6.93710  279.16060  279.16060    5.78640  -65.43910   -3.94060    5.78640
 4000.00000    9.94120    9.94120   67.09340   14.90460  124.14600  124.14600   14.90460   12.42510  286.15110  286.15110   10.70550  -64.33840   -3.19500   10.70550
 4050.00000   10.09390   10.09390  107.38720    9.31210  112.87560  112.87560    9.31210    8.09470  287.26300  287.26300    6.65040  -64.75180   -3.96520    6.65040
 4100.00000    9.62640    9.62640   58.13210   17.20220  132.15770  132.15770   17.20220   11.54230  302.97530  302.97530   11.65670  -63.00990   -2.58010   11.65670
 4150.00000    8.70580    8.70580   76.46080   13.07860  141.05560  141.05560   13.07860    5.24940  302.73290  302.73290    9.24500  -62.03350   -1.96050    9.24500
 4200.00000   11.05500   11.05500  184.99280    5.40560  100.90370  100.90370    5.40560    5.45240  295.81030  295.81030    3.47080  -65.22370   -5.50940    3.47080
 4250.00000    9.55480    9.55480  219.64990    4.55270  108.00130  108.00130    4.55270    3.83740  362.91140  362.91140    4.43430  -68.16120   -8.80190    4.43430
 4300.00000    8.93590    8.93590  145.97260    6.85060  108.83600  108.83600    6.85060    5.15220  313.84190  313.84190    5.16910  -63.59180   -4.58930    5.16910
 4350.00000   10.46370   10.46370  185.83910    5.38100  110.03290  110.03290    5.38100    4.66330  305.22590  305.22590    4.15410  -64.37480   -5.72910    4.15410
 4400.00000   10.29200   10.29200  118.92300    8.40880  100.14810  100.14810    8.40880    6.68060  331.30400  331.30400    5.33380  -66.16150   -7.87270    5.33380
 4450.00000   12.13900   12.13900  268.03150    3.73120  112.07810  112.07810    3.73120    2.93410  285.96630  285.96630    2.35210  -62.23360   -4.30340    2.35210
 4500.00000   12.36720   12.36720  234.21950    4.26950  115.72360  115.72360    4.26950    3.43930  317.16640  317.16640    3.07190  -61.99350   -4.41830    3.07190
 4550.00000   12.58460   12.58460  160.17430    6.24320  106.10230  106.10230    6.24320    4.65770  291.93510  291.93510    3.06380  -60.70820   -3.48980    3.06380
 4600.00000   12.44120   12.44120  377.67200    2.64780  114.28560  114.28560    2.64780    1.71440  295.73070  295.73070    1.84240  -60.08780   -3.22630    1.84240
 4650.00000   11.13490   11.13490  451.22280    2.21620  113.33100  113.33100    2.21620    1.12570  289.33830  289.33830    1.33090  -60.51510   -4.01040    1.33090
 4700.00000   11.65300   11.65300  292.62640    3.41760   99.49890   99.49890    3.41760    2.63640  303.09670  303.09670    2.81850  -62.49010   -6.34400    2.81850
 4750.00000   10.93980   10.93980  193.51340    5.16760  112.77970  112.77970    5.16760    3.38520  303.46300  303.46300    3.67130  -62.08270   -6.29160    3.67130
 4800.00000   10.18740   10.18740   79.93480   12.51020   88.84780   88.84780   12.51020    9.20380  364.21840  364.21840    9.05210  -61.40400   -5.96980    9.05210
 4850.00000    9.80020    9.80020  238.30520    4.19630  101.19480  101.19480    4.19630    3.93340  302.82210  302.82210    1.19810  -59.06870   -3.99130    1.19810
 4900.00000   11.39390   11.39390   81.27700   12.30360   88.27590   88.27590   12.30360   14.85760  337.92220  337.92220    6.92870  -63.40990  -10.75360    6.92870
 4950.00000   10.59660   10.59660  113.35420    8.82300   83.76790   83.76790    8.82300   10.26600  386.58740  386.58740   10.84030  -61.68000  -12.38900   10.84030
 5000.00000   10.95540   10.95540   89.13450   11.21900   71.95960   71.95960   11.21900    9.11630  400.43540  400.43540   16.14010  -67.21380  -21.25470   16.14010
 5050.00000   11.57520   11.57520   30.73520   32.53600   89.11050   89.11050   32.53600   28.84570  368.84540  368.84540   16.40550  -52.81640  -10.20580   16.40550
 5100.00000   10.95420   10.95420   60.78510   16.45140   60.96410   60.96410   16.45140   16.99640  460.34840  460.34840   23.41070  -43.04520   -3.19510   23.41070
 5150.00000   11.05300   11.05300   41.18060   24.28330   78.76170   78.76170   24.28330   15.74800  350.43550  350.43550   13.04300  -54.70710  -16.02750   13.04300
 5200.00000   10.98530   10.98530   54.21140   18.44650   71.60930   71.60930   18.44650   10.15100  398.90610  398.90610   11.19350  -55.42670  -17.92340   11.19350
 5250.00000   11.05430   11.05430   12.32000   81.16870   94.71850   94.71850   81.16870   46.69860  378.73670  378.73670   17.89270  -50.06540  -13.72680   17.89270
 5300.00000   10.66660   10.66660   29.13060   34.32820   86.88560   86.88560   34.32820   11.75320  377.53010  377.53010   16.20630  -41.81530   -6.64720   16.20630
 5350.00000   11.21990   11.21990   82.71160   12.09020   78.19850   78.19850   12.09020    4.85240  402.72620  402.72620   11.16110  -38.77800   -4.78030   11.16110
 5400.00000    9.09870    9.09870  176.00680    5.68160   50.19590   50.19590    5.68160    8.12920  470.19000  470.19000   16.66120  -73.04030  -51.95450   16.66120
 5450.00000   10.74580   10.74580   53.07160   18.85190   93.81500   93.81500   18.85190    6.64390  370.52460  370.52460    9.21560  -10.60310   -8.84760    9.21560
 5500.00000   10.49810   10.49810   58.60840   17.06240   83.21870   83.21870   17.06240   15.01630  419.81160  419.81160   15.45650  -25.30430  -24.60660   15.45650
 5550.00000   10.69590   10.69590   63.58860   15.72610  104.01600  104.01600   15.72610   11.54570  404.67860  404.67860   12.11880  -22.27570  -21.57800   12.11880
 5600.00000   13.87660   13.87660  105.84140    9.44810   96.17860   96.17860    9.44810    4.89240  306.22600  306.22600    3.95390  -20.50870  -19.81100    3.95390
 5650.00000   10.57120   10.57120   44.06450   22.69400   73.55620   73.55620   22.69400    8.53960  397.11260  397.11260   17.02210  -25.64010  -24.04950   17.02210
 5700.00000    9.33450    9.33450   25.58550   39.08580   56.50470   56.50470   39.08580   22.33650  420.77200  420.77200   21.57390  -75.93480  -72.15560   21.57390
 5750.00000    9.98790    9.98790   24.06670   41.55120  108.58980  108.58980   41.55120   33.84410  320.58630  320.58630   19.10590  -30.08520  -24.13910   19.10590
 5800.00000   10.90690   10.90690   11.91680   83.91510   91.90780   91.90780   83.91510  115.54240  317.68480  317.68480   21.88310  -37.34550  -29.22170   21.88310
 5850.00000   10.86760   10.86760  101.07030    9.89410   83.20160   83.20160    9.89410   10.09710  315.61760  315.61760   13.41060  -43.15420  -32.85260   13.41060
 5900.00000   13.59950   13.59950  207.72750    4.81400   80.08910   80.08910    4.81400    2.42230  275.19670  275.19670    2.69050  -34.44200  -21.96260    2.69050
 5950.00000   15.23810   15.23810  248.49230    4.45920   84.28480   84.28480    4.45920    2.62990  276.19490  276.19490    4.50500  -46.79190  -32.12390    4.50500
 6000.00000    9.33470    9.33470   18.55640   53.88980  168.85950  168.85950   53.88980   53.55400  330.53620  330.53620   73.20240  -43.93320  -27.09830   73.20240
 6050.00000    8.96650    8.96650    2.56250  390.24290  114.73080  114.73080  390.24290  273.95260  531.89010  531.89010  380.19500  -59.49070  -40.47810  380.19500
 6100.00000   10.92790   10.92790   69.65150   14.35720   86.65260   86.65260   14.35720   19.29200  415.07100  415.07100   15.20860  -60.64920  -39.45880   15.20860
