~Version ---------------------------------------------------
VERS.      2.0 : CWLS log ASCII Standard -VERSION 2.0
WRAP.       NO : One line per depth step
CREA. 11/20/17 : LAS Creation Date
~Well ------------------------------------------------------
STRT.FT                          1000.0 : START DEPTH
STOP.FT                         10550.0 : STOP DEPTH
STEP.FT                        50.00000 : STEP LENGTH
NULL.                           -999.25 : NULL VALUE
COMP.                  LL&E  CANADA LTD : COMPANY
WELL. LL&E ET AL SAKWATAMAU 10-22-61-14 : WELL
FLD .                                   : FIELD
LOC .                                   : LOCATION
CTRY.                            CANADA : COUNTRY
SRVC.                      Schlumberger : SERVICE COMPANY
DATE.                       05-Jan-1969 : LOGDATE
PROV.                           Alberta : PROVINCE
UWI .                  100102206114W500 : UNIQUE WELL ID
SLAT.WGS84                     54.29276 : SURFACE LATITUDE
SLON.WGS84                    -116.0087 : SURFACE LONGITUDE
~Curve Information -----------------------------------------
DEPT   .FT    : Depth Curve
CALDED .IN    : CALIPER FROM DENSITY LOG
CALSED .IN    : CALIPER FROM SONIC LOG
CALWS  .IN    : CALIPER [CALSED]
CILDED .MMHO  : CONDUCTIVITY FROM RESISTIVITY LOG
CONDWS .MMHO  : CONDUCTIVITY [1000/DRESWS]
DCORED .G/C3  : DENSITY CORRECTION FROM DENSITY LOG
DCORWS .G/C3  : DENSITY CORRECTION [DCORED]
DENWS  .G/C3  : FORMATION BULK DENSITY [RHOBED]
DPOLSWS.V/V   : DENSITY POROSITY LIMESTONE [CALC. FROM DENWS M=2.71, F=1.00 ASSUMED]
DRESWS .OHMM  : DEEP RESISTIVITY [ILDED]
DTED   .US/F  : DELTA TIME FROM SONIC LOG
DTWS   .US/F  : COMPRESSIONAL SONIC [DTED]
GRSED  .GAPI  : GAMMA RAY FROM SONIC LOG
GRWS   .GAPI  : GAMMA RAY [GRSED]
ILDED  .OHMM  : DEEP  INDUCTIONRESISTIVITY FROM RESISTIVITY LOG
RHOBED .G/C3  : BULK DENSITY FROM DENSITY LOG
SNED   .OHMM  : SHORT NORMAL RESISTIVITY FROM RESISTIVITY LOG
SPRED  .MV    : SPONTANEOUS POTENTIAL FROM RESISTIVITY LOG
SPWS   .MV    : SPONTANEOUS POTENTIAL [BASELINE 0 MV, SPRED]
SRESWS .OHMM  : SHALLOW RESISTIVITY [SNED]
~Params ----------------------------------------------------
PD  .                     GL : PERMANENT DATUM
EPD .FT              3084.84 : ELEVATION PERMANENT DATUM
LMF .                     KB : LOG MEASURED FROM
DAPD.FT                16.05 : FEET ABOVE PERMANENT DATUM
EKB .FT              3100.89 : KELLY BUSHING
EGL .FT              3084.84 : GROUND LEVEL
DATE.               01/05/69 : RUN DATE
RUN .                      1 : RUN NUMBER
DD  .FT                10596 : DEPTH DRILLER
DL  .FT                10595 : DEPTH LOGGER
BLI .FT                10594 : BOTTOM LOG INTERVAL
TLI .FT                 1003 : TOP LOG INTERVAL
CBD .FT                 1003 : CASING BOTTOM DRILLER
CBL .FT                 1003 : CASING BOTTOM LOGGER
BS  .IN                 8.75 : BIT SIZE
BSD .FT                10596 : BIT SIZE AT DEPTH
DFT .                    GEL : DRILLING FLUID TYPE
DFD .                    9.7 : DRILLING FLUID DENSITY
DFV .                     97 : DRILLING FLUID VISCOSITY
DFPH.                     11 : DRILLING FLUID PH
DFL .                    6.6 : DRILLING FLUID LOSS
RMS .OHMM               2.32 : RESISTIVITY MUD SAMPLE
MST .DEGF                 60 : MUD SAMPLE TEMPERATURE
RMF .OHMM                1.7 : RESISTIVITY MUD FILTRATE SAMPLE
MFST.DEGF                 64 : MUD FILTRATE SAMPLE TEMPERATURE
RMC .OHMM               2.51 : RESISTIVITY MUD CAKE
MCST.DEGF                 62 : MUD CAKE SAMPLE TEMPERATURE
TCS .HRS                   5 : TIME CIRCULATED STOPPED
LUN .                   7501 : LOGGING UNIT NUMBER
LUL .                    EDM : LOGGING UNIT LOCATION
ENGI.               STUEHMER : RECORDING ENGINEER
WITN.               LEVEILLE : WITNESSED BY
CLNT.                A2DTECH : CLIENT CODE
ORIG.            2" 5" PRINT : ORIGIN OF DATA
UWI .       100102206114W500 : UNIQUE WELL ID
DICO. A2D Technologies, Inc. : DIGITIZING COMPANY
~Other -----------------------------------------------------
IEL-FDC-BHC LOG RUN
~ASCII -----------------------------------------------------
# ...
 4500.00000    -999.25    8.19440    8.19440   79.81180   82.17330    -999.25    -999.25    -999.25    -999.25   12.16940   94.02010   94.02010  132.05650  132.05650   12.16940    -999.25   20.70700  -64.99270   -3.28280   20.70700
 4550.00000    -999.25    9.03920    9.03920  123.87740  127.29770    -999.25    -999.25    -999.25    -999.25    7.85560   99.72440   99.72440  151.23290  151.23290    7.85560    -999.25   11.50970  -64.63140   -3.09260   11.50970
 4600.00000    -999.25   11.17390   11.17390  187.81400  199.60480    -999.25    -999.25    -999.25    -999.25    5.00990   88.04400   88.04400   84.40270   84.40270    5.00990    -999.25    7.28310  -66.90680   -5.99360    7.28310
 4650.00000    -999.25    9.95540    9.95540  151.39470  150.41890    -999.25    -999.25    -999.25    -999.25    6.64810   93.02990   93.02990   91.58340   91.58340    6.64810    -999.25    8.08750  -65.59600   -5.30890    8.08750
 4700.00000    -999.25   10.62310   10.62310  220.12970  234.64160    -999.25    -999.25    -999.25    -999.25    4.26190   92.21260   92.21260   91.93630   91.93630    4.26190    -999.25    6.04050  -63.56540   -3.90730    6.04050
 4750.00000    -999.25   10.72330   10.72330  165.26160  170.53500    -999.25    -999.25    -999.25    -999.25    5.86390   87.84550   87.84550   90.94530   90.94530    5.86390    -999.25    8.25190  -63.93510   -4.89950    8.25190
 4800.00000    -999.25   11.32780   11.32780  265.34800  297.38010    -999.25    -999.25    -999.25    -999.25    3.36270   93.79210   93.79210   92.44110   92.44110    3.36270    -999.25    5.15500  -62.02820   -3.61870    5.15500
 4850.00000    -999.25   13.05890   13.05890  256.31030  283.72820    -999.25    -999.25    -999.25    -999.25    3.52450   94.48740   94.48740   98.43100   98.43100    3.52450    -999.25    5.37710  -62.33550   -4.55160    5.37710
 4900.00000    -999.25   11.31770   11.31770  374.03200  451.03960    -999.25    -999.25    -999.25    -999.25    2.21710  105.13530  105.13530  121.56240  121.56240    2.21710    -999.25    3.90230  -59.00850   -1.85070    3.90230
 4950.00000    -999.25   11.45800   11.45800  463.45050  557.49610    -999.25    -999.25    -999.25    -999.25    1.79420  110.15230  110.15230   97.46040   97.46040    1.79420    -999.25    2.96820  -59.89380   -3.36500    2.96820
 5000.00000    -999.25   11.44450   11.44450  284.52170  318.10660    -999.25    -999.25    -999.25    -999.25    3.14360   94.64430   94.64430   85.69540   85.69540    3.14360    -999.25    4.72490  -58.89770   -2.99150    4.72490
 5050.00000    -999.25   10.38260   10.38260  150.51670  152.08890    -999.25    -999.25    -999.25    -999.25    6.57510   84.63160   84.63160   87.29850   87.29850    6.57510    -999.25    8.99790  -57.69520   -2.41510    8.99790
 5100.00000    -999.25    7.47300    7.47300   77.79800   78.86870    -999.25    -999.25    -999.25    -999.25   12.67930   78.27410   78.27410   34.18150   34.18150   12.67930    -999.25   19.47310 -100.50060  -42.86780   19.47310
 5150.00000    -999.25   14.79160   14.79160  704.54660  906.94720    -999.25    -999.25    -999.25    -999.25    1.10260  185.69630  185.69630   62.14210   62.14210    1.10260    -999.25    2.48410  -64.02970   -4.98620    2.48410
 5200.00000    -999.25    9.19670    9.19670   85.83360   87.79570    -999.25    -999.25    -999.25    -999.25   11.39030   83.80940   83.80940   44.28160   44.28160   11.39030    -999.25   18.78890 -116.73840  -58.60560   18.78890
 5250.00000    -999.25   11.04640   11.04640  184.85950  191.38020    -999.25    -999.25    -999.25    -999.25    5.22520   90.06080   90.06080   78.78660   78.78660    5.22520    -999.25    9.35660  -63.54590   -6.40420    9.35660
 5300.00000    -999.25   10.90390   10.90390  107.69740  109.98320    -999.25    -999.25    -999.25    -999.25    9.09230   76.13570   76.13570   76.22370   76.22370    9.09230    -999.25   11.59500  -62.82470   -6.67940   11.59500
 5350.00000    -999.25    9.88870    9.88870   30.08000   27.49330    -999.25    -999.25    -999.25    -999.25   36.37250   55.66000   55.66000   31.08870   31.08870   36.37250    -999.25   40.82700  -92.00960  -36.90640   40.82700
 5400.00000    -999.25   11.05130   11.05130  120.89100  122.64670    -999.25    -999.25    -999.25    -999.25    8.15350   77.19040   77.19040   51.33850   51.33850    8.15350    -999.25   11.63830  -64.72880  -10.68290   11.63830
 5450.00000    -999.25   12.57720   12.57720   80.00380   77.74680    -999.25    -999.25    -999.25    -999.25   12.87250  100.09990  100.09990   66.67530   66.67530   12.87250    -999.25   20.64180  -57.55800   -4.57470   20.64180
 5500.00000    -999.25   12.77170   12.77170  130.83760  133.67730    -999.25    -999.25    -999.25    -999.25    7.48070   89.33800   89.33800   74.39790   74.39790    7.48070    -999.25   12.97330  -58.56490   -6.63360   12.97330
 5550.00000    -999.25   10.16450   10.16450  120.66970  122.43050    -999.25    -999.25    -999.25    -999.25    8.16790   72.72540   72.72540   63.79050   63.79050    8.16790    -999.25   15.16070  -79.65340  -28.77940   15.16070
 5600.00000    -999.25   10.97860   10.97860   60.07270   58.86610    -999.25    -999.25    -999.25    -999.25   16.98770  116.43990  116.43990   50.06510   50.06510   16.98770    -999.25   18.43750  -61.24530  -11.42850   18.43750
 5650.00000    -999.25   10.47680   10.47680  134.31080  136.58590    -999.25    -999.25    -999.25    -999.25    7.32140   75.27110   75.27110   72.16360   72.16360    7.32140    -999.25    9.57200  -55.41320   -6.43450    9.57200
 5700.00000    -999.25    9.68700    9.68700  107.47310  108.08190    -999.25    -999.25    -999.25    -999.25    9.27680   71.93940   71.93940   63.50520   63.50520    9.27680    -999.25   15.71260  -62.90200  -14.50750   15.71260
 5750.00000    -999.25   12.24580   12.24580  163.48430  166.27870    -999.25    -999.25    -999.25    -999.25    6.01400   79.43980   79.43980   67.14350   67.14350    6.01400    -999.25    8.43580  -50.64440   -2.82830    8.43580
 5800.00000    -999.25   12.20860   12.20860  183.24740  190.88710    -999.25    -999.25    -999.25    -999.25    5.23870   81.24090   81.24090   72.95420   72.95420    5.23870    -999.25    7.39070  -50.02930   -2.79440    7.39070
 5850.00000    -999.25    9.94740    9.94740   32.84840   33.10250    -999.25    -999.25    -999.25    -999.25   30.20920   63.82230   63.82230   42.80750   42.80750   30.20920    -999.25   39.39410  -51.64600   -4.99240   39.39410
 5900.00000    -999.25   13.88730   13.88730  185.16420  187.47660    -999.25    -999.25    -999.25    -999.25    5.33400   87.35920   87.35920   86.68440   86.68440    5.33400    -999.25    7.21130  -49.90780   -3.83550    7.21130
 5950.00000    -999.25   12.71660   12.71660  246.94150  272.03900    -999.25    -999.25    -999.25    -999.25    3.70980   82.81720   82.81720   80.65300   80.65300    3.70980    -999.25    5.84300  -50.55160   -5.06350    5.84300
 6000.00000    -999.25   12.32430   12.32430  191.01410  196.34790    -999.25    -999.25    -999.25    -999.25    5.09300   84.01510   84.01510   80.43400   80.43400    5.09300    -999.25    6.94880  -48.62750   -3.71780    6.94880
 6050.00000    -999.25   13.47170   13.47170  178.95620  178.32620    -999.25    -999.25    -999.25    -999.25    5.60770   83.99080   83.99080   81.30090   81.30090    5.60770    -999.25    7.32010  -47.90890   -3.58050    7.32010
 6100.00000    -999.25   12.94530   12.94530  271.23470  286.24590    -999.25    -999.25    -999.25    -999.25    3.49350   98.62020   98.62020   74.72820   74.72820    3.49350    -999.25    6.11460  -46.58460   -2.83740    6.11460
 6150.00000    -999.25    8.66430    8.66430    8.16790    7.59010    -999.25    -999.25    -999.25    -999.25  131.75050   59.15400   59.15400   49.82870   49.82870  131.75050    -999.25  117.48160  -52.90180   -9.19090  117.48160
 6200.00000    -999.25    9.59410    9.59410   75.51040   74.36410    -999.25    -999.25    -999.25    -999.25   13.48200   59.74590   59.74590   44.23800   44.23800   13.48200    -999.25   26.27170  -80.50400  -36.30630   26.27170
