~Version ---------------------------------------------------
VERS.      2.0 : CWLS log ASCII Standard -VERSION 2.0
WRAP.       NO : One line per depth step
CREA. 07/27/17 : LAS Creation Date
~Well ------------------------------------------------------
STRT.FT                            1000.0 : START DEPTH
STOP.FT                            9950.0 : STOP DEPTH
STEP.FT                          50.00000 : STEP LENGTH
NULL.                             -999.25 : NULL VALUE
COMP.        HUDSONS BAY OIL & GAS CO LTD : COMPANY
WELL. HB QUINTANA UNION GIROUX 10-8-66-20 : WELL
FLD .                                     : FIELD
LOC .                                     : LOCATION
CTRY.                              CANADA : COUNTRY
SRVC.                        Schlumberger : SERVICE COMPANY
DATE.                         18-Mar-1972 : LOGDATE
PROV.                             Alberta : PROVINCE
UWI .                    100100806620W500 : UNIQUE WELL ID
SLAT.WGS84                       54.70057 : SURFACE LATITUDE
SLON.WGS84                      -116.9823 : SURFACE LONGITUDE
~Curve Information -----------------------------------------
DEPT  .FT    : Depth Curve
CALSED.IN    : CALIPER FROM SONIC LOG
CALWS .IN    : CALIPER [CALSED]
CILDED.MMHO  : CONDUCTIVITY FROM RESISTIVITY LOG
CONDWS.MMHO  : CONDUCTIVITY [1000/DRESWS]
DRESWS.OHMM  : DEEP RESISTIVITY [1000/CILDED IF ILDED < 4, ILDED]
DTED  .US/F  : DELTA T FROM SONIC LOG
DTWS  .US/F  : COMPRESSIONAL SONIC [DTED]
GRSED .GAPI  : GAMMA RAY FROM SONIC LOG
GRWS  .GAPI  : GAMMA RAY [GRSED]
ILDED .OHMM  : DEEP INDUCTION FROM RESISTIVITY LOG
LL8ED .OHMM  : 8 INCH LATEROLOG FROM RESISTIVITY LOG
SPRED .MV    : SPONTANEOUS POTENTIAL FROM RESISTIVITY LOG
SPWS  .MV    : SPONTANEOUS POTENTIAL [BASELINE 0 MV, SPRED]
SRESWS.OHMM  : SHALLOW RESISTIVITY [LL8ED]
~Params ----------------------------------------------------
PD  .                     GL : PERMANENT DATUM
EPD .FT               2420.2 : ELEVATION PERMANENT DATUM
LMF .                     KB : LOG MEASURED FROM
DAPD.FT                   13 : FEET ABOVE PERMANENT DATUM
EKB .FT                 2434 : KELLY BUSHING
EGL .FT               2420.2 : GROUND LEVEL
DATE.               03/18/72 : RUN DATE
RUN .                      1 : RUN NUMBER
DD  .FT                 9990 : DEPTH DRILLER
DL  .FT                 9990 : DEPTH LOGGER
BLI .FT                 9987 : BOTTOM LOG INTERVAL
TLI .FT                 1023 : TOP LOG INTERVAL
CBD .FT                 1023 : CASING BOTTOM DRILLER
CBL .FT                 1023 : CASING BOTTOM LOGGER
BS  .IN                 8.75 : BIT SIZE
BSD .FT                 9990 : BIT SIZE AT DEPTH
DFT .               GEL CHEM : DRILLING FLUID TYPE
DFD .                    9.7 : DRILLING FLUID DENSITY
DFV .                    157 : DRILLING FLUID VISCOSITY
DFPH.                    9.5 : DRILLING FLUID PH
DFL .                    6.8 : DRILLING FLUID LOSS
MSS .             CIRCULATED : MUD SAMPLE SOURCE
RMS .OHMM               2.07 : RESISTIVITY MUD SAMPLE
MST .DEGF                 60 : MUD SAMPLE TEMPERATURE
RMF .OHMM               1.02 : RESISTIVITY MUD FILTRATE SAMPLE
MFST.DEGF                 72 : MUD FILTRATE SAMPLE TEMPERATURE
RMB .OHMM               0.48 : RESISTIVITY MUD AT BHT
TCS .HRS                 3.5 : TIME CIRCULATED STOPPED
LUN .                   7640 : LOGGING UNIT NUMBER
LUL .                    EDM : LOGGING UNIT LOCATION
ENGI.                CUTRESS : RECORDING ENGINEER
WITN.                HIGGINS : WITNESSED BY
CLNT.                A2DTECH : CLIENT CODE
ORIG.            2" 5" PRINT : ORIGIN OF DATA
UWI .       100100806620W500 : UNIQUE WELL ID
DICO. A2D Technologies, Inc. : DIGITIZING COMPANY
~Other -----------------------------------------------------
~ASCII -----------------------------------------------------
 1000.00000    -999.25    -999.25    -999.25    -999.25    -999.25    -999.25    -999.25   60.45460   60.45460    -999.25    -999.25    -999.25    -999.25    -999.25
 1050.00000   10.20510   10.20510  365.74420  365.74420    2.73420  138.16000  138.16000  102.45220  102.45220    3.00840    4.75360 -103.35680   -3.81430    4.75360
 1100.00000   11.70730   11.70730  504.18260  504.18260    1.98340  119.41520  119.41520   91.54830   91.54830    2.14860    1.82230 -104.22850   -4.81330    1.82230
 1150.00000   11.90220   11.90220  284.62850  284.62850    3.51340  131.36600  131.36600   77.46290   77.46290    3.62000    2.60900 -102.71210   -3.42340    2.60900
 1200.00000   12.62810   12.62810  396.66840  396.66840    2.52100  120.78900  120.78900   89.84150   89.84150    2.68480    1.99650 -100.83870   -1.67740    1.99650
 1250.00000   11.12250   11.12250  156.92830  163.28400    6.12430  114.55280  114.55280   74.88560   74.88560    6.12430    3.96670 -100.24730   -1.21240    3.96670
 1300.00000   10.68170   10.68170  153.47990  123.76700    8.07970  107.94980  107.94980   51.80560   51.80560    8.07970    5.65790 -109.41230  -10.59850    5.65790
 1350.00000   10.84670   10.84670  188.40960  173.40040    5.76700  112.78260  112.78260   73.15090   73.15090    5.76700    4.00110 -101.00890   -2.48540    4.00110
 1400.00000   11.33490   11.33490  209.80840  214.72590    4.65710  114.35210  114.35210   68.17110   68.17110    4.65710    3.29590 -101.21010   -2.97620    3.29590
 1450.00000   12.50790   12.50790  257.57990  249.75650    4.00390  124.79920  124.79920   71.68840   71.68840    4.00390    2.92060 -101.06580   -3.12310    2.92060
 1500.00000   13.03530   13.03530  170.95650  174.85270    5.71910  110.29440  110.29440   68.24290   68.24290    5.71910    3.76430 -100.42090   -2.76690    3.76430
 1550.00000   11.05220   11.05220  218.45730  221.25360    4.51970  122.08770  122.08770   70.68950   70.68950    4.51970    3.21570 -100.27630   -2.91190    3.21570
 1600.00000   14.18360   14.18360  265.58720  265.58720    3.76520  131.70100  131.70100   79.66520   79.66520    3.82140    2.63340 -100.64860   -3.57460    2.63340
 1650.00000   12.20730   12.20730  316.53240  316.53240    3.15920  122.69710  122.69710   73.27730   73.27730    3.28690    2.36820  -99.07470   -2.29020    2.36820
 1700.00000   11.27370   11.27370  185.47640  185.23660    5.39850  125.79790  125.79790   66.38420   66.38420    5.39850    3.65220  -99.03600   -2.54260    3.65220
 1750.00000   12.71310   12.71310  237.71630  232.44460    4.30210  148.73780  148.73780   56.52940   56.52940    4.30210    2.97370  -99.00930   -2.80470    2.97370
 1800.00000   10.55700   10.55700  236.74240  226.34160    4.41810  128.57700  128.57700   65.68120   65.68120    4.41810    3.22710  -97.08570   -1.17070    3.22710
 1850.00000    9.94460    9.94460   78.31670   85.52050   11.69310  105.85180  105.85180   46.90260   46.90260   11.69310    8.08500 -107.65010  -12.02200    8.08500
 1900.00000   10.25510   10.25510   16.88550   40.58990   24.63670   67.94820   67.94820   38.59500   38.59500   24.63670   23.17120 -100.69750   -5.32430   23.17120
 1950.00000   10.36070   10.36070  233.41320  221.93620    4.50580  144.88100  144.88100   67.69860   67.69860    4.50580    3.37260  -96.48470   -1.17900    3.37260
 2000.00000   10.33080   10.33080  104.19820  109.87440    9.10130  105.32460  105.32460   50.79120   50.79120    9.10130    6.19180  -96.31550   -1.06010    6.19180
 2050.00000   14.20640   14.20640  237.53050  249.14050    4.01380  133.87540  133.87540   62.80040   62.80040    4.01380    2.96920  -96.35180   -1.14750    2.96920
 2100.00000    9.91460    9.91460   90.19510   97.12890   10.29560  114.46910  114.46910   43.33890   43.33890   10.29560    8.44870 -116.44680  -21.29320    8.44870
 2150.00000   10.56460   10.56460  197.37200  194.87860    5.13140  114.18650  114.18650   66.48580   66.48580    5.13140    3.83370  -96.42160   -1.31910    3.83370
 2200.00000   10.46390   10.46390  219.21610  217.99790    4.58720  108.01790  108.01790   71.77200   71.77200    4.58720    3.58660  -96.01760   -0.96630    3.58660
 2250.00000   10.49990   10.49990  158.07140  161.28250    6.20030   97.67490   97.67490   57.16350   57.16350    6.20030    5.09450  -97.94900   -2.94820    5.09450
 2300.00000   10.23610   10.23610  233.25190  232.60680    4.29910  107.53520  107.53520   63.85710   63.85710    4.29910    3.64060  -96.56710   -1.61740    3.64060
 2350.00000   10.38570   10.38570  171.67500  178.31030    5.60820  106.18770  106.18770   60.56460   60.56460    5.60820    4.30310  -96.57210   -1.67300    4.30310
 2400.00000   10.80570   10.80570  120.76900  125.23640    7.98490   98.76310   98.76310   74.51120   74.51120    7.98490    6.36960  -98.75160   -3.64280    6.36960
 2450.00000    9.52770    9.52770  158.53590  160.56520    6.22800  105.52500  105.52500   86.74840   86.74840    6.22800    4.78950 -100.54850   -4.97270    4.78950
 2500.00000   10.91740   10.91740  110.35480  113.71390    8.79400   91.39730   91.39730   72.42850   72.42850    8.79400    6.50620 -100.87630   -4.83610    6.50620
 2550.00000   10.24260   10.24260  158.28700  159.83630    6.25640  106.16870  106.16870   90.62300   90.62300    6.25640    5.42620 -100.65140   -4.14760    5.42620
 2600.00000   10.27570   10.27570  139.02340  139.53420    7.16670   97.63200   97.63200  103.50500  103.50500    7.16670    6.83040  -99.18780   -2.21630    6.83040
 2650.00000   10.16540   10.16540  114.52100  120.20960    8.31880  104.55680  104.55680  101.66470  101.66470    8.31880    7.93900  -99.66450   -2.35370    7.93900
 2700.00000   10.17460   10.17460  139.05030  142.33460    7.02570  103.68130  103.68130   97.54880   97.54880    7.02570    6.52080  -99.88460   -2.27560    6.52080
 2750.00000   10.23530   10.23530  141.56980  144.31890    6.92910   99.35080   99.35080  105.77180  105.77180    6.92910    5.40640 -103.56950   -5.66340    5.40640
 2800.00000    9.67160    9.67160   95.01500  101.48780    9.85340   86.64800   86.64800   86.96340   86.96340    9.85340    7.80530 -101.13200   -2.93020    7.80530
 2850.00000    9.91720    9.91720   78.54290   86.51340   11.55890   93.87100   93.87100   84.42300   84.42300   11.55890    9.61140 -109.77970  -11.27830    9.61140
 2900.00000   10.24040   10.24040  133.23580  136.84570    7.30750   98.69530   98.69530  103.18040  103.18040    7.30750    6.06980 -100.47970   -1.68260    6.06980
 2950.00000   11.76940   11.76940  142.52740  146.94650    6.80520   95.95730   95.95730  101.81300  101.81300    6.80520    4.99820 -102.59520   -3.50000    4.99820
 3000.00000   12.12150   12.12150  127.49220  132.83920    7.52790   91.74510   91.74510   96.73590   96.73590    7.52790    5.53310 -101.02300   -1.86290    5.53310
 3050.00000   11.51270   11.51270  127.53840  131.03760    7.63140   94.88240   94.88240  102.11300  102.11300    7.63140    6.15360 -100.91670   -2.56410    6.15360
 3100.00000   11.37500   11.37500  113.80300  119.07030    8.39840   93.77630   93.77630  105.00340  105.00340    8.39840    6.61640 -100.24580   -2.70420    6.61640
 3150.00000   10.60900   10.60900  102.53400  106.51330    9.38850   91.19400   91.19400   97.75280   97.75280    9.38850    8.04510  -98.75090   -2.01690    8.04510
 3200.00000   10.57010   10.57010  105.82480  111.77060    8.94690   80.83500   80.83500  106.29930  106.29930    8.94690    7.30230  -99.39180   -3.47020    7.30230
 3250.00000   11.24640   11.24640  134.08730  137.63110    7.26580   96.45620   96.45620  105.24950  105.24950    7.26580    6.23940  -99.30950   -4.19400    6.23940
 3300.00000   12.03280   12.03280  136.13730  140.19540    7.13290   94.99280   94.99280  110.01280  110.01280    7.13290    6.08180  -98.96880   -4.66080    6.08180
 3350.00000   10.51460   10.51460  141.54610  145.12520    6.89060   98.43140   98.43140  104.35040  104.35040    6.89060    6.53270  -96.49230   -2.99530    6.53270
 3400.00000   11.01070   11.01070  146.17590  150.18620    6.65840  103.34210  103.34210  116.79100  116.79100    6.65840    6.26900  -94.99350   -2.30410    6.26900
