~Version ---------------------------------------------------
VERS.      2.0 : CWLS log ASCII Standard -VERSION 2.0
WRAP.       NO : One line per depth step
CREA. 03/07/13 : LAS Creation Date
~Well ------------------------------------------------------
STRT.FT                       1100.0 : START DEPTH
STOP.FT                      10650.0 : STOP DEPTH
STEP.FT                     50.00000 : STEP LENGTH
NULL.                        -999.25 : NULL VALUE
COMP.           PETROFINA CANADA LTD : COMPANY
WELL. FINA AMOCO HB PASSCK 10-6-61-1 : WELL
FLD .                             WC : FIELD
LOC .                                : LOCATION
CTRY.                         CANADA : COUNTRY
SRVC.                   Schlumberger : SERVICE COMPANY
DATE.                    16-Nov-1976 : LOGDATE
PROV.                        Alberta : PROVINCE
UWI .               100100606117W500 : UNIQUE WELL ID
SLAT.WGS84                  54.24964 : SURFACE LATITUDE
SLON.WGS84                 -116.5333 : SURFACE LONGITUDE
~Curve Information -----------------------------------------
DEPT   .FT    : DEPTH FEET
CALD   .IN    : CALIPER FROM DENSITY LOG
CALS   .IN    : CALIPER FROM SONIC LOG
CILD   .MMHO  : CONDUCTIVITY FROM RESISTIVITY LOG
DCOR   .G/C3  : DENSITY CORRECTION FROM DENSITY LOG
DPHI_LS.DEC   : DENSITY POROSITY LIME [M=2.71, F=1.0] FROM DENSITY LOG
DPHI_SS.DEC   : DENSITY POROSITY SAND [M=2.65, F=1.0] FROM DENSITY LOG
DT     .US/F  : DELTA TIME FROM SONIC LOG
GRD    .GAPI  : GAMMA RAY FROM DENSITY LOG
GRS    .GAPI  : GAMMA RAY FROM SONIC LOG
ILD    .OHMM  : DEEP INDUCTION RESISTIVITY FROM RESISTIVITY LOG
ILM    .OHMM  : MEDIUM INDUCTION RESISTIVITY FROM RESISTIVITY LOG
LL8    .OHMM  : 8 INCH LATEROLOG RESISTIVITY FROM RESISTIVITY LOG
NPHI_LS.DEC   : NEUTRON POROSITY LIME FROM DENSITY LOG
NPHI_SS.DEC   : NEUTRON POROSITY SAND FROM DENSITY LOG
RHOB   .G/C3  : BULK DENSITY FROM DENSITY LOG
SPR    .MV    : SPONTANEOUS POTENTIAL FROM RESISTIVITY LOG
~Params ----------------------------------------------------
PD  .                     GL : PERMANENT DATUM
EPD .FT                 3080 : ELEVATION PERMANENT DATUM
LMF .                     KB : LOG MEASURED FROM
DAPD.FT                   16 : FEET ABOVE PERMANENT DATUM
EKB .FT                 3096 : KELLY BUSHING
EGL .FT                 3080 : GROUND LEVEL
DATE.               11/16/76 : RUN DATE
RUN .                      2 : RUN NUMBER
DD  .FT                10680 : DEPTH DRILLER
DL  .FT                10679 : DEPTH LOGGER
BLI .FT                10673 : BOTTOM LOG INTERVAL
TLI .FT                 7468 : TOP LOG INTERVAL
CBD .FT                 1102 : CASING BOTTOM DRILLER
CBL .FT                 1102 : CASING BOTTOM LOGGER
BS  .IN                 8.75 : BIT SIZE
BSD .FT                10680 : BIT SIZE AT DEPTH
DFT .                    GEL : DRILLING FLUID TYPE
DFD .                    9.2 : DRILLING FLUID DENSITY
DFV .                     94 : DRILLING FLUID VISCOSITY
DFPH.                     10 : DRILLING FLUID PH
DFL .                    8.2 : DRILLING FLUID LOSS
MSS .               FLOWLINE : MUD SAMPLE SOURCE
RMS .OHMM               1.57 : RESISTIVITY MUD SAMPLE
MST .DEGF                 65 : MUD SAMPLE TEMPERATURE
RMF .OHMM               1.76 : RESISTIVITY MUD FILTRATE SAMPLE
MFST.DEGF                 68 : MUD FILTRATE SAMPLE TEMPERATURE
TCS .HRS                 2.5 : TIME CIRCULATED STOPPED
LUN .                   7800 : LOGGING UNIT NUMBER
LUL .                    EDM : LOGGING UNIT LOCATION
ENGI.     ROBELLI LEDUG BIGG : RECORDING ENGINEER
WITN.                CHARLES : WITNESSED BY
CLNT.                A2DTECH : CLIENT CODE
ORIG.            2" 5" PRINT : ORIGIN OF DATA
UWI .       100100606117W500 : UNIQUE WELL ID
DICO. A2D Technologies, Inc. : DIGITIZING COMPANY
~Other -----------------------------------------------------
~ASCII -----------------------------------------------------
# ...
 7550.00000    9.58770    9.49970    -999.25    0.00180    0.00500    -999.25   50.68500   44.51020   22.48890   32.14040   20.04230  195.75530    0.03430    -999.25    2.68980  -53.51940
 7600.00000    9.61740    9.52090    -999.25   -0.01530    0.01350    -999.25   56.18890   40.75710   44.09390   82.32610   76.48530   88.16440    0.04030    -999.25    2.70250  -48.41270
 7650.00000    9.50270    9.47950    -999.25   -0.00300   -0.00400    -999.25   41.11010   43.48540   43.21680   71.37930   78.22470   80.59380    0.03130    -999.25    2.69300  -52.31560
 7700.00000    9.41090    9.23190    -999.25    0.00520    0.01230    -999.25   54.72260   29.27960   29.82290  185.17880  196.37550  144.00870    0.02720    -999.25    2.68570  -51.97960
 7750.00000    9.45890    9.26550    -999.25    0.01320    0.01200    -999.25   53.76700   26.64900   26.75290  136.15110  134.42470  121.10840    0.02180    -999.25    2.68810  -53.86710
 7800.00000    9.55350    9.29620    -999.25   -0.00720    0.00560    -999.25   57.86500   45.35700   48.85950   47.78540   44.61780   52.85870    0.04330    -999.25    2.69240  -33.85650
 7850.00000    9.41430    9.04500    -999.25   -0.01190    0.00620    -999.25   54.93030   29.00090   34.02900 1232.63400  689.67880  342.45680    0.02700    -999.25    2.67230  -43.54120
 7900.00000    9.42540    9.09350    -999.25   -0.01360    0.01930    -999.25   55.27280   37.09260   35.09860  444.96210  367.66870  341.88120    0.02440    -999.25    2.68040  -50.13620
 7950.00000    9.39070    9.00320    -999.25   -0.00620    0.03140    -999.25   58.85970   52.54900   62.73680  901.93630  507.45180  216.27200    0.04020    -999.25    2.65350  -46.00040
 8000.00000    9.49290    9.22870    -999.25    0.00850    0.00220    -999.25   53.67780   46.36460   33.90610  164.52880  730.11520  694.91670    0.02530    -999.25    2.72580  -63.36930
 8050.00000    9.64570    9.25580    -999.25   -0.00270    0.00970    -999.25   52.31060   27.14310   26.19020 1430.23510 1526.07080  459.21410    0.01020    -999.25    2.70090  -55.14930
 8100.00000    9.90880    9.44920    -999.25   -0.01100    0.00970    -999.25   51.40110   13.14910   12.87290 1503.29310 1588.99580 1417.74060    0.01650    -999.25    2.67560 -108.70820
 8150.00000    9.75660    9.33980    -999.25   -0.02200    0.00430    -999.25   50.63050   12.79840   11.22730 1469.98970 1553.82190  450.62550    0.00200    -999.25    2.68810  -93.18940
 8200.00000   10.59660    9.72740    -999.25    0.11670    0.04150    -999.25   50.58360   10.71270   11.89550 1478.81070 1562.86450 1449.67970    0.00410    -999.25    2.65850 -108.63600
 8250.00000   11.37090    9.59250    -999.25    0.18220    0.02380    -999.25   51.25570   10.40680   10.80520  733.48860 1507.35490  275.70620    0.01610    -999.25    2.65020 -105.65900
 8300.00000   12.02800    9.66270    -999.25    0.11780    0.10700    -999.25   50.57420   14.98380   13.20950  799.03490 1595.72350  683.84860    0.00570    -999.25    2.56110 -132.89770
 8350.00000    9.45640    9.29700    -999.25    0.00250    0.01950    -999.25   50.74230    6.61330    7.66740  200.23790  256.73120  260.52370    0.00730    -999.25    2.68730 -137.98730
 8400.00000   11.59300    9.74810    -999.25    0.20470    0.08980    -999.25   50.67940   13.70330   13.41410  311.22870  139.24010  122.37260    0.01090    -999.25    2.50310 -132.33870
 8450.00000   11.91260    9.87460    -999.25    0.15560    0.10490    -999.25   52.58160   12.88100   13.87860 1442.58230 1520.28520  265.94660    0.00920    -999.25    2.49950 -136.90230
 8500.00000   11.96040    9.75000    -999.25    0.25480    0.13610    -999.25   51.56950   12.67530   11.85670 1436.56880 1649.01590  656.13400    0.01410    -999.25    2.51030 -134.84910
 8550.00000   12.44750    9.90640    -999.25    0.15160    0.14840    -999.25   50.06270   12.35130   13.35090  542.72050 1684.46640  437.53990    0.01710    -999.25    2.37640 -127.47890
 8600.00000   11.53580    9.97800    -999.25    0.16410    0.10070    -999.25   51.55000   11.24420   13.94180 1514.22300 1608.90030  939.63420    0.02610    -999.25    2.54660 -127.94700
 8650.00000   12.68610    9.85430    -999.25    0.18140    0.18920    -999.25   50.68280   10.96160   11.06900  316.57620 1476.75420  183.26420    0.02780    -999.25    2.43850 -127.32100
 8700.00000   10.00000    9.45250    -999.25    0.11800    0.08190    -999.25   50.79080    8.14930   13.79720  155.64070  167.71490  115.18290    0.04960    -999.25    2.59140 -128.92170
 8750.00000    9.78780    9.47320    -999.25   -0.00500   -0.05350    -999.25   50.50310   16.53300   41.35700   95.16440   73.45260  211.07610    0.03580    -999.25    2.82260 -106.35210
 8800.00000   10.34860    9.68680    -999.25    0.13840   -0.08010    -999.25   56.49070   24.32050   52.98480   13.29660   12.45430   14.66710    0.04620    -999.25    2.84260  -79.15870
 8850.00000   10.50490    9.31190    -999.25    0.07400    0.08580    -999.25   51.26470   16.95980   16.91750  105.65660   57.96650  153.23230    0.05980    -999.25    2.51920 -149.86120
 8900.00000   12.37840   10.02770    -999.25    0.22300    0.17980    -999.25   55.35560   31.30730   22.47550   56.11200   64.15680   60.63650    0.09240    -999.25    2.37700 -119.76970
 8950.00000   11.95390    9.96000    -999.25    0.15500    0.18280    -999.25   51.32170   24.23850   29.63920 1254.12060 1372.91630  448.49710    0.07800    -999.25    2.30170 -106.07690
 9000.00000    9.82400    9.37780    -999.25   -0.02380    0.00500    -999.25   52.24510   35.90170   28.50280 1088.03420  359.00360  283.19810    0.01330    -999.25    2.68260  -56.36610
 9050.00000    9.70030    9.35320    -999.25   -0.02580    0.01770    -999.25   53.08430   29.63410   33.95320  335.65560  202.79830  218.17830    0.01770    -999.25    2.69580  -62.02020
 9100.00000    9.58780    9.32460    -999.25    0.00690    0.00300    -999.25   52.66800   26.47560   24.33250 1461.01120 1559.78650  889.69940    0.01320    -999.25    2.73010  -73.77730
 9150.00000    9.56280    9.30870    -999.25   -0.00350   -0.00950    -999.25   54.04180   30.02750   32.57310  383.19240  299.87460  225.57310    0.01350    -999.25    2.69730  -65.04950
 9200.00000    9.65900    9.09100    -999.25   -0.01030   -0.01430    -999.25   54.20420   23.98320   25.00000  159.45050  138.30620  152.11310    0.01780    -999.25    2.70090  -63.66250
 9250.00000    9.85920    9.32100    -999.25   -0.03100    0.00010    -999.25   59.82800   44.72180   47.69280   17.99280   16.04000   20.77070    0.07470    -999.25    2.68620  -49.55930
 9300.00000    9.89420    9.36820    -999.25   -0.01340    0.00710    -999.25   67.62750   65.68870   65.11230   10.28690    9.09450   13.32720    0.12640    -999.25    2.66090  -48.95130
 9350.00000    9.81570    9.48610    -999.25   -0.01650    0.02770    -999.25   66.80610   61.97830   67.04120   10.09390    9.25850   13.01780    0.12740    -999.25    2.67600  -49.33690
 9400.00000    9.88840    9.34910    -999.25   -0.00810    0.00090    -999.25   64.60240   64.03360   61.37330   11.62940   10.04110   14.14560    0.11440    -999.25    2.68520  -51.26950
 9450.00000   10.20830    9.56450    -999.25   -0.00110    0.02690    -999.25   68.14520   77.73930   75.76410    8.94930    7.86960   10.28440    0.15080    -999.25    2.67240  -44.13810
 9500.00000    9.95850    9.49680    -999.25   -0.02130    0.09080    -999.25   69.21070   84.61520   82.65580  119.44150   78.10650  167.06180    0.18340    -999.25    2.53250  -51.61990
 9550.00000   12.39490   10.21390    -999.25    0.23290    0.11130    -999.25   67.77670   84.80040   76.66460   14.97290   12.40450   23.42630    0.19570    -999.25    2.48560  -52.40150
 9600.00000   14.42110   11.86200    -999.25    0.23770    0.32710    -999.25   78.14730   83.27500   81.86960    5.87990    5.50030    7.58720    0.30100    -999.25    2.24290  -56.11030
 9650.00000   10.13250    9.71540    -999.25   -0.00440    0.03960    -999.25   61.81890   76.51220   57.48230   47.46770   32.32350  122.08290    0.12780    -999.25    2.66400  -41.75720
