~Version ---------------------------------------------------
VERS.      2.0 : CWLS log ASCII Standard -VERSION 2.0
WRAP.       NO : One line per depth step
CREA. 08/01/17 : LAS Creation Date
~Well ------------------------------------------------------
STRT.FT                            1050.0 : START DEPTH
STOP.FT                           10000.0 : STOP DEPTH
STEP.FT                          50.00000 : STEP LENGTH
NULL.                             -999.25 : NULL VALUE
COMP.               UNOCAL CANADA LIMITED : COMPANY
WELL. UNION LL&E SHINING BANK 11-24-56-14 : WELL
FLD .                                  WC : FIELD
LOC .                                     : LOCATION
CTRY.                              CANADA : COUNTRY
SRVC.                        Schlumberger : SERVICE COMPANY
DATE.                         03-Aug-1971 : LOGDATE
PROV.                             Alberta : PROVINCE
UWI .                    100112405614W500 : UNIQUE WELL ID
SLAT.WGS84                  53.8561852475 : SURFACE LATITUDE
SLON.WGS84                -115.9502838878 : SURFACE LONGITUDE
~Curve Information -----------------------------------------
DEPT  .FT    : Depth Curve
CALSED.IN    : CALIPER FROM BCS LOG
CALWS .IN    : CALIPER [CALSED]
CILDED.MMHO  : DEEP INDUCTION CONDUCTIVITY FROM DIL LOG
CONDWS.MMHO  : CONDUCTIVITY [1000/DRESWS]
DRESWS.OHMM  : DEEP RESISTIVITY [1000/CILDED IF ILDED<4, ILDED]
DTED  .US/F  : DELTA-T (INTERVAL TRANSIT TIME) FROM BCS LOG
DTWS  .US/F  : COMPRESSIONAL  SONIC [DTED]
GRSED .GAPI  : GAMMA RAY FROM BCS LOG
GRWS  .GAPI  : GAMMA RAY [GRSED]
ILDED .OHMM  : DEEP INDUCTION RESISTIVITY FROM DIL LOG
ILMED .OHMM  : INDUCTION MEDIUM RESISTIVITY FROM DIL LOG
LL8ED .OHMM  : LATEROLOG 8 FROM DIL LOG
MRESWS.OHMM  : MEDIUM RESISTIVITY [ILMED]
SPRED .MV    : SPONTANEOUS POTENTIAL FROM DIL LOG
SPWS  .MV    : SPONTANEOUS POTENTIAL [BASELINE 0 MV, SPRED]
SRESWS.OHMM  : SHALLOW RESISTIVITY [LL8ED]
~Params ----------------------------------------------------
PD  .                     GL : PERMANENT DATUM
EPD .FT                 2733 : ELEVATION PERMANENT DATUM
LMF .                     KB : LOG MEASURED FROM
DAPD.FT                15.25 : FEET ABOVE PERMANENT DATUM
EKB .FT              2748.25 : KELLY BUSHING
EGL .FT                 2733 : GROUND LEVEL
DATE.                      1 : RUN DATE
RUN .               08/03/71 : RUN NUMBER
DD  .FT                10035 : DEPTH DRILLER
DL  .FT                10039 : DEPTH LOGGER
BLI .FT                10033 : BOTTOM LOG INTERVAL
TLI .FT                 1030 : TOP LOG INTERVAL
CBD .FT                 1030 : CASING BOTTOM DRILLER
CBL .FT                 1030 : CASING BOTTOM LOGGER
BS  .IN                 8.75 : BIT SIZE
BSD .FT                10035 : BIT SIZE AT DEPTH
DFT .                    GEL : DRILLING FLUID TYPE
DFD .                    9.5 : DRILLING FLUID DENSITY
DFV .                     85 : DRILLING FLUID VISCOSITY
DFPH.                     10 : DRILLING FLUID PH
DFL .                     10 : DRILLING FLUID LOSS
MSS .               FLOWLINE : MUD SAMPLE SOURCE
RMS .OHMM               1.45 : RESISTIVITY MUD SAMPLE
MST .DEGF                 84 : MUD SAMPLE TEMPERATURE
RMF .OHMM               1.21 : RESISTIVITY MUD FILTRATE SAMPLE
MFST.DEGF                 82 : MUD FILTRATE SAMPLE TEMPERATURE
RMB .OHMM               0.59 : RESISTIVITY MUD AT BHT
TCS .HRS                   4 : TIME CIRCULATED STOPPED
LUN .                   5628 : LOGGING UNIT NUMBER
LUL .                    EDM : LOGGING UNIT LOCATION
ENGI.                 ZANUSS : RECORDING ENGINEER
WITN.       HARRIS LEVLINLLE : WITNESSED BY
CLNT.                A2DTECH : CLIENT CODE
ORIG.            2" 5" PRINT : ORIGIN OF DATA
UWI .       100112405614W500 : UNIQUE WELL ID
DICO. A2D Technologies, Inc. : DIGITIZING COMPANY
~Other -----------------------------------------------------
GR & DT HAVE BEEN TAKEN FROM 1" @CSG. TO 5480'.
SP & RESISTIVITY CURVES HAVE BEEN TAKEN IN 1" SECTION @CSG.  TO 2556' & 3846' TO 5480'.
~ASCII -----------------------------------------------------
# ...
 7500.00000    9.73100    9.73100    -999.25    4.69550  212.97090   48.92770   48.92770   17.28190   17.28190  212.97090  253.40250  289.69560  253.40250 -119.59040  -69.49810  289.69560
 7550.00000   10.00890   10.00890    -999.25    3.98090  251.19750   48.80770   48.80770   15.76290   15.76290  251.19750  498.44040  651.00140  498.44040 -137.81510  -86.00780  651.00140
 7600.00000   10.37010   10.37010    -999.25    3.98530  256.23500   52.06850   52.06850   13.55650   13.55650  256.23500  432.19820  437.82120  432.19820 -144.72430  -91.19060  437.82120
 7650.00000   10.11070   10.11070    -999.25    5.18380  192.90770   49.19400   49.19400   14.58840   14.58840  192.90770  354.75120  363.27740  354.75120 -141.66810  -86.41940  363.27740
 7700.00000   10.82510   10.82510    -999.25    9.74040  103.12250   50.22290   50.22290   20.07340   20.07340  103.12250  378.81930  195.84350  378.81930 -143.56730  -86.59230  195.84350
 7750.00000    9.39020    9.39020    -999.25    5.33800  187.33680   48.25610   48.25610   13.95850   13.95850  187.33680  302.07210  596.15990  302.07210 -154.03770  -95.34770  596.15990
 7800.00000   10.09290   10.09290    -999.25    4.76320  209.94420   49.17260   49.17260   14.19550   14.19550  209.94420 1191.12620 1361.41420 1191.12620 -157.25780  -96.85280 1361.41420
 7850.00000   10.93980   10.93980    -999.25    9.84570  102.03610   49.93790   49.93790   16.16680   16.16680  102.03610  212.69900  197.46720  212.69900 -156.43610  -94.30480  197.46720
 7900.00000   10.35670   10.35670    -999.25    7.05370  141.76960   50.23560   50.23560   17.85110   17.85110  141.76960  282.04770  188.03580  282.04770 -155.29800  -91.45170  188.03580
 7950.00000   11.41280   11.41280    -999.25   11.69740   86.23330   50.09830   50.09830   19.65300   19.65300   86.23330  816.16900  985.06790  816.16900 -159.84230  -94.26960  985.06790
 8000.00000   11.49720   11.49720    -999.25   22.94730   43.57810   53.32810   53.32810   15.38320   15.38320   43.57810  107.93790  102.50250  107.93790 -154.41300  -87.12540  102.50250
 8050.00000    9.53840    9.53840    -999.25    6.52290  153.30700   49.49700   49.49700   18.23610   18.23610  153.30700  109.66450  266.20630  109.66450 -168.99150  -99.98890  266.20630
 8100.00000    9.56150    9.56150    -999.25    5.26130  190.59220   48.70680   48.70680   16.08140   16.08140  190.59220  111.10470  438.82290  111.10470 -107.92130  -37.19240  438.82290
 8150.00000    9.50750    9.50750    -999.25   12.93280   77.32260   45.46040   45.46040   17.16610   17.16610   77.32260   37.34040  400.56420   37.34040 -151.95560  -86.75870  400.56420
 8200.00000   10.21960   10.21960    -999.25   25.32380   39.57480   52.34530   52.34530   20.93010   20.93010   39.57480   51.53510   64.21440   51.53510 -139.55100  -82.89440   64.21440
 8250.00000   10.58680   10.58680    -999.25   12.05860   82.92860   52.00080   52.00080   22.12680   22.12680   82.92860   91.66950   97.04950   91.66950 -115.44530  -67.27320   97.04950
 8300.00000    9.66720    9.66720    -999.25   14.39160   69.48520   52.24740   52.24740   32.90230   32.90230   69.48520   75.40590  104.05950   75.40590  -41.72500   -2.03740  104.05950
 8350.00000   10.09200   10.09200    -999.25   44.00480   22.73310   57.79430   57.79430   40.56480   40.56480   22.73310   23.94240   28.19270   23.94240  -39.75720   -1.78770   28.19270
 8400.00000    9.82290    9.82290    -999.25   57.86940   17.28030   58.36570   58.36570   44.28360   44.28360   17.28030   19.10510   27.96020   19.10510  -45.14150   -4.53850   27.96020
 8450.00000   10.04360   10.04360    -999.25   64.04690   15.61540   62.68740   62.68740   54.44010   54.44010   15.61540   17.63720   19.06730   17.63720  -44.07110   -0.87740   19.06730
 8500.00000   14.46060   14.46060    -999.25  104.89110    9.53370   77.14460   77.14460   59.39820   59.39820    9.53370   15.61090   11.43410   15.61090  -47.88710   -6.45400   11.43410
 8550.00000   15.00000   15.00000    -999.25    -999.25    -999.25  104.67440  104.67440   53.24240   53.24240    2.20670    3.70530    4.53200    3.70530  -61.40130  -21.72890    4.53200
 8600.00000   12.53390   12.53390    -999.25  161.67300    6.19130   73.19190   73.19190   60.69120   60.69120    6.19130    6.72290    8.46130    6.72290  -41.69340   -3.75850    8.46130
 8650.00000    9.75080    9.75080    -999.25   42.65270   23.44520   57.95370   57.95370   36.93130   36.93130   23.44520   24.82100   27.60580   24.82100  -40.27810    0.00000   27.60580
 8700.00000   13.05850   13.05850    -999.25  143.30890    6.98280   67.03160   67.03160   49.58840   49.58840    6.98280    8.90750   14.39710    8.90750  -61.47980  -16.23560   14.39710
 8750.00000   15.00000   15.00000    -999.25  190.17190    5.25840   76.61590   76.61590   58.48240   58.48240    5.25840    5.78110    7.94490    5.78110  -51.58190   -1.58960    7.94490
 8800.00000   10.21460   10.21460    -999.25   85.15710   11.74300   64.43110   64.43110   62.08570   62.08570   11.74300   12.63350   19.12850   12.63350  -50.69240   -2.49170   19.12850
 8850.00000   10.59380   10.59380    -999.25   92.98040   10.75590   63.67350   63.67350   57.91450   57.91450   10.75590   13.25060   18.23420   13.25060  -56.10170  -10.70180   18.23420
 8900.00000   10.17960   10.17960    -999.25   96.68470   10.34290   66.07010   66.07010   66.64430   66.64430   10.34290   11.99950   16.26930   11.99950  -37.78290    0.00000   16.26930
 8950.00000    9.69560    9.69560    -999.25   70.06320   14.27350   63.05000   63.05000   59.07460   59.07460   14.27350   15.44640   20.93020   15.44640  -42.92050   -3.53940   20.93020
 9000.00000   10.46250   10.46250    -999.25  138.23610    7.23400   69.92130   69.92130   64.04330   64.04330    7.23400    7.74760   12.17330    7.74760  -47.97860  -10.14780   12.17330
 9050.00000   12.54570   12.54570    -999.25  148.03630    6.75510   73.95930   73.95930   75.32310   75.32310    6.75510    7.35110    9.86470    7.35110  -54.04900  -14.58270    9.86470
 9100.00000   10.05000   10.05000    -999.25   99.51830   10.04840   68.68590   68.68590   76.63680   76.63680   10.04840   11.22270   15.95310   11.22270  -45.72240   -4.60980   15.95310
 9150.00000   12.23180   12.23180    -999.25  149.09350    6.70720   71.12960   71.12960   72.14840   72.14840    6.70720    7.19650   10.25110    7.19650  -50.03030   -7.82530   10.25110
 9200.00000   10.04960   10.04960    -999.25  131.30630    7.61700   69.85600   69.85600   72.01130   72.01130    7.61700    8.24620   11.80250    8.24620  -47.09420   -4.59710   11.80250
 9250.00000   12.17000   12.17000    -999.25  174.43180    5.73290   78.71400   78.71400   85.29440   85.29440    5.73290    6.27660    8.08510    6.27660  -56.73120  -15.28480    8.08510
 9300.00000    9.46520    9.46520    -999.25  111.18150    8.99430   65.08850   65.08850   58.95380   58.95380    8.99430    9.87410   12.81660    9.87410  -46.95510   -6.55940   12.81660
 9350.00000    9.25520    9.25520    -999.25   92.23870   10.84150   68.77120   68.77120   72.54330   72.54330   10.84150   12.06880   21.47310   12.06880  -48.82230  -15.02480   21.47310
 9400.00000    8.98030    8.98030    -999.25    9.53490  104.87840   51.71160   51.71160   26.76810   26.76810  104.87840  129.40660  238.61510  129.40660  -38.98380   -9.70410  238.61510
 9450.00000    9.08880    9.08880    -999.25   22.40760   44.71350   54.86320   54.86320   42.98870   42.98870   44.71350   59.00220   52.33610   59.00220  -54.72060  -27.03390   52.33610
 9500.00000   11.64630   11.64630    -999.25  135.03840    7.40530   80.59030   80.59030   89.20850   89.20850    7.40530    8.18500   16.59320    8.18500  -52.52650  -26.42250   16.59320
 9550.00000    9.06990    9.06990    -999.25    2.19420  455.74180   55.14720   55.14720   33.11650   33.11650  455.74180  163.13100 1120.06980  163.13100  -38.24120  -13.71990 1120.06980
 9600.00000    9.15390    9.15390    -999.25   10.91640   91.62770   54.99670   54.99670   32.77500   32.77500   91.62770   78.32640   89.49400   78.32640  -57.61400  -33.36990   89.49400
