~Version ---------------------------------------------------
VERS.      2.0 : CWLS log ASCII Standard -VERSION 2.0
WRAP.       NO : One line per depth step
CREA. 09/29/17 : LAS Creation Date
~Well ------------------------------------------------------
STRT.FT                         1450.0 : START DEPTH
STOP.FT                        11100.0 : STOP DEPTH
STEP.FT                       50.00000 : STEP LENGTH
NULL.                          -999.25 : NULL VALUE
COMP. AMOCO CANADA PETROLEUM CO., LTD. : COMPANY
WELL.       AMOCO PEX TONY 10-16-64-22 : WELL
FLD .                                  : FIELD
LOC .                                  : LOCATION
CTRY.                           CANADA : COUNTRY
SRVC.           Schlumberger of Canada : SERVICE COMPANY
DATE.                      08-Apr-1978 : LOGDATE
PROV.                          Alberta : PROVINCE
UWI .                 100101606422W500 : UNIQUE WELL ID
SLAT.WGS84                    54.53914 : SURFACE LATITUDE
SLON.WGS84                   -117.2632 : SURFACE LONGITUDE
~Curve Information -----------------------------------------
DEPT    .FT    : Depth Curve
CALDED  .IN    : CALIPER FROM DENSITY LOG [ADJ. TO RESISTIVITY LOG]
CALSED  .IN    : CALIPER FROM SONIC LOG [ADJ. TO RESISTIVITY LOG]
CALWS   .IN    : CALIPER [CALDED]
CONDWS  .MMHO  : CONDUCTIVITY [1000/DRESWS]
DCORWS  .G/C3  : DENSITY CORRECTION [DRHOED]
DENWS   .G/C3  : BULK DENSITY [RHOBED]
DPHILSED.V/V   : DENSITY POROSITY LIMESTONE [M=2710,F=1000] FROM DENSITY LOG [ADJ. TO RESISTIVITY LOG]
DPHISSED.V/V   : DENSITY POROSITY SANDSTONE [M=2650,F=1000] FROM DENSITY LOG [ADJ. TO RESISTIVITY LOG]
DPOLSWS .V/V   : DENSITY POROSITY LIMESTONE [CALC. FROM DENWS,M=2710,F=1000]
DRESWS  .OHMM  : DEEP RESISTIVITY [ILDED]
DRHOED  .G/C3  : BULK DENSITY CORRECTION FROM DENSITY LOG [ADJ. TO RESISTIVITY LOG]
DTED    .US/F  : DELTA -T FROM SONIC LOG [ADJ. TO RESISTIVITY LOG]
DTWS    .US/F  : COMPRESSIONAL SONIC [DTED]
GRDED   .GAPI  : GAMMA RAY FROM DENSITY LOG [ADJ. TO RESISTIVITY LOG]
GRED    .GAPI  : GAMMA RAY FROM CBL LOG [ADJ. TO RESISTIVITY LOG]
GRSED   .GAPI  : GAMMA RAY FROM SONIC LOG [ADJ. TO RESISTIVITY LOG]
GRWS    .GAPI  : GAMMA RAY [GRED SPL. TO GRDED SPL. TO 458M]
ILDED   .OHMM  : DEEP INDUCTION RESISTIVITY FROM RESISTIVITY LOG
ILMED   .OHMM  : MEDIUM INDUCTION RESISTIVITY FROM RESISTIVITY LOG
LL8ED   .OHMM  : LATEROLOG-8 RESISTIVITY FROM RESISTIVITY LOG
MRESWS  .OHMM  : MEDIUM RESISTIVITY [ILMED]
NEUTED  .NAPI  : NEUTRON FROM CBL LOG [ADJ. TO RESISTIVITY LOG
NEUTWS  .NAPI  : NEUTRON [NEUTED]
NPHILSED.V/V   : NEUTRON POROSITY LIMESTONE FROM DENSITY LOG [ADJ. TO RESISTIVITY LOG]
NPHISSED.V/V   : NEUTRON POROSITY SANDSTONE FROM DENSITY LOG [ADJ. TO RESISTIVITY LOG]
NPOLSWS .V/V   : NEUTRON POROSITY LIMESTONE [NPHISSED CONVERTED TO LIMESTONE MATRIX,SPL. TO NPHILSED @2035M ]
RHOBED  .G/C3  : BULK DENSITYFROM DENSITY LOG [ADJ. TO RESISTIVITY LOG]
SPRED   .MV    : SPONTANEOUS POTENTIAL FROM RESISTIVITY LOG
SPWS    .MV    : SPONTANEOUS POTENTIAL [BASELINE 0 MV,SPRED]
SRESWS  .OHMM  : SHALLOW RESISTIVITY [LL8ED]
~Params ----------------------------------------------------
PD  .                     GL : PERMANENT DATUM
EPD .FT               2639.4 : ELEVATION PERMANENT DATUM
LMF .                     KB : LOG MEASURED FROM
DAPD.FT                 21.4 : FEET ABOVE PERMANENT DATUM
EKB .FT               2660.8 : KELLY BUSHING
EGL .FT               2639.4 : GROUND LEVEL
DATE.               04/08/78 : RUN DATE
RUN .                      2 : RUN NUMBER
DD  .FT                11105 : DEPTH DRILLER
DL  .FT                11103 : DEPTH LOGGER
BLI .FT                11099 : BOTTOM LOG INTERVAL
TLI .FT                 6000 : TOP LOG INTERVAL
CBD .FT                 1528 : CASING BOTTOM DRILLER
CBL .FT                 1528 : CASING BOTTOM LOGGER
BS  .IN                 8.75 : BIT SIZE
BSD .FT                11105 : BIT SIZE AT DEPTH
DFT .              GEL GELEX : DRILLING FLUID TYPE
DFD .                      9 : DRILLING FLUID DENSITY
DFV .                     92 : DRILLING FLUID VISCOSITY
DFPH.                      9 : DRILLING FLUID PH
DFL .                    9.8 : DRILLING FLUID LOSS
MSS .               FLOWLINE : MUD SAMPLE SOURCE
RMS .OHMM               1.91 : RESISTIVITY MUD SAMPLE
MST .DEGF                 52 : MUD SAMPLE TEMPERATURE
RMF .OHMM               1.45 : RESISTIVITY MUD FILTRATE SAMPLE
MFST.DEGF                 60 : MUD FILTRATE SAMPLE TEMPERATURE
TCS .HRS                 2.5 : TIME CIRCULATED STOPPED
LUN .              OSU C 244 : LOGGING UNIT NUMBER
LUL .                    EDM : LOGGING UNIT LOCATION
ENGI.                   GUNN : RECORDING ENGINEER
WITN.                   WALL : WITNESSED BY
CLNT.                A2DTECH : CLIENT CODE
ORIG.            2" 5" PRINT : ORIGIN OF DATA
UWI .       100101606422W500 : UNIQUE WELL ID
DICO. A2D Technologies, Inc. : DIGITIZING COMPANY
~Other -----------------------------------------------------
~ASCII -----------------------------------------------------
# ...
 7450.00000    8.93950    9.43680    8.93950   29.83120   -0.00020    2.67970    0.01910    -999.25    0.01770   33.52190   -0.00020   55.48950   55.48950   63.39610    -999.25   65.68550   63.39610   33.52190   36.53740   72.32410   36.53740    -999.25    -999.25    0.02510    -999.25    0.02510    2.67970  -58.03590   -6.07160   72.32410
 7500.00000    9.07170    9.54490    9.07170    8.97050    0.06190    2.66060    0.03190    -999.25    0.02890  111.47690    0.06190   58.05420   58.05420   63.42260    -999.25   67.77640   63.42260  111.47690  115.25640 1374.12270  115.25640    -999.25    -999.25    0.03680    -999.25    0.03680    2.66060  -93.29230  -42.34240 1374.12270
 7550.00000    9.23740    9.41400    9.23740   44.31730    0.00470    2.73510   -0.01580    -999.25   -0.01470   22.59790    0.00470   56.06520   56.06520   49.19180    -999.25   48.53140   49.19180   22.59790   29.71490   62.75200   29.71490    -999.25    -999.25    0.08260    -999.25    0.08260    2.73520 -112.55960  -62.74510   62.75200
 7600.00000    9.10880    9.56860    9.10880   59.30810    0.01240    2.76540   -0.04050    -999.25   -0.03240   16.86110    0.01240   55.70220   55.70220   40.31080    -999.25   37.99660   40.31080   16.86110   19.26660   46.09740   19.26660    -999.25    -999.25    0.07850    -999.25    0.07850    2.76530  -88.72120  -40.04960   46.09740
 7650.00000    9.40760    9.70550    9.40760  761.73070    0.01530    2.59660    0.06950    -999.25    0.06630    1.31280    0.01530   70.41290   70.41290   54.65680    -999.25   54.04950   54.65680    1.31280    1.51330    9.67680    1.51330    -999.25    -999.25    0.21890    -999.25    0.21890    2.59670 -131.49890  -83.96260    9.67680
 7700.00000    9.78540    9.81770    9.78540    1.18180   -0.00830    2.87640   -0.11010    -999.25   -0.09730  846.15690   -0.00830   51.02550   51.02550    8.97160    -999.25   12.44290    8.97160  846.15690  763.99620 1402.92410  763.99620    -999.25    -999.25   -0.00290    -999.25   -0.00290    2.87630 -103.02800  -56.63460 1402.92410
 7750.00000    8.81570    9.23980    8.81570   20.74580    0.01030    2.71700   -0.00820    -999.25   -0.00410   48.20260    0.01030   49.03410   49.03410   12.84620    -999.25   16.21500   12.84620   48.20260   93.50160  178.72550   93.50160    -999.25    -999.25    0.00790    -999.25    0.00790    2.71700 -151.10210 -105.84410  178.72550
 7800.00000    9.43330    9.59260    9.43330    8.79070    0.02120    2.72230   -0.00910    -999.25   -0.00720  113.77240    0.02120   49.65310   49.65310   13.80380    -999.25   16.02110   13.80380  113.77240  161.50200  214.42300  161.50200    -999.25    -999.25    0.00540    -999.25    0.00540    2.72240 -133.08110  -88.95840  214.42300
 7850.00000    9.44250    9.60370    9.44250   16.32410    0.14670    2.76810   -0.03800    -999.25   -0.03400   61.25930    0.14670   48.14270   48.14270   18.49640    -999.25   18.87080   18.49640   61.25930  210.78930  255.50250  210.78930    -999.25    -999.25    0.01200    -999.25    0.01200    2.76810  -81.20390  -38.22410  255.50250
 7900.00000    9.10370    9.46980    9.10370  166.18470    0.01130    2.73750   -0.02280    -999.25   -0.01610    6.01740    0.01130   60.20920   60.20920   58.43120    -999.25   55.15360   58.43120    6.01740    6.37780    7.98950    6.37780    -999.25    -999.25    0.12190    -999.25    0.12190    2.73750  -77.74960  -36.51720    7.98950
 7950.00000    9.03800    9.61320    9.03800  126.85360    0.00950    2.73750   -0.01650    -999.25   -0.01610    7.88310    0.00950   57.84410   57.84410   68.68000    -999.25   66.47190   68.68000    7.88310    9.36270   24.50970    9.36270    -999.25    -999.25    0.08570    -999.25    0.08570    2.73740  -69.44180  -30.23570   24.50970
 8000.00000    9.42460    9.92630    9.42460   43.88540    0.01490    2.55060    0.07550    -999.25    0.09320   22.78660    0.01490   54.47210   54.47210   56.24650    -999.25   51.25160   56.24650   22.78660   47.01120  110.85070   47.01120    -999.25    -999.25    0.07430    -999.25    0.07430    2.55060  -58.61330  -21.42020  110.85070
 8050.00000    9.95400   10.40290    9.95400   46.61790    0.12550    2.76230   -0.03510    -999.25   -0.03060   21.82440    0.12550   57.42410   57.42410   48.19080    -999.25   46.00260   48.19080   21.82440  687.87780   33.84600  687.87780    -999.25    -999.25    0.05980    -999.25    0.05980    2.76220  -56.35070  -21.17060   33.84600
 8100.00000    8.89460    9.52420    8.89460   15.20480    0.09590    2.75220   -0.02850    -999.25   -0.02470   65.76880    0.09590   55.36680   55.36680   33.62380    -999.25   37.05660   33.62380   65.76880   79.04750  156.03400   79.04750    -999.25    -999.25    0.03340    -999.25    0.03340    2.75230  -57.96060  -24.80670  156.03400
 8150.00000    8.73470    9.58950    8.73470   11.16020    0.01380    2.73260   -0.01720    -999.25   -0.01320   89.60400    0.01380   53.41890   53.41890   36.12100    -999.25   39.20360   36.12100   89.60400  102.81770  146.92350  102.81770    -999.25    -999.25    0.02100    -999.25    0.02100    2.73250  -60.80460  -29.66370  146.92350
 8200.00000    8.80710    9.51160    8.80710   14.15730    0.02910    2.71700   -0.00290    -999.25   -0.00410   70.63470    0.02910   54.27780   54.27780   44.55660    -999.25   46.27230   44.55660   70.63470   74.25180  122.81010   74.25180    -999.25    -999.25    0.02690    -999.25    0.02690    2.71700  -47.76990  -18.65530  122.81010
 8250.00000    8.75690    9.44980    8.75690   17.44440    0.04650    2.74640   -0.02500    -999.25   -0.02130   57.32500    0.04650   56.11050   56.11050   57.04880    -999.25   56.20180   57.04880   57.32500   62.50480   86.74080   62.50480    -999.25    -999.25    0.04430    -999.25    0.04430    2.74640  -30.19050   -3.08890   86.74080
 8300.00000    8.73580    9.54500    8.73580    3.36420    0.03270    2.71670   -0.00750    -999.25   -0.00390  297.74910    0.03270   55.52570   55.52570   52.85520    -999.25   51.69330   52.85520  297.74910  353.66830  658.52910  353.66830    -999.25    -999.25    0.03900    -999.25    0.03900    2.71680  -48.87820  -23.78960  658.52910
 8350.00000    8.72160    9.47350    8.72160    5.30380    0.03040    2.77020   -0.03770    -999.25   -0.03520  188.54510    0.03040   52.36180   52.36180   36.38830    -999.25   35.72160   36.38830  188.54510  257.17030  370.17070  257.17030    -999.25    -999.25    0.01750    -999.25    0.01750    2.77020  -49.78340  -26.72110  370.17070
 8400.00000    8.67590    9.52730    8.67590    8.71410    0.02320    2.73150   -0.01190    -999.25   -0.01260  114.75660    0.02320   53.75710   53.75710   39.73480    -999.25   40.63670   39.73480  114.75660  183.65880  214.48110  183.65880    -999.25    -999.25    0.02450    -999.25    0.02450    2.73150  -35.03020  -13.98090  214.48110
 8450.00000    8.74620    9.72320    8.74620   20.62770    0.02270    2.73020   -0.00960    -999.25   -0.01180   48.47850    0.02270   57.19290   57.19290   63.26590    -999.25   69.13120   63.26590   48.47850   49.43140   57.77780   49.43140    -999.25    -999.25    0.05960    -999.25    0.05960    2.73020  -33.15040  -11.53470   57.77780
 8500.00000    8.69560    9.71360    8.69560    6.96940    0.03420    2.39590    0.18630    -999.25    0.18370  143.48510    0.03420   86.47150   86.47150  300.71360    -999.25  299.35190  300.71360  143.48510  256.93590  818.84830  256.93590    -999.25    -999.25    0.26210    -999.25    0.26210    2.39580  -71.00300  -47.25210  818.84830
 8550.00000    8.86490    9.63690    8.86490    2.12430    0.02100    2.73340   -0.01690    -999.25   -0.01370  470.75550    0.02100   49.15490   49.15490   12.02050    -999.25   16.06940   12.02050  470.75550  673.11440  721.59470  673.11440    -999.25    -999.25    0.00350    -999.25    0.00350    2.73350 -119.54140  -93.65520  721.59470
 8600.00000    9.60380    9.92560    9.60380    1.08480    0.21960    2.75960   -0.03190    -999.25   -0.02900  921.82450    0.21960   48.74900   48.74900   14.00650    -999.25   18.67640   14.00650  921.82450  861.80890 1381.59390  861.80890    -999.25    -999.25    0.00130    -999.25    0.00130    2.75960 -112.01000  -83.97460 1381.59390
