~Version ---------------------------------------------------
VERS.      2.0 : CWLS log ASCII Standard -VERSION 2.0
WRAP.       NO : One line per depth step
CREA. 10/13/14 : LAS Creation Date
~Well ------------------------------------------------------
STRT.ft                              300.0 : START DEPTH
STOP.ft                            15450.0 : STOP DEPTH
STEP.ft                           50.00000 : STEP LENGTH
NULL.                              -999.25 : NULL VALUE
COMP.                        BANFF OIL LTD : COMPANY
WELL. BANFF AQUIT CHIEFCO WAWA 11-20-42-13 : WELL
FLD .                                      : FIELD
LOC .                                      : LOCATION
CTRY.                               CANADA : COUNTRY
SRVC.               Schlumberger of Canada : SERVICE COMPANY
DATE.                          07-Apr-1970 : LOGDATE
PROV.                              Alberta : PROVINCE
UWI .                     100112004213W500 : UNIQUE WELL ID
SLAT.WGS84                        52.63304 : SURFACE LATITUDE
SLON.WGS84                       -115.8375 : SURFACE LONGITUDE
~Curve Information -----------------------------------------
DEPT   .ft                : DEPTH FEET
CALD   .IN   45 280 60 00 : CALIPER FROM DENSITY LOG
CALN   .IN   41 280 60 00 : CALIPER FROM NEUTRON LOG
CALS   .IN   60 280 50 00 : CALIPER FROM SONIC LOG
CORR   .G/C3 45 356 01 00 : DENSITY CORRECTION
DPHI_LS.DEC  45 890 10 00 : DENSITY POROSITY LIMESTONE
DT     .US/F 60 500 00 00 : DELTA-T (INTERVAL TRANSIT TIME)
GRD    .GAPI 45 310 01 00 : GAMMA RAY FROM DENSITY LOG
GRD_R  .GAPI 45 310 01 00 : GAMMA RAY FROM DENSITY LOG FROM REPEAT
GRN    .GAPI 41 310 01 00 : GAMMA RAY FROM GRN LOG
GRS    .GAPI 60 310 01 00 : GAMMA RAY FROM SONIC LOG
ILD    .OHMM 07 120 46 00 : INDUCTION DEEP RESISTIVITY
ILM    .OHMM 07 120 44 00 : INDUCTION MEDIUM RESISTIVITY
ILM_R  .OHMM 07 120 44 00 : INDUCTION MEDIUM RESISTIVITY FROM REPEAT
LL8    .OHMM 07 220 08 00 : LATEROLOG 8
RHOB   .G/C3 45 350 01 00 : BULK DENSITY
SNP_LS .DEC  41 890 01 00 : SIDEWALL NEUTRON POROSITY [LIMESTONE]
SPR    .MV   07 010 01 00 : SPONTANEOUS POTENTIAL FROM RESISTIVITY LOG
SPR_R  .MV   07 010 01 00 : SPONTANEOUS POTENTIAL FROM RESISTIVITY LOG FROM REPEAT
~Params ----------------------------------------------------
PD  .                     GL : PERMANENT DATUM
EPD .FT                 4345 : ELEVATION PERMANENT DATUM
LMF .                     KB : LOG MEASURED FROM
DAPD.FT                   14 : FEET ABOVE PERMANENT DATUM
EKB .FT                 4359 : KELLY BUSHING
EGL .FT                 4345 : GROUND LEVEL
DATE.               06/04/70 : RUN DATE
RUN .                      3 : RUN NUMBER
DD  .FT                15476 : DEPTH DRILLER
DL  .FT                15473 : DEPTH LOGGER
BLI .FT                15471 : BOTTOM LOG INTERVAL
TLI .FT                14327 : TOP LOG INTERVAL
CBD .FT                12360 : CASING BOTTOM DRILLER
CBL .FT                12355 : CASING BOTTOM LOGGER
BS  .IN                    6 : BIT SIZE
BSD .FT                15476 : BIT SIZE AT DEPTH
DFT .               GEL CHEM : DRILLING FLUID TYPE
DFD .                    8.9 : DRILLING FLUID DENSITY
DFV .                     47 : DRILLING FLUID VISCOSITY
DFPH.                     11 : DRILLING FLUID PH
DFL .                   12.4 : DRILLING FLUID LOSS
MSS .               FLOWLINE : MUD SAMPLE SOURCE
RMS .OHMM               2.62 : RESISTIVITY MUD SAMPLE
TCS .HRS                   4 : TIME CIRCULATED STOPPED
LUN .                  CSU C : LOGGING UNIT NUMBER
LUL .                 364 RD : LOGGING UNIT LOCATION
ENGI.                 MEGSON : RECORDING ENGINEER
WITN.                BRINKER : WITNESSED BY
CLNT.                A2DTECH : CLIENT CODE
ORIG.        2" 5" 10" PRINT : ORIGIN OF DATA
UWI .       100112004213W500 : UNIQUE WELL ID
DICO. A2D Technologies, Inc. : DIGITIZING COMPANY
~Other -----------------------------------------------------
~ASCII -----------------------------------------------------
# ...
 10050.00000    -999.25    -999.25    9.56680    -999.25    -999.25   88.18230    -999.25    -999.25    -999.25   90.27920    8.14550    8.64480    -999.25   10.52940    -999.25    -999.25  -44.29690    -999.25
 10100.00000    -999.25    -999.25    9.80930    -999.25    -999.25   88.63240    -999.25    -999.25    -999.25   88.86150    7.74040    8.48690    -999.25    9.87000    -999.25    -999.25  -41.54250    -999.25
 10150.00000    -999.25    -999.25   10.81220    -999.25    -999.25   90.97820    -999.25    -999.25    -999.25   78.45220    8.33920    7.50470    -999.25   10.48040    -999.25    -999.25  -40.02540    -999.25
 10200.00000    -999.25    -999.25   10.24250    -999.25    -999.25   83.85510    -999.25    -999.25    -999.25   73.62520   10.50620    9.31070    -999.25   11.61990    -999.25    -999.25  -39.42060    -999.25
 10250.00000    -999.25    -999.25   11.82920    -999.25    -999.25   92.68330    -999.25    -999.25    -999.25   77.59460    6.64080    8.07950    -999.25    8.97890    -999.25    -999.25  -45.73780    -999.25
 10300.00000    -999.25    -999.25   10.72450    -999.25    -999.25   90.10520    -999.25    -999.25    -999.25   76.30260    5.46750    5.87930    -999.25    6.40130    -999.25    -999.25  -42.57630    -999.25
 10350.00000    -999.25    -999.25    9.83640    -999.25    -999.25   89.77720    -999.25    -999.25    -999.25   93.43510    7.03790    6.56130    -999.25    7.98590    -999.25    -999.25  -51.35770    -999.25
 10400.00000    -999.25    -999.25    9.11280    -999.25    -999.25   78.34240    -999.25    -999.25    -999.25   68.70680   10.44580   10.47550    -999.25   11.54100    -999.25    -999.25  -66.77700    -999.25
 10450.00000    -999.25    -999.25   11.95350    -999.25    -999.25  108.82900    -999.25    -999.25    -999.25   73.08230    5.74170    5.19190    -999.25    6.15000    -999.25    -999.25  -38.72790    -999.25
 10500.00000    -999.25    -999.25   10.62320    -999.25    -999.25   89.76570    -999.25    -999.25    -999.25   78.00000    5.33410    5.20260    -999.25    6.76250    -999.25    -999.25  -43.72250    -999.25
 10550.00000    -999.25    -999.25   11.41010    -999.25    -999.25   97.05390    -999.25    -999.25    -999.25   67.43170    5.56670    5.04810    -999.25    6.72950    -999.25    -999.25  -49.14880    -999.25
 10600.00000    -999.25    -999.25    9.19400    -999.25    -999.25   77.64150    -999.25    -999.25    -999.25  145.34770   11.37870   13.61200    -999.25   14.42150    -999.25    -999.25  -51.63990    -999.25
 10650.00000    -999.25    -999.25   11.15950    -999.25    -999.25   93.40760    -999.25    -999.25    -999.25   80.09570    3.43320    3.71380    -999.25    3.83960    -999.25    -999.25  -84.65710    -999.25
 10700.00000   11.88220   11.65730    9.65260    0.07630    -999.25   75.94260   79.04700    -999.25   86.40310   75.60610    8.14240    9.52860    -999.25    8.23870    1.86650    0.29230  -82.72290    -999.25
 10750.00000    9.35750   10.15230    9.45360    0.15350    0.26390   91.95540   62.73750    -999.25   71.32970   63.52790    7.08780    6.52600    -999.25    4.65450    2.20290    0.30000 -182.43430    -999.25
 10800.00000    9.44210    9.46960    8.73000    0.16620    0.05650   72.47500   46.88840    -999.25   47.45250   47.05890   11.03240   13.01520    -999.25   12.19830    2.57960    0.10750 -173.86220    -999.25
 10850.00000    9.08880    9.28510    8.73520   -0.00300    0.08000   70.78760   72.02230    -999.25   64.98250   67.33570   12.72470   14.30670    -999.25   16.43280    2.56930    0.16630 -167.78680    -999.25
 10900.00000   11.28850   11.63680    9.83460    0.05310    0.30000   84.22530   65.51330    -999.25   70.00150   65.67700    8.17440    7.04880    -999.25   13.31280    1.97640    0.29990 -142.53250    -999.25
 10950.00000   10.61760   10.83460    8.90240    0.12870    0.29990   72.47100   72.95830    -999.25   79.70120   74.50120    9.34510   10.52130    -999.25   13.53770    2.00270    0.23140 -151.82890    -999.25
 11000.00000    9.37620    9.54020    9.00920    0.11050    0.12050   73.55920   70.24880    -999.25   76.08660   73.17090    9.70490   10.29470    -999.25    9.25440    2.49780    0.19730 -138.73730    -999.25
 11050.00000    8.96630    9.23050    8.75200    0.00510    0.05410   67.35560   58.24130    -999.25   64.04410   56.26140   13.77950   15.50460    -999.25   16.97530    2.60180    0.08340 -221.02180    -999.25
 11100.00000    9.14660    9.35460    8.80100   -0.00040    0.08150   69.31760   51.38450    -999.25   61.58450   55.46490   12.29400   13.31750    -999.25   14.03770    2.57250    0.07760 -220.71140    -999.25
 11150.00000    9.72340    9.55330    8.75860    0.13080    0.11820   66.17790   61.70750    -999.25   61.43180   57.55380    9.70900   12.29590    -999.25   14.31660    2.52260    0.13140  -94.16820    -999.25
 11200.00000   10.28340   11.82880    9.18370    0.13300    0.29780   87.31630   78.08840    -999.25   78.91840   74.11960    6.30610    5.92680    -999.25    5.27280    2.09860    0.30050 -101.51500    -999.25
 11250.00000    9.52650    9.43530    8.93330    0.12130    0.10750   72.07160   67.98710    -999.25   69.65810   64.21420    9.83380   11.45270    -999.25   12.30460    2.53150    0.19240  -96.45680    -999.25
 11300.00000    9.18830    9.45830    8.83670    0.10180    0.10440   71.78620   92.92610    -999.25  101.84620   91.32980    8.04930    8.81410    -999.25   10.27510    2.57880    0.13610 -170.92840    -999.25
 11350.00000    9.16460    9.40220    8.86420    0.03410    0.07600   69.71560   61.24800    -999.25   71.72150   62.76940   10.62060   12.67590    -999.25   15.65860    2.60370    0.12600 -280.14870    -999.25
 11400.00000   12.24110   11.83510    9.42220    0.08210    0.30000   90.83520   57.09600    -999.25   58.28630   56.53800    6.06440    6.58980    -999.25    7.54580    1.90110    0.30000 -254.87340    -999.25
 11450.00000   10.13860    9.14310    8.72290    0.03410    0.22090   63.66360   46.35270    -999.25   48.66010   45.14040   11.74410   19.17870    -999.25   54.01470    2.47810    0.04860  -95.57680    -999.25
 11500.00000    8.99490    9.20490    8.72310    0.06370    0.05860   61.84500   65.29260    -999.25   74.94380   61.08650   11.99820   12.16110    -999.25   12.46460    2.58150    0.09350  -91.61620    -999.25
 11550.00000    9.17440    9.39750    8.56960    0.01690    0.05630   70.35300   75.97820    -999.25   84.27790   73.32720   16.66050   21.31940    -999.25   25.53030    2.63850    0.09520  -93.50120    -999.25
 11600.00000   12.45410   11.65190    9.45050    0.12840    0.30000   73.64660   36.35930    -999.25   45.88580   41.72220   25.09760   27.46450    -999.25   40.24430    2.15470    0.26260 -105.47600    -999.25
 11650.00000   10.65300   10.69740    9.44160    0.14970    0.26550   72.37520   63.02300    -999.25   61.92710   63.78820   12.45170   15.54810    -999.25   16.46830    2.23510    0.19450 -108.44770    -999.25
 11700.00000    9.20630    9.48270    8.61350    0.11660    0.06830   68.54230   82.00310    -999.25   84.44170   74.87740    9.91430   12.93020    -999.25   12.58710    2.53960    0.18380 -206.32820    -999.25
 11750.00000    9.54340    8.79950    8.50570    0.15530    0.21710   58.48610   23.05980    -999.25   28.33750   24.57710   30.48040   47.93520    -999.25   62.32690    2.34050    0.11060  -96.04100    -999.25
 11800.00000   11.41530   11.76490    8.54500    0.08070    0.24460   49.44190   67.45700    -999.25   75.27520   54.04490    4.74690    5.74620    -999.25    5.90500    2.32650    0.27870 -219.28270    -999.25
 11850.00000    8.73950    8.92400    8.57360    0.01670    0.03460   51.32500   12.22980    -999.25   14.81300   15.19160 1442.47380 1532.86440    -999.25 1494.50660    2.63250    0.00710 -182.35700    -999.25
 11900.00000    8.70800    8.90960    8.56050    0.00960    0.08790   57.56240   24.46110    -999.25   27.00930   25.32420 1477.90580 1557.35740    -999.25 1052.79580    2.55950    0.02570 -255.63360    -999.25
