~Version ---------------------------------------------------
VERS.      2.0 : CWLS log ASCII Standard -VERSION 2.0
WRAP.       NO : One line per depth step
CREA. 10/22/19 : LAS Creation Date
~Well ------------------------------------------------------
STRT.ft                                          300.0 : START DEPTH
STOP.ft                                        10300.0 : STOP DEPTH
STEP.ft                                       50.00000 : STEP LENGTH
NULL.                                          -999.25 : NULL VALUE
COMP.                             IMPERIAL OIL LIMITED : COMPANY
WELL. IMPERIAL CANADIAN SUPERIOR BUCK CREEK 14-29-48-6 : WELL
FLD .                                          WILDCAT : FIELD
LOC .                                                  : LOCATION
CTRY.                                           CANADA : COUNTRY
SRVC.                           Schlumberger of Canada : SERVICE COMPANY
DATE.                                      27-May-1954 : LOGDATE
PROV.                                          Alberta : PROVINCE
UWI .                                 100142904806W500 : UNIQUE WELL ID
SLAT.WGS84                                    53.17637 : SURFACE LATITUDE
SLON.WGS84                                   -114.8447 : SURFACE LONGITUDE
~Curve Information -----------------------------------------
DEPT    .ft    : Depth Curve
CONDWS  .MMHO  : CONDUCTIVITY [1000/DRESWS]
DRESWS  .OHMM  : DEEP RESISTIVITY [LNED]
GRDED   .GAPI  : GAMMA RAY FROM CNL
GRNED   .GAPI  : GAMMA RAY FROM CASED HOLE GRN LOG [DEPTH ADJ. TO GRDED]
GRWS    .GAPI  : GAMMA RAY [SPLICED GRNED TO GRDED FROM 790-1109M, GRDED+37]
LATED   .OHMM  : 18 FOOT 8 INCH LATERAL RESISTIVITY FROM EL
LNED    .OHMM  : 64 INCH LONG NORMAL RESISTIVITY FROM EL
NEUTED  .NAPI  : NEUTRON FROM CASED HOLE GRN LOG [DEPTH ADJ. TO GRDED]
NEUTWS  .NAPI  : NEUTRON [NEUTED]
NPHIDMED.V/V   : NEUTRON POROSITY DOLOMITE FROM CNL
NPHILSED.V/V   : NEUTRON POROSITY LIMESTONE FROM CNL
NPHISSED.V/V   : NEUTRON POROSITY SANDSTONE FROM CNL
NPOLSWS .V/V   : NEUTRON POROSITY LIMESTONE [NPHILSED]
SNED    .OHMM  : 16 INCH SHORT NORMAL RESISTIVITY FROM EL
SPRED   .MV    : SPONTANEOUS POTENTIAL FROM EL
SPWS    .MV    : SPONTANEOUS POTENTIAL [BASELINE 0 MV] [SPRED]
SRESWS  .OHMM  : SHALLOW RESISTIVITY [SNED]
~Params ----------------------------------------------------
LMF .                     KB : LOG MEASURED FROM
DMF .                     KB : DRILLING MEASURED FROM
EKB .FT                 2810 : KELLY BUSHING
DATE.               05/27/54 : RUN DATE
RUN .                      4 : RUN NUMBER
DD  .FT                10219 : DEPTH DRILLER
DL  .FT                10221 : DEPTH LOGGER
BLI .FT                10221 : BOTTOM LOG INTERVAL
TLI .FT                 7088 : TOP LOG INTERVAL
BS  .IN                8.625 : BIT SIZE
BSD .FT                10219 : BIT SIZE AT DEPTH
DFT .              LIME BASE : DRILLING FLUID TYPE
DFD .                   10.5 : DRILLING FLUID DENSITY
DFV .                    220 : DRILLING FLUID VISCOSITY
DFPH.                   12.5 : DRILLING FLUID PH
DFL .                    9.5 : DRILLING FLUID LOSS
RMS .OHMM                1.0 : RESISTIVITY MUD SAMPLE
MST .DEGF                 72 : MUD SAMPLE TEMPERATURE
RMB .OHMM               0.42 : RESISTIVITY MUD AT BHT
TCS .HRS                   2 : TIME CIRCULATED STOPPED
LUN .                   1772 : LOGGING UNIT NUMBER
ENGI.              HENDERSON : RECORDING ENGINEER
WITN.               MCKENZIE : WITNESSED BY
CLNT.                A2DTECH : CLIENT CODE
ORIG.            2" 5" PRINT : ORIGIN OF DATA
UWI .       100142904806W500 : UNIQUE WELL ID
DICO. A2D Technologies, Inc. : DIGITIZING COMPANY
~Other -----------------------------------------------------
~ASCII -----------------------------------------------------
# ...
 8500.00000   40.85400   24.47740    -999.25    5.15970   85.13420   53.12940   24.47740  656.99790  656.99790    -999.25    -999.25    -999.25    -999.25   15.46710  -15.26750   -1.94350   15.46710
 8550.00000   34.81470   28.72350    -999.25    6.94760  114.63540   30.10800   28.72350  521.30500  521.30500    -999.25    -999.25    -999.25    -999.25   20.78690  -17.92490   -4.84650   20.78690
 8600.00000   72.86190   13.72460    -999.25    7.42900  122.57930   12.26560   13.72460  306.16630  306.16630    -999.25    -999.25    -999.25    -999.25    9.99680  -19.71710   -6.88580    9.99680
 8650.00000    6.43950  155.29260    -999.25    8.54170  140.93720   47.68230  155.29260  590.04680  590.04680    -999.25    -999.25    -999.25    -999.25   63.12860  -25.24270  -12.65700   63.12860
 8700.00000   11.20530   89.24310    -999.25    8.84120  145.87980  377.29100   89.24310  413.26550  413.26550    -999.25    -999.25    -999.25    -999.25   31.97580  -17.02690   -4.68830   31.97580
 8750.00000    8.38210  119.30160    -999.25    5.64410   93.12680  196.81240  119.30160  658.91800  658.91800    -999.25    -999.25    -999.25    -999.25   51.66630  -22.69490  -10.60190   51.66630
 8800.00000   80.78590   12.37840    -999.25   10.44940  172.41510   57.14560   12.37840  316.59630  316.59630    -999.25    -999.25    -999.25    -999.25    7.73800  -20.56370   -8.71630    7.73800
 8850.00000  189.25770    5.28380    -999.25    7.26860  119.93110    5.51910    5.28380  155.18250  155.18250    -999.25    -999.25    -999.25    -999.25    4.00950  -16.46780   -4.86750    4.00950
 8900.00000  147.05020    6.80040    -999.25    7.05250  116.36540    6.07270    6.80040  145.70330  145.70330    -999.25    -999.25    -999.25    -999.25    5.05270  -20.20480   -8.85010    5.05270
 8950.00000   24.22320   41.28280    -999.25    4.38920   72.42180  106.27400   41.28280  678.54250  678.54250    -999.25    -999.25    -999.25    -999.25   21.95210  -22.36300  -11.25540   21.95210
 9000.00000   90.72930   11.02180    -999.25    4.82400   79.59600   25.07640   11.02180  472.18140  472.18140    -999.25    -999.25    -999.25    -999.25    7.66440  -20.14790   -9.28590    7.66440
 9050.00000   27.33510   36.58300    -999.25    6.08140  100.34310   18.74320   36.58300  662.65670  662.65670    -999.25    -999.25    -999.25    -999.25   24.12920  -18.20020   -7.58380   24.12920
 9100.00000   21.26480   47.02600    -999.25    3.66270   60.43450   94.08550   47.02600  852.61310  852.61310    -999.25    -999.25    -999.25    -999.25   23.85060  -26.83530  -16.46600   23.85060
 9150.00000   38.54900   25.94100    -999.25    4.30300   70.99870   23.35950   25.94100  761.22850  761.22850    -999.25    -999.25    -999.25    -999.25   17.75430  -20.96050  -10.83680   17.75430
 9200.00000   11.57570   86.38760    -999.25    2.70070   44.56150   41.46880   86.38760  983.83770  983.83770    -999.25    -999.25    -999.25    -999.25   43.12620  -19.43830   -9.56170   43.12620
 9250.00000   18.74240   53.35500    -999.25    3.30480   54.52920  110.53860   53.35500  906.69520  906.69520    -999.25    -999.25    -999.25    -999.25   23.09220  -17.55730   -7.92630   23.09220
 9300.00000   31.40660   31.84040    -999.25    4.30480   71.02920   22.73240   31.84040  453.80300  453.80300    -999.25    -999.25    -999.25    -999.25   20.24180  -15.17290   -5.78750   20.24180
 9350.00000   39.67200   25.20670    -999.25    5.55470   91.65170   59.46820   25.20670  665.40460  665.40460    -999.25    -999.25    -999.25    -999.25   16.91120  -17.43860   -8.30030   16.91120
 9400.00000   12.87170   77.68960    -999.25    4.69980   77.54750   27.41060   77.68960  722.84040  722.84040    -999.25    -999.25    -999.25    -999.25   43.39800  -21.95840  -13.06570   43.39800
 9450.00000    9.91910  100.81510    -999.25    4.18720   69.08880  101.67420  100.81510  768.52010  768.52010    -999.25    -999.25    -999.25    -999.25   49.34130  -10.52550   -1.81970   49.34130
 9500.00000    6.02460  165.98640    -999.25    3.07010   50.65580  859.44150  165.98640  952.73180  952.73180    -999.25    -999.25    -999.25    -999.25   47.94170  -17.78020   -6.26840   47.94170
 9550.00000   93.31750   10.71610    -999.25    6.41100  105.78150   17.52570   10.71610  562.83050  562.83050    -999.25    -999.25    -999.25    -999.25    9.07910  -44.37300  -30.05520    9.07910
 9600.00000   73.04070   13.69100    -999.25    4.58980   75.73090   14.44150   13.69100  648.04390  648.04390    -999.25    -999.25    -999.25    -999.25   10.97800  -36.82400  -19.68170   10.97800
 9650.00000   17.21440   58.09080    -999.25    5.22450   86.20510   69.00310   58.09080  652.06110  652.06110    -999.25    -999.25    -999.25    -999.25   34.76570  -35.22200  -15.27360   34.76570
 9700.00000   20.32880   49.19140    -999.25    6.61630  109.16900   63.95930   49.19140  649.35530  649.35530    -999.25    -999.25    -999.25    -999.25   28.83160  -45.38000  -22.60720   28.83160
 9750.00000   22.75070   43.95460    -999.25    7.95150  131.19890   34.08130   43.95460  509.43660  509.43660    -999.25    -999.25    -999.25    -999.25   25.69790  -30.47670   -4.89780   25.69790
 9800.00000   15.81980   63.21210    -999.25    9.83030  162.20000   86.66190   63.21210  482.20090  482.20090    -999.25    -999.25    -999.25    -999.25   35.44710  -71.99940  -44.83290   35.44710
 9850.00000   34.30260   29.15230    -999.25    3.01200   49.69880   15.06880   29.15230  381.89260  381.89260    -999.25    -999.25    -999.25    -999.25   21.21400 -114.84720  -87.68070   21.21400
 9900.00000   15.65490   63.87780    -999.25    8.99710  148.45300   83.36340   63.87780  771.61650  771.61650    -999.25    -999.25    -999.25    -999.25   35.97210  -36.73220   -9.56570   35.97210
 9950.00000   17.87730   55.93700    -999.25    6.68210  110.25470   55.98360   55.93700  840.56880  840.56880    -999.25    -999.25    -999.25    -999.25   29.11070  -53.89480  -26.72830   29.11070
 10000.00000   20.02940   49.92650    -999.25    8.94890  147.65600   20.19860   49.92650  350.57970  350.57970    -999.25    -999.25    -999.25    -999.25   33.20180 -113.33200  -86.16550   33.20180
 10050.00000    6.92670  144.36890    -999.25    8.92370  147.24110  144.17320  144.36890  856.61940  856.61940    -999.25    -999.25    -999.25    -999.25   47.93340  -68.35310  -41.18660   47.93340
 10100.00000   20.42850   48.95130    -999.25    9.69040  159.89160  142.85420   48.95130  905.58150  905.58150    -999.25    -999.25    -999.25    -999.25   30.00230  -39.30320  -12.13670   30.00230
 10150.00000   49.88800   20.04490    -999.25   10.09520  166.57080   32.58640   20.04490  471.33120  471.33120    -999.25    -999.25    -999.25    -999.25   11.70480  -42.54010  -15.37360   11.70480
 10200.00000   40.28730   24.82170    -999.25   12.07770  199.28210   18.67860   24.82170  369.19450  369.19450    -999.25    -999.25    -999.25    -999.25   16.17880  -30.43840   -3.27190   16.17880
 10250.00000    -999.25    -999.25    -999.25   11.55690  190.68890    -999.25    -999.25  505.41610  505.41610    -999.25    -999.25    -999.25    -999.25    -999.25    -999.25    -999.25    -999.25
 10300.00000    -999.25    -999.25    -999.25   13.45170  221.95310    -999.25    -999.25  464.80300  464.80300    -999.25    -999.25    -999.25    -999.25    -999.25    -999.25    -999.25    -999.25
