~Version ---------------------------------------------------
VERS.      2.0 : CWLS log ASCII Standard -VERSION 2.0
WRAP.       NO : One line per depth step
CREA. 12/12/17 : LAS Creation Date
~Well ------------------------------------------------------
STRT.FT                        1050.0 : START DEPTH
STOP.FT                       10050.0 : STOP DEPTH
STEP.FT                      50.00000 : STEP LENGTH
NULL.                         -999.25 : NULL VALUE
COMP.        SKELLY OIL OF CANADA LTD : COMPANY
WELL. SKELLY A3 TWO CREEK 10-17-62-16 : WELL
FLD .                                 : FIELD
LOC .                                 : LOCATION
CTRY.                          CANADA : COUNTRY
SRVC.                         Unknown : SERVICE COMPANY
DATE.                     26-Aug-1976 : LOGDATE
PROV.                         Alberta : PROVINCE
UWI .                100101706216W500 : UNIQUE WELL ID
SLAT.WGS84                   54.36596 : SURFACE LATITUDE
SLON.WGS84                   -116.357 : SURFACE LONGITUDE
~Curve Information -----------------------------------------
DEPT    .FT    : Depth Curve
CALDED  .IN    : CALIPER FROM DENSITY LOG [ADJ. TO RESISTIVITY LOG]
CALSED  .IN    : CALIPER FROM SONIC LOG [ADJ. TO RESISTIVITY LOG]
CALWS   .IN    : CALIPER [CALSED SPL. TO CALDED @ 10018']
CILDED  .MMHO  : CONDUCTIVITY FROM RESISTIVITY LOG
CONDWS  .MMHO  : CONDUCTIVITY [1000/DRESWS]
DCORWS  .G/C3  : DENSITY CORRECTION [DRHOED]
DENWS   .G/C3  : FORMATION BULK DENSITY [RHOBED]
DPHILSED.V/V   : DENSITY POROSITY LIMESTONE [MATRIX ASSUMED, M=2.71, F=1.00] FROM DENSITY  [ADJ. TO RESISTIVITY LOG]
DPHISSED.V/V   : DENSITY POROSITY SANDSTONE [MATRIX ASSUMED, M=2.65, F=1.00] FROM DENSITY LOG [ADJ. TO RESISTIVITY LOG]
DPOLSWS .V/V   : DENSITY POROSITY LIMESTONE [CALC. FROM DENWS, M=2.71, F=1.00]
DRESWS  .OHMM  : DEEP RESUISTIVITY [1000/CILDED IF ILDED < 1, ILDED & SPL. TO ILDED @ 3970']
DRHOED  .G/C3  : DENSITY CORRECTION  FROM DENSITY LOG [ADJ. TO RESISTIVITY LOG]
DTED    .US/F  : DELTA-TIME FROM SONIC LOG [ADJ. TO RESISTIVITY LOG]
DTWS    .US/F  : COMPRESSIONAL SONIC [DTED]
GRDED   .GAPI  : GAMMA RAY FROM DENSITY LOG [ADJ. TO RESISTIVITY LOG]
GRSED   .GAPI  : GAMMA RAY FROM SONIC LOG [ADJ. TO RESISTIVITY LOG]
GRWS    .GAPI  : GAMMA RAY [GRSED SPL. TO GRDED @ 10023']
ILDED   .OHMM  : DEEP INDUCTION RESISTIVITY FROM RESISTIVITY LOG
ILMED   .OHMM  : MEDIUM INDUCTION RESISTIVITY FROM RESISTIVITY LOG
LL8ED   .OHMM  : LATEROLOG 8 RESISTIVITY FROM RESISTIVITY LOG
MRESWS  .OHMM  : MEDIUM RESISTIVITY [ILMED]
NPHILSED.V/V   : NEUTRON POROSITY LIMESTONE FROM DENSITY LOG [ADJ. TO RESISTIVITY LOG]
NPHISSED.V/V   : NEUTRON POROSITY SANDSTONE FROM DENSITY LOG [ADJ. TO RESISTIVITY LOG]
NPOLSWS .V/V   : NEUTRON POROSITY LIMESTONE [NPHISSED MATRIX CONVERSION FOR LIMESTONE, SPL. TO NPHILSED @ 6448']
RHOBED  .G/C3  : BULK DENSITY FROM DENSITY LOG [ADJ. TO RESISTIVITY LOG]
SPRED   .MV    : SPONTANEOUS POTENTIAL FROM RESISTIVITY LOG
SPWS    .MV    : SPONTANEOUS POTENTIAL [BASELINE 0 MV, SPRED]
SRESWS  .OHMM  : SHALLOW RESISTIVITY [LL8ED]
~Params ----------------------------------------------------
PD  .                     GL : PERMANENT DATUM
EPD .FT               3020.5 : ELEVATION PERMANENT DATUM
LMF .                     KB : LOG MEASURED FROM
DAPD.FT                 14.9 : FEET ABOVE PERMANENT DATUM
EKB .FT               3035.4 : KELLY BUSHING
EGL .FT               3020.5 : GROUND LEVEL
DATE.               08/26/76 : RUN DATE
RUN .                      1 : RUN NUMBER
DD  .FT                10065 : DEPTH DRILLER
DL  .FT                10059 : DEPTH LOGGER
BLI .FT                10053 : BOTTOM LOG INTERVAL
TLI .FT                 1048 : TOP LOG INTERVAL
CBD .FT                 1047 : CASING BOTTOM DRILLER
CBL .FT                 1048 : CASING BOTTOM LOGGER
BS  .IN                7.875 : BIT SIZE
BSD .FT                10065 : BIT SIZE AT DEPTH
DFT .               GEL CHEM : DRILLING FLUID TYPE
DFD .                    9.9 : DRILLING FLUID DENSITY
DFV .                    2.2 : DRILLING FLUID VISCOSITY
DFPH.                      9 : DRILLING FLUID PH
DFL .                    6.2 : DRILLING FLUID LOSS
MSS .             CIRCULATED : MUD SAMPLE SOURCE
RMS .OHMM               2.55 : RESISTIVITY MUD SAMPLE
MST .DEGF                 57 : MUD SAMPLE TEMPERATURE
RMF .OHMM               2.27 : RESISTIVITY MUD FILTRATE SAMPLE
MFST.DEGF                 60 : MUD FILTRATE SAMPLE TEMPERATURE
RMC .OHMM               2.87 : RESISTIVITY MUD CAKE
MCST.DEGF                 55 : MUD CAKE SAMPLE TEMPERATURE
RMB .OHMM               0.77 : RESISTIVITY MUD AT BHT
TCS .HRS                   3 : TIME CIRCULATED STOPPED
LUN .                   7691 : LOGGING UNIT NUMBER
LUL .                    WCT : LOGGING UNIT LOCATION
ENGI.              CROCKFORD : RECORDING ENGINEER
WITN.                   BALL : WITNESSED BY
CLNT.                A2DTECH : CLIENT CODE
ORIG.        2" 5" 10" PRINT : ORIGIN OF DATA
UWI .       100101706216W500 : UNIQUE WELL ID
DICO. A2D Technologies, Inc. : DIGITIZING COMPANY
~Other -----------------------------------------------------
DIL-LL-CNL-FDC-BCS LOG RUN
~ASCII -----------------------------------------------------
# ...
 4800.00000    -999.25    9.05440    9.05440    -999.25  160.82340    -999.25    -999.25    -999.25    -999.25    -999.25    6.21800    -999.25   84.72240   84.72240    -999.25   99.81690   99.81690    6.21800    5.73650    7.11820    5.73650    -999.25    -999.25    -999.25    -999.25 -115.11250   -2.79230    7.11820
 4850.00000    -999.25    8.60640    8.60640    -999.25  123.16940    -999.25    -999.25    -999.25    -999.25    -999.25    8.11890    -999.25   83.15790   83.15790    -999.25   99.86340   99.86340    8.11890    7.23790    8.17880    7.23790    -999.25    -999.25    -999.25    -999.25 -113.79900   -1.92010    8.17880
 4900.00000    -999.25    9.05560    9.05560    -999.25  177.67990    -999.25    -999.25    -999.25    -999.25    -999.25    5.62810    -999.25   87.61120   87.61120    -999.25   95.11700   95.11700    5.62810    5.32670    6.79050    5.32670    -999.25    -999.25    -999.25    -999.25 -116.02010   -4.54540    6.79050
 4950.00000    -999.25   11.74240   11.74240    -999.25  194.48340    -999.25    -999.25    -999.25    -999.25    -999.25    5.14200    -999.25   89.97920   89.97920    -999.25  105.55240  105.55240    5.14200    4.71710    6.12050    4.71710    -999.25    -999.25    -999.25    -999.25 -116.07640   -4.98780    6.12050
 5000.00000   10.87240   11.54580   11.54580    -999.25  318.10660    0.19030    2.44210    -999.25    0.13600    0.15670    3.14360    0.19030  100.08340  100.08340  120.06280  120.35470  120.35470    3.14360    2.98360    4.11930    2.98360    -999.25    0.43650    0.39450    2.44210 -114.09430   -3.41730    4.11930
 5050.00000   13.53160   12.41750   12.41750    -999.25  368.40550    0.10870    2.41840    -999.25    0.13780    0.17050    2.71440    0.10870   97.09100   97.09100  107.37740  100.00990  100.00990    2.71440    2.42140    3.35250    2.42140    -999.25    0.41990    0.37740    2.41840 -116.00710   -5.90660    3.35250
 5100.00000   11.56810   10.61480   10.61480    -999.25  220.05110    0.07670    2.54100    -999.25    0.07740    0.09880    4.54440    0.07670   89.90650   89.90650  111.65650  108.21480  108.21480    4.54440    4.06370    5.02080    4.06370    -999.25    0.33230    0.28850    2.54100 -114.36810   -4.84790    5.02080
 5150.00000    9.86110    9.47460    9.47460    -999.25  188.14320    0.09030    2.46730    -999.25    0.10640    0.14190    5.31510    0.09030   84.73860   84.73860   99.01910   99.97490   99.97490    5.31510    4.51620    7.45430    4.51620    -999.25    0.34750    0.30380    2.46730 -113.91700   -4.97340    7.45430
 5200.00000    9.03520    8.53390    8.53390    -999.25   97.17980    0.07260    2.52930    -999.25    0.07570    0.10570   10.29030    0.07260   75.28260   75.28260   70.35780   72.39290   72.39290   10.29030   10.74630   11.46100   10.74630    -999.25    0.23580    0.19200    2.52930 -119.65120  -11.28790   11.46100
 5250.00000   13.52090   11.72700   11.72700    -999.25  225.54020    0.12820    1.91580    -999.25    0.43560    0.46440    4.43380    0.12820   82.84400   82.84400   77.27830   69.93910   69.93910    4.43380    3.94310    5.25890    3.94310    -999.25    0.34250    0.29870    1.91580 -113.10660   -5.31980    5.25890
 5300.00000    8.96170    8.81950    8.81950    -999.25  115.11590    0.05730    2.61290    -999.25    0.02110    0.05680    8.68690    0.05730   75.92290   75.92290   87.75380   77.30610   77.30610    8.68690    8.03720    8.92390    8.03720    -999.25    0.24200    0.19810    2.61290 -114.43460   -7.22430    8.92390
 5350.00000    9.22090    9.20480    9.20480    -999.25   61.03960    0.04200    2.65670    -999.25   -0.00330    0.03120   16.38280    0.04200   63.95910   63.95910   51.66710   47.57270   47.57270   16.38280   15.01850   39.21810   15.01850    -999.25    0.17340    0.13040    2.65670 -115.91410   -9.28420   39.21810
 5400.00000   10.14050    9.47650    9.47650    -999.25  104.06260    0.13430    2.58400    -999.25    0.04250    0.07370    9.60960    0.13430   74.36590   74.36590   78.92330   77.76070   77.76070    9.60960    9.00250   11.05890    9.00250    -999.25    0.24880    0.20490    2.58400 -119.42740  -13.37400   11.05890
 5450.00000   10.17290    9.40810    9.40810    -999.25   70.53870    0.05250    2.62030    -999.25    0.00980    0.05250   14.17680    0.05250   71.13960   71.13960   75.82740   72.45410   72.45410   14.17680   13.32150   17.44050   13.32150    -999.25    0.22180    0.17820    2.62030 -123.19260  -17.71950   17.44050
 5500.00000   11.61060    9.53080    9.53080    -999.25  102.17010    0.22740    2.54610    -999.25    0.06070    0.09580    9.78760    0.22740   85.12710   85.12710   94.82390   95.67180   95.67180    9.78760    8.59940    9.65900    8.59940    -999.25    0.33600    0.29220    2.54610 -117.14900  -12.25250    9.65900
 5550.00000   11.09440   11.66820   11.66820    -999.25   53.39830    0.01690    1.45210    -999.25    0.45020    0.73560   18.72720    0.01690  136.17700  136.17700   52.91870   56.20730   56.20730   18.72720   14.09200   94.24440   14.09200    -999.25    0.44660    0.40480    1.45210 -118.34420  -14.02420   94.24440
 5600.00000    9.97980    8.77900    8.77900    -999.25   95.82770    0.07330    2.55050    -999.25    0.05630    0.09330   10.43540    0.07330   86.97370   86.97370   76.75970   79.27080   79.27080   10.43540   10.86340   14.37960   10.86340    -999.25    0.33440    0.29060    2.55050 -138.51860  -34.77890   14.37960
 5650.00000    9.75060    9.78020    9.78020    -999.25   84.73860    0.03530    2.57720    -999.25    0.04660    0.07770   11.80100    0.03530   73.53420   73.53420   78.49530   72.43810   72.43810   11.80100   10.91570   13.86450   10.91570    -999.25    0.26330    0.21930    2.57720 -122.40460  -19.24150   13.86450
 5700.00000    9.37030    8.59810    8.59810    -999.25   87.57430    0.08260    2.54420    -999.25    0.06380    0.09700   11.41920    0.08260   70.28460   70.28460   53.51030   50.97920   50.97920   11.41920   13.61260   22.21620   13.61260    -999.25    0.19750    0.15410    2.54420 -161.43430  -58.85150   22.21620
 5750.00000    9.22450    9.02710    9.02710    -999.25  116.25340    0.04950    2.62650    -999.25    0.01430    0.04880    8.60190    0.04950   75.26770   75.26770   86.13220   83.42310   83.42310    8.60190    8.16300    9.83140    8.16300    -999.25    0.25360    0.20970    2.62650 -107.96500   -5.95870    9.83140
 5800.00000    9.01310    8.82090    8.82090    -999.25  121.76120    0.04830    2.61660    -999.25    0.01260    0.05460    8.21280    0.04830   71.17460   71.17460   77.06500   70.53730   70.53730    8.21280    8.79230   11.11950    8.79230    -999.25    0.24700    0.20320    2.61660 -119.24480  -17.81510   11.11950
 5850.00000    8.94420    8.66220    8.66220    -999.25   98.28780    0.03800    2.65610    -999.25   -0.01350    0.03150   10.17420    0.03800   73.23530   73.23530   93.93930   87.49120   87.49120   10.17420    9.62520   12.74070    9.62520    -999.25    0.24540    0.20150    2.65610 -111.39240  -10.54300   12.74070
 5900.00000    9.15040    8.79590    8.79590    -999.25   89.47990    0.03720    2.62630    -999.25   -0.00020    0.04890   11.17570    0.03720   68.44240   68.44240   92.43340   90.60530   90.60530   11.17570   11.77910   19.25210   11.77910    -999.25    0.21890    0.17520    2.62630 -109.57780   -9.30490   19.25210
 5950.00000   10.07490    9.63070    9.63070    -999.25  145.64610    0.20780    2.51710    -999.25    0.09070    0.11280    6.86620    0.20780   81.03900   81.03900  101.39870  101.06530  101.06530    6.86620    6.02510    8.25550    6.02510    -999.25    0.31400    0.27010    2.51710 -104.50740   -4.81830    8.25550
 6000.00000    8.37760    8.28900    8.28900    -999.25   69.27940    0.08500    2.52030    -999.25    0.07780    0.11090   14.43430    0.08500   71.77640   71.77640   56.36400   51.73230   51.73230   14.43430   15.14560   26.84370   15.14560    -999.25    0.22900    0.18520    2.52030 -138.53920  -39.45560   26.84370
