~Version ---------------------------------------------------
VERS.      2.0 : CWLS log ASCII Standard -VERSION 2.0
WRAP.       NO : One line per depth step
CREA. 08/04/17 : LAS Creation Date
~Well ------------------------------------------------------
STRT.FT                       1050.0 : START DEPTH
STOP.FT                      11000.0 : STOP DEPTH
STEP.FT                     50.00000 : STEP LENGTH
NULL.                        -999.25 : NULL VALUE
COMP.           PETROFINA CANADA LTD : COMPANY
WELL. FINA AMOCO HB GROAT 10-9-58-16 : WELL
FLD .                             WC : FIELD
LOC .                                : LOCATION
CTRY.                         CANADA : COUNTRY
SRVC.         Schlumberger of Canada : SERVICE COMPANY
DATE.                    08-Apr-1977 : LOGDATE
PROV.                        Alberta : PROVINCE
UWI .               100100905816W500 : UNIQUE WELL ID
SLAT.WGS84                  54.00097 : SURFACE LATITUDE
SLON.WGS84                 -116.3132 : SURFACE LONGITUDE
~Curve Information -----------------------------------------
DEPT    .FT    : Depth Curve
CALDED  .IN    : CALIPER FROM COMPENSATED NEUTRON FORMATION DENSITY LOG
CALSED  .IN    : CALIPER FROM BOREHOLE COMPENSATED SONIC LOG [ADJ. TO ILDED/CALDED]
CALWS   .IN    : CALIPER [CALSED SPL. TO CALDED @ 6213']
CONDWS  .MMHO  : CONDUCTIVITY [1000/DRESWS]
DCORED  .G/C3  : DENSITY CORRECTION FROM COMPENSATED NEUTRON FORMATION DENSITY LOG
DCORWS  .G/C3  : DENSITY CORRECTION [DCORED]
DENWS   .G/C3  : FORMATION BULK DENSITY [RHOBED]
DPHILSED.V/V   : DENSITY POROSITY LIMESTONE [M=2.71 F=1.0] FROM COMPENSATED NEUTRON FORMATION DENSITY LOG [ADJ. TO RHOBED]
DPHISSED.V/V   : DENSITY POROSITY SANDSTONE [M=2.65 F=1.0] FROM COMPENSATED NEUTRON FORMATION DENSITY LOG [ADJ. TO RHOBED]
DPOLSWS .V/V   : DENSITY POROSITY LIMESTONE [M=2.71 F=1.0 CALCULATED FROM DENWS]
DRESWS  .OHMM  : DEEP RESISTIVITY [ILDED]
DTED    .US/F  : DELTA-T (INTERVAL TRANSIT TIME)  FROM BOREHOLE COMPENSATED SONIC LOG [ADJ. TO ILDED]
DTWS    .US/F  : COMPRESSIONAL SONIC [DTED]
GRDED   .GAPI  : GAMMA RAY FROM COMPENSATED NEUTRON FORMATION DENSITY LOG
GRSED   .GAPI  : GAMMA RAY  FROM BOREHOLE COMPENSATED SONIC LOG [GRSED IN CASING FROM 1045 - 1158.5'] [ADJ. TO ILDED]
GRWS    .GAPI  : GAMMA RAY [GRSED]
ILDED   .OHMM  : DEEP INDUCTION RESISTIVITY  FROM DUAL INDUCTION-LATEROLOG
ILMED   .OHMM  : MEDIUM INDUCTION RESISTIVITY  FROM DUAL INDUCTION-LATEROLOG
LL8ED   .OHMM  : LATEROLOG 8 FROM DUAL INDUCTION-LATEROLOG
MRESWS  .OHMM  : MEDIUM RESISTIVITY [ILMED]
NPHILSED.V/V   : NEUTRON POROSITY LIMESTONE FROM COMPENSATED NEUTRON FORMATION DENSITY LOG [ADJ. TO RHOBED]
NPHISSED.V/V   : NEUTRON POROSITY SANDSTONE FROM COMPENSATED NEUTRON FORMATION DENSITY LOG [ADJ. TO RHOBED]
NPOLSWS .V/V   : NEUTRON POROSITY LIMESTONE [NPHISSED MATRIX CONVERTED TO LIMESTONE AND SPL. TO NPHILSED FROM 2478 - 7249']
RHOBED  .G/C3  : FORMATION BULK DENSITY FROM COMPENSATED NEUTRON FORMATION DENSITY LOG
SPRED   .MV    : SPONTANEOUS POTENTIAL FROM DUAL INDUCTION-LATEROLOG
SPWS    .MV    : SPONTANEOUS POTENTIAL [BASELINE 0 MV, SPRED]
SRESWS  .OHMM  : SHALLOW RESISTIVITY [LL8ED]
~Params ----------------------------------------------------
PD  .                     GL : PERMANENT DATUM
EPD .FT               3310.2 : ELEVATION PERMANENT DATUM
LMF .                     KB : LOG MEASURED FROM
DAPD.FT                 13.5 : FEET ABOVE PERMANENT DATUM
EKB .FT                 3324 : KELLY BUSHING
EGL .FT               3310.2 : GROUND LEVEL
DATE.               04/08/77 : RUN DATE
RUN .                      1 : RUN NUMBER
DD  .FT                11000 : DEPTH DRILLER
DL  .FT                11005 : DEPTH LOGGER
BLI .FT                10999 : BOTTOM LOG INTERVAL
TLI .FT                 1159 : TOP LOG INTERVAL
CBD .FT                 1159 : CASING BOTTOM DRILLER
CBL .FT                 1159 : CASING BOTTOM LOGGER
BS  .IN                 8.75 : BIT SIZE
BSD .FT                11000 : BIT SIZE AT DEPTH
DFT .                    GEL : DRILLING FLUID TYPE
DFD .                    9.2 : DRILLING FLUID DENSITY
DFV .                    245 : DRILLING FLUID VISCOSITY
DFPH.                     10 : DRILLING FLUID PH
DFL .                    7.2 : DRILLING FLUID LOSS
MSS .               FLOWLINE : MUD SAMPLE SOURCE
RMS .OHMM               2.52 : RESISTIVITY MUD SAMPLE
MST .DEGF                 56 : MUD SAMPLE TEMPERATURE
RMF .OHMM               2.35 : RESISTIVITY MUD FILTRATE SAMPLE
MFST.DEGF                 50 : MUD FILTRATE SAMPLE TEMPERATURE
TCS .HRS                 3.5 : TIME CIRCULATED STOPPED
LUN .                   7809 : LOGGING UNIT NUMBER
LUL .                    EDM : LOGGING UNIT LOCATION
ENGI.               BERNISKY : RECORDING ENGINEER
WITN.                 HALKOW : WITNESSED BY
CLNT.                A2DTECH : CLIENT CODE
ORIG.            2" 5" PRINT : ORIGIN OF DATA
UWI .       100100905816W500 : UNIQUE WELL ID
DICO. A2D Technologies, Inc. : DIGITIZING COMPANY
~Other -----------------------------------------------------
~ASCII -----------------------------------------------------
# ...
 10150.00000    9.75450    8.83670    9.75450    0.72830    0.21650    0.21650    2.64920    0.03630    -999.25    0.03560 1372.97960   54.43070   54.43070   61.49460   44.18470   44.18470 1372.97960 1006.61170 1310.41830 1006.61170    0.06670    -999.25    0.06670    2.64920  -49.23500  -38.00760 1310.41830
 10200.00000    9.42200    8.72650    9.42200    6.38410    0.07020    0.07020    2.54840    0.10940    -999.25    0.09450  159.63690   57.64530   57.64530   96.68760   98.92180   98.92180  159.63690  188.46940  265.08970  188.46940    0.06990    -999.25    0.06990    2.54840  -55.45710  -44.47170  265.08970
 10250.00000    9.05280    8.96880    9.05280   41.81810    0.19750    0.19750    2.58810    0.07200    -999.25    0.07130   23.91310   67.05070   67.05070  134.21000  134.63840  134.63840   23.91310   24.93470   38.06880   24.93470    0.18520    -999.25    0.18520    2.58810  -47.72180  -36.97590   38.06880
 10300.00000    8.80080    8.81140    8.80080    0.63850    0.03920    0.03920    2.67050    0.03020    -999.25    0.02310 1566.15060   52.85800   52.85800   33.95790   35.44390   35.44390 1566.15060 1429.67150 1504.93230 1429.67150    0.06890    -999.25    0.06890    2.67050 -121.21770 -110.71250 1504.93230
 10350.00000   11.61890    9.53510   11.61890    0.62680    0.21090    0.21090    2.42330    0.17500    -999.25    0.16770 1595.37830   51.05530   51.05530   14.35000   18.68970   18.68970 1595.37830  935.18740 1496.53780  935.18740    0.05300    -999.25    0.05300    2.42330 -145.53500 -135.27060 1496.53780
 10400.00000   11.51580    9.42030   11.51580    4.45750    0.20820    0.20820    2.49700    0.13370    -999.25    0.12460  224.33850   49.03570   49.03570   14.23410   18.83500   18.83500  224.33850  271.24780  898.41880  271.24780    0.03930    -999.25    0.03930    2.49700 -132.91180 -122.88810  898.41880
 10450.00000   10.48380    9.04320   10.48380    0.63500    -999.25    -999.25    2.47990    0.14170    -999.25    0.13460 1574.82700   50.10340   50.10340   10.72670    9.95960    9.95960 1574.82700 1456.92010 1527.16450 1456.92010    0.02480    -999.25    0.02480    2.47990 -162.43600 -152.65430 1527.16450
 10500.00000    9.72040    9.09660    9.72040    0.68070    0.23330    0.23330    2.57190    0.07320    -999.25    0.08080 1468.98210   49.00800   49.00800   10.89690    8.00170    8.00170 1468.98210 1319.09110 1530.75020 1319.09110    0.02240    -999.25    0.02240    2.57190 -147.48950 -137.94730 1530.75020
 10550.00000   10.09340    9.28940   10.09340    0.74130    0.26280    0.26280    2.47160    0.15310    -999.25    0.13940 1348.92180   49.40150   49.40150   16.69360   16.02990   16.02990 1348.92180  846.12250 1476.35450  846.12250    0.02550    -999.25    0.02550    2.47160 -128.96730 -119.66580 1476.35450
 10600.00000    8.87230    8.83530    8.87230    2.75700    0.00720    0.00720    2.65470    0.04080    -999.25    0.03230  362.70680   48.54800   48.54800   11.49590   11.00830   11.00830  362.70680  458.72400  610.67180  458.72400    0.01500    -999.25    0.01500    2.65470 -136.07820 -127.01750  610.67180
 10650.00000    9.78280    9.14970    9.78280    9.84030    -999.25    -999.25    2.58440    0.06920    -999.25    0.07350  101.62270   50.01870   50.01870   12.82550   10.23530   10.23530  101.62270   94.51770  520.32360   94.51770    0.00610    -999.25    0.00610    2.58440 -147.07500 -138.25500  520.32360
 10700.00000    9.32070    9.07760    9.32070    5.75320    0.24700    0.24700    2.58970    0.08570    -999.25    0.07040  175.46960   50.76860   50.76860   29.73580   24.23780   24.23780  175.46960  260.25770  390.15080  260.25770    0.01220    -999.25    0.01220    2.58970 -141.43500 -132.85700  390.15080
 10750.00000    8.74290    8.76270    8.74290   31.01080    0.01400    0.01400    2.67610    0.02800    -999.25    0.01980   32.24680   49.69110   49.69110    6.85790    6.71680    6.71680   32.24680   39.42940  125.75900   39.42940    0.02240    -999.25    0.02240    2.67610 -165.03400 -156.69550  125.75900
 10800.00000    9.12270    8.72770    9.12270    1.21000    0.25040    0.25040    2.64680    0.02770    -999.25    0.03700  826.41950   49.07700   49.07700   17.14700   11.64480   11.64480  826.41950   81.19400  346.17720   81.19400    0.07080    -999.25    0.07080    2.64680 -169.56740 -161.46960  346.17720
 10850.00000   10.90410    9.59160   10.90410    0.62090    0.22170    0.22170    2.55790    0.08980    -999.25    0.08890 1610.66330   52.29110   52.29110   13.70490   11.96290   11.96290 1610.66330  560.80390 1512.61290  560.80390    0.01590    -999.25    0.01590    2.55790 -143.14160 -135.28460 1512.61290
 10900.00000    9.05330    8.99680    9.05330   10.11320    0.22610    0.22610    2.69380    0.02590    -999.25    0.00950   98.88070   50.26750   50.26750   62.78090   57.81400   57.81400   98.88070  188.73650  252.68210  188.73650    0.04870    -999.25    0.04870    2.69380  -42.87420  -35.25790  252.68210
 10950.00000    8.34510    8.31350    8.34510  220.75030    0.10130    0.10130    2.58980    0.07090    -999.25    0.07030    4.54520   65.35640   65.35640   46.18760   48.76060   48.76060    4.54520    6.77590   34.77470    6.77590    0.04720    -999.25    0.04720    2.58980 -112.32370 -104.76520   34.77470
 11000.00000    8.99700    -999.25    8.99700    -999.25    0.23740    0.23740    2.52390    0.14070    -999.25    0.10880    -999.25    -999.25    -999.25  174.44090    7.28800    7.28800    -999.25    -999.25    -999.25    -999.25    -999.25    -999.25    -999.25    2.52390    -999.25    -999.25    -999.25
