~Version ---------------------------------------------------
VERS.      2.0 : CWLS log ASCII Standard -VERSION 2.0
WRAP.       NO : One line per depth step
CREA. 11/16/17 : LAS Creation Date
~Well ------------------------------------------------------
STRT.FT                        300.0 : START DEPTH
STOP.FT                      11100.0 : STOP DEPTH
STEP.FT                     50.00000 : STEP LENGTH
NULL.                        -999.25 : NULL VALUE
COMP.         PACIFIC PETROLEUMS LTD : COMPANY
WELL. PACIFIC ET AL TONY 10-18-63-21 : WELL
FLD .                     TONY TOWER : FIELD
LOC .                                : LOCATION
CTRY.                         CANADA : COUNTRY
SRVC.                   Schlumberger : SERVICE COMPANY
DATE.                    24-Sep-1975 : LOGDATE
PROV.                        Alberta : PROVINCE
UWI .               100101806321W500 : UNIQUE WELL ID
SLAT.WGS84                  54.45338 : SURFACE LATITUDE
SLON.WGS84                 -117.1585 : SURFACE LONGITUDE
~Curve Information -----------------------------------------
DEPT    .FT    : Depth Curve
CALDED  .IN    : CALIPER FROM DENSITY LOG
CALWS   .IN    : CALIPER [CALDED]
CONDWS  .MMHO  : CONDUCTIVITY [1000/DRESWS]
DCORED  .G/C3  : DENSITY CORRECTION FROM DENSITY LOG [ADJ. TO DPHILSED/DPHILSED]
DCORWS  .G/C3  : DENSITY CORRECTION [DCORED]
DENWS   .G/C3  : FORMATION BULK DENSITY [CALC. FROM DPOLSWS,M=2710,F=1000]
DPHILSED.V/V   : DENSITY POROSITY LIMESTONE [M=2.71,F=1.0] FROM DENSITY LOG
DPHISSED.V/V   : DENSITY POROSITY SANDSTONE [M=2.65,F=1.0] FROM DENSITY LOG
DPOLSWS .V/V   : DENSITY POROSITY LIMESTONE [DPHISSED CONVERTED TO LIMESTONE (M=2.71,F=1.00), SPL. TO DPHILSED @ 6860']
DRESWS  .OHMM  : DEEP RESISTIVITY [ILDED]
GRDED   .GAPI  : GAMMA RAY FROM DENSITY LOG
GRWS    .GAPI  : GAMMA RAY [GRDED]
ILDED   .OHMM  : DEEP INDUCTION FROM RESISTIVITY LOG
ILMED   .OHMM  : MEDIUM INDUCTION FROM RESISTIVITY LOG
LL8ED   .OHMM  : LATEROLOG FROM RESISTIVITY LOG
MRESWS  .OHMM  : MEDIUM RESISTIVITY [ILMED]
NPHILSED.V/V   : NEUTRON POROSITY LIMESTONE FROM DENSITY LOG
NPHISSED.V/V   : NEUTRON POROSITY SANDSTONE FROM DENSITY LOG
NPOLSWS .V/V   : NEUTRON POROSITY LIMESTONE [NPHISSED MATRIX CONVERSION FOR LIMESTONE SPL. TO NPHILSED @6860']
RHOBED  .G/C3  : BULK DENSITY FROM DENSITY LOG [ADJ. TO DPHILSED/DPHILSED]
SPRED   .MV    : SPONTANEOUS POTENTIAL FROM RESISTIVITY LOG
SPWS    .MV    : SPONTANEOUS POTENTIAL [BASELINE 0 MV,SPRED]
SRESWS  .OHMM  : SHALLOW RESISTIVITY [LL8ED]
~Params ----------------------------------------------------
PD  .                     GL : PERMANENT DATUM
EPD .FT                 2714 : ELEVATION PERMANENT DATUM
LMF .                     KB : LOG MEASURED FROM
DAPD.FT                 13.7 : FEET ABOVE PERMANENT DATUM
EKB .FT               2727.7 : KELLY BUSHING
EGL .FT                 2714 : GROUND LEVEL
DATE.               09/24/75 : RUN DATE
RUN .                      1 : RUN NUMBER
DD  .FT                11125 : DEPTH DRILLER
DL  .FT                11121 : DEPTH LOGGER
BLI .FT                11115 : BOTTOM LOG INTERVAL
TLI .FT                 1125 : TOP LOG INTERVAL
CBD .FT                 1125 : CASING BOTTOM DRILLER
CBL .FT                 1125 : CASING BOTTOM LOGGER
BS  .IN                 8.75 : BIT SIZE
BSD .FT                11125 : BIT SIZE AT DEPTH
DFT .               GEL CHEM : DRILLING FLUID TYPE
DFD .                    9.3 : DRILLING FLUID DENSITY
DFV .                    147 : DRILLING FLUID VISCOSITY
DFPH.                    9.5 : DRILLING FLUID PH
DFL .                    9.2 : DRILLING FLUID LOSS
MSS .               FLOWLINE : MUD SAMPLE SOURCE
RMS .OHMM               1.62 : RESISTIVITY MUD SAMPLE
MST .DEGF                 72 : MUD SAMPLE TEMPERATURE
RMF .OHMM               1.26 : RESISTIVITY MUD FILTRATE SAMPLE
MFST.DEGF                 68 : MUD FILTRATE SAMPLE TEMPERATURE
RMB .OHMM               0.41 : RESISTIVITY MUD AT BHT
TCS .HRS                 3.5 : TIME CIRCULATED STOPPED
LUN .                   7691 : LOGGING UNIT NUMBER
LUL .                    EDM : LOGGING UNIT LOCATION
ENGI.              CROCKFORD : RECORDING ENGINEER
WITN.                   ROSS : WITNESSED BY
CLNT.                A2DTECH : CLIENT CODE
ORIG.            2" 5" PRINT : ORIGIN OF DATA
UWI .       100101806321W500 : UNIQUE WELL ID
DICO. A2D Technologies, Inc. : DIGITIZING COMPANY
~Other -----------------------------------------------------
~ASCII -----------------------------------------------------
# ...
 9600.00000    9.61030    9.61030    7.10100    0.00330    0.00330    2.70420    0.00340    -999.25    0.00340  140.82440   51.11650   51.11650  140.82440  149.58420  361.36590  149.58420    0.00570    -999.25    0.00570    2.68640  -58.52220  -32.26800  361.36590
 9650.00000    9.60570    9.60570    5.86940   -0.00170   -0.00170    2.70300    0.00410    -999.25    0.00410  170.38830   36.99240   36.99240  170.38830  186.21820  492.76130  186.21820    0.00020    -999.25    0.00020    2.68850  -72.31260  -51.26310  492.76130
 9700.00000    9.69910    9.69910   20.52500    0.01380    0.01380    2.72850   -0.01080    -999.25   -0.01080   48.72100   40.97090   40.97090   48.72100   50.52820   86.39950   50.52820    0.00700    -999.25    0.00700    2.71890  -28.57580  -12.76520   86.39950
 9750.00000    9.70370    9.70370   39.07460   -0.00440   -0.00440    2.70520    0.00280    -999.25    0.00280   25.59410   51.95960   51.95960   25.59410   26.67160   44.23700   26.67160    0.02350    -999.25    0.02350    2.68960  -16.20420   -5.59820   44.23700
 9800.00000    9.72670    9.72670   53.69800    0.00920    0.00920    2.70090    0.00530    -999.25    0.00530   18.62620   44.93140   44.93140   18.62620   19.77630   25.54890   19.77630    0.02960    -999.25    0.02960    2.69690  -15.36380   -9.96250   25.54890
 9850.00000    9.72850    9.72850   53.78480    0.02450    0.02450    2.72160   -0.00680    -999.25   -0.00680   18.59260   52.16930   52.16930   18.59260   19.33480   36.99220   19.33480    0.02930    -999.25    0.02930    2.70940  -19.19670  -15.95100   36.99220
 9900.00000    9.80520    9.80520  153.12330    0.02970    0.02970    2.72690   -0.00990    -999.25   -0.00990    6.53070   61.81830   61.81830    6.53070    6.98930   13.33840    6.98930    0.07890    -999.25    0.07890    2.71290  -26.43590  -23.88850   13.33840
 9950.00000   11.56990   11.56990  288.14290    0.23040    0.23040    2.56810    0.08300    -999.25    0.08300    3.47050   87.59380   87.59380    3.47050    3.69630    7.33880    3.69630    0.16390    -999.25    0.16390    2.57580  -16.00490  -14.16040    7.33880
 10000.00000   10.11260   10.11260  153.94670    0.18310    0.18310    2.57090    0.08130    -999.25    0.08130    6.50220   89.77970   89.77970    6.50220    6.00020    8.24910    6.00020    0.19230    -999.25    0.19230    2.57680  -24.93210  -23.78590    8.24910
 10050.00000    9.83630    9.83630  297.47800    0.02840    0.02840    2.64390    0.03870    -999.25    0.03870    3.36160   70.05030   70.05030    3.36160    3.13760    5.27930    3.13760    0.15320    -999.25    0.15320    2.64120  -25.09190  -24.64400    5.27930
 10100.00000    9.95120    9.95120  308.83260    0.17760    0.17760    2.66910    0.02390    -999.25    0.02390    3.23800   86.51590   86.51590    3.23800    3.04690    4.78570    3.04690    0.15810    -999.25    0.15810    2.66640  -27.82180  -28.07680    4.78570
 10150.00000   13.01300   13.01300  437.44260    0.16860    0.16860    2.47690    0.13630    -999.25    0.13630    2.28610   91.12000   91.12000    2.28610    2.16610    3.16570    2.16610    0.23920    -999.25    0.23920    2.46780  -35.98470  -36.93800    3.16570
 10200.00000   14.37160   14.37160  459.13680    0.16670    0.16670    2.41300    0.17370    -999.25    0.17370    2.17800  100.26550  100.26550    2.17800    2.00020    2.91610    2.00020    0.26940    -999.25    0.26940    2.41940  -23.63320  -25.28940    2.91610
 10250.00000    9.75230    9.75230  162.94420    0.02650    0.02650    2.75220   -0.02470    -999.25   -0.02470    6.14130   63.40460   63.40460    6.14130    6.44890    8.03560    6.44890    0.08900    -999.25    0.08900    2.74540  -31.86540  -34.21990    8.03560
 10300.00000    9.74190    9.74190  238.13080   -0.00040   -0.00040    2.72600   -0.00940    -999.25   -0.00940    4.19950   80.16170   80.16170    4.19950    4.32420    6.11240    4.32420    0.12860    -999.25    0.12860    2.71100   -8.76080  -11.81360    6.11240
 10350.00000    9.74450    9.74450  175.38940    0.01820    0.01820    2.73910   -0.01700    -999.25   -0.01700    5.70160   74.53120   74.53120    5.70160    5.97970    8.54220    5.97970    0.10940    -999.25    0.10940    2.71500   -4.36300   -8.11870    8.54220
 10400.00000    9.74010    9.74010  305.88360    0.02060    0.02060    2.69890    0.00650    -999.25    0.00650    3.26950  102.80830  102.80830    3.26950    3.41690    4.54200    3.41690    0.18090    -999.25    0.18090    2.68970   -3.12820   -7.58220    4.54200
 10450.00000    9.76990    9.76990  330.78630    0.02730    0.02730    2.72560   -0.00910    -999.25   -0.00910    3.02310  101.19860  101.19860    3.02310    3.22840    4.41350    3.22840    0.17230    -999.25    0.17230    2.71170   -2.51520   -7.67210    4.41350
 10500.00000    9.93920    9.93920  389.84330    0.11310    0.11310    2.65970    0.02940    -999.25    0.02940    2.56520  116.59960  116.59960    2.56520    2.65520    3.77770    2.65520    0.19190    -999.25    0.19190    2.65610   -6.79590  -12.65110    3.77770
 10550.00000    9.76010    9.76010  255.02540    0.00340    0.00340    2.69220    0.01040    -999.25    0.01040    3.92160   88.85610   88.85610    3.92160    4.21050    6.28010    4.21050    0.14100    -999.25    0.14100    2.68430    1.42300   -5.13050    6.28010
 10600.00000    9.63030    9.63030   25.55450    0.02970    0.02970    2.59130    0.06940    -999.25    0.06940   39.13200  109.51360  109.51360   39.13200   46.51940   77.10770   46.51940    0.11750    -999.25    0.11750    2.59060    2.50090   -4.75550   77.10770
 10650.00000    9.64640    9.64640   13.93700    0.03420    0.03420    2.50030    0.12260    -999.25    0.12260   71.75610  192.49440  192.49440   71.75610   85.83050  161.57800   85.83050    0.13920    -999.25    0.13920    2.49970   -0.95180   -8.90650  161.57800
 10700.00000    9.56460    9.56460   58.48190    0.01760    0.01760    2.64180    0.03990    -999.25    0.03990   17.09930   79.18280   79.18280   17.09930   18.00920   33.48130   18.00920    0.07320    -999.25    0.07320    2.68770    5.65490   -3.00270   33.48130
 10750.00000   10.35930   10.35930   71.75230    0.16860    0.16860    2.49820    0.12380    -999.25    0.12380   13.94090  112.42700  112.42700   13.94090   14.00060   16.85800   14.00060    0.14570    -999.25    0.14570    2.47730   -3.39990   -8.69280   16.85800
 10800.00000    9.32780    9.32780    6.40600   -0.00120   -0.00120    2.65660    0.03120    -999.25    0.03120  156.10380   53.65870   53.65870  156.10380  233.09340  418.49160  233.09340    0.03490    -999.25    0.03490    2.65010  -31.23880  -32.62120  418.49160
 10850.00000    8.80440    8.80440   80.08590    0.14860    0.14860    2.64880    0.03580    -999.25    0.03580   12.48660   12.99340   12.99340   12.48660   14.84630   47.54940   14.84630    0.11980    -999.25    0.11980    2.64430 -140.52970 -137.97590   47.54940
 10900.00000    8.86350    8.86350  166.51770    0.14580    0.14580    2.66310    0.02740    -999.25    0.02740    6.02180   14.87250   14.87250    6.02180    6.69880   10.77850    6.69880    0.12880    -999.25    0.12880    2.65020 -135.89410 -129.42980   10.77850
 10950.00000    8.84180    8.84180  127.55750    0.06600    0.06600    2.56910    0.08240    -999.25    0.08240    7.83960   11.81550   11.81550    7.83960    8.52830   18.77130    8.52830    0.15100    -999.25    0.15100    2.56890 -147.86400 -137.46350   18.77130
 11000.00000    9.02980    9.02980    9.78150    0.12060    0.12060    2.68730    0.01330    -999.25    0.01330  102.58090   14.05100   14.05100  102.58090  215.51010  680.67690  215.51010    0.04130    -999.25    0.04130    2.67040 -163.70650 -149.39560  680.67690
 11050.00000    9.69620    9.69620    4.77000    0.18330    0.18330    2.61380    0.05630    -999.25    0.05630  209.68360   17.88740   17.88740  209.68360  200.35100  494.66520  200.35100    0.05830    -999.25    0.05830    2.60060  -91.11160  -72.89020  494.66520
 11100.00000    9.09010    9.09010   88.81860    0.03710    0.03710    2.62640    0.04890    -999.25    0.04890   11.25890    -999.25    -999.25   11.25890   11.68090   17.36200   11.68090    0.18160    -999.25    0.18160    2.62780  -49.77990  -29.75760   17.36200
