~Version ---------------------------------------------------
VERS. 2.0 : CWLS log ASCII Standard -VERSION 2.0
WRAP.  NO : ONE LINE PER DEPTH STEP
~Well ------------------------------------------------------
STRT.M                        300.0 : START DEPTH
STOP.M                       1700.0 : STOP DEPTH
STEP.M                     50.00000 : STEP LENGTH
NULL.                       -999.25 : NULL VALUE
COMP.            ARC RESOURCES LTD. : COMPANY
WELL. WINCAN ET AL NIPISI 2-20-79-7 : WELL
FLD .                        NIPISI : FIELD
LOC .                               : LOCATION
CTRY.                        CANADA : COUNTRY
SRVC.                 Dresser Atlas : SERVICE COMPANY
DATE.                   08-Mar-1981 : LOGDATE
PROV.                       Alberta : PROVINCE
UWI .              100022007907W500 : UNIQUE WELL ID
SLAT.WGS84            55.8562888706 : SURFACE LATITUDE
SLON.WGS84          -115.0543712889 : SURFACE LONGITUDE
~Curve Information -----------------------------------------
DEPT    .M                                                                                                           : DEPTH METERS
CALWS   .MM                                                                                                          : CALIPER [HDED]
CONDWS  .MMHO                                                                                                        : CONDUCTIVITY [1000/DRESWS]
CORRED  .KG/M3                                                                                                       : DENSITY CORRRECTION FROM DENSITY LOG [DEPTH ADJ TO RES.]
DCORWS  .KG/M3                                                                                                       : DENSITY CORRECTION [CORRED]
DENWS   .KG/M3                                                                                                       : BULK DENSITY [M=2650 F=1000 <610> M=2710 F=1000] [RHOBED]
DPHILSED.V/V                                                                                                         : DENSITY POROSITY [M=2710 F=1000] FROM DENSITY LOG [DEPTH ADJ TO RES.]
DPHISSED.V/V                                                                                                         : DENSITY POROSITY [M=2650 F=1000] FROM DENSITY LOG [DEPTH ADJ TO RES.]
DPOLSWS .V/V :   DENSITY POROSITY LIMESTONE [SPLICE: DPHILSED AND TEMP CURVE DPHILS2 (DPHILS2 CALCULATED FROM RHOBED : M=2710, F=1000)]
DPOSSWS .V/V :   DENSITY POROSITY LIMESTONE [SPLICE: DPHISSED AND TEMP CURVE DPHISS2 (DPHISS2 CALCULATED FROM RHOBED : M=2650, F=1000)]
DRESWS  .OHMM                                                                                                        : DEEP RESISTIVITY [ILDED]
DTED    .US/M                                                                                                        : DELTA TIME FROM SONIC LOG [DEPTH ADJ TO RES.]
DTWS    .US/M                                                                                                        : DELTA TIME [DTED]
GRSED   .GAPI                                                                                                        : GAMMA RAY FROM SONIC LOG [DEPTH ADJ TO RES.]
GRWS    .GAPI                                                                                                        : GAMMA RAY [GRSED. CASED ABOVE 183 M]
HDED    .MM                                                                                                          : HOLE DIAMETER FROM SONIC LOG [DEPTH ADJ TO RES.]
ILDED   .OHMM                                                                                                        : INDUCTION LOG DEEP RESISTIVITY
ILMED   .OHMM                                                                                                        : INDUCTION LOG MEDIUM RESISTIVITY
MRESWS  .OHMM                                                                                                        : MEDIUM RESISTIVITY [ILMED]
NPHILSED.V/V                                                                                                         : NEUTRON POROSITY LIMESTONE FROM DENSITY LOG [DEPTH ADJ TO RES.]
NPHISSED.V/V                                                                                                         : NEUTRON POROSITY SANDSTONE FROM DENSITY LOG [DEPTH ADJ TO RES.]
NPOLSWS .V/V                                                                                                         : NEUTRON POROSITY LIMESTONE [NPHILSED]
NPOSSWS .V/V                                                                                                         : NEUTRON POROSITY SANDSTONE [NPHISSED]
RHOBED  .KG/M3                                                                                                       : BULK DENSITY FROM DENSITY LOG [ON DEPTH WITH RES.]
SFLED   .OHMM                                                                                                        : SPHERICALLY FOCUSED LOG RESISTIVITY
SPRED   .MV                                                                                                          : SPONTANEOUS POTENTIAL FROM RESISTIVITY LOG
SPWS    .MV                                                                                                          : SPONTANEOUS POTENTIAL [BASELINE 0 MV] [SPRED]
SRESWS  .OHMM                                                                                                        : SHALLOW RESISTIVITY [SFLED]
~Params ----------------------------------------------------
PD  .                         GL : PERMANENT DATUM
EPD .M                    650.73 : ELEVATION PERMANENT DATUM
LMF .                         KB : LOG MEASURED FROM
DAPD.M                       5.1 : FEET ABOVE PERMANENT DATUM
DMF .                         KB : DRILLING MEASURED FROM
EKB .M                    655.83 : KELLY BUSHING
EGL .M                    650.73 : GROUND LEVEL
DATE.                   03/08/81 : RUN DATE
RUN .                          1 : RUN NUMBER
DD  .M                      1710 : DEPTH DRILLER
DL  .M                    1708.8 : DEPTH LOGGER
BLI .M                    1708.2 : BOTTOM LOG INTERVAL
TLI .M                     183.7 : TOP LOG INTERVAL
CS  .MM                      219 : CASING SIZE
CBD .M                       183 : CASING BOTTOM DRILLER
CBL .M                     183.7 : CASING BOTTOM LOGGER
BS  .MM                      200 : BIT SIZE
BSD .M                      1710 : BIT SIZE AT DEPTH
DFT .               GEL CHEM MUD : DRILLING FLUID TYPE
DFD .                       1130 : DRILLING FLUID DENSITY
DFV .                         53 : DRILLING FLUID VISCOSITY
DFPH.                        9.5 : DRILLING FLUID PH
DFL .                         11 : DRILLING FLUID LOSS
MSS .                   FLOWLINE : MUD SAMPLE SOURCE
RMS .OHMM                    1.5 : RESISTIVITY MUD SAMPLE
MST .DEGC                   17.8 : MUD SAMPLE TEMPERATURE
RMF .OHMM                    1.1 : RESISTIVITY MUD FILTRATE SAMPLE
MFST.DEGC                   17.8 : MUD FILTRATE SAMPLE TEMPERATURE
RMC .OHMM                    1.7 : RESISTIVITY MUD CAKE
MCST.DEGC                   17.8 : MUD CAKE SAMPLE TEMPERATURE
MFSS.                       MEAS : MUD FILTRATE SAMPLE SOURCE
MCSS.                       MEAS : MUD CAKE SAMPLE SOURCE
RMB .OHMM                   0.94 : RESISTIVITY MUD AT BHT
TCS .HRS                       4 : TIME CIRCULATED STOPPED
LUN .                    HL 6241 : LOGGING UNIT NUMBER
LUL .               GRAND PRAIRE : LOGGING UNIT LOCATION
ENGI.                       GUNN : RECORDING ENGINEER
WITN.                     HAUNCH : WITNESSED BY
CLNT.                    A2DTECH : CLIENT CODE
ORIG. 6.5"/100M 16.5"/100M PRINT : ORIGIN OF DATA
UWI .           100022007907W500 : UNIQUE WELL ID
DICO.     A2D Technologies, Inc. : DIGITIZING COMPANY
~Other -----------------------------------------------------
~ASCII -----------------------------------------------------
  300.00000  316.20770  494.19320   56.67680   56.67680 1857.35640    -999.25    0.50520    -999.25    0.48040    2.02350  531.47510  531.47510  105.58390  105.58390  316.20770    2.02350    2.15480    2.15480    -999.25    0.55170    -999.25    0.55170 1857.35640    3.12460  -29.76110  -10.24870    3.12460
  350.00000  398.30580  614.96830   40.26090   40.26090 1739.43770    -999.25    -999.25    -999.25    0.55190    1.62610  608.24780  608.24780   78.92550   78.92550  398.30580    1.62610    1.71740    1.71740    -999.25    0.53170    -999.25    0.53170 1739.43770    2.70070  -28.15050   -3.17200    2.70070
  400.00000  226.70730   39.56650   66.83710   66.83710 2724.71900    -999.25    -999.25    -999.25   -0.04530   25.27390  182.13680  182.13680   51.62520   51.62520  226.70730   25.27390   97.40310   97.40310    -999.25    0.10710    -999.25    0.10710 2724.71900  242.55780  -68.41360  -34.03160  242.55780
  450.00000  323.99750  280.63090   80.76600   80.76600 2266.93330    -999.25    0.23260    -999.25    0.23260    3.56340  390.91510  390.91510   86.05150   86.05150  323.99750    3.56340    4.44710    4.44710    -999.25    0.41740    -999.25    0.41740 2266.93330    4.63760  -52.04430  -17.59050    4.63760
  500.00000  344.71410  285.11150   71.13860   71.13860 2258.63620    -999.25    0.23930    -999.25    0.23930    3.50740  389.93370  389.93370   69.08700   69.08700  344.71410    3.50740    4.62510    4.62510    -999.25    0.38660    -999.25    0.38660 2258.63620    5.04920  -58.42400  -23.99730    5.04920
  550.00000  368.28150  198.06290   37.33830   37.33830 1843.39140    0.44960    0.46690    0.50680    0.46690    5.04890  334.92400  334.92400   65.89600   65.89600  368.28150    5.04890    5.56840    5.56840    -999.25    0.50670    -999.25    0.50670 1843.39140    5.28920  -49.25480  -14.85530    5.28920
  600.00000  281.84650   90.90080   19.01670   19.01670 2580.24760    0.07220    0.03930    0.07220    0.03930   11.00100  277.81690  277.81690   52.38990   52.38990  281.84650   11.00100   16.54270   16.54270    0.24980    0.26990    0.24980    0.26990 2580.24760   14.76180  -56.11250  -21.74020   14.76180
  650.00000  227.23550   91.45200   13.23080   13.23080 2631.07670    0.04690    -999.25    0.04690    -999.25   10.93470  202.80630  202.80630   41.24320   41.24320  227.23550   10.93470   14.23660   14.23660    0.11920    -999.25    0.11920    -999.25 2631.07670   16.07740  -45.80900  -11.46380   16.07740
  700.00000  237.19760  108.31420   15.37740   15.37740 2599.64530    0.06840    -999.25    0.06840    -999.25    9.23240  216.07710  216.07710   33.53420   33.53420  237.19760    9.23240   11.37360   11.37360    0.15470    -999.25    0.15470    -999.25 2599.64530   10.07100  -58.23250  -23.91450   10.07100
  750.00000  227.29540  111.62210    -999.25    -999.25    -999.25    -999.25    -999.25    -999.25    -999.25    8.95880  231.09920  231.09920   38.81060   38.81060  227.29540    8.95880   10.96090   10.96090    -999.25    -999.25    -999.25    -999.25    -999.25   13.02570  -37.30460   -3.01370   13.02570
  800.00000  254.34470   55.05460    -999.25    -999.25    -999.25    -999.25    -999.25    -999.25    -999.25   18.16380  203.18400  203.18400   27.42970   27.42970  254.34470   18.16380   33.41920   33.41920    -999.25    -999.25    -999.25    -999.25    -999.25   77.46520 -114.59330  -80.45090   77.46520
  850.00000  223.97620   30.40960    -999.25    -999.25    -999.25    -999.25    -999.25    -999.25    -999.25   32.88440  172.10060  172.10060   24.00680   24.00680  223.97620   32.88440   51.10710   51.10710    -999.25    -999.25    -999.25    -999.25    -999.25  107.81300 -108.64040  -74.67500  107.81300
  900.00000  218.03790   50.86570    -999.25    -999.25    -999.25    -999.25    -999.25    -999.25    -999.25   19.65960  181.10300  181.10300   18.81290   18.81290  218.03790   19.65960   25.09080   25.09080    -999.25    -999.25    -999.25    -999.25    -999.25   58.30030  -97.65690  -63.86840   58.30030
  950.00000  226.40470   37.85030    -999.25    -999.25    -999.25    -999.25    -999.25    -999.25    -999.25   26.41990  180.16290  180.16290   21.71570   21.71570  226.40470   26.41990   38.35970   38.35970    -999.25    -999.25    -999.25    -999.25    -999.25   73.39950 -101.94080  -68.32920   73.39950
 1000.00000  211.45660   15.04560    -999.25    -999.25    -999.25    -999.25    -999.25    -999.25    -999.25   66.46470  166.06340  166.06340   17.88270   17.88270  211.45660   66.46470  120.62880  120.62880    -999.25    -999.25    -999.25    -999.25    -999.25  175.75060 -123.11550  -89.68090  175.75060
 1050.00000  196.13530   99.98100    -999.25    -999.25    -999.25    -999.25    -999.25    -999.25    -999.25   10.00190  195.88520  195.88520   60.30750   60.30750  196.13530   10.00190   12.21050   12.21050    -999.25    -999.25    -999.25    -999.25    -999.25   26.19320  -79.14150  -45.88380   26.19320
 1100.00000  210.50110   90.08930    -999.25    -999.25    -999.25    -999.25    -999.25    -999.25    -999.25   11.10010  196.27960  196.27960   59.89940   59.89940  210.50110   11.10010   16.96570   16.96570    -999.25    -999.25    -999.25    -999.25    -999.25   14.58650  -62.97270  -29.89200   14.58650
 1150.00000  187.83490   49.51350    -999.25    -999.25    -999.25    -999.25    -999.25    -999.25    -999.25   20.19650  182.78620  182.78620   55.47610   55.47610  187.83490   20.19650   29.27430   29.27430    -999.25    -999.25    -999.25    -999.25    -999.25  190.30900 -104.98520  -72.08140  190.30900
 1200.00000  275.41780  282.66150    -999.25    -999.25    -999.25    -999.25    -999.25    -999.25    -999.25    3.53780  250.60840  250.60840   80.64470   80.64470  275.41780    3.53780    3.84940    3.84940    -999.25    -999.25    -999.25    -999.25    -999.25    5.58600  -55.34430  -21.68570    5.58600
 1250.00000  244.49280  232.06160    -999.25    -999.25    -999.25    -999.25    -999.25    -999.25    -999.25    4.30920  183.69150  183.69150   73.79970   73.79970  244.49280    4.30920    5.38830    5.38830    -999.25    -999.25    -999.25    -999.25    -999.25    9.02310  -51.58760  -16.14830    9.02310
 1300.00000  225.50150  157.10920    -999.25    -999.25    -999.25    -999.25    -999.25    -999.25    -999.25    6.36500  248.54270  248.54270   90.74190   90.74190  225.50150    6.36500    7.13470    7.13470    -999.25    -999.25    -999.25    -999.25    -999.25    7.86770  -39.97370   -2.75380    7.86770
 1350.00000  236.11640  142.98380    -999.25    -999.25    -999.25    -999.25    -999.25    -999.25    -999.25    6.99380  206.99100  206.99100   66.83850   66.83850  236.11640    6.99380    9.76930    9.76930    -999.25    -999.25    -999.25    -999.25    -999.25    8.56250  -52.83700  -14.92650    8.56250
 1400.00000  204.07980  151.09390    -999.25    -999.25    -999.25    -999.25    -999.25    -999.25    -999.25    6.61840  238.11200  238.11200   83.57250   83.57250  204.07980    6.61840    7.99490    7.99490    -999.25    -999.25    -999.25    -999.25    -999.25    7.61210  -44.81280   -6.34910    7.61210
 1450.00000  303.88710  516.84930    -999.25    -999.25    -999.25    -999.25    -999.25    -999.25    -999.25    1.93480  341.56720  341.56720  116.06860  116.06860  303.88710    1.93480    2.12510    2.12510    -999.25    -999.25    -999.25    -999.25    -999.25    3.17650  -66.58290  -27.61750    3.17650
 1500.00000  233.34030  256.43000    -999.25    -999.25    -999.25    -999.25    -999.25    -999.25    -999.25    3.89970  257.79910  257.79910   88.30130   88.30130  233.34030    3.89970    4.79920    4.79920    -999.25    -999.25    -999.25    -999.25    -999.25    4.85730  -72.55400  -33.26710    4.85730
 1550.00000  199.08110   69.11140    -999.25    -999.25    -999.25    -999.25    -999.25    -999.25    -999.25   14.46940  190.44550  190.44550   44.82100   44.82100  199.08110   14.46940   14.27880   14.27880    -999.25    -999.25    -999.25    -999.25    -999.25   17.13570  -55.12100  -15.51260   17.13570
