~Version ---------------------------------------------------
VERS.      2.0 : CWLS log ASCII Standard -VERSION 2.0
WRAP.       NO : One line per depth step
CREA. 12/21/17 : LAS Creation Date
~Well ------------------------------------------------------
STRT.FT                         300.0 : START DEPTH
STOP.FT                        9800.0 : STOP DEPTH
STEP.FT                      50.00000 : STEP LENGTH
NULL.                         -999.25 : NULL VALUE
COMP. CHAMPLIN OIL & REFINING COMPANY : COMPANY
WELL.      CHAMPLIN KAYBOB 2-28-64-19 : WELL
FLD .                                 : FIELD
LOC .                                 : LOCATION
CTRY.                          CANADA : COUNTRY
SRVC.          Schlumberger of Canada : SERVICE COMPANY
DATE.                     06-Jul-1960 : LOGDATE
PROV.                         Alberta : PROVINCE
UWI .                100022806419W500 : UNIQUE WELL ID
SLAT.WGS84                   54.56169 : SURFACE LATITUDE
SLON.WGS84                  -116.8075 : SURFACE LONGITUDE
~Curve Information -----------------------------------------
DEPT  .FT    : Depth Curve
CALWS .IN    : CALIPER [MCALED
CILDED.MMHO  : INDUCTION CONDUCTIVITY FROM IEL
CONDWS.MMHO  : CONDUCTIVITY [1000/DRESWS]
DRESWS.OHMM  : DEEP RESISTIVITY [IF ILDED LESS THAN 2, THEN 1000/CILDED. ELSE, ILDED]
GRED  .GAPI  : GAMMA RAY FROM CASED CALIPER LOG [DEPTH SHIFTRED TO RES.]
GRWS  .GAPI  : GAMMA RAY [GRED]
ILDED .OHMM  : INDUCTION LOG RESISTIVITY
MCALED.IN    : MLT (MICROLOG) CALIPER
NEUTED.NAPI  : NEUTRON FROM NEUTRON LOG [SLIGHT DEPTH SHIFT TO SNED]
NEUTWS.NAPI  : NEUTRON [NEUTED]
SNED  .OHMM  : SHORT NORMAL RESISTIVITY FROM IEL
SPRED .MV    : SPONTANEOUS POTENTIAL FROM IEL
SPWS  .MV    : SPONTANEOUS POTENTIAL [SPRED. BASELINE "0" MV]
SRESWS.OHMM  : SHALLOW RESISTIVITY [SNED]
~Params ----------------------------------------------------
LMF .                     KB : LOG MEASURED FROM
DMF .                     KB : DRILLING MEASURED FROM
EKB .FT                 2447 : KELLY BUSHING
EGL .FT                 2432 : GROUND LEVEL
DATE.               07/06/60 : RUN DATE
RUN .                      1 : RUN NUMBER
DD  .FT                 9825 : DEPTH DRILLER
DL  .FT                 9824 : DEPTH LOGGER
BLI .FT                 9818 : BOTTOM LOG INTERVAL
TLI .FT                 1034 : TOP LOG INTERVAL
CBD .FT                 1034 : CASING BOTTOM DRILLER
CBL .FT                 1034 : CASING BOTTOM LOGGER
BS  .IN                7.875 : BIT SIZE
BSD .FT                 9825 : BIT SIZE AT DEPTH
DFT .                    GEL : DRILLING FLUID TYPE
DFD .                   10.4 : DRILLING FLUID DENSITY
DFV .                     90 : DRILLING FLUID VISCOSITY
DFPH.                   10.5 : DRILLING FLUID PH
DFL .                    6.4 : DRILLING FLUID LOSS
MSS .            CIRCULATION : MUD SAMPLE SOURCE
RMS .OHMM                1.5 : RESISTIVITY MUD SAMPLE
MST .DEGF                 90 : MUD SAMPLE TEMPERATURE
RMF .OHMM                0.9 : RESISTIVITY MUD FILTRATE SAMPLE
MFST.DEGF                 88 : MUD FILTRATE SAMPLE TEMPERATURE
RMC .OHMM                2.2 : RESISTIVITY MUD CAKE
MCST.DEGF                 88 : MUD CAKE SAMPLE TEMPERATURE
RMB .OHMM                0.7 : RESISTIVITY MUD AT BHT
TCS .HRS                 2.5 : TIME CIRCULATED STOPPED
LUN .                   1573 : LOGGING UNIT NUMBER
LUL .                     WC : LOGGING UNIT LOCATION
ENGI.                  GOETZ : RECORDING ENGINEER
WITN.                  NAMEE : WITNESSED BY
CLNT.                A2DTECH : CLIENT CODE
ORIG.            2" 5" PRINT : ORIGIN OF DATA
UWI .       100022806419W500 : UNIQUE WELL ID
DICO. A2D Technologies, Inc. : DIGITIZING COMPANY
~Other -----------------------------------------------------
~ASCII -----------------------------------------------------
# ...
 5200.00000    7.96350   75.37460   77.38620   12.92220   42.60030   42.60030   12.92220    7.96350    -999.25    -999.25   21.06310 -105.47910  -64.32950   21.06310
 5250.00000    9.94680  108.99090  116.99740    8.54720   64.13960   64.13960    8.54720    9.94680    -999.25    -999.25   10.84960  -39.73930   -0.89860   10.84960
 5300.00000    9.73740  102.49250  109.65450    9.11960   68.44270   68.44270    9.11950    9.73740    -999.25    -999.25   12.25550  -36.86750   -0.32410   12.25550
 5350.00000    9.49160   85.14640   89.94020   11.11850   83.21440   83.21440   11.11850    9.49160    -999.25    -999.25   14.98260  -36.75820   -2.53510   14.98260
 5400.00000    9.82610   97.90590  112.27190    8.90700   76.87650   76.87650    8.90690    9.82610    -999.25    -999.25   11.37440  -35.95200   -2.88920   11.37450
 5450.00000    8.95940   46.19790   46.55230   21.48120   59.68170   59.68170   21.48120    8.95940    -999.25    -999.25   27.51510  -57.90460  -25.33370   27.51510
 5500.00000    9.29030  111.72140   90.84630   11.00760   68.37510   68.37510   11.00760    9.29030    -999.25    -999.25   19.52040  -37.31510   -5.23380   19.52040
 5550.00000   10.03980   72.34230   70.91190   14.10200   28.84870   28.84870   14.10200   10.03980    -999.25    -999.25   21.70450  -63.93100  -32.33680   21.70460
 5600.00000    9.95090  141.10730  146.99830    6.80280   78.19180   78.19180    6.80280    9.95090    -999.25    -999.25    9.98020  -36.08780   -4.98550    9.98020
 5650.00000   12.31330  355.93010  397.48790    2.51580   73.08620   73.08610    2.51580   12.31330    -999.25    -999.25    3.97140  -32.48610   -1.87100    3.97140
 5700.00000   10.42380  132.09700  147.88090    6.76220   74.56250   74.56250    6.76220   10.42380    -999.25    -999.25    8.78360  -33.62100   -3.49780    8.78360
 5750.00000    9.36430   49.50230   47.00260   21.27540  145.63860  145.63860   21.27540    9.36430    -999.25    -999.25   38.88770  -36.94730   -6.87690   38.88770
 5800.00000    8.44710   82.49310   83.93590   11.91390   80.18740   80.18730   11.91380    8.44710    -999.25    -999.25   26.61500  -34.08990   -3.74430   26.61500
 5850.00000    8.43460    3.93320    3.71590  269.11570  177.18930  177.18930  269.11570    8.43460    -999.25    -999.25  165.52150  -48.97070  -18.34700  165.52150
 5900.00000    9.44480   87.81790   94.79980   10.54850   75.03150   75.03160   10.54860    9.44480    -999.25    -999.25   15.85320  -47.80530  -16.90630   15.85310
 5950.00000    8.60940   74.39240   78.39140   12.75650   66.33520   66.33520   12.75650    8.60940    -999.25    -999.25   18.01760  -51.19380  -20.01680   18.01760
 6000.00000    8.57360   65.13910   69.66460   14.35450   83.39150   83.39150   14.35450    8.57360    -999.25    -999.25   20.21680  -44.40150  -12.94780   20.21680
 6050.00000    8.68950   70.96350   86.60220   11.54710   38.76400   38.76400   11.54700    8.68950    -999.25    -999.25   19.08870  -84.85070  -53.12170   19.08880
 6100.00000    8.19780   22.33030   23.76280   42.08250   23.19730   23.19730   42.08250    8.19780    -999.25    -999.25   64.77110 -155.33000 -123.32300   64.77110
 6150.00000    8.80230   18.45170   18.77850   53.25240   63.41640   63.41630   53.25240    8.80230    -999.25    -999.25   61.83910 -116.67630  -84.39400   61.83910
 6200.00000    8.18380   13.10130   16.83810   59.38920   26.48490   26.48490   59.38920    8.18380    -999.25    -999.25   74.36630 -109.54190  -76.98160   74.36630
 6250.00000    8.21520    7.69290    8.40000  119.04810   41.82520   41.82520  119.04810    8.21520    -999.25    -999.25  100.49700  -71.17490  -38.33790  100.49700
 6300.00000    8.06430    7.72720    6.64090  150.58240   27.08970   27.08970  150.58240    8.06430    -999.25    -999.25   80.60250  -72.71410  -39.60180   80.60250
 6350.00000    7.84140  217.77980  220.94080    4.52610   26.85950   26.85950    4.52610    7.84140    -999.25    -999.25   22.87070 -151.49540 -118.10510   22.87070
 6400.00000    8.18720   66.57460   70.68090   14.14810   26.51300   26.51310   14.14810    8.18720    -999.25    -999.25   32.32710 -102.65700  -68.99140   32.32710
 6450.00000    8.40340   16.54430   16.83990   59.38280   37.13580   37.13580   59.38280    8.40340    -999.25    -999.25   72.29660  -79.64720  -45.70360   72.29660
 6500.00000    8.62460    2.10050    3.43390  291.21720   29.47840   29.47840  291.21720    8.62460    -999.25    -999.25  122.66050 -166.09990 -131.87960  122.66050
 6550.00000    8.30080   39.95610   41.92190   23.85390   21.28710   21.28710   23.85390    8.30080    -999.25    -999.25   65.73800 -178.53230 -144.03670   65.73800
 6600.00000    9.01600   15.44340   18.70880   53.45080   19.13310   19.13310   53.45080    9.01600    -999.25    -999.25   84.14370 -163.38690 -128.61330   84.14370
 6650.00000    8.53260  179.85370  206.46010    4.84360   77.62800   77.62800    4.84360    8.53260    -999.25    -999.25   10.03450  -55.79240  -20.74350   10.03450
 6700.00000    8.63430  286.88020  323.45710    3.09160   52.28150   52.28150    3.09160    8.63430    -999.25    -999.25    5.72010  -80.67130  -45.34440    5.72010
 6750.00000    8.54610   91.83030   79.24430   12.61920   39.77460   39.77460   12.61920    8.54610    -999.25    -999.25   21.41820  -52.31460  -16.71100   21.41820
 6800.00000    9.06690   11.90010    7.76000  128.86680   11.52750   11.52750  128.86680    9.06690    -999.25    -999.25   76.40240  -51.25930  -15.38050   76.40240
 6850.00000    8.56310   20.03510   17.45990   57.27420   12.78300   12.78300   57.27420    8.56310    -999.25    -999.25   74.45970  -91.43600  -55.27910   74.45970
 6900.00000    8.88990    6.51350    6.12140  163.36020   15.87440   15.87440  163.36020    8.88990    -999.25    -999.25  101.42670  -53.97350  -17.69240  101.42670
 6950.00000    8.12110   28.89890   27.99410   35.72180   16.88140   16.88140   35.72180    8.12110    -999.25    -999.25   62.92980 -142.31890 -106.17590   62.92980
 7000.00000    9.55550    7.61980    9.13370  109.48420   15.03900   15.03900  109.48420    9.55550    -999.25    -999.25   85.70120  -75.32040  -39.31480   85.70120
 7050.00000    7.91960    7.16290    7.84970  127.39360   27.54430   27.54430  127.39360    7.91960    -999.25    -999.25  115.10710  -82.91970  -47.05080  115.10710
 7100.00000    7.95450   11.30290   11.82930   84.53600   30.07960   30.07960   84.53600    7.95450    -999.25    -999.25   78.18320  -50.83750  -15.10660   78.18320
 7150.00000    7.93060   14.08760   14.52430   68.85020   36.53010   36.53010   68.85020    7.93060    -999.25    -999.25   66.54060  -47.95830  -12.36410   66.54050
 7200.00000    7.96850   22.47520   23.69600   42.20120   48.72160   48.72160   42.20120    7.96850    -999.25    -999.25   46.27880  -47.15100  -11.69490   46.27880
 7250.00000   10.03310    7.27820    5.53540  180.65530    9.27680    9.27680  180.65530   10.03310    -999.25    -999.25   90.62290  -67.31960  -32.00090   90.62290
 7300.00000    8.66340    1.28120    2.48210  402.88390   16.34850   16.34850  402.88390    8.66340    -999.25    -999.25  132.32850  -64.74890  -29.56680  132.32850
 7350.00000    8.93310    6.94980    6.42350  155.67950    9.81340    9.81340  155.67950    8.93310    -999.25    -999.25  107.08480 -120.42440  -85.38040  107.08480
 7400.00000    9.71750    1.77140    4.26810  234.29850   14.62460   14.62460  234.29850    9.71750    -999.25    -999.25  158.22540 -108.35660  -73.44930  158.22540
 7450.00000    8.85360    3.51440    2.93060  341.23040   13.70190   13.70190  341.23040    8.85360    -999.25    -999.25  147.05920 -115.91940  -81.15020  147.05920
 7500.00000    9.69050    5.65230    4.15470  240.68990   15.34380   15.34380  240.68990    9.69050    -999.25    -999.25  133.61330 -115.51620  -80.88440  133.61330
 7550.00000    8.52660    3.43180    3.83670  260.64310   12.77400   12.77400  260.64310    8.52660    -999.25    -999.25  157.03240 -121.54440  -87.04920  157.03240
 7600.00000    9.95040    2.79720    2.12390  470.83940   13.39400   13.39400  470.83940    9.95040    -999.25    -999.25  146.22470 -133.40030  -99.04320  146.22470
