~Version ---------------------------------------------------
VERS. 2.0 : CWLS log ASCII Standard -VERSION 2.0
WRAP.  NO : ONE LINE PER DEPTH STEP
~Well ------------------------------------------------------
STRT.F                              1100.0 : START DEPTH
STOP.F                             11550.0 : STOP DEPTH
STEP.F                            50.00000 : STEP LENGTH
NULL.                              -999.25 : NULL VALUE
COMP.              MURPHY OIL COMPANY LTD. : COMPANY
WELL. MURPHY ASHLAND WOLF CREEK 11-5-53-15 : WELL
FLD .                                      : FIELD
LOC .                                      : LOCATION
CTRY.                               CANADA : COUNTRY
SRVC.               Schlumberger of Canada : SERVICE COMPANY
DATE.                          08-Dec-1976 : LOGDATE
PROV.                              Alberta : PROVINCE
UWI .                     100110505315W500 : UNIQUE WELL ID
SLAT.WGS84                        53.55101 : SURFACE LATITUDE
SLON.WGS84                        -116.179 : SURFACE LONGITUDE
~Curve Information -----------------------------------------
DEPT   .F    0   1   0  0 : 1 MEASURED DEPTH
SPR    .MV   07 010 01 00 : SPONTANEOUS POTENTIAL FROM RESISTIVITY LOG
ILD    .OHMM 07 120 46 00 : INDUCTION DEEP RESISTIVITY
ILM    .OHMM 07 120 44 00 : INDUCTION MEDIUM RESISTIVITY
LL8    .OHMM 07 220 08 00 : LATEROLOG 8
CILD   .MMHO 07 110 46 00 : INDUCTION DEEP CONDUCTIVITY
DPHI_SS.DEC  45 890 12 00 : DENSITY POROSITY SANDSTONE
NPHI_SS.DEC  42 890 03 00 : NEUTRON POROSITY SANDSTONE
GRD    .GAPI 45 310 01 00 : GAMMA RAY FROM DENSITY LOG
CALD   .IN   45 280 60 00 : CALIPER FROM DENSITY LOG
DPHI_LS.DEC  45 890 10 00 : DENSITY POROSITY LIMESTONE
NPHI_LS.DEC  42 890 01 00 : NEUTRON POROSITY LIMESTONE
DRHO   .G/C3 45 356 01 00 : BULK DENSITY CORRECTION
RHOB   .G/C3 45 350 01 00 : BULK DENSITY
DT     .US/F 60 500 00 00 : DELTA-T (INTERVAL TRANSIT TIME)
CALS   .IN   60 280 50 00 : CALIPER FROM SONIC LOG
GRS    .GAPI 60 310 01 00 : GAMMA RAY FROM SONIC LOG
~Params ----------------------------------------------------
PD  .                     GL : PERMANENT DATUM
EPD .FT               2966.3 : ELEVATION PERMANENT DATUM
LMF .                     KB : LOG MEASURED FROM
DAPD.FT                 15.4 : FEET ABOVE PERMANENT DATUM
EKB .FT               2981.7 : KELLY BUSHING
EGL .FT               2966.3 : GROUND LEVEL
DATE.               12/08/76 : RUN DATE
RUN .                      1 : RUN NUMBER
DD  .FT                11560 : DEPTH DRILLER
DL  .FT                11554 : DEPTH LOGGER
BLI .FT                11548 : BOTTOM LOG INTERVAL
TLI .FT                 1160 : TOP LOG INTERVAL
CBD .FT                 1160 : CASING BOTTOM DRILLER
CBL .FT                 1160 : CASING BOTTOM LOGGER
BS  .IN                 8.75 : BIT SIZE
BSD .FT                11560 : BIT SIZE AT DEPTH
DFT .               GEL CHEM : DRILLING FLUID TYPE
DFD .                    9.1 : DRILLING FLUID DENSITY
DFV .                    290 : DRILLING FLUID VISCOSITY
DFPH.                     11 : DRILLING FLUID PH
DFL .                    5.8 : DRILLING FLUID LOSS
MSS .               FLOWLINE : MUD SAMPLE SOURCE
RMS .OHMM               1.67 : RESISTIVITY MUD SAMPLE
MST .DEGF                 37 : MUD SAMPLE TEMPERATURE
RMF .OHMM                1.3 : RESISTIVITY MUD FILTRATE SAMPLE
MFST.DEGF                 55 : MUD FILTRATE SAMPLE TEMPERATURE
TCS .HRS                 2.5 : TIME CIRCULATED STOPPED
LUN .                   7730 : LOGGING UNIT NUMBER
LUL .                    EDM : LOGGING UNIT LOCATION
ENGI.        MCDONALD KARAKI : RECORDING ENGINEER
WITN.            ABEL WORKUM : WITNESSED BY
CLNT.                A2DTECH : CLIENT CODE
ORIG.            2" 5" PRINT : ORIGIN OF DATA
UWI .       100110505315W500 : UNIQUE WELL ID
DICO. A2D Technologies, Inc. : DIGITIZING COMPANY
~Other -----------------------------------------------------
~ASCII -----------------------------------------------------
# ...
 7550.00000  -68.28590   17.19090   17.93650   27.01450    -999.25    0.22930    0.27960   83.49330    9.55150    -999.25    -999.25    0.23940    2.30370   72.51860    9.13480   90.11260
 7600.00000  -73.64580    4.70910    6.07290    9.30320    -999.25    0.45040    0.43720   72.70030   14.99780    -999.25    -999.25    0.12010    1.70210   93.27770   11.26250   84.08190
 7650.00000  -67.25240   21.89300   25.56830   44.46840    -999.25    0.37490    0.34510  103.37040   10.37370    -999.25    -999.25    0.19670    2.06710   79.59250    8.86800  116.64620
 7700.00000  -66.72620   32.39940   35.87850   61.72550    -999.25   -0.02290    0.21420   99.55310    9.84660    -999.25    -999.25    0.15680    2.63980   67.86900    8.82480   98.91560
 7750.00000  -73.04580   38.74130   42.38480   63.19840    -999.25    0.10380    0.13880   55.67040   11.67300    -999.25    -999.25    0.20820    2.47400   81.44220    9.01440   64.68200
 7800.00000  -76.92110    4.89220    5.34420    5.47610    -999.25    0.04180    0.12860   41.01870   12.26000    -999.25    -999.25    0.21350    2.60730   67.22370    9.05910   62.01400
 7850.00000  -75.01110   13.92730   14.76200   18.03930    -999.25    0.18730    0.34370   90.81980   11.63160    -999.25    -999.25    0.22660    2.08480   71.30710    9.17010   96.53550
 7900.00000  -70.14530    7.31840   12.60480   13.39560    -999.25    0.44970    0.51380   94.22260   15.01750    -999.25    -999.25    0.16250    1.63160   94.89880   10.76930   99.72400
 7950.00000 -137.20550   27.91690   39.63320  108.49480    -999.25    0.10680    0.13150   31.19390    8.65740    -999.25    -999.25    0.09400    2.49070   63.38040    8.74750   29.68040
 8000.00000 -143.86440  142.29620  171.82020  762.59040    -999.25    0.05370    0.04250   17.13350    8.87670    0.06980   -0.01400    0.10020    2.63490   52.03920    8.85120   17.15090
 8050.00000  -88.18900  161.54580  251.72270  310.06120    -999.25    -999.25    -999.25   46.19710    8.80100    0.07680    0.08920    0.12200    2.58350   60.67810    8.71710   50.16740
 8100.00000 -103.95480   46.68210   51.14410   72.87880    -999.25    -999.25    -999.25   26.49660    9.28960   -0.00390    0.08410    0.13010    2.62110   54.03340    8.76240   28.34210
 8150.00000 -113.30460   33.28630   35.58420   65.94370    -999.25    -999.25    -999.25   43.75960   10.34560    0.14340    0.07970    0.19030    2.54830   50.95070    9.14700   53.73280
 8200.00000  -86.15120   61.59510   78.50910  125.55130    -999.25    -999.25    -999.25   44.87580    9.11340   -0.07190    0.02790    0.01900    2.82040   56.63060    8.90180   49.00070
 8250.00000 -132.50650  581.72420 1552.06570 1385.48720    -999.25    -999.25    -999.25   17.67840    9.02800   -0.11710    0.00380    0.01030    2.87620   47.46780    8.75880   16.47990
 8300.00000 -140.90970  318.90100 1472.79660 1068.79570    -999.25    -999.25    -999.25   16.91210    9.50440    0.02860    0.01680    0.19120    2.64890   46.78030    8.83670   13.95290
 8350.00000  -80.03890   10.93120   11.90580   21.52720    -999.25    -999.25    -999.25   62.63050    9.06200    0.05040    0.11670    0.11750    2.67030   56.11390    8.80470  102.67100
 8400.00000  -54.75200   17.45650   18.87560   21.57240    -999.25    -999.25    -999.25   75.37220    8.95190    0.00500    0.10470    0.01200    2.70310   56.78720    8.76090   81.93970
 8450.00000 -103.13300    8.14980    9.07470   16.67840    -999.25    -999.25    -999.25   49.02580    8.87010    0.00270    0.09530    0.02910    2.70000   58.20110    8.76100   45.83520
 8500.00000  -66.23590   17.67330   18.61430   21.62560    -999.25    -999.25    -999.25   56.95600    8.90140    0.02040    0.10170    0.00980    2.66980   58.32590    8.75630   56.69070
 8550.00000  -62.02710   31.61950   34.72520   65.94090    -999.25    -999.25    -999.25   58.53830    8.87040    0.01410    0.06560    0.03580    2.69690   55.70120    8.79420   60.26710
 8600.00000  -48.33470   30.49710   31.49590   49.95680    -999.25    -999.25    -999.25   40.61630    9.02000   -0.00510    0.05350    0.10200    2.71280   55.90410    8.82140   42.11730
 8650.00000  -57.62500  172.98480  197.29610  330.97480    -999.25    -999.25    -999.25   31.08500    8.87680    0.01510    0.02210    0.01120    2.68860   52.23810    8.84360   31.90810
 8700.00000  -62.14000   84.67770   88.81680  107.45540    -999.25    -999.25    -999.25   36.81080    8.90110   -0.01970    0.03140    0.03650    2.74340   53.58950    8.90720   40.68240
 8750.00000  -57.40440   42.97920   44.91980   68.65450    -999.25    -999.25    -999.25   43.02150    8.99480    0.01640    0.03900    0.01590    2.67660   55.20550    8.76370   41.94770
 8800.00000  -54.12720   86.44210   91.89900  160.30970    -999.25    -999.25    -999.25   52.04260    8.94710    0.02440    0.04100    0.00270    2.67260   56.64670    8.78610   55.88320
 8850.00000  -72.11150  109.23480  146.78080  201.76100    -999.25    -999.25    -999.25  106.46870    8.93800    0.05490    0.09930    0.00810    2.62500   63.29200    8.75850  118.16980
 8900.00000  -89.23110  322.11510 1501.59990  941.49920    -999.25    -999.25    -999.25   24.12480    9.91820    0.06610    0.00760    0.25110    2.60390   50.42340    9.04820   25.66430
 8950.00000 -120.20350  327.82220 1531.50590 1011.71580    -999.25    -999.25    -999.25   14.55250   10.01440    0.06670    0.00430    0.22890    2.58330   49.32010    9.04560   17.62750
 9000.00000 -118.87100  135.55570 1026.69400  401.26430    -999.25    -999.25    -999.25   21.58720    9.77890    0.04720    0.00400    0.24870    2.63620   49.10240    8.96670   26.59250
 9050.00000 -135.75750  217.51030  837.89510  320.93660    -999.25    -999.25    -999.25   12.47320   11.19320    0.12110    0.00610    0.24880    2.50040   49.41500    9.14030   13.00290
 9100.00000 -135.59910  120.58260 1543.44570  290.67000    -999.25    -999.25    -999.25   16.15190   12.22450    0.17300    0.02010    0.22670    2.41320   49.30780    9.11480   13.66490
 9150.00000 -136.72980   97.37540 1518.92540  183.45160    -999.25    -999.25    -999.25   15.08170   12.65970    0.16820    0.01740    0.22060    2.40130   58.70920    9.12890   15.66060
 9200.00000 -140.97340  125.02380  284.82170  147.42740    -999.25    -999.25    -999.25   11.70370   11.20920    0.12210    0.00620    0.21000    2.49170   52.78180    9.05090   12.23390
 9250.00000 -142.38890  125.92630  803.53530  316.25500    -999.25    -999.25    -999.25   12.21640   11.73190    0.08970    0.01320    0.22750    2.55960   49.19540    9.16830   13.65060
 9300.00000 -140.03980   98.98930  873.09160  308.93220    -999.25    -999.25    -999.25   15.07020   13.34570    0.22960    0.00650    0.25070    2.30930   50.21790    9.10170   17.02960
 9350.00000 -141.72000  223.04720 1531.72280  713.80880    -999.25    -999.25    -999.25   15.21950   13.41400    0.19240    0.01250    0.17670    2.36980   49.80530    9.08250   15.19510
 9400.00000 -144.82890  182.68650  411.56510  239.69810    -999.25    -999.25    -999.25   17.26560   11.74420    0.27510    0.02090    0.11690    2.21480   51.19620    9.11730   18.38330
 9450.00000 -140.82380  190.39350 1567.66200  754.81990    -999.25    -999.25    -999.25   20.14550   12.22490    0.33680    0.01110    0.24960    2.13940   49.81420    9.13070   22.94040
 9500.00000 -136.85870   55.53710  193.91160  135.88050    -999.25    -999.25    -999.25   13.12260   11.47180    0.22760    0.02590    0.16620    2.32940   49.29250    9.16690   13.13800
 9550.00000 -197.45450   13.81310   10.72470   98.20670    -999.25    -999.25    -999.25   14.72040    8.91910   -0.06760    0.07400    0.15640    2.85330   50.56910    8.73560   15.96950
 9600.00000 -138.23680  202.83630  865.74140  639.73380    -999.25    -999.25    -999.25   20.14440    9.50410   -0.08290    0.02010    0.21540    2.84660   46.73410    8.86710   14.59480
 9650.00000 -149.61530   49.75960   66.43280   66.89070    -999.25    -999.25    -999.25   31.61780    8.85840   -0.03330    0.06320    0.07240    2.73530   51.87300    8.78910   22.78140
