~Version ---------------------------------------------------
VERS. 2.0 : CWLS log ASCII Standard -VERSION 2.0
WRAP.  NO : ONE LINE PER DEPTH STEP
~Well ------------------------------------------------------
STRT.F                         1200.0 : START DEPTH
STOP.F                        11700.0 : STOP DEPTH
STEP.F                       50.00000 : STEP LENGTH
NULL.                         -999.25 : NULL VALUE
COMP.            MOBIL OIL CANADA LTD : COMPANY
WELL. MOBIL ICG MARSH HEAD 11-3-60-20 : WELL
FLD .                                 : FIELD
LOC .                                 : LOCATION
CTRY.                          CANADA : COUNTRY
SRVC.                    Schlumberger : SERVICE COMPANY
DATE.                     05-Jan-1976 : LOGDATE
PROV.                         Alberta : PROVINCE
UWI .                100110306020W500 : UNIQUE WELL ID
SLAT.WGS84                   54.15991 : SURFACE LATITUDE
SLON.WGS84                  -116.9171 : SURFACE LONGITUDE
~Curve Information -----------------------------------------
DEPT   .F                 : 
CALD   .IN   70 280 01 00 : CALIPER FROM DENSITY LOG
GRD    .GAPI              : GAMMA RAY FROM DENSITY LOG
ILD    .OHMM 07 120 46 00 : DEEP INDUCTION RESISTIVITY
ILM    .OHMM 07 120 44 00 : INDUCTION LOG MEDIUM RESISTIVITY
LL8    .OHMM              : LATEROLOG-8 RESISTIVITY
SPR    .MV                : SPONTANEOUS POTENTIAL FROM RESISTIVITY
DT     .US/F 60 532 00 00 : 3-4 FT COMPENSATED SONIC
DRHO   .G/C3 00 000 00 01 : DENSITY CORRECTION
RHOB   .G/C3 45 350 01 00 : BULK DENSITY
NPHI_LS.DEC               : ENCHANCED THERMAL NEUTRON POROSITY IN SELECTED LITHOLOGY SANDSTONE
DPHI_LS.DEC  45 890 10 00 : DENSITY POROSITY LIMESTONE
CALS   .IN                : CALIPER FROM SONIC LOG
GRS    .GAPI              : GAMMA RAY FROM SONIC LOG
~Params ----------------------------------------------------
PD  .                     GL : PERMANENT DATUM
EPD .FT               3132.5 : ELEVATION PERMANENT DATUM
LMF .                     KB : LOG MEASURED FROM
DAPD.FT                 14.5 : FEET ABOVE PERMANENT DATUM
EKB .FT                 3147 : KELLY BUSHING
EGL .FT               3132.5 : GROUND LEVEL
DATE.               01/05/76 : RUN DATE
RUN .                      1 : RUN NUMBER
DD  .FT                11725 : DEPTH DRILLER
DL  .FT                11730 : DEPTH LOGGER
BLI .FT                11724 : BOTTOM LOG INTERVAL
TLI .FT                 1203 : TOP LOG INTERVAL
CBD .FT                 1203 : CASING BOTTOM DRILLER
CBL .FT                 1203 : CASING BOTTOM LOGGER
BS  .IN                 8.75 : BIT SIZE
BSD .FT                11725 : BIT SIZE AT DEPTH
DFT .                    GEL : DRILLING FLUID TYPE
DFD .                    9.6 : DRILLING FLUID DENSITY
DFV .                    110 : DRILLING FLUID VISCOSITY
DFPH.                   10.5 : DRILLING FLUID PH
DFL .                    9.8 : DRILLING FLUID LOSS
MSS .               FLOWLINE : MUD SAMPLE SOURCE
RMS .OHMM               2.42 : RESISTIVITY MUD SAMPLE
MST .DEGF                 74 : MUD SAMPLE TEMPERATURE
RMF .OHMM               1.63 : RESISTIVITY MUD FILTRATE SAMPLE
MFST.DEGF                 74 : MUD FILTRATE SAMPLE TEMPERATURE
RMB .OHMM               0.67 : RESISTIVITY MUD AT BHT
TCS .HRS                   3 : TIME CIRCULATED STOPPED
LUN .                   7658 : LOGGING UNIT NUMBER
LUL .                     RD : LOGGING UNIT LOCATION
ENGI.              DODSWORTH : RECORDING ENGINEER
WITN.   OLINYK LINDENSCHMIDT : WITNESSED BY
CLNT.                A2DTECH : CLIENT CODE
ORIG.            2" 5" PRINT : ORIGIN OF DATA
UWI .       100110306020W500 : UNIQUE WELL ID
DICO. A2D Technologies, Inc. : DIGITIZING COMPANY
~Other -----------------------------------------------------
~ASCII -----------------------------------------------------
# ...
 6400.00000    -999.25   97.88810    4.56780    4.88150    6.51280  -77.09360   82.27950    0.03820    1.54020    0.33070    -999.25    9.48610  103.75020
 6450.00000    -999.25   90.64910    8.61030    6.21340    7.54050  -77.85510   83.88260    0.06720    1.55180    0.36380    -999.25   12.78720  102.66510
 6500.00000   12.23330   94.27420   12.33610   14.25790   22.88690  -77.10890   77.54580    0.14210    1.89930    0.22580    0.40300    9.52460   96.05640
 6550.00000   11.27400   73.23950   22.94770   19.90350   23.84350  -77.09230   68.08010    0.13730    2.44380    0.08920    0.13990    9.48730   70.30270
 6600.00000   11.04870   66.30220   18.65220   19.69150   21.71500  -79.96360   70.26990    0.00710    2.51230    0.15170    0.12220    9.46910   60.50670
 6650.00000   10.95140   29.85660   32.04950   29.21860   43.00370  -89.67000   61.53240    0.02460    2.45000    0.07700    0.13130    9.57480   31.54150
 6700.00000   11.57530   47.05920   29.16870   22.22750   27.75070  -78.00760   68.57680    0.00930    2.50330    0.11400    0.12660    9.78630   52.41900
 6750.00000   11.70000   57.21170   16.95230   14.89280   22.96920  -77.03160   68.86980    0.00730    2.49910    0.18110    0.17950    9.79290   55.96420
 6800.00000   10.30890   21.99520   29.54400   65.40740  257.15750  -73.64360   55.16910    0.00060    2.65410    0.03700    0.02390    9.38090   33.07510
 6850.00000   15.02360   55.26420   24.88680    9.68500   44.12060  -70.35280  112.35190    0.00590    1.43400    0.44850    -999.25   13.86370   56.41150
 6900.00000   10.85470   60.02010   18.01130   15.53320   20.40870  -74.04030   66.82340   -0.00110    2.54500    0.14660    0.10170    9.44160   65.26010
 6950.00000   10.78840   75.31260   19.35640   16.29480   22.69730  -76.53660   67.92560    0.01670    2.54100    0.14720    0.10870    9.41630   76.97790
 7000.00000   11.75650   79.69410   20.36210   16.91280   25.38930  -73.02720   73.75370    0.13460    2.04320    0.21300    0.30560    9.48040   83.18500
 7050.00000   10.99250   62.65260   18.91290   18.76110   29.40730  -73.69930   66.64060    0.03850    2.58050    0.15090    0.06120    9.47580   66.35740
 7100.00000   11.02690   60.61990   12.12910   11.29530   13.83030  -72.48900   69.00420    0.04860    2.54330    0.13790    0.09110    9.95520   56.66830
 7150.00000   10.66210   45.85410   19.99410   19.13470   23.10850  -86.38550   68.03640    0.01480    2.55230    0.10140    0.09140    9.47520   51.05910
 7200.00000   10.67030   80.06550   19.26260   18.06300   27.83460  -71.19580   67.73710    0.02560    2.58380    0.13940    0.07170    9.47820   79.70110
 7250.00000   10.62120   86.73740   20.36550   18.95530   24.17430  -69.26210   70.26990    0.01280    2.57380    0.14920    0.07280    9.43150   85.71890
 7300.00000   10.86960   94.42720   16.52370   19.20390   24.28090  -70.13050   69.07150    0.00550    2.53100    0.18690    0.13640    9.44300   94.03320
 7350.00000   11.29970   92.04490   12.68520   13.57630   17.07140  -70.97570   73.65760    0.14940    2.44720    0.19200    0.18260    9.79270  100.48630
 7400.00000   10.46900   80.74650   29.76360   20.93990   23.56540  -69.80370   81.01530    0.10580    2.47490    0.22820    0.21290   10.17880   78.64550
 7450.00000    9.76480   71.21880   18.90530   34.40460   78.23290  -70.93080   60.89340   -0.00190    2.46520    0.11000    0.12010    9.41460   74.99920
 7500.00000   10.12220   88.04730   38.80680   32.27940   58.41720  -68.61880   69.43260    0.18330    2.53030    0.16960    0.12320    9.44540   87.03190
 7550.00000   11.76550   97.00210   15.94710   17.75210   22.10760  -61.22130   69.27380    0.09460    2.19070    0.22420    0.37350    9.39420   92.92880
 7600.00000   10.75080   65.27010   52.83700   33.22950   47.47730 -103.30470   67.70740    0.16580    2.29470    0.11510    0.20210    9.40740   46.97930
 7650.00000   14.82980   73.97890    6.92520    6.03790    7.36060  -65.59210   88.24030    0.10040    1.84360    0.42810    -999.25   14.20250   81.80580
 7700.00000   13.89850   87.27320    7.61060    5.83550    8.08230  -60.30880   89.76270    0.14090    1.89730    0.39810    -999.25   12.43250   82.72560
 7750.00000   10.33440   97.26650    5.13690    3.00330    6.78850  -60.04830  131.96640    0.04940    2.06040    0.41330    -999.25    9.45750   87.53940
 7800.00000   11.44080   92.49570   18.49100   19.74060   42.48870  -81.25470   94.38200    0.22410    2.15320    0.36020    0.32080   11.49600   98.59710
 7850.00000    9.19430  300.01390  109.87160  114.55710  800.67140 -118.96530   70.04750    0.00530    2.42310    0.16550    0.18080    9.00160  299.76850
 7900.00000    9.49530   82.00910   21.10710   24.48340   32.60220  -92.88920   61.29440    0.01350    2.59260    0.05550    0.07410    9.17120   69.32450
 7950.00000    9.49340   80.30540   41.62610   44.31710   60.37870  -82.84800   59.90740    0.01320    2.58210    0.05900    0.08490    9.14440   77.18860
 8000.00000    9.45840   94.56010   49.66610   53.92220   81.75980  -77.02780   58.57880    0.00330    2.63190    0.07480    0.04430    9.12780   80.40730
 8050.00000    9.20610   16.86360   51.46340   54.67670  168.22540 -163.46180   50.31290    0.13430    2.54380    0.05080    0.08600    8.70840   26.57130
 8100.00000   10.71510   24.10630   34.77630   31.87960   52.75840 -128.42370   54.69480    0.25310    2.49830    0.06700    0.11650    9.38480   41.86120
 8150.00000   11.69450   28.23040   93.60070  106.55410  244.32550 -146.41790   50.22140    0.23600    2.24520    0.03310    0.23330    9.37040   39.71120
 8200.00000   12.45330   63.65760   86.73600   96.10850  529.47330 -129.14640   54.13720    0.19240    2.35210    0.04180    0.22780    9.37910   57.88790
 8250.00000   13.40730   29.31870   25.70090   27.27530   21.69120 -158.34360   57.25020    0.12610    2.12070    0.14030    0.31870    9.34490   32.22220
 8300.00000   10.73660   52.43880   48.14390   58.48610  127.87220 -122.18640   56.70890    0.21490    2.37690    0.02600    0.17060    9.21400   43.39600
 8350.00000   10.43720   35.80590   45.36280   51.03190  116.28680 -114.35350   50.92230    0.10510    2.66960    0.02980    0.02710    9.05630   46.32740
 8400.00000   10.48330    9.74920  231.27810  198.94080 1526.82250 -178.62400   50.07110   -0.00840    2.84340   -0.00740   -0.07110    9.23460    9.82060
 8450.00000    9.91580   20.54530   37.16670   48.48690   96.46750 -172.08370   50.90280    0.19750    2.39050    0.04670    0.19110    9.44190   19.07450
 8500.00000   13.48960   15.22000  137.98690  117.73230 1500.23540 -123.13430   50.29040    0.14760    2.33280    0.00090    0.20520    9.43830   17.99170
 8550.00000    9.37000   78.45010   17.37240   18.10870   28.37160  -67.13200   55.57130    0.01500    2.67520    0.07980    0.03050    9.05450   58.83690
 8600.00000    9.76190   78.59630   27.03400   34.24740   61.71780  -50.94080   53.25620    0.00770    2.65870    0.03320    0.03030    9.06080   68.56310
 8650.00000   10.21020   61.86820   28.87010   34.15590   56.67370  -45.03190   54.81530   -0.00860    2.63110    0.05380    0.04360    9.41590   60.41610
 8700.00000   11.49090   34.42240   61.61400   63.38610  195.62100  -63.99410   53.25660    0.09120    2.61570    0.00820    0.06270    9.44410   26.94510
 8750.00000   10.19480   33.40950   61.72340   65.08840  119.68010  -68.08410   53.65390    0.01060    2.59360    0.00510    0.06120    9.45230   32.91170
 8800.00000    9.44260   45.37880   44.29850   45.16590   75.64470  -37.01490   55.63850   -0.00200    2.63520    0.03230    0.04020    9.03510   43.41490
 8850.00000    9.47290   37.88560   67.96940   70.99990  128.69930  -44.38170   53.41660   -0.00680    2.63360    0.01630    0.03340    9.14570   36.72820
 8900.00000    9.51370   43.40590   51.27970   54.81310   93.43670  -36.62380   54.08340   -0.00180    2.64080    0.02320    0.03280    9.12610   36.94960
 8950.00000    9.34080   28.94460  106.46640  137.40730  651.81960  -55.20870   51.51750   -0.00260    2.63190    0.00730    0.04520    8.98180   30.46550
