~Version ---------------------------------------------------
VERS.      2.0 : CWLS log ASCII Standard -VERSION 2.0
WRAP.       NO : One line per depth step
CREA. 08/01/17 : LAS Creation Date
~Well ------------------------------------------------------
STRT.FT                                1400.0 : START DEPTH
STOP.FT                               13550.0 : STOP DEPTH
STEP.FT                              50.00000 : STEP LENGTH
NULL.                                 -999.25 : NULL VALUE
COMP.               EXXONMOBIL RESOURCES LTD. : COMPANY
WELL. CDN-SUP ET AL BREWSTER CK 6-12-42-11 #6 : WELL
FLD .                                         : FIELD
LOC .                                         : LOCATION
CTRY.                                  CANADA : COUNTRY
SRVC.                            Schlumberger : SERVICE COMPANY
DATE.                             03-May-1962 : LOGDATE
PROV.                                 Alberta : PROVINCE
UWI .                        100061204211W500 : UNIQUE WELL ID
SLAT.WGS84                           52.60151 : SURFACE LATITUDE
SLON.WGS84                          -115.4546 : SURFACE LONGITUDE
~Curve Information -----------------------------------------
DEPT  .FT    : Depth Curve
CALMED.IN    : CALIPER FROM MICROLOG
CALWS .IN    : CALIPER [CALMED]
CILDED.MMHO  : CONDUCTIVITY FROM RESISTIVITY LOG
CONDWS.MMHO  : CONDUCTIVITY [1000/DRESWS]
DRESWS.OHMM  : DEEP RESISTIVITY [ILDED] IF DRESWS<1;1000/CONDWS
GRNED .GAPI  : GAMMA RAY FROM NEUTRON LOG
GRWS  .GAPI  : GAMMA RAY [GRNED]
ILDED .OHMM  : INDUCTION LOG DEEP RESISTIVITY
NEUTED.CPS   : NEUTRON FROM NEUTRON LOG
NEUTWS.CPS   : NEUTRON [NEUTED]
SNED  .OHMM  : 16 INCH SHORT NORMAL RESISTIVITY FROM IEL
SPRED .MV    : SPONTANEOUS POTENTIAL FROM RESISTIVITY LOG
SPWS  .MV    : SPONTANEOUS POTENTIAL [BASELINE 0 MV] [SPRED]
SRESWS.OHMM  : SHALLOW RESISTIVITY [SNED]
~Params ----------------------------------------------------
PD  .                     GL : PERMANENT DATUM
EPD .FT                 3360 : ELEVATION PERMANENT DATUM
LMF .                     KB : LOG MEASURED FROM
DAPD.FT                   16 : FEET ABOVE PERMANENT DATUM
EKB .FT                 3376 : KELLY BUSHING
EGL .FT                 3360 : GROUND LEVEL
DATE.               05/03/62 : RUN DATE
RUN .                      2 : RUN NUMBER
DD  .FT                13600 : DEPTH DRILLER
DL  .FT                13574 : DEPTH LOGGER
BLI .FT                13573 : BOTTOM LOG INTERVAL
TLI .FT                10193 : TOP LOG INTERVAL
CBD .FT                 1380 : CASING BOTTOM DRILLER
CBL .FT                 1380 : CASING BOTTOM LOGGER
BS  .IN                    9 : BIT SIZE
BSD .FT                13600 : BIT SIZE AT DEPTH
DFT .                 UNICAL : DRILLING FLUID TYPE
DFD .                    9.8 : DRILLING FLUID DENSITY
DFV .                    190 : DRILLING FLUID VISCOSITY
DFPH.                    8.5 : DRILLING FLUID PH
DFL .                    4.6 : DRILLING FLUID LOSS
RMS .OHMM                2.5 : RESISTIVITY MUD SAMPLE
MST .DEGF                 54 : MUD SAMPLE TEMPERATURE
RMF .OHMM               0.72 : RESISTIVITY MUD FILTRATE SAMPLE
MFST.DEGF                 71 : MUD FILTRATE SAMPLE TEMPERATURE
RMC .OHMM               1.08 : RESISTIVITY MUD CAKE
MCST.DEGF                 71 : MUD CAKE SAMPLE TEMPERATURE
RMB .OHMM               0.24 : RESISTIVITY MUD AT BHT
TCS .HRS                   5 : TIME CIRCULATED STOPPED
LUN .                   2771 : LOGGING UNIT NUMBER
ENGI.                 GORITZ : RECORDING ENGINEER
WITN.              MACINTOSH : WITNESSED BY
CLNT.                A2DTECH : CLIENT CODE
ORIG.            2" 5" PRINT : ORIGIN OF DATA
UWI .       100061204211W500 : UNIQUE WELL ID
DICO. A2D Technologies, Inc. : DIGITIZING COMPANY
~Other -----------------------------------------------------
~ASCII -----------------------------------------------------
# ...
 3850.00000    -999.25    -999.25  123.78290  116.95630    8.55020    -999.25    -999.25    8.55020    -999.25    -999.25   11.68400  -21.04820   -4.95450   11.68400
 3900.00000    -999.25    -999.25   99.72090   95.35890   10.48670    -999.25    -999.25   10.48670    -999.25    -999.25   14.03380  -22.60660   -6.51290   14.03380
 3950.00000   13.21000   13.21000  153.60660  147.69750    6.77280    -999.25    -999.25    6.77280    -999.25    -999.25    9.15640  -21.88800   -5.79430    9.15640
 4000.00000   10.69760   10.69760   33.37680   28.39370   35.21910    -999.25    -999.25   35.21910    -999.25    -999.25   38.80690  -35.29740  -19.20370   38.80690
 4050.00000   11.14740   11.14740  102.56280  102.54520    9.75180    -999.25    -999.25    9.75180    -999.25    -999.25   13.29150  -22.99950   -6.90580   13.29150
 4100.00000   11.23980   11.23980  165.59100  174.58100    5.72800    -999.25    -999.25    5.72800    -999.25    -999.25    8.45130  -21.06880   -4.97510    8.45130
 4150.00000   11.48040   11.48040  119.72890  118.94000    8.40760    -999.25    -999.25    8.40760    -999.25    -999.25   10.71390  -21.91800   -5.82430   10.71390
 4200.00000   11.16090   11.16090  166.83430  171.74990    5.82250    -999.25    -999.25    5.82250    -999.25    -999.25    8.62480  -21.49260   -5.39890    8.62480
 4250.00000   12.05400   12.05400  162.00980  167.38080    5.97440    -999.25    -999.25    5.97440    -999.25    -999.25    9.08980  -21.38320   -5.28950    9.08980
 4300.00000   12.71720   12.71720  100.72470   91.86950   10.88500    -999.25    -999.25   10.88500    -999.25    -999.25   13.25390  -21.98460   -5.89090   13.25390
 4350.00000   11.72800   11.72800  149.87430  145.95560    6.85140    -999.25    -999.25    6.85140    -999.25    -999.25    9.07050  -21.53420   -5.44050    9.07050
 4400.00000   10.97440   10.97440  128.60920  124.09870    8.05810   79.74340   79.74340    8.05810  207.85930  207.85930   10.01780  -20.82340   -4.72970   10.01780
 4450.00000   12.08850   12.08850  112.59600  107.86790    9.27120   76.48410   76.48410    9.27120  204.57070  204.57070   11.41180  -21.52260   -5.42900   11.41180
 4500.00000   11.60290   11.60290  116.88900  111.36850    8.97920   74.83380   74.83380    8.97920  210.82240  210.82240   11.70050  -20.62020   -4.52650   11.70050
 4550.00000   11.03440   11.03440   77.97610   70.09080   14.26720   62.03950   62.03950   14.26720  213.79610  213.79610   20.40590  -19.68860   -3.59490   20.40590
 4600.00000   11.82470   11.82470   85.20010   81.46770   12.27480   71.76700   71.76700   12.27480  214.03700  214.03700   17.38130  -21.21800   -5.12430   17.38130
 4650.00000   12.18340   12.18340  103.55000  101.55690    9.84670   76.89850   76.89850    9.84670  208.74080  208.74080   12.96320  -21.82650   -5.73280   12.96320
 4700.00000   11.53280   11.53280  162.77290  164.20530    6.09000   72.86070   72.86070    6.09000  206.75780  206.75780    7.95140  -21.25050   -5.15680    7.95140
 4750.00000   11.37570   11.37570  137.00720  138.19410    7.23620  113.80380  113.80380    7.23620  204.13180  204.13180    9.20470  -20.92130   -4.82760    9.20470
 4800.00000   10.88660   10.88660   61.69350   54.53630   18.33640   44.60500   44.60500   18.33640  251.07510  251.07510   21.94110  -22.88610   -6.79240   21.94110
 4850.00000   12.13190   12.13190  133.70500  135.31070    7.39040   78.52450   78.52450    7.39040  198.06680  198.06680    9.78190  -20.54300   -4.44930    9.78190
 4900.00000   14.03180   14.03180   94.54430   90.02120   11.10850   75.01840   75.01840   11.10850  208.54410  208.54410   14.28940  -20.30740   -4.21370   14.28940
 4950.00000   11.86160   11.86160  153.05140  155.23840    6.44180   49.41200   49.41200    6.44180  209.87940  209.87940   11.64780  -21.76520   -5.67160   11.64780
 5000.00000   10.69310   10.69310   54.17490   45.19840   22.12470   26.18580   26.18580   22.12470  237.66450  237.66450   30.66160  -29.60240  -13.50870   30.66160
 5050.00000   12.17960   12.17960  157.56790  160.60900    6.22630   81.64600   81.64600    6.22630  199.15520  199.15520    8.34350  -20.12260   -4.02890    8.34350
 5100.00000   12.89470   12.89470  118.84630  109.96140    9.09410   89.61800   89.61800    9.09410  218.04960  218.04960   12.95110  -20.73860   -4.64490   12.95110
 5150.00000   11.60760   11.60760  129.67950  129.71180    7.70940   92.38020   92.38020    7.70940  207.78860  207.78860   10.18520  -21.32440   -5.23070   10.18520
 5200.00000   12.74360   12.74360   74.61390   65.17940   15.37460   67.68440   67.68440   15.37460  256.01740  256.01740   17.11410  -21.82360   -5.72990   17.11410
 5250.00000   14.54680   14.54680  122.17090  117.90230    8.48160  103.25330  103.25330    8.48160  193.91500  193.91500   11.01050  -21.22040   -5.12670   11.01050
 5300.00000   11.24980   11.24980  122.72730  117.55440    8.50670   93.50820   93.50820    8.50670  210.30220  210.30220   10.93820  -21.28250   -5.18880   10.93820
 5350.00000   11.02650   11.02650  186.50870  197.47240    5.06400  166.10350  166.10350    5.06400  195.16970  195.16970    7.20150  -20.81470   -4.72100    7.20150
 5400.00000   10.47870   10.47870   44.83040   36.81110   27.16570   60.54940   60.54940   27.16570  224.40600  224.40600   38.00320  -29.24380  -13.15010   38.00320
 5450.00000   12.47880   12.47880   89.68230   85.81400   11.65330  101.74060  101.74060   11.65330  192.37450  192.37450   15.67590  -21.28210   -5.18840   15.67590
 5500.00000   14.99870   14.99870   95.56990   90.24370   11.08110   95.85970   95.85970   11.08110  186.92750  186.92750   13.64590  -21.16100   -5.06730   13.64590
 5550.00000   11.09900   11.09900   38.31850   32.28310   30.97600   49.31250   49.31250   30.97600  239.76610  239.76610   38.21680  -23.18130   -7.08760   38.21680
 5600.00000   10.52960   10.52960   81.01200   76.23060   13.11810   59.82780   59.82780   13.11810  219.74140  219.74140   14.90850  -20.63360   -4.53990   14.90850
 5650.00000   10.84700   10.84700   49.34100   40.77940   24.52220   68.46410   68.46410   24.52220  207.57700  207.57700   31.51420  -22.05140   -5.95770   31.51420
 5700.00000   10.29510   10.29510   46.45300   36.71140   27.24440   41.53210   41.53210   27.24440  231.29110  231.29110   34.91710  -31.89200  -15.79830   34.91710
 5750.00000   11.37330   11.37330   61.68140   50.92640   19.63620   75.22970   75.22970   19.63620  234.92810  234.92810   24.18590  -22.10960   -6.01590   24.18590
 5800.00000   11.86930   11.86930  104.00940   91.30420   10.95240   67.26330   67.26330   10.95240  236.30760  236.30760   18.08070  -19.92070   -3.82700   18.08070
 5850.00000    9.99440    9.99440   39.25180   30.72320   32.54870   31.44240   31.44240   32.54870  287.86260  287.86260   45.13280  -30.92110  -14.82740   45.13280
 5900.00000   12.22830   12.22830  103.60830  106.74070    9.36850   91.62510   91.62510    9.36850  201.31270  201.31270   13.01530  -20.02800   -3.93430   13.01530
 5950.00000   11.36320   11.36320   74.34060   69.51570   14.43420   60.90730   60.90730   14.43420  225.45100  225.45100   21.38840  -21.73550   -5.64180   21.38840
 6000.00000   11.29570   11.29570   91.66580   90.10710   11.09790   92.52230   92.52230   11.09790  207.10650  207.10650   16.13760  -20.85860   -4.76490   16.13760
 6050.00000   10.27540   10.27540   64.57860   57.43920   17.40970   69.50420   69.50420   17.40970  226.05910  226.05910   23.10200  -20.52690   -4.43320   23.10200
 6100.00000   11.24040   11.24040  118.88850  113.93540    8.77690   80.86680   80.86680    8.77690  220.88130  220.88130   13.87030  -19.96090   -3.86720   13.87030
 6150.00000   10.21560   10.21560  145.81650  152.74170    6.54700   56.43850   56.43850    6.54700  190.19310  190.19310   12.07640  -21.14940   -5.05570   12.07640
 6200.00000   10.29420   10.29420   87.76350   74.41460   13.50350   44.32370   44.32370   13.50350  221.73430  221.73430   21.99190  -20.58470   -4.49100   21.99190
 6250.00000   10.21030   10.21030   75.42620   66.04760   15.14060   41.02030   41.02030   15.14060  219.77080  219.77080   20.96030  -20.13070   -4.03700   20.96030
