~Version ---------------------------------------------------
VERS.      2.0 : CWLS log ASCII Standard -VERSION 2.0
WRAP.       NO : One line per depth step
CREA. 08/02/17 : LAS Creation Date
~Well ------------------------------------------------------
STRT.FT                  1500.0 : START DEPTH
STOP.FT                 14300.0 : STOP DEPTH
STEP.FT                50.00000 : STEP LENGTH
NULL.                   -999.25 : NULL VALUE
COMP. BANNER PETROLEUMS LIMITED : COMPANY
WELL.   CREW PHOENIX 7-21-39-10 : WELL
FLD .                           : FIELD
LOC .                           : LOCATION
CTRY.                    CANADA : COUNTRY
SRVC.              Schlumberger : SERVICE COMPANY
DATE.               05-Aug-1970 : LOGDATE
PROV.                   Alberta : PROVINCE
UWI .          100072103910W500 : UNIQUE WELL ID
SLAT.WGS84             52.36858 : SURFACE LATITUDE
SLON.WGS84            -115.3771 : SURFACE LONGITUDE
~Curve Information -----------------------------------------
DEPT    .FT    : Depth Curve
ACED    .US/F  : DELTA TIME FROM SONIC LOG, DEPTH ADJUSTED WITH [GRSED]
CALDED  .IN    : CALIPER FROM DENSITY LOG, DEPTH ADJUSTED WITH [SPRED]
CALS1ED .IN    : CALIPER FROM SONIC LOG (DRESSER ATLAS),DEPTH ADJUSTED WITH [GRSED]
CALSED  .IN    : CALIPER FROM SONIC LOG, DEPTH ADJUSTED WITH [SPRED]
CALWS   .IN    : CALIPER [CALSED], SPLICED WITH [CALS1ED] FROM 9970'- 11167'
CILDED  .MMHO  : CONDUCTIVITY FROM RESISTIVITY LOG
CONDWS  .MMHO  : CONDUCTIVITY [1000/DRESWS]
DCORED  .G/C3  : DENSITY CORRECTION FROM CFD LOG, DEPTH ADJUSTED WITH [SPRED]
DCORWS  .G/C3  : DENSITY CORRECTION [DRHOED]
DENWS   .G/C3  : BULK DENSITY [RHOBED]
DPHILSED.V/V   : DENSITY POROSITY [M=2.71 F=1.00] FROM CFD LOG, DEPTH ADJUSTED WITH [SPRED]
DPOLSWS .V/V   : DENSITY POROSITY LIMESTONE [CALCULATED FROM DENWS]
DRESWS  .OHMM  : DEEP RESISTIVITY [ILDED] IF DRESWS<1;1000/CONDWS,SPLICED WITH [ILD1ED] AT 11167'
DTED    .US/F  : DELTA TIME FROM SONIC LOG, DEPTH ADJUSTED WITH [SPRED]
DTWS    .US/F  : DELTA TIME [DTED], SPLICED WITH [ACED] FROM 9967-11167'
GRDED   .GAPI  : GAMMA RAY FROM DENSITY LOG, DEPTH ADJUSTED WITH [SPRED]
GRNED   .GAPI  : GAMMA RAY FROM NEUTRON LOG, DEPTH ADJUSTED WITH [SPRED]
GRS1ED  .GAPI  : GAMMA RAY FROM SONIC LOG (DRESSER ATLAS), DEPTH ADJUSTED WITH [GRSED]
GRSED   .GAPI  : GAMMA RAY FROM SONIC LOG,DEPTH ADJUSTED WITH [SPRED]
GRWS    .GAPI  : GAMMA RAY [GRSED], SPLICED WITH [GRS1ED] FROM 9967-11167'
ILD1ED  .OHMM  : INDUCTION LOG DEEP RESISTIVITY
ILDED   .OHMM  : INDUCTION LOG DEEP RESISTIVITY
ILMED   .OHMM  : INDUCTION LOG MEDIUM RESISTIVITY
LL8ED   .OHMM  : 8 INCH LATEROLOG RESISTIVITY
MRESWS  .OHMM  : MEDIUM RESISTIVITY [ILMED]
NEUTED  .NAPI  : NEUTRON FROM NEUTRON LOG, DEPTH ADJUSTED WITH [SPRED]
NEUTWS  .NAPI  : NEUTRON [NEUTED]
RHOBED  .G/C3  : BULK DENSITY FROM CFD LOG, DEPTH ADJUSTED WITH [SPRED]
SNED    .OHMM  : 16 INCH SHORT NORMAL RESISTIVITY FROM IEL
SPR1ED  .MV    : SPONTANEOUS POTENTIAL FROM RESISTIVITY LOG
SPRED   .MV    : SPONTANEOUS POTENTIAL FROM RESISTIVITY LOG
SPWS    .MV    : SPONTANEOUS POTENTIAL [BASELINE 0 MV] [SPRED], SPLICWED WITH [SPR1ED] AT 11167
SRESWS  .OHMM  : SHALLOW RESISTIVITY [SNED]
~Params ----------------------------------------------------
PD  .                     GL : PERMANENT DATUM
EPD .FT                 3888 : ELEVATION PERMANENT DATUM
LMF .                     KB : LOG MEASURED FROM
DAPD.FT                   14 : FEET ABOVE PERMANENT DATUM
EKB .FT                 3902 : KELLY BUSHING
EGL .FT                 3888 : GROUND LEVEL
DATE.               08/07/70 : RUN DATE
RUN .                      1 : RUN NUMBER
DD  .FT                14310 : DEPTH DRILLER
DL  .FT                14309 : DEPTH LOGGER
BLI .FT                14304 : BOTTOM LOG INTERVAL
TLI .FT                11171 : TOP LOG INTERVAL
CBD .FT                11171 : CASING BOTTOM DRILLER
CBL .FT                11168 : CASING BOTTOM LOGGER
BS  .IN                5.968 : BIT SIZE
BSD .FT                14310 : BIT SIZE AT DEPTH
DFT .               GEL CHEM : DRILLING FLUID TYPE
DFD .                   11.6 : DRILLING FLUID DENSITY
DFV .                    105 : DRILLING FLUID VISCOSITY
DFPH.                    7.5 : DRILLING FLUID PH
DFL .                    6.4 : DRILLING FLUID LOSS
MSS .               FLOWLINE : MUD SAMPLE SOURCE
RMS .OHMM               1.51 : RESISTIVITY MUD SAMPLE
MST .DEGF                 71 : MUD SAMPLE TEMPERATURE
RMF .OHMM               1.05 : RESISTIVITY MUD FILTRATE SAMPLE
MFST.DEGF                 70 : MUD FILTRATE SAMPLE TEMPERATURE
RMB .OHMM               0.29 : RESISTIVITY MUD AT BHT
TCS .HRS                   3 : TIME CIRCULATED STOPPED
LUN .                   7002 : LOGGING UNIT NUMBER
LUL .                     RD : LOGGING UNIT LOCATION
ENGI.                 MEGSON : RECORDING ENGINEER
WITN.         DOMANKO HUTTON : WITNESSED BY
CLNT.                A2DTECH : CLIENT CODE
ORIG.            2" 5" PRINT : ORIGIN OF DATA
UWI .       100072103910W500 : UNIQUE WELL ID
DICO. A2D Technologies, Inc. : DIGITIZING COMPANY
~Other -----------------------------------------------------
~ASCII -----------------------------------------------------
# ...
 12500.00000    -999.25    8.00970    -999.25    6.20860    6.20860    -999.25    0.74980    0.11990    0.11990    2.52380    0.10780    0.10890 1333.70370   47.79190   47.79190   14.58420    -999.25    -999.25   19.73480   19.73480 1333.70370    -999.25    -999.25 1461.53420    -999.25    -999.25    -999.25    2.52380    -999.25 -113.43680    -999.25  -92.04560 1461.53420
 12550.00000    -999.25    5.99610    -999.25    6.14430    6.14430    -999.25    0.76340    0.02010    0.02010    2.84220   -0.08090   -0.07730 1309.94290   46.15310   46.15310   14.52450    -999.25    -999.25   16.35920   16.35920 1309.94290    -999.25    -999.25 1481.79310    -999.25    -999.25    -999.25    2.84220    -999.25 -148.02520    -999.25 -128.69970 1481.79310
 12600.00000    -999.25    6.11730    -999.25    5.81520    5.81520    -999.25    9.03060    0.05310    0.05310    2.80050   -0.05680   -0.05290  110.73420   49.53350   49.53350    7.98340    -999.25    -999.25   11.08320   11.08320  110.73420    -999.25    -999.25  633.09180    -999.25    -999.25    -999.25    2.80050    -999.25 -185.90560    -999.25 -168.64580  633.09180
 12650.00000    -999.25    6.48390    -999.25    6.14470    6.14470    -999.25    0.74670    0.15760    0.15760    2.71250   -0.00240   -0.00150 1339.25340   46.85750   46.85750   12.65450    -999.25    -999.25   16.82800   16.82800 1339.25340    -999.25    -999.25 1484.59010    -999.25    -999.25    -999.25    2.71250    -999.25 -157.97910    -999.25 -142.78500 1484.59010
 12700.00000    -999.25    6.34490    -999.25    6.42600    6.42600    -999.25    1.78440    0.04370    0.04370    2.82480   -0.06920   -0.06710  560.42750   48.44240   48.44240    7.22760    -999.25    -999.25    8.08060    8.08060  560.42750    -999.25    -999.25 1380.08460    -999.25    -999.25    -999.25    2.82480    -999.25 -112.57380    -999.25  -99.44540 1380.08460
 12750.00000    -999.25    6.28690    -999.25    6.22430    6.22430    -999.25    0.75990    0.03270    0.03270    2.87500   -0.10040   -0.09650 1316.02640   47.11020   47.11020    8.41480    -999.25    -999.25    8.72710    8.72710 1316.02640    -999.25    -999.25 1471.19100    -999.25    -999.25    -999.25    2.87500    -999.25 -112.58080    -999.25 -101.51810 1471.19100
 12800.00000    -999.25    6.18070    -999.25    6.00950    6.00950    -999.25    6.01480    0.16250    0.16250    2.65890    0.02790    0.02990  166.25610   47.96150   47.96150   17.17010    -999.25    -999.25   22.23830   22.23830  166.25610    -999.25    -999.25 1219.82230    -999.25    -999.25    -999.25    2.65890    -999.25 -114.86630    -999.25 -105.86930 1219.82230
 12850.00000    -999.25    7.18710    -999.25    6.36330    6.36330    -999.25    0.80500    0.11550    0.11550    2.63890    0.04920    0.04160 1242.27230   45.64870   45.64870    8.15490    -999.25    -999.25   10.81620   10.81620 1242.27230    -999.25    -999.25 1237.53340    -999.25    -999.25    -999.25    2.63890    -999.25  -78.85420    -999.25  -71.92290 1237.53340
 12900.00000    -999.25    7.84130    -999.25    6.76330    6.76330    -999.25    1.71970    0.05620    0.05620    2.40850    0.17180    0.17630  581.49010   45.62900   45.62900    8.69530    -999.25    -999.25   11.83870   11.83870  581.49010    -999.25    -999.25  675.59790    -999.25    -999.25    -999.25    2.40850    -999.25   -5.27710    -999.25    0.00460  675.59790
 12950.00000    -999.25    5.72020    -999.25    5.92310    5.92310    -999.25   13.98260    0.03430    0.03430    2.75010   -0.02730   -0.02350   71.51760   49.13100   49.13100    4.59100    -999.25    -999.25    8.28580    8.28580   71.51760    -999.25    -999.25  253.57860    -999.25    -999.25    -999.25    2.75010    -999.25  -42.85520    -999.25  -38.77230  253.57860
 13000.00000    -999.25    5.73790    -999.25    5.99160    5.99160    -999.25   22.90740    0.01380    0.01380    2.80460   -0.05850   -0.05530   43.65400   53.77030   53.77030    7.40270    -999.25    -999.25   10.04950   10.04950   43.65400    -999.25    -999.25  130.41420    -999.25    -999.25    -999.25    2.80460    -999.25  -38.80380    -999.25  -35.91970  130.41420
 13050.00000    -999.25    5.74250    -999.25    5.85700    5.85700    -999.25    3.25710    0.01120    0.01120    2.83360   -0.07730   -0.07230  307.01970   47.16090   47.16090    9.67200    -999.25    -999.25   10.78260   10.78260  307.01970    -999.25    -999.25  766.08530    -999.25    -999.25    -999.25    2.83360    -999.25  -15.44930    -999.25  -13.76400  766.08530
 13100.00000    -999.25    5.62090    -999.25    6.12120    6.12120    -999.25   13.85490    0.01210    0.01210    2.75310   -0.02630   -0.02520   72.17660   47.97230   47.97230    3.23810    -999.25    -999.25    6.25140    6.25140   72.17660    -999.25    -999.25  828.65240    -999.25    -999.25    -999.25    2.75310    -999.25    -999.25    -999.25    -999.25  828.65240
 13150.00000    -999.25    5.86850    -999.25    6.09540    6.09540    -999.25    2.72820    0.01350    0.01350    2.78680   -0.04690   -0.04490  366.53950   51.69220   51.69220   58.44820    -999.25    -999.25   76.71760   76.71760  366.53950    -999.25    -999.25 1396.91580    -999.25    -999.25    -999.25    2.78680    -999.25  -42.96310    -999.25  -43.67540 1396.91580
 13200.00000    -999.25    5.98500    -999.25    6.15190    6.15190    -999.25   18.35140    0.00060    0.00060    2.72590   -0.01040   -0.00930   54.49190   57.03910   57.03910   61.34990    -999.25    -999.25   67.31600   67.31600   54.49190    -999.25    -999.25   71.33230    -999.25    -999.25    -999.25    2.72590    -999.25 -190.24200    -999.25 -192.15310   71.33230
 13250.00000    -999.25    8.58570    -999.25    6.61370    6.61370    -999.25   65.03810    0.12520    0.12520    2.72070   -0.00880   -0.00630   15.37560   66.79240   66.79240   89.14240    -999.25    -999.25  104.22930  104.22930   15.37560    -999.25    -999.25   20.19840    -999.25    -999.25    -999.25    2.72070    -999.25  -47.11190    -999.25  -50.22180   20.19840
 13300.00000    -999.25    6.20020    -999.25    6.07260    6.07260    -999.25   39.68100    0.00020    0.00020    2.71480   -0.00630   -0.00280   25.20100   60.21970   60.21970   73.46810    -999.25    -999.25   79.27040   79.27040   25.20100    -999.25    -999.25   33.00910    -999.25    -999.25    -999.25    2.71480    -999.25 -124.52400    -999.25 -128.83270   33.00910
 13350.00000    -999.25    6.16120    -999.25    6.10950    6.10950    -999.25   42.77690    0.00400    0.00400    2.73890   -0.02010   -0.01690   23.37710   61.82040   61.82040   83.43790    -999.25    -999.25  102.18110  102.18110   23.37710    -999.25    -999.25   31.10050    -999.25    -999.25    -999.25    2.73890    -999.25 -118.18410    -999.25 -123.69160   31.10050
 13400.00000    -999.25    6.37130    -999.25    5.83670    5.83670    -999.25   55.76750    0.02650    0.02650    2.70960   -0.00400    0.00020   17.93160   65.44360   65.44360   96.27200    -999.25    -999.25  106.71410  106.71410   17.93160    -999.25    -999.25   23.94770    -999.25    -999.25    -999.25    2.70960    -999.25  -79.29720    -999.25  -86.00350   23.94770
 13450.00000    -999.25    6.17800    -999.25    5.83270    5.83270    -999.25   45.63500    0.00940    0.00940    2.71590   -0.00580   -0.00350   21.91300   62.87200   62.87200   92.02020    -999.25    -999.25   99.92680   99.92680   21.91300    -999.25    -999.25   30.35240    -999.25    -999.25    -999.25    2.71590    -999.25 -134.19790    -999.25 -142.10300   30.35240
 13500.00000    -999.25    6.23000    -999.25    5.94750    5.94750    -999.25   48.69400    0.00100    0.00100    2.68740    0.01330    0.01320   20.53640   63.95630   63.95630   89.33010    -999.25    -999.25   92.76080   92.76080   20.53640    -999.25    -999.25   27.29720    -999.25    -999.25    -999.25    2.68740    -999.25  -27.74810    -999.25  -36.85200   27.29720
 13550.00000    -999.25    6.19230    -999.25    5.82890    5.82890    -999.25   49.86840    0.01440    0.01440    2.73210   -0.01610   -0.01290   20.05280   53.25870   53.25870   84.44020    -999.25    -999.25   86.47750   86.47750   20.05280    -999.25    -999.25   27.36120    -999.25    -999.25    -999.25    2.73210    -999.25  -99.98620    -999.25 -110.28890   27.36120
