~Version ---------------------------------------------------
VERS.      2.0 : CWLS log ASCII Standard -VERSION 2.0
WRAP.       NO : One line per depth step
CREA. 12/15/17 : LAS Creation Date
~Well ------------------------------------------------------
STRT.FT                         950.0 : START DEPTH
STOP.FT                        9250.0 : STOP DEPTH
STEP.FT                      50.00000 : STEP LENGTH
NULL.                         -999.25 : NULL VALUE
COMP.   TEXACO CANADA ENTERPRISES LTD : COMPANY
WELL. TEXCAN ET AL MAHASKA 7-10-58-13 : WELL
FLD .                                 : FIELD
LOC .                                 : LOCATION
CTRY.                          CANADA : COUNTRY
SRVC.                         Unknown : SERVICE COMPANY
DATE.                     11-Jan-1974 : LOGDATE
PROV.                         Alberta : PROVINCE
UWI .                100071005813W500 : UNIQUE WELL ID
SLAT.WGS84                   53.99612 : SURFACE LATITUDE
SLON.WGS84                  -115.8404 : SURFACE LONGITUDE
~Curve Information -----------------------------------------
DEPT    .FT    : Depth Curve
CALDED  .IN    : CALIPER FROM DENSITY LOG
CALSED  .IN    : CALIPER FROM SONIC LOG
CALWS   .IN    : CALIPER [CALSED]
CONDWS  .MMHO  : CONDUCTIVITY [1000/DRESWS]
DCORED  .G/C3  : DENSITY CORRECTION FROM DENSITY LOG [ADJ TO RESISTIVITY LOG]
DCORWS  .G/C3  : DENSITY CORRECTION [DCORED]
DENWS   .G/C3  : FORMATION BULK DENSITY [RHOBED]
DPHILSED.V/V   : DENSITY POROSITY LIMESTONE [M=2.71, F=1.00] FROM DENSITY LOG [ADJ TO RESISTIVITY LOG]
DPHISSED.V/V   : DENSITY POROSITY SANDSTONE [M=2.65, F=1.00] FROM DENSITY LOG [ADJ TO RESISTIVITY LOG]
DPOLSWS .V/V   : DENSITY POROSITY LIMESTONE [CALC FROM DENWS,M=2.71, F=1.00]
DRESWS  .OHMM  : DEEP RESISTIVITY [ILDED]
DTED    .US/F  : INTERVAL TRANSIT TIMEM=2.65, F=1.00 FROM SONIC LOG [ADJ TO RESISTIVITY LOG]
DTWS    .US/F  : COMPRESSIONAL SONIC [DTED]
GRDED   .GAPI  : GAMMA RAY FROM DENSITY LOG
GRSED   .GAPI  : GAMMA RAY FROM SONIC LOG
GRWS    .GAPI  : GAMMA RAY [GRSED]
ILDED   .OHMM  : INDUCTION LOG DEEP FROM RESISTIVITY LOG
ILMED   .OHMM  : INDUCTION LOG MEDIUM FROM RESISTIVITY LOG
LL8ED   .OHMM  : LATEROLOG-8 FROM RESISTIVITY LOG
MRESWS  .OHMM  : MEDIUM RESISTIVITY [ILMED]
NPHILSED.V/V   : NEUTRON POROSITY LIMESTONE FROM DENSITY LOG [ADJ TO RESISTIVITY LOG]
NPHISSED.V/V   : NEUTRON POROSITY SANDSTONE FROM DENSITY LOG [ADJ TO RESISTIVITY LOG]
NPOLSWS .V/V   : NEUTRON POROSITY LIMESTONE [NPHISSED MATRIX CONVERTED TO LIMESTONE (SLB-CNL) & SPL @ 5728' TO NPHILSED]
RHOBED  .G/C3  : BULK DENSITY FROM DENSITY LOG [ADJ TO RESISTIVITY LOG]
SPRED   .MV    : SPONTANEOUS POTENTIAL FROM RESISTIVITY LOG
SPWS    .MV    : SPONTANEOUS POTENTIAL [BASELINE 0MV, SPRED]
SRESWS  .OHMM  : SHALLOW RESISTIVITY [LL8ED]
~Params ----------------------------------------------------
PD  .                     GL : PERMANENT DATUM
EPD .FT               2427.8 : ELEVATION PERMANENT DATUM
LMF .                     KB : LOG MEASURED FROM
DAPD.FT                 18.2 : FEET ABOVE PERMANENT DATUM
DMF .                     KB : DRILLING MEASURED FROM
EKB .FT                 2446 : KELLY BUSHING
EGL .FT               2427.8 : GROUND LEVEL
DATE.               01/11/74 : RUN DATE
RUN .                      1 : RUN NUMBER
DD  .FT                 9279 : DEPTH DRILLER
DL  .FT                 9280 : DEPTH LOGGER
BLI .FT                 9274 : BOTTOM LOG INTERVAL
TLI .FT                  960 : TOP LOG INTERVAL
CBD .FT                  960 : CASING BOTTOM DRILLER
CBL .FT                  960 : CASING BOTTOM LOGGER
BS  .IN                 8.75 : BIT SIZE
BSD .FT                 9279 : BIT SIZE AT DEPTH
DFT .               GEL CHEM : DRILLING FLUID TYPE
DFD .                    9.2 : DRILLING FLUID DENSITY
DFV .                    130 : DRILLING FLUID VISCOSITY
DFPH.                      9 : DRILLING FLUID PH
DFL .                     11 : DRILLING FLUID LOSS
MSS .               FLOWLINE : MUD SAMPLE SOURCE
RMS .OHMM               2.59 : RESISTIVITY MUD SAMPLE
MST .DEGF                 50 : MUD SAMPLE TEMPERATURE
RMF .OHMM               1.92 : RESISTIVITY MUD FILTRATE SAMPLE
MFST.DEGF                 50 : MUD FILTRATE SAMPLE TEMPERATURE
TCS .HRS                   5 : TIME CIRCULATED STOPPED
LUN .                   7636 : LOGGING UNIT NUMBER
LUL .                    EDM : LOGGING UNIT LOCATION
ENGI.                  BOYKO : RECORDING ENGINEER
WITN.         PRIER CHAUDHRY : WITNESSED BY
CLNT.                A2DTECH : CLIENT CODE
ORIG.            2" 5" PRINT : ORIGIN OF DATA
UWI .       100071005813W500 : UNIQUE WELL ID
DICO. A2D Technologies, Inc. : DIGITIZING COMPANY
~Other -----------------------------------------------------
DIL-FDC-CNL-GR-SLC-GR TOOL RUN
RHOB & DRHO VERIFIED FROM SMALL SCALE LOG
~ASCII -----------------------------------------------------
# ...
 6150.00000    9.36310    9.41820    9.41820   86.61760    0.04680    0.04680    2.79730   -0.05440    -999.25   -0.05110   11.54500   60.88900   60.88900    -999.25   68.03570   68.03570   11.54500   12.08310   16.29700   12.08310    0.18150    -999.25    0.18150    2.79730  -83.05120  -49.49330   16.29700
 6200.00000    9.46460    9.45600    9.45600   90.86780    0.01220    0.01220    2.66180    0.02460    -999.25    0.02820   11.00500   59.47300   59.47300    -999.25   41.82610   41.82610   11.00500   11.92730   19.50300   11.92730    0.16300    -999.25    0.16300    2.66180  -89.82690  -57.23810   19.50300
 6250.00000    9.23240    9.33870    9.33870   35.76240    0.02040    0.02040    2.69810   -0.00470    -999.25    0.00700   27.96230   57.40930   57.40930    -999.25   35.83840   35.83840   27.96230   28.73740   32.87140   28.73740    0.07830    -999.25    0.07830    2.69810  -93.09840  -61.47870   32.87140
 6300.00000    9.20690    9.26670    9.26670   15.69230    0.01140    0.01140    2.73360   -0.01270    -999.25   -0.01380   63.72550   52.45930   52.45930    -999.25   26.10930   26.10930   63.72550   65.83210   91.01440   65.83210    0.04750    -999.25    0.04750    2.73360  -72.63420  -41.98360   91.01440
 6350.00000    9.25860    9.23810    9.23810   19.96950    0.00480    0.00480    2.69020    0.00930    -999.25    0.01160   50.07630   53.61820   53.61820    -999.25   28.54700   28.54700   50.07630   51.58080   74.84840   51.58080    0.04530    -999.25    0.04530    2.69020  -63.77500  -34.09350   74.84840
 6400.00000    9.32040    9.24270    9.24270   15.76470    0.02100    0.02100    2.71140   -0.00320    -999.25   -0.00080   63.43290   55.07420   55.07420    -999.25   34.30480   34.30480   63.43290   65.48930   77.78710   65.48930    0.04780    -999.25    0.04780    2.71140  -53.94980  -25.23740   77.78710
 6450.00000    9.36500    9.31930    9.31930   37.81350    0.01680    0.01680    2.68220    0.00830    -999.25    0.01630   26.44560   56.16240   56.16240    -999.25   25.88730   25.88730   26.44560   28.89110   36.68540   28.89110    0.06950    -999.25    0.06950    2.68220  -55.29230  -27.54890   36.68540
 6500.00000    9.18410    9.20400    9.20400   22.57990   -0.00210   -0.00210    2.69200   -0.00150    -999.25    0.01050   44.28710   54.56860   54.56860    -999.25   31.00030   31.00030   44.28710   46.19840   60.99230   46.19840    0.05570    -999.25    0.05570    2.69200  -58.98870  -32.21440   60.99230
 6550.00000    9.19490    9.27680    9.27680    7.23920    0.02770    0.02770    2.68690    0.00590    -999.25    0.01350  138.13760   58.36340   58.36340    -999.25   54.03580   54.03580  138.13760  127.26000  176.80810  127.26000    0.08740    -999.25    0.08740    2.68690  -44.67860  -18.87340  176.80810
 6600.00000    9.20960    9.26080    9.26080    8.05930    0.03290    0.03290    2.74420   -0.02520    -999.25   -0.02000  124.08050   51.47010   51.47010    -999.25   24.92750   24.92750  124.08050  135.18580  166.73340  135.18580    0.03200    -999.25    0.03200    2.74420  -81.39270  -56.55660  166.73340
 6650.00000    9.22320    9.14890    9.14890    7.92130    0.02500    0.02500    2.70490   -0.01150    -999.25    0.00300  126.24270   51.39460   51.39460    -999.25   29.15380   29.15380  126.24270  169.93340  214.02480  169.93340    0.03670    -999.25    0.03670    2.70490  -50.78930  -26.92230  214.02480
 6700.00000    9.17930    9.14020    9.14020    1.66720    0.03190    0.03190    2.74000   -0.02290    -999.25   -0.01750  599.79650   48.95520   48.95520    -999.25   11.64350   11.64350  599.79650  392.95320  356.98190  392.95320    0.01690    -999.25    0.01690    2.74000  -98.56440  -75.10290  356.98190
 6750.00000    9.33320    9.21190    9.21190    2.66080    0.01280    0.01280    2.74670   -0.01530    -999.25   -0.02150  375.83130   48.73010   48.73010    -999.25   10.63730   10.63730  375.83130  260.49610  300.01920  260.49610    0.03030    -999.25    0.03030    2.74670 -122.14560  -99.08380  300.01920
 6800.00000    9.83620    9.34270    9.34270    1.55340    0.20080    0.20080    2.71790   -0.02140    -999.25   -0.00460  643.73240   48.67050   48.67050    -999.25   11.37690   11.37690  643.73240  397.88990  569.83230  397.88990    0.01930    -999.25    0.01930    2.71790 -129.48550 -106.82350  569.83230
 6850.00000   10.70880    9.82700    9.82700    3.14170    0.23050    0.23050    2.62700    0.05110    -999.25    0.04850  318.29520   48.73210   48.73210    -999.25   12.67870   12.67870  318.29520  337.51710  988.26250  337.51710    0.02630    -999.25    0.02630    2.62700 -137.71980 -115.45750  988.26250
 6900.00000   12.53290    9.92510    9.92510    0.66190    0.12700    0.12700    2.41720    0.16360    -999.25    0.17120 1510.76890   49.56980   49.56980    -999.25    9.74670    9.74670 1510.76890  469.85610  532.31780  469.85610    0.04150    -999.25    0.04150    2.41720 -132.08090 -110.21840  532.31780
 6950.00000    9.67050    9.32420    9.32420    2.90190    0.15310    0.15310    2.68280    0.01480    -999.25    0.01590  344.59590   48.71740   48.71740    -999.25    8.68320    8.68320  344.59590  254.09920  320.49990  254.09920    0.01570    -999.25    0.01570    2.68280 -166.52850 -145.06570  320.49990
 7000.00000   10.30090    9.51330    9.51330    1.26370    0.21290    0.21290    2.65420    0.02000    -999.25    0.03260  791.30740   48.23650   48.23650    -999.25    8.96410    8.96410  791.30740  301.79450  658.02090  301.79450    0.02140    -999.25    0.02140    2.65420 -121.57220 -100.50920  658.02090
 7050.00000   10.95520    9.75290    9.75290    6.61830    0.16800    0.16800    2.66240    0.02350    -999.25    0.02780  151.09540   49.23280   49.23280    -999.25    9.62760    9.62760  151.09540  142.78880  169.46700  142.78880    0.02920    -999.25    0.02920    2.66240 -154.56860 -133.90540  169.46700
 7100.00000   11.78550    9.87780    9.87780    0.66860    0.19410    0.19410    2.58820    0.05990    -999.25    0.07120 1495.57030   49.44400   49.44400    -999.25    9.70070    9.70070 1495.57030  346.48110  534.02980  346.48110    0.02750    -999.25    0.02750    2.58820 -118.64770  -98.38420  534.02980
 7150.00000    9.24080    9.28630    9.28630    5.65870    0.01490    0.01490    2.68010    0.01240    -999.25    0.01750  176.71930   49.13170   49.13170    -999.25   13.14480   13.14480  176.71930  136.64150  235.16720  136.64150    0.01960    -999.25    0.01960    2.68010 -164.93830 -145.07460  235.16720
 7200.00000    9.21930    9.32200    9.32200    7.09000    0.02040    0.02040    2.66210    0.01290    -999.25    0.02800  141.04460   49.20220   49.20220    -999.25   10.80410   10.80410  141.04460  150.16540  315.82790  150.16540    0.02840    -999.25    0.02840    2.66210 -152.71220 -133.24820  315.82790
 7250.00000    8.82890    8.96410    8.96410   47.33880    0.08900    0.08900    2.68000    0.00300    -999.25    0.01750   21.12430   50.82600   50.82600    -999.25   11.66910   11.66910   21.12430   39.51920   97.76280   39.51920    0.14760    -999.25    0.14760    2.68000 -199.81480 -180.75060   97.76280
 7300.00000    9.29800    9.28670    9.28670   34.88570    0.02070    0.02070    2.87140   -0.09780    -999.25   -0.09440   28.66500   49.54340   49.54340    -999.25   10.35470   10.35470   28.66500   34.66370  183.32710   34.66370    0.03420    -999.25    0.03420    2.87140 -162.52550 -143.86100  183.32710
 7350.00000    9.79850    9.42760    9.42760  111.24090    0.02900    0.02900    2.70690   -0.00350    -999.25    0.00180    8.98950   54.81510   54.81510    -999.25   45.60480   45.60480    8.98950    9.82440   12.93630    9.82440    0.11200    -999.25    0.11200    2.70690 -121.08670 -102.82200   12.93630
 7400.00000    9.31390    9.19140    9.19140   17.20850    0.01640    0.01640    2.79720   -0.03660    -999.25   -0.05100   58.11070   46.77900   46.77900    -999.25   14.68900   14.68900   58.11070   69.64220  191.68470   69.64220    0.05570    -999.25    0.05570    2.79720 -150.83290 -132.96800  191.68470
