~Version ---------------------------------------------------
VERS.      2.0 : CWLS log ASCII Standard -VERSION 2.0
WRAP.       NO : One line per depth step
CREA. 01/05/18 : LAS Creation Date
~Well ------------------------------------------------------
STRT.FT                 2050.0 : START DEPTH
STOP.FT                11350.0 : STOP DEPTH
STEP.FT               50.00000 : STEP LENGTH
NULL.                  -999.25 : NULL VALUE
COMP.     CHEVRON STANDARD LTD : COMPANY
WELL. CHEVRON CLARK 11-1-59-18 : WELL
FLD .                          : FIELD
LOC .                          : LOCATION
CTRY.                   CANADA : COUNTRY
SRVC.             Schlumberger : SERVICE COMPANY
DATE.              29-Oct-1968 : LOGDATE
PROV.                  Alberta : PROVINCE
UWI .         100110105918W500 : UNIQUE WELL ID
SLAT.WGS84            54.07408 : SURFACE LATITUDE
SLON.WGS84           -116.5668 : SURFACE LONGITUDE
~Curve Information -----------------------------------------
DEPT    .FT        : Depth Curve
CALDED  .IN        : CALIPER FROM  FROM FDL LOG
CALNED  .IN        : CALIPER FROM NEUTRON LOG
CALSED  .IN        : CALIPER FROM SONIC LOG
CALWS   .IN        : CALIPER [CALSED]
CONDWS  .MMHO      : CONDUCTIVITY [1000/DRESWS]
CORRED  .G/C3      : DENSITY CORRECTION  FROM FDL LOG  [ADJ. TODPHILSED]
DCORED  .G/C3      : DENSITY CORRECTION FROM FDL LOG [REPEAT SECTION]  [ADJ. TO  CORRED/DPHILSED]
DCORWS  .G/C3      : DENSITY CORRECTION [CORRED SPL. TO DCORED @ 11014']
DENWS   .G/C3      : FORMATION BULK DENSITY [RHOBED]
DPHILSED.V/V       : DENSITY POROSITY LIMESTONE FROM FDL LOG
DPOLSWS .V/V       : DENSITY  POROSITY LIMESTONE [DPHILSED]
DRESWS  .OHMM      : DEEP RESISTIVITY [ILDED]
DTED    .us/m      : DELTA-T (INTERVAL TRANSIT TIME) FROM SONIC LOG
DTWS    .us/m      : COMPRESSIONAL SONIC [DTED]
GRNED   .GAPI      : GAMMA RAY FROM GRN LOG
GRSED   .GAPI      : GAMMA RAY FROM SONIC LOG
GRWS    .GAPI      : GAMMA RAY [GRSED]
ILDED   .OHMM      : DEEP INDUCTION RESISTIVITY FROM RESISTIVITY LOG
ILMED   .OHMM      : MEDIUM INDUCTION RESISTIVITY FROM RESISTIVITY LOG
LL8ED   .OHMM      : LATEROLOG 8 RESISTIVITY FROM RESISTIVITY LOG
MRESWS  .OHMM      : MEDIUM RESISTIVITY [ILMED]
NEUTED  .NAPI      : NEUTRON FROM GRN LOG
NEUTWS  .NAPI      : NEUTRON [NEUTED]
NPOLSWS .V/V       : NEUTRON POROSITY LIMESTONE [SNPDMED MATRIX CONVERSION FOR LIMESTONE, SPL. TO SNPLSED @ 10787']
RATIOED .UNITLESS  : RATIO FROM TDT LOG [LOGGING DATE-1973] [ADJ. TO RESISTIVITY LOG]
RHOBED  .G/C3      : BULK DENSITY FROM FDL LOG [ADJ. TO DPHILSED]
SIGMAED .CU        : FORMATION SIGMA (NEUTRON CAPTURE CROSS SECTION) FROM TDT LOG [LOGGING DATE-1973] [ADJ. TO RESISTIVITY LOG]
SIGMED  .CU        : FORMATION SIGMA (NEUTRON CAPTURE CROSS SECTION) FROM TDT LOG [LOGGING DATE-1970]
SNPDMED .V/V       : SIDEWALL NEUTRON POROSITY [DOLOMITE] FROM NEUTRON LOG
SNPLSED .V/V       : SIDEWALL NEUTRON POROSITY [LIMESTONE] FROM NEUTRON LOG
SPRED   .MV        : SPONTANEOUS POTENTIAL FROM RESISTIVITY LOG
SPWS    .MV        : SPONTANEOUS POTENTIAL [BASELINE 0 MV,SPRED]
SRESWS  .OHMM      : SHALLOW RESISTIVITY [LL8ED]
TAU1ED  .US        : THERMAL NEUTRON DECAY TIME  FROM TDT LOG [LOGGING DATE-1974] [ADJ. TO RESISTIVITY LOG]
TAU2ED  .US        : THERMAL NEUTRON DECAY TIME  FROM TDT LOG [LOGGING DATE-1973] [ADJ. TO RESISTIVITY LOG]
TAUED   .US        : THERMAL NEUTRON DECAY TIME  FROM TDT LOG [LOGGING DATE-1970]
~Params ----------------------------------------------------
PD  .                     GL : PERMANENT DATUM
EPD .FT               3399.9 : ELEVATION PERMANENT DATUM
LMF .                     KB : LOG MEASURED FROM
DAPD.FT                 13.8 : FEET ABOVE PERMANENT DATUM
EKB .FT               3413.7 : KELLY BUSHING
EGL .FT               3399.9 : GROUND LEVEL
DATE.               10/29/68 : RUN DATE
RUN .                      1 : RUN NUMBER
DD  .FT                11342 : DEPTH DRILLER
DL  .FT                11354 : DEPTH LOGGER
BLI .FT                11350 : BOTTOM LOG INTERVAL
TLI .FT                 2029 : TOP LOG INTERVAL
CBD .FT                 2030 : CASING BOTTOM DRILLER
CBL .FT                 2030 : CASING BOTTOM LOGGER
BS  .IN                 8.75 : BIT SIZE
BSD .FT                11342 : BIT SIZE AT DEPTH
DFT .                    GEL : DRILLING FLUID TYPE
DFD .                    9.6 : DRILLING FLUID DENSITY
DFV .                    310 : DRILLING FLUID VISCOSITY
DFPH.                     10 : DRILLING FLUID PH
DFL .                    9.4 : DRILLING FLUID LOSS
MSS .                   CIRC : MUD SAMPLE SOURCE
RMS .OHMM               1.71 : RESISTIVITY MUD SAMPLE
MST .DEGF                 65 : MUD SAMPLE TEMPERATURE
RMF .OHMM                1.5 : RESISTIVITY MUD FILTRATE SAMPLE
MFST.DEGF                 65 : MUD FILTRATE SAMPLE TEMPERATURE
RMC .OHMM               1.39 : RESISTIVITY MUD CAKE
MCST.DEGF                 67 : MUD CAKE SAMPLE TEMPERATURE
TCS .HRS                 3.5 : TIME CIRCULATED STOPPED
LUN .                   7501 : LOGGING UNIT NUMBER
LUL .                    EDM : LOGGING UNIT LOCATION
ENGI.               STUEHMER : RECORDING ENGINEER
WITN.                HOVDEBO : WITNESSED BY
CLNT.                A2DTECH : CLIENT CODE
ORIG.            2" 5" PRINT : ORIGIN OF DATA
UWI .       100110105918W500 : UNIQUE WELL ID
DICO. A2D Technologies, Inc. : DIGITIZING COMPANY
~Other -----------------------------------------------------
~ASCII -----------------------------------------------------
# ...
 7050.00000    -999.25    -999.25   10.93950   10.93950   75.99940    -999.25    -999.25    -999.25    -999.25    -999.25    -999.25   13.15800  231.11550  231.11550    -999.25   86.39720   86.39720   13.15800   13.74990   15.27810   13.74990    -999.25    -999.25    -999.25    -999.25    -999.25    -999.25    -999.25    -999.25    -999.25   66.15890    8.03960   15.27810    -999.25    -999.25    -999.25
 7100.00000    -999.25    -999.25   10.59790   10.59790  118.36420    -999.25    -999.25    -999.25    -999.25    -999.25    -999.25    8.44850  232.64670  232.64670    -999.25   90.90270   90.90270    8.44850    9.41110    9.76900    9.41110    -999.25    -999.25    -999.25    -999.25    -999.25    -999.25    -999.25    -999.25    -999.25   59.08270    0.22300    9.76900    -999.25    -999.25    -999.25
 7150.00000    -999.25    -999.25   10.51200   10.51200   73.47480    -999.25    -999.25    -999.25    -999.25    -999.25    -999.25   13.61010  214.63810  214.63810    -999.25   73.24170   73.24170   13.61010   15.27580   17.69390   15.27580    -999.25    -999.25    -999.25    -999.25    -999.25    -999.25    -999.25    -999.25    -999.25   48.23110  -11.36420   17.69390    -999.25    -999.25    -999.25
 7200.00000    -999.25    -999.25   11.86070   11.86070  201.41160    -999.25    -999.25    -999.25    -999.25    -999.25    -999.25    4.96530  247.66770  247.66770    -999.25   84.56510   84.56510    4.96530    5.35070    6.01490    5.35070    -999.25    -999.25    -999.25    -999.25    -999.25    -999.25    -999.25    -999.25    -999.25   32.61520  -27.72050    6.01490    -999.25    -999.25    -999.25
 7250.00000   11.19460    -999.25   11.53530   11.53530   98.99810    0.15240    -999.25    0.15240    2.64740    -999.25    0.03660   10.10120  242.72470  242.72470    -999.25   76.41800   76.41800   10.10120   10.69900   12.61550   10.69900    -999.25    -999.25    -999.25    -999.25    2.64740    -999.25    -999.25    -999.25    -999.25   15.27730  -45.79400   12.61550    -999.25    -999.25    -999.25
 7300.00000   11.46040    -999.25   10.79680   10.79680   42.39980    0.03970    -999.25    0.03970    2.63350    -999.25    0.04470   23.58500  223.76580  223.76580    -999.25   71.54300   71.54300   23.58500   24.27340   25.58630   24.27340    -999.25    -999.25    -999.25    -999.25    2.63350    -999.25    -999.25    -999.25    -999.25   13.46760  -48.33930   25.58630    -999.25    -999.25    -999.25
 7350.00000    8.94590    -999.25    8.95090    8.95090   29.12400    0.19940    -999.25    0.19940    2.56180    -999.25    0.08670   34.33590  236.16800  236.16800    -999.25   32.40550   32.40550   34.33590   43.04740   46.99630   43.04740    -999.25    -999.25    -999.25    -999.25    2.56180    -999.25    -999.25    -999.25    -999.25   -3.79800  -66.34530   46.99630    -999.25    -999.25    -999.25
 7400.00000    8.65690    -999.25    9.00200    9.00200   38.60410    0.18300    -999.25    0.18300    2.54340    -999.25    0.09740   25.90400  239.82940  239.82940    -999.25   26.71190   26.71190   25.90400   33.77420   35.61790   33.77420    -999.25    -999.25    -999.25    -999.25    2.54340    -999.25    -999.25    -999.25    -999.25   18.69380  -44.58910   35.61790    -999.25    -999.25    -999.25
 7450.00000    9.72950    -999.25   10.02820   10.02820   58.25030    0.06480    -999.25    0.06480    2.62430    -999.25    0.05010   17.17490  209.58600  209.58600    -999.25   96.17280   96.17280   17.17490   19.36210   21.58390   19.36210    -999.25    -999.25    -999.25    -999.25    2.62430    -999.25    -999.25    -999.25    -999.25   38.74690  -25.27640   21.58390    -999.25    -999.25    -999.25
 7500.00000    -999.25    -999.25   10.07810   10.07810   82.30250    -999.25    -999.25    -999.25    -999.25    -999.25    -999.25   12.15030  232.97900  232.97900    -999.25   87.54880   87.54880   12.15030   16.72320   21.91410   16.72320    -999.25    -999.25    -999.25    -999.25    -999.25    -999.25    -999.25    -999.25    -999.25   42.78260  -21.97630   21.91410    -999.25    -999.25    -999.25
 7550.00000    -999.25    -999.25   10.13780   10.13780   52.67230    -999.25    -999.25    -999.25    -999.25    -999.25    -999.25   18.98530  244.02130  244.02130    -999.25   94.93180   94.93180   18.98530   22.38300   26.37200   22.38300    -999.25    -999.25    -999.25    -999.25    -999.25    -999.25    -999.25    -999.25    -999.25   53.81690  -11.67760   26.37200    -999.25    -999.25    -999.25
 7600.00000    -999.25    -999.25   14.72610   14.72610  187.52230    -999.25    -999.25    -999.25    -999.25    -999.25    -999.25    5.33270  303.90320  303.90320    -999.25   77.69780   77.69780    5.33270    4.80180    6.42540    4.80180    -999.25    -999.25    -999.25    -999.25    -999.25    -999.25    -999.25    -999.25    -999.25   40.62940  -25.60550    6.42540    -999.25    -999.25    -999.25
 7650.00000    -999.25    -999.25    9.93850    9.93850   51.46920    -999.25    -999.25    -999.25    -999.25    -999.25    -999.25   19.42910  246.75850  246.75850    -999.25  110.27890  110.27890   19.42910   10.13520   21.61110   10.13520    -999.25    -999.25    -999.25    -999.25    -999.25    -999.25    -999.25    -999.25    -999.25   41.70300  -25.26750   21.61110    -999.25    -999.25    -999.25
 7700.00000    -999.25    -999.25    8.98300    8.98300    1.73760    -999.25    -999.25    -999.25    -999.25    -999.25    -999.25  575.54960  185.47510  185.47510    -999.25   37.44980   37.44980  575.54960 2013.90410  641.36340 2013.90410    -999.25    -999.25    -999.25    -999.25    -999.25    -999.25    -999.25    -999.25    -999.25   32.23110  -35.47980  641.36340    -999.25    -999.25    -999.25
 7750.00000    -999.25    -999.25    8.97100    8.97100   16.19770    -999.25    -999.25    -999.25    -999.25    -999.25    -999.25   61.73710  214.69590  214.69590    -999.25  130.65910  130.65910   61.73710   84.28010  171.71050   84.28010    -999.25    -999.25    -999.25    -999.25    -999.25    -999.25    -999.25    -999.25    -999.25   46.51500  -21.93150  171.71050    -999.25    -999.25    -999.25
 7800.00000    -999.25    -999.25    9.54700    9.54700   38.51950    -999.25    -999.25    -999.25    -999.25    -999.25    -999.25   25.96090  198.49970  198.49970    -999.25   80.51880   80.51880   25.96090   31.02800   32.57180   31.02800    -999.25    -999.25    -999.25    -999.25    -999.25    -999.25    -999.25    -999.25    -999.25   49.02310  -20.15900   32.57180    -999.25    -999.25    -999.25
 7850.00000    9.78580    9.58090    9.53820    9.53820   35.96240    0.05780    -999.25    0.05780    2.70450    -999.25    0.00320   27.80680  196.74410  196.74410    -999.25   89.61730   89.61730   27.80680   34.61350   32.40830   34.61350    -999.25    -999.25    0.10850    -999.25    2.70450    -999.25    -999.25    -999.25    0.10850   44.72480  -25.19770   32.40830    -999.25    -999.25    -999.25
 7900.00000    8.43940    8.03600    8.44690    8.44690  133.88140    0.14700    -999.25    0.14700    2.60320    -999.25    0.06250    7.46930  204.85630  204.85630    -999.25   33.99430   33.99430    7.46930   12.41670   38.93680   12.41670    -999.25    -999.25    0.22330    -999.25    2.60320    -999.25    -999.25    -999.25    0.22330   12.17380  -58.48430   38.93680    -999.25    -999.25    -999.25
 7950.00000   10.52090    9.84020   10.31720   10.31720   30.69550    0.26660    -999.25    0.26660    2.15040    -999.25    0.32730   32.85620  163.79970  163.79970    -999.25   45.39780   45.39780   32.85620   52.04310   62.41080   52.04310    -999.25    -999.25    0.48250    -999.25    2.15040    -999.25    -999.25    -999.25    0.48250   30.96550  -40.43300   62.41080    -999.25    -999.25    -999.25
 8000.00000    -999.25   13.10370   10.14180   10.14180   12.43250    -999.25    -999.25    -999.25    -999.25    -999.25    -999.25   80.43420  188.80090  188.80090    -999.25   28.72430   28.72430   80.43420  102.35880  210.93940  102.35880    -999.25    -999.25    0.25270    -999.25    -999.25    -999.25    -999.25    -999.25    0.25270   49.32490  -22.80920  210.93940    -999.25    -999.25    -999.25
