~Version ---------------------------------------------------
VERS. 2.0 : CWLS log ASCII Standard -VERSION 2.0
WRAP.  NO : ONE LINE PER DEPTH STEP
~Well ------------------------------------------------------
STRT.M                       300.0 : START DEPTH
STOP.M                      1750.0 : STOP DEPTH
STEP.M                    50.00000 : STEP LENGTH
NULL.                      -999.25 : NULL VALUE
COMP.     VERMILION RESOURCES LTD. : COMPANY
WELL. 764031 OMV UTIKUMA 9-25-81-9 : WELL
FLD .                              : FIELD
LOC .                              : LOCATION
CTRY.                       CANADA : COUNTRY
SRVC.                 Schlumberger : SERVICE COMPANY
DATE.                  29-Jan-1993 : LOGDATE
PROV.                      Alberta : PROVINCE
UWI .             100092508109W500 : UNIQUE WELL ID
SLAT.WGS84           56.0509494294 : SURFACE LATITUDE
SLON.WGS84         -115.2558087611 : SURFACE LONGITUDE
~Curve Information -----------------------------------------
DEPT.M     : DEPTH METERS
GRS .GAPI  : GAMMA RAY FROM SONIC LOG
HD  .MM    : HOLE DIAMETER
DT  .US/M  : DELTA-T (INTERVAL TRANSIT TIME)
MSFL.OHMM  : MICROSPHERICALLY FOCUSED LOG RESISTIVITY
SPR .MV    : SPONTANEOUS POTENTIAL FROM RESISTIVITY LOG
IDPH.OHMM  : INDUCTION DEEP PHASE RESISTIVITY
IMPH.OHMM  : INDUCTION MEDIUM PHASE RESISTIVITY
~Params ----------------------------------------------------
PD  .                         GL : PERMANENT DATUM
EPD .M                     646.8 : ELEVATION PERMANENT DATUM
LMF .                         KB : LOG MEASURED FROM
DAPD.M                         5 : FEET ABOVE PERMANENT DATUM
DMF .                         KB : DRILLING MEASURED FROM
EKB .M                     651.8 : KELLY BUSHING
EDF .M                     651.5 : DRILLING FLOOR
EGL .M                     646.8 : GROUND LEVEL
DATE.                   01/29/93 : RUN DATE
RUN .                          1 : RUN NUMBER
DD  .M                      1767 : DEPTH DRILLER
DL  .M                    1767.7 : DEPTH LOGGER
BLI .M                    1764.8 : BOTTOM LOG INTERVAL
TLI .M                     210.9 : TOP LOG INTERVAL
CS  .MM                    219.1 : CASING SIZE
CBD .M                     210.6 : CASING BOTTOM DRILLER
CBL .M                     210.9 : CASING BOTTOM LOGGER
BS  .MM                      200 : BIT SIZE
BSD .M                      1767 : BIT SIZE AT DEPTH
DFT .                   GEL CHEM : DRILLING FLUID TYPE
DFD .                       1090 : DRILLING FLUID DENSITY
DFV .                         55 : DRILLING FLUID VISCOSITY
DFPH.                         10 : DRILLING FLUID PH
DFL .                         10 : DRILLING FLUID LOSS
MSS .                   FLOWLINE : MUD SAMPLE SOURCE
RMS .OHMM                   1.32 : RESISTIVITY MUD SAMPLE
MST .DEGC                     20 : MUD SAMPLE TEMPERATURE
RMF .OHMM                      1 : RESISTIVITY MUD FILTRATE SAMPLE
MFST.DEGC                     18 : MUD FILTRATE SAMPLE TEMPERATURE
MFSS.                   MEASURED : MUD FILTRATE SAMPLE SOURCE
RMB .OHMM                  0.825 : RESISTIVITY MUD AT BHT
TCS .HRS                    1500 : TIME CIRCULATED STOPPED
TLAB.HRS                    2300 : TIME LOGGER AT BOTTOM
LUN .                       7373 : LOGGING UNIT NUMBER
LUL .                   EDMONTON : LOGGING UNIT LOCATION
ENGI.                       HOLT : RECORDING ENGINEER
WITN.                    KRYWICK : WITNESSED BY
CLNT.                    A2DTECH : CLIENT CODE
ORIG. 6.5"/100M 16.5"/100M PRINT : ORIGIN OF DATA
UWI .           100092508109W500 : UNIQUE WELL ID
DICO.     A2D Technologies, Inc. : DIGITIZING COMPANY
~Other -----------------------------------------------------
~ASCII -----------------------------------------------------
  300.00000   68.31290  300.22330  478.60000    2.33790   40.15200    4.42610    3.82280
  350.00000   60.21840  229.90710  423.64540    6.16230   40.12200    5.29510    5.40940
  400.00000   44.26830  219.05630  404.66320   16.23760   40.69520   10.40690   14.45070
  450.00000   55.80990  283.16450  375.15570    7.53860   41.25520    7.32790    7.07560
  500.00000   65.05540  326.06780  355.16030    9.86910   40.81810    8.17270    8.13810
  550.00000   39.70840  283.97370  296.53230   49.33100   41.26770   17.18110   23.59460
  600.00000   19.59010  291.63560  213.63290   15.79070  -41.32960   42.60280   43.01740
  650.00000   19.35690  249.15220  203.88290   25.00620  -32.76070   22.15550   19.76680
  700.00000   20.88620  251.21760  212.01660   21.44560  -25.02710   18.12270   17.76200
  750.00000   17.84800  231.28230  207.65480   33.25030  -37.19500   35.54100   37.42260
  800.00000   22.25340  242.36620  191.82990   48.90100  -34.18040   45.90790   45.87570
  850.00000   13.16460  251.71100  183.12950  219.47920  -69.57190   42.38460   48.34730
  900.00000    9.20210  229.29790  162.58260 1545.09890  -53.18840  230.72690  393.47670
  950.00000    9.85490  240.81740  175.74920  202.41410  -71.05790   45.39890   47.16280
 1000.00000    8.75530  230.95970  166.99170  206.88480  -77.26960  191.51800  167.02880
 1050.00000    9.65810  240.27140  174.73980  322.79520  -76.52040   30.94280   37.49690
 1100.00000   31.78580  227.83190  192.54390   43.62390  -39.62500   20.96130   21.28200
 1150.00000   10.97710  213.49520  174.90180  141.13830  -77.59360   20.93280   41.30060
 1200.00000   63.17980  259.56560  274.14830    4.40430  -28.55880    5.05130    4.85060
 1250.00000   38.05570  227.04240  226.32660   23.08170  -14.26380    9.75900   10.06440
 1300.00000   65.16770  282.01030  275.04400    4.30030  -27.62340    4.31000    3.64810
 1350.00000   42.93590  240.00180  244.56900   11.15530  -15.50280    7.72670    7.46790
 1400.00000   49.04240  208.17670  224.05600   16.46300  -11.39850   11.31820   11.74010
 1450.00000   56.40060  283.25790  269.82450    3.88840  -20.42840    4.75620    5.07460
 1500.00000   53.84570  270.23410  260.98090    2.65980  -17.74470    5.61870    5.63190
 1550.00000   20.63110  220.85240  178.81890   46.24990  -20.91770   56.95940   56.69030
 1600.00000   57.21940  253.27890  229.08020   17.45570   -2.15220    9.23920    9.50850
 1650.00000   74.79520  241.14180  272.40240    1.92350    0.52710    5.01180    4.24690
 1700.00000    9.48420  205.15770  159.50130 1962.95070  -44.80430  157.66440  666.56900
 1750.00000   54.26520  199.22450  156.65350 1926.28760  -50.17350   39.53970   62.77400
