~Version ---------------------------------------------------
VERS.      2.0 : CWLS log ASCII Standard -VERSION 2.0
WRAP.       NO : One line per depth step
CREA. 09/23/14 : LAS Creation Date
~Well ------------------------------------------------------
STRT.M                      450.0 : START DEPTH
STOP.M                     5050.0 : STOP DEPTH
STEP.M                   50.00000 : STEP LENGTH
NULL.                     -999.25 : NULL VALUE
COMP. SHELL CANADA RESOURCES LTD. : COMPANY
WELL.   SHELL STOLBERG 8-23-43-16 : WELL
FLD .                             : FIELD
LOC .                             : LOCATION
CTRY.                      CANADA : COUNTRY
SRVC.                Schlumberger : SERVICE COMPANY
DATE.                 31-Dec-1980 : LOGDATE
PROV.                     Alberta : PROVINCE
UWI .            100082304316W500 : UNIQUE WELL ID
SLAT.WGS84               52.72038 : SURFACE LATITUDE
SLON.WGS84              -116.2025 : SURFACE LONGITUDE
~Curve Information -----------------------------------------
DEPT     .M      : DEPTH METER
CALDED   .MM     : CALIPER FROM DENSITY LOG [ADJ. TO DILSFL LOG]
CALDRED  .MM     : CALIPER FROM DENSITY LOG ( REPEAT SECTION) [ADJ. TO DILSFL LOG]
CALSED   .MM     : CALIPER FROM SONIC LOG [ADJ. TO DILSFL LOG]
CALWS    .MM     : CALIPER [CALSED SPL. TO CALDED FROM (3800.6M-3811.2M)]
CILDED   .MMHO   : CONDUCTIVITY FROM DILSFL LOG
CONDWS   .MMHO   : CONDUCTIVITY [1000/DRESWS]
DCORED   .KG/M3  : DENSITY CORRECTION FROM DENSITY LOG [ADJ. TO DILSFL LOG]
DCORWS   .KG/M3  : DENSITY CORRECTION [DCORED]
DENWS    .KG/M3  : FORMATION BULK DENSITY [RHOBED SPL. TO CALC. DPHILSRED (F=2710, F=1000) FROM (3832 M - 3842.7 M)]
DPHILSED .V/V    : DENSITY POROSITY LIMESTONE [M=2710, F=1000] FROM DENSITY LOG [ADJ. TO DILSFL LOG]
DPHILSRED.V/V    : DENSITY POROSITY LIMESTONE [M=2710, F=1000] FROM DENSITY LOG ( REPEAT SECTION) [ADJ. TO DILSFL LOG]
DPHISSED .V/V    : DENSITY POROSITY SANDSTONE [M=2650, F=1000] FROM DENSITY LOG [ADJ. TO DILSFL LOG]
DPOLSWS  .V/V    : DENSITY POROSITY LIMESTONE [CALC. FROM DENWS, M=2710, F=1000]
DRESWS   .OHMM   : DEEP RESISTIVITY [ILDED SPL. TO ILDRED FROM (3833 M - 3854 M) & SPL. TO {1000/CILDED IF ILDED <1, ILDED  FROM (5018M TO FR )}]
DTED     .US/M   : DELTA-T FROM SONIC LOG [ADJ. TO DILSFL LOG]
DTWS     .US/M   : COMPRESSIONAL SONIC [DTED]
GRDED    .GAPI   : GAMMA RAY FROM DENSITY LOG [ADJ. TO DILSFL LOG]
GRDRED   .GAPI   : GAMMA RAY FROM DENSITY LOG ( REPEAT SECTION) [ADJ. TO DILSFL LOG]
GRR1ED   .GAPI   : GAMMA RAY FROM DLL LOG [ADJ. TO DILSFL LOG]
GRRED    .GAPI   : GAMMA RAY FROM DILSFL LOG
GRRRED   .GAPI   : GAMMA RAY FROM DILSFL LOG ( REPEAT SECTION) [ADJ. TO GRRED]
GRSED    .GAPI   : GAMMA RAY FROM SONIC LOG [ADJ. TO DILSFL LOG]
GRWS     .GAPI   : GAMMA RAY [GRSED SPL. TO GRDED (3790.5 M - 3809.5 M) & SPL. TO GRR1ED FROM (4607 M - 4620 M)]
ILDED    .OHMM   : DEEP INDUCTION RESISTIVITY FROM DILSFL LOG
ILDRED   .OHMM   : DEEP INDUCTION RESISTIVITY FROM DILSFL LOG ( REPEAT SECTION) [ADJ. TO ILDED]
ILMED    .OHMM   : MEDIUM INDUCTION RESISTIVITY FROM DILSFL LOG
ILMRED   .OHMM   : MEDIUM INDUCTION RESISTIVITY FROM DILSFL LOG( REPEAT SECTION) [ADJ. TO ILMED]
LLDED    .OHMM   : DEEP LATEROLOG RESISTIVITY FROM DLL LOG [ADJ. TO DILSFL LOG]
LLSED    .OHMM   : SHALLOW LATEROLOG RESISTIVITY FROM DLL LOG [ADJ. TO DILSFL LOG]
MRESWS   .OHMM   : MEDIUM RESISTIVITY [ILMED SPL. TO ILMRED FROM (3837 M - 3852 M)]
NPHILSED .V/V    : NEUTRON POROSITY LIMESTONE FROM DENSITY LOG [ADJ. TO DILSFL LOG]
NPHILSRED.V/V    : NEUTRON POROSITY LIMESTONE FROM DENSITY LOG ( REPEAT SECTION) [ADJ. TO DILSFL LOG]
NPHISSED .V/V    : NEUTRON POROSITY SANDSTONE FROM DENSITY LOG [ADJ. TO DILSFL LOG]
NPOLSWS  .V/V    : NEUTRON POROSITY LIMESTONE [NPHISSED CONVERTED INTO LIMESTONE MATRIX & SPL. TO NPHILSED @ 3600 M & SPL. TO NPHILSRED@ (3818 M - 3849 M)]
RHOBED   .KG/M3  : BULK DENSITY FROM DENSITY LOG [ADJ. TO DILSFL LOG]
SFLED    .OHMM   : SPHERICALLY FOCUSED RESISTIVITY FROM DILSFL LOG
SFLRED   .OHMM   : SPHERICALLY FOCUSED RESISTIVITY FROM DILSFL LOG ( REPEAT SECTION) [ADJ. TO SFLED]
SRESWS   .OHMM   : SHALLOW RESISTIVITY [SFLED SPL. TO SFLRED FROM (3833 M - 3852 M)]
~Params ----------------------------------------------------
PD  .                         GL : PERMANENT DATUM
EPD .M                      1268 : ELEVATION PERMANENT DATUM
LMF .                         KB : LOG MEASURED FROM
DAPD.M                        10 : FEET ABOVE PERMANENT DATUM
DMF .                         KB : DRILLING MEASURED FROM
EKB .M                      1278 : KELLY BUSHING
EGL .M                      1268 : GROUND LEVEL
DATE.                   12/31/80 : RUN DATE
RUN .                          3 : RUN NUMBER
DD  .M                    5075.6 : DEPTH DRILLER
DL  .M                      5070 : DEPTH LOGGER
BLI .M                      5068 : BOTTOM LOG INTERVAL
TLI .M                      3810 : TOP LOG INTERVAL
CS  .MM                      340 : CASING SIZE
CBD .M                      3810 : CASING BOTTOM DRILLER
CBL .M                      3810 : CASING BOTTOM LOGGER
BS  .MM                      215 : BIT SIZE
BSD .M                    5075.6 : BIT SIZE AT DEPTH
DFT .                 GEL BARITE : DRILLING FLUID TYPE
DFD .                       1250 : DRILLING FLUID DENSITY
DFV .                        133 : DRILLING FLUID VISCOSITY
DFPH.                       10.5 : DRILLING FLUID PH
DFL .                          9 : DRILLING FLUID LOSS
MSS .                   FLOWLINE : MUD SAMPLE SOURCE
RMS .OHMM                    0.8 : RESISTIVITY MUD SAMPLE
MST .DEGC                   24.4 : MUD SAMPLE TEMPERATURE
MFSS.               FILTER PRESS : MUD FILTRATE SAMPLE SOURCE
MCSS.               FILTER PRESS : MUD CAKE SAMPLE SOURCE
RMB .OHMM                   0.21 : RESISTIVITY MUD AT BHT
TCS .HRS                     930 : TIME CIRCULATED STOPPED
TLAB.HRS                     400 : TIME LOGGER AT BOTTOM
LUN .                       8063 : LOGGING UNIT NUMBER
LUL .                         RD : LOGGING UNIT LOCATION
ENGI.                JASTRZEBSKI : RECORDING ENGINEER
WITN.                        WAY : WITNESSED BY
CLNT.                    A2DTECH : CLIENT CODE
ORIG. 6.5"/100M 16.5"/100M PRINT : ORIGIN OF DATA
UWI .           100082304316W500 : UNIQUE WELL ID
DICO.     A2D Technologies, Inc. : DIGITIZING COMPANY
~Other -----------------------------------------------------
CNFD-DILSFL-DLL-BCS LOG RUN
RUN#2 : BCS-GR-DILSFL LOG RUN IM COMBOINATION
CNL RUN ONLY FROM 3761 M TO T.D
~ASCII -----------------------------------------------------
# ...
 3300.00000  327.75460    -999.25  326.73540  326.73540    -999.25  113.08120   11.66890   11.66890 2624.71800    -999.25    -999.25    0.01650    0.04990    8.84320  253.52580  253.52580  102.08230    -999.25    -999.25   79.04160    -999.25   78.44130   78.44130    8.84320    -999.25    9.20820    -999.25    -999.25    -999.25    9.20820    -999.25    -999.25    -999.25    -999.25 2624.71800    -999.25    -999.25    -999.25
 3350.00000  333.33860    -999.25  327.40290  327.40290    -999.25  153.13000   20.50360   20.50360 2642.16550    -999.25    -999.25    0.00450    0.03970    6.53040  273.18480  273.18480  144.20120    -999.25    -999.25  104.33360    -999.25  104.19780  104.19780    6.53040    -999.25    7.13990    -999.25    -999.25    -999.25    7.13990    -999.25    -999.25    -999.25    -999.25 2642.16550    -999.25    -999.25    -999.25
 3400.00000  326.55900    -999.25  323.92030  323.92030    -999.25  184.31140    6.08540    6.08540 2586.04740    -999.25    -999.25    0.03680    0.07250    5.42560  286.91860  286.91860  104.52090    -999.25    -999.25   92.49100    -999.25   92.97780   92.97780    5.42560    -999.25    5.56360    -999.25    -999.25    -999.25    5.56360    -999.25    -999.25    -999.25    -999.25 2586.04740    -999.25    -999.25    -999.25
 3450.00000  328.78550    -999.25  324.80710  324.80710    -999.25   75.47680   11.83300   11.83300 2623.57570    -999.25    -999.25    0.01690    0.05050   13.24910  224.91150  224.91150   55.30250    -999.25    -999.25   51.99760    -999.25   51.91730   51.91730   13.24910    -999.25   13.73200    -999.25    -999.25    -999.25   13.73200    -999.25    -999.25    -999.25    -999.25 2623.57570    -999.25    -999.25    -999.25
 3500.00000  327.85480    -999.25  322.37260  322.37260    -999.25   36.81260   14.40320   14.40320 2669.04540    -999.25    -999.25   -0.01180    0.02400   27.16460  218.05710  218.05710   58.39750    -999.25    -999.25   55.85230    -999.25   55.29190   55.29190   27.16460    -999.25   27.98070    -999.25    -999.25    -999.25   27.98070    -999.25    -999.25    -999.25    -999.25 2669.04540    -999.25    -999.25    -999.25
 3550.00000  331.58390    -999.25  325.65560  325.65560    -999.25   34.84500    0.82750    0.82750 2494.17970    -999.25    -999.25    0.09570    0.12620   28.69850  233.87180  233.87180   49.93460    -999.25    -999.25   43.08120    -999.25   43.80280   43.80280   28.69850    -999.25   30.21540    -999.25    -999.25    -999.25   30.21540    -999.25    -999.25    -999.25    -999.25 2494.17970    -999.25    -999.25    -999.25
 3600.00000  331.15070    -999.25  325.31990  325.31990    -999.25   72.75320   -1.18250   -1.18250 2653.55880    -999.25    -999.25   -0.00250    0.03300   13.74510  218.49830  218.49830   63.55990    -999.25    -999.25   59.71070    -999.25   58.81500   58.81500   13.74510    -999.25   14.12970    -999.25    -999.25    -999.25   14.12970    -999.25    -999.25    -999.25    -999.25 2653.55880    -999.25    -999.25    -999.25
 3650.00000  335.39000    -999.25  326.17000  326.17000    -999.25   58.19300   19.21100   19.21100 2674.40600    -999.25    -999.25   -0.00960    0.02080   17.18420  214.28450  214.28450   65.91600    -999.25    -999.25   63.70230    -999.25   63.28630   63.28630   17.18420    -999.25   18.68560    -999.25    -999.25    -999.25   18.68560    -999.25    -999.25    -999.25    -999.25 2674.40600    -999.25    -999.25    -999.25
 3700.00000  341.80990    -999.25  336.75820  336.75820    -999.25  140.22300   -8.12610   -8.12610 2622.37870    -999.25    -999.25    0.00180    0.05120    7.13150  253.84750  253.84750   68.59860    -999.25    -999.25   66.86720    -999.25   68.36800   68.36800    7.13150    -999.25    8.44800    -999.25    -999.25    -999.25    8.44800    -999.25    -999.25    -999.25    -999.25 2622.37870    -999.25    -999.25    -999.25
 3750.00000  323.48480    -999.25  323.65510  323.65510    -999.25   32.98900   18.75510   18.75510 2704.17140    -999.25    -999.25   -0.03050    0.00340   30.31310  197.16710  197.16710   55.69980    -999.25    -999.25   50.92100    -999.25   51.34980   51.34980   30.31310    -999.25   31.15490    -999.25    -999.25    -999.25   31.15490    -999.25    -999.25    -999.25    -999.25 2704.17140    -999.25    -999.25    -999.25
 3800.00000  324.43060  231.90360  336.81600  336.81600    -999.25   28.51100   20.26360   20.26360 2598.38260    -999.25    -999.25    0.03350    0.06530   35.07420  235.92980  235.92980   80.70290   43.26920    -999.25   41.36280   42.30390    -999.25   80.70290   35.07420    -999.25   30.96280    -999.25    -999.25    -999.25   30.96280    0.21430    0.23070    -999.25    0.21430 2598.38260    -999.25    -999.25    -999.25
 3850.00000  275.10590  240.32330  243.76410  243.76410    -999.25   69.62090  100.30780  100.30780 2080.17580    0.35960    0.03980    -999.25    0.36830   14.36350  244.85200  244.85200   77.10050   81.77070   71.28090   76.15440   84.13390   71.85850   71.85850   11.73500   14.36350   28.75270   12.87950   19.56980   15.42260   12.87950    0.21590    0.19110    -999.25    0.21590 2080.17580   29.80470   16.29310   16.29310
 3900.00000  237.70640  226.83880  233.46360  233.46360    -999.25    2.20790  184.18440  184.18440 2595.11110    0.08450    0.05390    -999.25    0.06720  452.91490  177.89740  177.89740   18.76230   20.97740   19.24800   18.30620   22.03490   16.39080   16.39080  452.91490  473.68970 1434.24040  915.99380 13106.37700 42481.56640 1434.24040    0.01580    0.00790    -999.25    0.01580 2595.11110 1886.43120 2030.84840 1886.43120
 3950.00000  245.74700  244.61190  240.37520  240.37520    -999.25    5.65850   87.44990   87.44990 2705.00100    0.00140    0.00420    -999.25    0.00290  176.72580  181.09410  181.09410   21.51840   21.33000   18.32400   22.41510   18.86410   20.98250   20.98250  176.72580  119.30980 2000.00000  437.55300  100.85360  111.04950 2000.00000    0.10220    0.07310    -999.25    0.10220 2705.00100  126.50720  111.89450  126.50720
 4000.00000  246.87480  246.08380  238.66230  238.66230    -999.25    1.06860   68.00870   68.00870 2904.77640   -0.11200   -0.08100    -999.25   -0.11390  935.81540  172.87690  172.87690   30.25710   29.44000   33.55410   30.01300   34.88670   38.84770   38.84770  935.81540  719.60960 2032.69560 2043.15490 2944.69430 16662.75980 2032.69560    0.02440    0.02640    -999.25    0.02440 2904.77640 1867.21250 1757.27280 1867.21250
 4050.00000  269.88800  270.55090  257.13300  257.13300    -999.25    8.50400   40.21130   40.21130 2857.12480   -0.09380   -0.07830    -999.25   -0.08600  117.59210  170.22870  170.22870   27.71440   26.17330   21.97910   27.21330   31.08360   23.30740   23.30740  117.59210  131.38110 1295.85660  151.34080  483.41880  316.55190 1295.85660    0.03210    0.00730    -999.25    0.03210 2857.12480  645.60630  340.17860  645.60630
 4100.00000  309.97660  304.47070  266.62260  266.62260    -999.25    0.57640  244.93250  244.93250 2527.25950    0.09590    0.00290    -999.25    0.10690 1734.78110  162.66250  162.66250    8.65320    8.99920    9.24130    8.61320    7.50490    9.32990    9.32990 1734.78110  859.04660 1176.31270 2000.00000 43016.14450 73814.57810 1176.31270    0.00990   -0.00050    -999.25    0.00990 2527.25950 1984.84410 1895.36160 1984.84410
 4150.00000  290.31700    -999.25  252.74660  252.74660    -999.25    2.89070  230.93990  230.93990 2618.52420    0.05950   -0.24310    -999.25    0.05350  345.94130  162.35320  162.35320   16.49330    -999.25   18.76180   16.77670    -999.25   16.72790   16.72790  345.94130  335.26250 1858.49330    -999.25 3043.03490 77892.25780 1858.49330    0.00240    -999.25    -999.25    0.00240 2618.52420 2034.36670    -999.25 2034.36670
 4200.00000  295.96650    -999.25  253.24200  253.24200    -999.25    8.66740  247.13080  247.13080 2596.77030    0.06240    -999.25    -999.25    0.06620  115.37530  185.91400  185.91400   45.07120    -999.25   38.65090   44.65860    -999.25   40.95180   40.95180  115.37530    -999.25  167.19510    -999.25  148.56880  248.22510  167.19510    0.04830    -999.25    -999.25    0.04830 2596.77030  202.02110    -999.25  202.02110
