~Version ---------------------------------------------------
VERS.      2.0 : CWLS log ASCII Standard -VERSION 2.0
WRAP.       NO : One line per depth step
CREA. 08/01/17 : LAS Creation Date
~Well ------------------------------------------------------
STRT.FT                  900.0 : START DEPTH
STOP.FT                 9500.0 : STOP DEPTH
STEP.FT               50.00000 : STEP LENGTH
NULL.                  -999.25 : NULL VALUE
COMP. BP CANADA ENERGY COMPANY : COMPANY
WELL. AMOCO HB WIND 3-32-60-15 : WELL
FLD .                          : FIELD
LOC .                          : LOCATION
CTRY.                   CANADA : COUNTRY
SRVC.   Schlumberger of Canada : SERVICE COMPANY
DATE.              25-Jan-1971 : LOGDATE
PROV.                  Alberta : PROVINCE
UWI .         100033206015W500 : UNIQUE WELL ID
SLAT.WGS84             54.2274 : SURFACE LATITUDE
SLON.WGS84           -116.2148 : SURFACE LONGITUDE
~Curve Information -----------------------------------------
DEPT    .FT    : Depth Curve
CALDED  .IN    : CALIPER FROM DENSITY LOG
CALNED  .IN    : CALIPER FROM NEUTRON LOG
CALSED  .IN    : CALIPER FROM SONIC LOG
CALWS   .IN    : CALIPER [CALSED]
CONDWS  .MMHO  : CONDUCTIVITY [1000/DRESWS]
CORRED  .G/C3  : DENSITY CORRECTION FROM DENSITY LOG
DCORWS  .G/C3  : DENSITY CORR4ECTION [CORRED]
DENWS   .G/C3  : BULK DENSITY RHOBED]
DPHILSED.V/V   : DENSITY POROSITY [M=2.71, F=1.00] FROM DENSITY LOG
DPOLSWS .V/V   : DENSITY POROSITY LIMESTONE [CALCULATED FROM DENWS]
DRESWS  .OHMM  : DEEP RESISTIVITY [ILDED]
DTED    .US/F  : DELTA TIME FROM SONIC LOG
DTWS    .US/F  : DELTA TIME [DTED]
GRDED   .GAPI  : GAMMA RAY FROM DENSITY LOG
GRNED   .GAPI  : GAMMA RAY FROM NEUTRON LOG
GRSED   .GAPI  : GAMMA RAY FROM SONIC LOG
GRWS    .GAPI  : GAMMA RAY [GRDED]
ILDED   .OHMM  : INDUCTION LOG DEEP RESISTIVITY
ILMED   .OHMM  : INDUCTION LOG MEDIUM RESISTIVITY
LL8ED   .OHMM  : 8 INCH LATEROLOG RESISTIVITY
MRESWS  .OHMM  : MEDIUM RESISTIVITY [ILMED]
NPOLSWS .V/V   : NEUTRON POROSITY LIMESTONE [SNPLSED]
RHOBED  .G/C3  : BULK DENSITY FROM DENSITY LOG
SNPLSED .V/V   : SIDEWALL NEUTRON POROSITY LIMESONTE
SPRED   .MV    : SPONTANEOUS POTENTIAL FROM RESISTIVITY LOG
SPWS    .MV    : SPONTANEOUS POTENTIAL [BASELINE 0 MV] [SPRED]
SRESWS  .OHMM  : SHALLOW RESISTIVITY [LL8ED]
~Params ----------------------------------------------------
PD  .                     GL : PERMANENT DATUM
EPD .FT               2499.5 : ELEVATION PERMANENT DATUM
LMF .                     KB : LOG MEASURED FROM
DAPD.FT                   14 : FEET ABOVE PERMANENT DATUM
EKB .FT               2513.5 : KELLY BUSHING
EGL .FT               2499.5 : GROUND LEVEL
DATE.               01/25/71 : RUN DATE
RUN .                      1 : RUN NUMBER
DD  .FT                 8540 : DEPTH DRILLER
DL  .FT                 8541 : DEPTH LOGGER
BLI .FT                 8535 : BOTTOM LOG INTERVAL
TLI .FT                  921 : TOP LOG INTERVAL
CBD .FT                  921 : CASING BOTTOM DRILLER
CBL .FT                  920 : CASING BOTTOM LOGGER
BS  .IN                 8.75 : BIT SIZE
BSD .FT                 9540 : BIT SIZE AT DEPTH
DFT .                GELCHEM : DRILLING FLUID TYPE
DFD .                    9.7 : DRILLING FLUID DENSITY
DFV .                    122 : DRILLING FLUID VISCOSITY
DFPH.                     10 : DRILLING FLUID PH
DFL .                      8 : DRILLING FLUID LOSS
MSS .               FLOWLINE : MUD SAMPLE SOURCE
RMF .OHMM               0.97 : RESISTIVITY MUD FILTRATE SAMPLE
MFST.DEGF                 73 : MUD FILTRATE SAMPLE TEMPERATURE
RMC .OHMM               1.49 : RESISTIVITY MUD CAKE
MCST.DEGF                 72 : MUD CAKE SAMPLE TEMPERATURE
TCS .HRS                   4 : TIME CIRCULATED STOPPED
LUN .                   7501 : LOGGING UNIT NUMBER
LUL .                    EDM : LOGGING UNIT LOCATION
ENGI.                 SLADEN : RECORDING ENGINEER
WITN.       HEIKKINEN MORRIS : WITNESSED BY
CLNT.                A2DTECH : CLIENT CODE
ORIG.            2" 5" PRINT : ORIGIN OF DATA
UWI .       100033206015W500 : UNIQUE WELL ID
DICO. A2D Technologies, Inc. : DIGITIZING COMPANY
~Other -----------------------------------------------------
~ASCII -----------------------------------------------------
  900.00000    -999.25    -999.25    -999.25    -999.25    -999.25    -999.25    -999.25    -999.25    -999.25    -999.25    -999.25    -999.25    -999.25    -999.25    -999.25   40.98050   40.98050    -999.25    -999.25    -999.25    -999.25    -999.25    -999.25    -999.25    -999.25    -999.25    -999.25
  950.00000    -999.25    -999.25   10.26230   10.26230   98.53900    -999.25    -999.25    -999.25    -999.25    -999.25   10.14880  111.58820  111.58820    -999.25    -999.25   59.76360   59.76360   10.14880   10.75080    7.95950   10.75080    -999.25    -999.25    -999.25 -105.15300   -4.75710    7.95950
 1000.00000    -999.25    -999.25   13.06170   13.06170  405.79470    -999.25    -999.25    -999.25    -999.25    -999.25    2.46430  125.54110  125.54110    -999.25    -999.25   65.67290   65.67290    2.46430    2.79680    3.19820    2.79680    -999.25    -999.25    -999.25 -104.86600   -4.76830    3.19820
 1050.00000    -999.25    -999.25   11.30100   11.30100  198.63340    -999.25    -999.25    -999.25    -999.25    -999.25    5.03440  109.98330  109.98330    -999.25    -999.25   77.64520   77.64520    5.03440    5.26710    5.11160    5.26710    -999.25    -999.25    -999.25 -107.68760   -7.88970    5.11160
 1100.00000    -999.25    -999.25   11.06160   11.06160  213.55660    -999.25    -999.25    -999.25    -999.25    -999.25    4.68260  109.24860  109.24860    -999.25    -999.25   74.59420   74.59420    4.68260    4.08030    4.68710    4.08030    -999.25    -999.25    -999.25 -109.23230   -9.73410    4.68710
 1150.00000    -999.25    -999.25   10.70480   10.70480  281.41270    -999.25    -999.25    -999.25    -999.25    -999.25    3.55350   99.81580   99.81580    -999.25    -999.25   60.12370   60.12370    3.55350    3.32070    3.87680    3.32070    -999.25    -999.25    -999.25 -113.13720  -13.93880    3.87680
 1200.00000    -999.25    -999.25   11.19320   11.19320  216.66830    -999.25    -999.25    -999.25    -999.25    -999.25    4.63350  152.63650  152.63650    -999.25    -999.25   67.49130   67.49130    4.63350    4.51450    6.25440    4.51450    -999.25    -999.25    -999.25 -109.84250  -10.94530    6.25440
 1250.00000    -999.25    -999.25   10.79220   10.79220  248.80570    -999.25    -999.25    -999.25    -999.25    -999.25    4.01920  106.38510  106.38510    -999.25    -999.25   69.03070   69.03070    4.01920    3.86930    3.57100    3.86930    -999.25    -999.25    -999.25 -108.88440  -10.28550    3.57100
 1300.00000    -999.25    -999.25   11.03070   11.03070  251.59760    -999.25    -999.25    -999.25    -999.25    -999.25    3.97460  101.23990  101.23990    -999.25    -999.25   72.44310   72.44310    3.97460    3.76740    4.48620    3.76740    -999.25    -999.25    -999.25 -108.70680  -10.40760    4.48620
 1350.00000    -999.25    -999.25   10.33590   10.33590  185.60110    -999.25    -999.25    -999.25    -999.25    -999.25    5.38790  109.09150  109.09150    -999.25    -999.25   84.97930   84.97930    5.38790    4.48880    6.51580    4.48880    -999.25    -999.25    -999.25 -107.56590   -9.56650    6.51580
 1400.00000    -999.25    -999.25   11.06330   11.06330  294.99400    -999.25    -999.25    -999.25    -999.25    -999.25    3.38990  106.82930  106.82930    -999.25    -999.25   72.56130   72.56130    3.38990    3.00540    3.31340    3.00540    -999.25    -999.25    -999.25 -105.44260   -7.74290    3.31340
 1450.00000    -999.25    -999.25   10.53380   10.53380  218.13180    -999.25    -999.25    -999.25    -999.25    -999.25    4.58720  107.19150  107.19150    -999.25    -999.25   62.71450   62.71450    4.58720    3.80930    4.66230    3.80930    -999.25    -999.25    -999.25 -105.58490   -8.18650    4.66230
 1500.00000    -999.25    -999.25   11.24520   11.24520  231.38510    -999.25    -999.25    -999.25    -999.25    -999.25    4.32180  104.79790  104.79790    -999.25    -999.25   75.02800   75.02800    4.32180    4.84900    4.99510    4.84900    -999.25    -999.25    -999.25 -105.81870   -8.71850    4.99510
 1550.00000    -999.25    -999.25   13.32270   13.32270  173.11820    -999.25    -999.25    -999.25    -999.25    -999.25    5.77640  104.25290  104.25290    -999.25    -999.25   81.03970   81.03970    5.77640    5.54730    5.18910    5.54730    -999.25    -999.25    -999.25 -104.25630   -7.45590    5.18910
 1600.00000    -999.25    -999.25   12.09650   12.09650  320.90370    -999.25    -999.25    -999.25    -999.25    -999.25    3.11620  103.82440  103.82440    -999.25    -999.25   86.36690   86.36690    3.11620    2.94940    3.27580    2.94940    -999.25    -999.25    -999.25 -103.17350   -6.67280    3.27580
 1650.00000    -999.25    -999.25   11.92890   11.92890  526.12200    -999.25    -999.25    -999.25    -999.25    -999.25    1.90070  121.20070  121.20070    -999.25    -999.25  111.51580  111.51580    1.90070    1.70710    1.97580    1.70710    -999.25    -999.25    -999.25 -102.09410   -5.89320    1.97580
 1700.00000    -999.25    -999.25   10.20200   10.20200   83.27840    -999.25    -999.25    -999.25    -999.25    -999.25   12.00900   89.90590   89.90590    -999.25    -999.25   88.03240   88.03240   12.00900   11.36830   10.79530   11.36830    -999.25    -999.25    -999.25 -102.78580   -6.88610   10.79530
 1750.00000    -999.25    -999.25   10.79520   10.79520  233.66120    -999.25    -999.25    -999.25    -999.25    -999.25    4.27970  103.73710  103.73710    -999.25    -999.25   66.98620   66.98620    4.27970    4.86660    4.96180    4.86660    -999.25    -999.25    -999.25 -102.11040   -6.50900    4.96180
 1800.00000    -999.25    -999.25   12.09980   12.09980  225.67760    -999.25    -999.25    -999.25    -999.25    -999.25    4.43110  104.84570  104.84570    -999.25    -999.25   68.92020   68.92020    4.43110    4.12750    3.49480    4.12750    -999.25    -999.25    -999.25 -102.23770   -6.93600    3.49480
 1850.00000    -999.25    -999.25   11.57670   11.57670  250.49470    -999.25    -999.25    -999.25    -999.25    -999.25    3.99210   96.03480   96.03480    -999.25    -999.25   65.42070   65.42070    3.99210    3.90340    4.60230    3.90340    -999.25    -999.25    -999.25 -101.82730   -6.82530    4.60230
 1900.00000    -999.25    -999.25   11.98910   11.98910  583.15840    -999.25    -999.25    -999.25    -999.25    -999.25    1.71480  126.37870  126.37870    -999.25    -999.25   86.79870   86.79870    1.71480    1.99610    2.09460    1.99610    -999.25    -999.25    -999.25 -101.35680   -6.65460    2.09460
 1950.00000    -999.25    -999.25   11.08240   11.08240  141.32820    -999.25    -999.25    -999.25    -999.25    -999.25    7.08370   98.37830   98.37830    -999.25    -999.25   74.33150   74.33150    7.08370    6.47560    6.96240    6.47560    -999.25    -999.25    -999.25 -100.51560   -6.11460    6.96240
 2000.00000    -999.25    -999.25    9.83630    9.83630   82.60710    -999.25    -999.25    -999.25    -999.25    -999.25   12.10550   84.76870   84.76870    -999.25    -999.25   49.69230   49.69230   12.10550   12.04790   13.61040   12.04790    -999.25    -999.25    -999.25  -99.92790   -5.82520   13.61040
 2050.00000    -999.25    -999.25   11.18510   11.18510  180.45330    -999.25    -999.25    -999.25    -999.25    -999.25    5.54160  106.50810  106.50810    -999.25    -999.25   66.76040   66.76040    5.54160    4.63180    5.96220    4.63180    -999.25    -999.25    -999.25  -98.95670   -5.15370    5.96220
 2100.00000    -999.25    -999.25   11.53860   11.53860  185.79070    -999.25    -999.25    -999.25    -999.25    -999.25    5.38240  115.03120  115.03120    -999.25    -999.25   57.81490   57.81490    5.38240    4.55010    3.92250    4.55010    -999.25    -999.25    -999.25 -100.03520   -6.53200    3.92250
 2150.00000    -999.25    -999.25   10.28050   10.28050   36.52170    -999.25    -999.25    -999.25    -999.25    -999.25   27.38100   71.07580   71.07580    -999.25    -999.25   48.45470   48.45470   27.38100   24.83500   28.00110   24.83500    -999.25    -999.25    -999.25  -99.09560   -5.89210   28.00110
