~Version ---------------------------------------------------
VERS.      2.0 : CWLS log ASCII Standard -VERSION 2.0
WRAP.       NO : One line per depth step
CREA. 11/10/17 : LAS Creation Date
~Well ------------------------------------------------------
STRT.FT                       1250.0 : START DEPTH
STOP.FT                      11950.0 : STOP DEPTH
STEP.FT                     50.00000 : STEP LENGTH
NULL.                        -999.25 : NULL VALUE
COMP.       DEVON CANADA CORPORATION : COMPANY
WELL. HOME PACIFIC EDSON 10-28-52-16 : WELL
FLD .                             WC : FIELD
LOC .                                : LOCATION
CTRY.                         CANADA : COUNTRY
SRVC.                   Schlumberger : SERVICE COMPANY
DATE.                    01-Nov-1962 : LOGDATE
PROV.                        Alberta : PROVINCE
UWI .               100102805216W500 : UNIQUE WELL ID
SLAT.WGS84             53.5208008195 : SURFACE LATITUDE
SLON.WGS84           -116.2964055425 : SURFACE LONGITUDE
~Curve Information -----------------------------------------
DEPT  .FT    : Depth Curve
CALWS .IN    : CALIPER [MCALED]
CILDED.MMHO  : CONDUCTIVITY FROM RESISTIVITY LOG
CONDWS.MMHO  : CONDCUTIVITY [1000/DRESWS]
DRESWS.OHMM  : DEEP RESISTIVITY [1000/CILDED IF ILDED <=1, ILDED]
DT1ED .US/F  : DELTA-T (1' SPACING)  FROM SONIC LOG
DTED  .US/F  : DELTA-T (3' SPACING) FROM SONIC LOG
DTWS  .US/F  : COMPRESSIONAL SONIC [DTED]
GRSED .GAPI  : GAMMA RAY FROM SONIC LOG
GRWS  .GAPI  : GAMMA RAY [GRSED]
ILDED .OHMM  : DEEP INDUCTION FROM RESISTIVITY LOG
MCALED.IN    : CALIPER FROM MICROLOG
SNED  .OHMM  : SHORT NORMAL FROM RESISTIVITY LOG
SPRED .MV    : SPONTANEOUS POTENTIAL FROM RESISTIVITY LOG
SPWS  .MV    : SPONTANEOUS POTENTIAL [BASELINE 0 MV, SPRED]
SRESWS.OHMM  : SHALLOE RESISTIVITY [SNED]
~Params ----------------------------------------------------
PD  .                     GL : PERMANENT DATUM
EPD .FT               3083.7 : ELEVATION PERMANENT DATUM
LMF .                     KB : LOG MEASURED FROM
DAPD.FT                 13.4 : FEET ABOVE PERMANENT DATUM
EKB .FT               3097.1 : KELLY BUSHING
EGL .FT               3083.7 : GROUND LEVEL
DATE.               11/01/62 : RUN DATE
RUN .                      2 : RUN NUMBER
DD  .FT                11979 : DEPTH DRILLER
DL  .FT                 5878 : DEPTH LOGGER
BLI .FT                11978 : BOTTOM LOG INTERVAL
TLI .FT                 6100 : TOP LOG INTERVAL
CBD .FT                 1249 : CASING BOTTOM DRILLER
BS  .IN                    9 : BIT SIZE
BSD .FT                11979 : BIT SIZE AT DEPTH
DFT .          XP20 SPERSENE : DRILLING FLUID TYPE
DFD .                   10.6 : DRILLING FLUID DENSITY
DFV .                    105 : DRILLING FLUID VISCOSITY
DFPH.                     11 : DRILLING FLUID PH
DFL .                      5 : DRILLING FLUID LOSS
RMS .OHMM               0.83 : RESISTIVITY MUD SAMPLE
MST .DEGF                 55 : MUD SAMPLE TEMPERATURE
RMF .OHMM               0.59 : RESISTIVITY MUD FILTRATE SAMPLE
MFST.DEGF                 58 : MUD FILTRATE SAMPLE TEMPERATURE
RMC .OHMM               1.01 : RESISTIVITY MUD CAKE
MCST.DEGF                 60 : MUD CAKE SAMPLE TEMPERATURE
RMB .OHMM               0.23 : RESISTIVITY MUD AT BHT
TCS .HRS                 2.5 : TIME CIRCULATED STOPPED
LUN .                   1576 : LOGGING UNIT NUMBER
LUL .                     DV : LOGGING UNIT LOCATION
ENGI.                NORQUAY : RECORDING ENGINEER
WITN.           DAWSON GROVE : WITNESSED BY
CLNT.                A2DTECH : CLIENT CODE
ORIG.            2" 5" PRINT : ORIGIN OF DATA
UWI .       100102805216W500 : UNIQUE WELL ID
DICO. A2D Technologies, Inc. : DIGITIZING COMPANY
~Other -----------------------------------------------------
~ASCII -----------------------------------------------------
# ...
 5850.00000    9.56480   81.98360   85.41750   11.70720    -999.25   77.01570   77.01570   83.50760   83.50760   11.70720    9.56480   14.97730 -141.39330   -3.15520   14.97730
 5900.00000   10.16790  121.99830  125.21130    7.98650    -999.25   81.50810   81.50810   95.45360   95.45360    7.98650   10.16790   10.88870 -140.43130   -2.20800   10.88870
 5950.00000    9.81720   84.17970   87.74160   11.39710    -999.25   79.55470   79.55470   84.11880   84.11880   11.39710    9.81720   15.28090 -141.03040   -2.82190   15.28090
 6000.00000    9.91370  109.91920  116.79380    8.56210    -999.25   82.25670   82.25670   94.31640   94.31640    8.56210    9.91370   11.79380 -141.21390   -3.02020   11.79380
 6050.00000    9.49850   88.83620   92.12340   10.85500    -999.25   80.08700   80.08700   91.57870   91.57870   10.85500    9.49850   14.07770 -140.54930   -2.37030   14.07770
 6100.00000    9.57460   73.10420   76.07110   13.14560    -999.25   75.63980   75.63980   84.23570   84.23570   13.14560    9.57460   16.84480 -140.09440   -1.93030   16.84480
 6150.00000    9.36300   47.71430   47.52780   21.04030    -999.25   72.01350   72.01350   74.69320   74.69320   21.04030    9.36300   24.52450 -142.31890   -4.08860   24.52450
 6200.00000    9.15900   66.94630   68.74840   14.54580    -999.25   74.67510   74.67510   87.10100   87.10100   14.54580    9.15900   18.72960 -141.00820   -2.54000   18.72960
 6250.00000    9.55430   37.98580   37.83220   26.43250    -999.25   71.50220   71.50220   90.03530   90.03530   26.43250    9.55430   30.46070 -141.67440   -2.96990   30.46070
 6300.00000   13.45440   89.37490   79.80210   12.53100    -999.25   71.77720   71.77720   71.96560   71.96560   12.53100   13.45440   11.37940 -141.55960   -2.61870   11.37940
 6350.00000   13.96060   87.32090   79.34930   12.60250    -999.25   81.92520   81.92520   83.90410   83.90410   12.60250   13.96060   10.63460 -142.40310   -3.22430   10.63460
 6400.00000   14.54670  110.68110  108.84240    9.18760    -999.25   77.00450   77.00450   85.16290   85.16290    9.18760   14.54670    9.67900 -141.85120   -2.43610    9.67900
 6450.00000   12.30120   83.37750   75.18680   13.30020    -999.25   79.74450   79.74450   89.07800   89.07800   13.30020   12.30120   11.66880 -142.21300   -2.56000   11.66880
 6500.00000   11.91230   86.58540   77.08200   12.97320    -999.25   87.93850   87.93850   91.37440   91.37440   12.97320   11.91230   12.03880 -142.20300   -2.31370   12.03880
 6550.00000    9.95880   66.94200   56.50830   17.69650    -999.25   83.02020   83.02020   91.44550   91.44550   17.69650    9.95880   15.33130 -142.73690   -2.61120   15.33130
 6600.00000   11.42930   80.20770   68.83730   14.52700    -999.25   85.19380   85.19380   79.81310   79.81310   14.52700   11.42930   13.70280 -142.36620   -2.00260   13.70280
 6650.00000   10.01640   62.89510   53.93920   18.53940    -999.25   84.83930   84.83930  100.77010  100.77010   18.53940   10.01640   16.51280 -142.96010   -2.36020   16.51280
 6700.00000    9.49650   56.94970   49.08700   20.37200    -999.25   88.95900   88.95900   98.95270   98.95270   20.37200    9.49650   18.08840 -143.25120   -2.41340   18.08840
 6750.00000    9.60410   56.90610   48.09500   20.79220    -999.25   85.12820   85.12820   95.89870   95.89870   20.79220    9.60410   19.33170 -143.33880   -2.26470   19.33170
 6800.00000   10.41910   80.84260   70.41160   14.20220    -999.25   88.21370   88.21370   89.32050   89.32050   14.20220   10.41910   12.24760 -143.53200   -2.22150   12.24760
 6850.00000   10.48720   74.45570   65.49170   15.26910    -999.25   86.14800   86.14800   85.11450   85.11450   15.26910   10.48720   14.32650 -143.70150   -2.15310   14.32650
 6900.00000   10.95470   59.90840   49.51570   20.19560    -999.25   95.71170   95.71170  117.05530  117.05530   20.19560   10.95470   15.33550 -143.29650   -1.51180   15.33550
 6950.00000   11.48920  116.33830  102.45170    9.76070    -999.25   84.06230   84.06230   82.24800   82.24800    9.76070   11.48920    9.29440 -144.67490   -2.65230    9.29440
 7000.00000   10.94360  139.18420  125.79570    7.94940    -999.25   90.72950   90.72950   75.13120   75.13120    7.94940   10.94360    9.09760 -144.75040   -2.49140    9.09760
 7050.00000   13.35090  137.31080  113.00710    8.84900    -999.25   84.51730   84.51730   80.63550   80.63550    8.84900   13.35090    7.80230 -144.18450   -1.68920    7.80230
 7100.00000   11.41640   83.85760   74.65470   13.39500    -999.25   75.76970   75.76970   83.24260   83.24260   13.39500   11.41640   11.79250 -148.73330   -3.29720   11.79250
 7150.00000   10.08910  106.73630   95.29980   10.49320    -999.25   75.25950   75.25950   93.43620   93.43620   10.49320   10.08910    9.60020 -147.98880   -2.55270    9.60020
 7200.00000   11.17420  134.93200  120.08690    8.32730    -999.25   88.02220   88.02220  130.37880  130.37880    8.32730   11.17420    9.37540 -147.44190   -2.00580    9.37540
 7250.00000   12.11930  219.82160  185.38430    5.39420    -999.25   88.02400   88.02400   76.46540   76.46540    5.39420   12.11930    5.80700 -146.91420   -1.47810    5.80700
 7300.00000   13.52590  125.93170  111.55110    8.96450    -999.25   82.78970   82.78970   93.85660   93.85660    8.96450   13.52590    8.49930 -148.29960   -2.86350    8.49930
 7350.00000    9.30710   41.50190   34.44880   29.02860    -999.25   69.48930   69.48930   58.87850   58.87850   29.02860    9.30710   21.57110 -159.91110  -14.31740   21.57110
 7400.00000    9.84790   78.22840   68.09110   14.68620    -999.25   74.97900   74.97900   80.39160   80.39160   14.68620    9.84790   12.61600 -149.35340   -3.53160   12.61600
 7450.00000    8.84750   44.19470   36.43640   27.44510    -999.25   64.51830   64.51830   63.15060   63.15060   27.44510    8.84750   21.37890 -156.58400  -10.53260   21.37890
 7500.00000   10.08830   70.10390   61.25870   16.32420    -999.25   72.83330   72.83330   71.52090   71.52090   16.32420   10.08830   14.43490 -152.26940   -5.98980   14.43490
 7550.00000   13.46600   46.33690   21.67630   46.13340    -999.25   88.23150   88.23150   71.33500   71.33500   46.13340   13.46600   18.32820 -151.39060   -4.88290   18.32820
 7600.00000    9.33040   77.97750   70.54030   14.17630    -999.25   69.75280   69.75280   46.61210   46.61210   14.17630    9.33040   12.50770 -159.25670  -12.51940   12.50770
 7650.00000   12.67770   86.99100   79.03760   12.65220    -999.25   84.02550   84.02550   77.09660   77.09660   12.65220   12.67770   13.07920 -152.26010   -5.29470   13.07920
 7700.00000   10.94310   58.64730   53.71810   18.61570   85.64010   87.34280   87.34280   67.83800   67.83800   18.61570   10.94310   17.50070 -152.97990   -5.78480   17.50070
 7750.00000    9.68370   80.48460   71.26770   14.03160   67.58870   67.29320   67.29320   51.17320   51.17320   14.03160    9.68370   13.30380 -165.07740  -17.65420   13.30380
 7800.00000    9.40230   65.17920   60.05360   16.65180   71.41000   70.83580   70.83580   72.67980   72.67980   16.65180    9.40230   19.85400 -156.00970   -8.35840   19.85400
 7850.00000    9.83540   64.05200   55.39090   18.05350    -999.25   70.53650   70.53650   60.97760   60.97760   18.05350    9.83540   16.98700 -164.51610  -16.63520   16.98700
 7900.00000    9.59800   85.30330   74.62350   13.40060    -999.25   69.06080   69.06080   48.69830   48.69830   13.40060    9.59800   12.39450 -170.26740  -22.15830   12.39450
 7950.00000    9.57070   70.20400   60.09940   16.63910    -999.25   69.30850   69.30850   64.18240   64.18240   16.63910    9.57070   14.17610 -164.66970  -16.33100   14.17610
 8000.00000    9.47590   49.39460   41.31530   24.20410    -999.25   71.94750   71.94750   55.30060   55.30060   24.20410    9.47590   17.15180 -154.65790   -6.09110   17.15180
 8050.00000   12.05620   97.40420   85.02610   11.76110    -999.25   66.27570   66.27570   77.16180   77.16180   11.76110   12.05620   10.11250 -153.44530   -4.65040   10.11250
 8100.00000    9.79550   28.92040   22.72290   44.00850    -999.25   67.57950   67.57950   46.64120   46.64120   44.00850    9.79550   24.16450 -152.63930   -3.61470   24.16450
