~Version ---------------------------------------------------
VERS.      2.0 : CWLS log ASCII Standard -VERSION 2.0
WRAP.       NO : One line per depth step
CREA. 01/09/18 : LAS Creation Date
~Well ------------------------------------------------------
STRT.FT                          1150.0 : START DEPTH
STOP.FT                         12100.0 : STOP DEPTH
STEP.FT                        50.00000 : STEP LENGTH
NULL.                           -999.25 : NULL VALUE
COMP. HUDSONS BAY OIL & GAS COMPANY LTD : COMPANY
WELL. HB ET AL EAST MARLBORO 7-15-55-18 : WELL
FLD .                                   : FIELD
LOC .                                   : LOCATION
CTRY.                            CANADA : COUNTRY
SRVC.            Schlumberger of Canada : SERVICE COMPANY
DATE.                       14-Sep-1968 : LOGDATE
PROV.                           Alberta : PROVINCE
UWI .                  100071505518W500 : UNIQUE WELL ID
SLAT.WGS84                     53.74917 : SURFACE LATITUDE
SLON.WGS84                    -116.5848 : SURFACE LONGITUDE
~Curve Information -----------------------------------------
DEPT    .FT    : Depth Curve
CALDED  .IN    : CALIPER FROM DENSITY LOG, DEPTH ADJUSTED WITH [SPRED]
CALSED  .IN    : CALIPER FROM SONIC LOG, DEPTH ADJUSTED WITH [SPRED]
CALWS   .IN    : CALIPER [CALSED]
CONDWS  .MMHO  : CONDUCTIVITY [1000/DRESWS]
DCORED  .G/C3  : DENSITY CORRECTION FROM DENSITY LOG, DEPTH ADJUSTED WITH [SPRED]
DCORWS  .G/C3  : DENSITY CORRECTION [DCORED]
DENWS   .G/C3  : BULK DENSITY [RHOBED]
DPOLSWS .V/V   : DENITY POROSITY LIMESTONE [CALCULATED FROM DENWS]
DRESWS  .OHMM  : DEEP RESISTIVITY [ILDED]
DTED    .US/F  : DELTA TIME FROM SONIC LOG, DEPTH ADJUSTED WITH [SPRED]
DTWS    .US/F  : DELTA TIME [DTED]
GRNED   .GAPI  : GAMMA RAY FROM NEUTRON LOG, DEPTH ADJUSTED WITH [SPRED]
GRSED   .GAPI  : GAMMA RAY FROM SONIC LOG, DEPTH ADJUSTED WITH [SPRED]
GRWS    .GAPI  : GAMMA RAY [GRSED], SPLICED WITH [GRNED] FROM 8632'-8667'
ILDED   .OHMM  : INDUCTION LOG DEEP RESISTIVITY
ILMED   .OHMM  : INDUCTION LOG MEDIUM RESISTIVITY
LL8ED   .OHMM  : 8 INCH LATEROLOG RESISTIVITY
MRESWS  .OHMM  : MEDIUM RESISTIVITY [ILMED]
NEUTED  .NAPI  : NEUTRON FROM NEUTRON LOG, DEPTH ADJUSTED WITH [SPRED]
NEUTWS  .NAPI  : NEUTRON [NEUTED]
NPOLSWS .V/V   : NEITRON POROSITY LIMESTONE [SNPLSED]
PORLSED .V/V   : DENITY POROSITY LIMESTONE FROM DENSITY LOG, DEPTH ADJUSTED WITH [SPRED]
PORSDMED.V/V   : DENITY POROSITY DOLOMITE FROM DENSITY LOG, DEPTH ADJUSTED WITH [SPRED]
RHOBED  .G/C3  : BULK DENSITY FROM DENSITY LOG, DEPTH ADJUSTED WITH [SPRED]
SNPLSED .V/V   : SIDEWALL NEUTRON POROSITY LIMESTONE FROM DENSITY LOG, DEPTH ADJUSTED WITH [SPRED]
SPRED   .MV    : SPONTANEOUS POTENTIAL FROM RESISTIVITY LOG
SPWS    .MV    : SPONTANEOUS POTENTIAL [BASELINE 0 MV] [SPRED]
SRESWS  .OHMM  : SHALLOW RESISTIVITY [LL8ED]
~Params ----------------------------------------------------
PD  .                     GL : PERMANENT DATUM
EPD .FT                 3167 : ELEVATION PERMANENT DATUM
LMF .                     KB : LOG MEASURED FROM
DAPD.FT                   15 : FEET ABOVE PERMANENT DATUM
EKB .FT                 3182 : KELLY BUSHING
EGL .FT                 3167 : GROUND LEVEL
DATE.               09/14/68 : RUN DATE
RUN .                      3 : RUN NUMBER
DD  .FT                12110 : DEPTH DRILLER
DL  .FT                12109 : DEPTH LOGGER
BLI .FT                12105 : BOTTOM LOG INTERVAL
TLI .FT                11350 : TOP LOG INTERVAL
CBD .FT                 1265 : CASING BOTTOM DRILLER
BS  .IN                 8.75 : BIT SIZE
BSD .FT                12110 : BIT SIZE AT DEPTH
DFT .                    GEL : DRILLING FLUID TYPE
DFD .                   11.1 : DRILLING FLUID DENSITY
DFV .                    300 : DRILLING FLUID VISCOSITY
DFPH.                   11.5 : DRILLING FLUID PH
DFL .                    4.2 : DRILLING FLUID LOSS
MSS .             CIRCULATED : MUD SAMPLE SOURCE
RMS .OHMM               1.59 : RESISTIVITY MUD SAMPLE
MST .DEGF                 52 : MUD SAMPLE TEMPERATURE
RMF .OHMM               0.86 : RESISTIVITY MUD FILTRATE SAMPLE
MFST.DEGF                 58 : MUD FILTRATE SAMPLE TEMPERATURE
RMC .OHMM               1.69 : RESISTIVITY MUD CAKE
MCST.DEGF                 56 : MUD CAKE SAMPLE TEMPERATURE
RMB .OHMM               0.25 : RESISTIVITY MUD AT BHT
TCS .HRS                   4 : TIME CIRCULATED STOPPED
LUN .                   7501 : LOGGING UNIT NUMBER
LUL .                    EDM : LOGGING UNIT LOCATION
ENGI.               STUEHMER : RECORDING ENGINEER
WITN.                 WALKER : WITNESSED BY
CLNT.                A2DTECH : CLIENT CODE
ORIG.            2" 5" PRINT : ORIGIN OF DATA
UWI .       100071505518W500 : UNIQUE WELL ID
DICO. A2D Technologies, Inc. : DIGITIZING COMPANY
~Other -----------------------------------------------------
~ASCII -----------------------------------------------------
# ...
 3650.00000    -999.25    9.21090    9.21090   55.53240    -999.25    -999.25    -999.25    -999.25   18.00750   77.81400   77.81400    -999.25   44.91390   44.91390   18.00750   15.40490   17.18190   15.40490    -999.25    -999.25    -999.25    -999.25    -999.25    -999.25    -999.25  -64.24400  -12.10450   17.18190
 3700.00000    -999.25    9.49870    9.49870  136.43710    -999.25    -999.25    -999.25    -999.25    7.38970   78.71990   78.71990    -999.25   58.25240   58.25240    7.38970    6.18920    8.65850    6.18920    -999.25    -999.25    -999.25    -999.25    -999.25    -999.25    -999.25  -58.48590   -6.33040    8.65850
 3750.00000    -999.25    9.38160    9.38160   63.96190    -999.25    -999.25    -999.25    -999.25   15.63430   75.21590   75.21590    -999.25   50.29230   50.29230   15.63430   14.83900   17.07430   14.83900    -999.25    -999.25    -999.25    -999.25    -999.25    -999.25    -999.25  -60.48630   -8.31500   17.07430
 3800.00000    -999.25    9.05020    9.05020   40.23210    -999.25    -999.25    -999.25    -999.25   24.85580   59.95190   59.95190    -999.25   37.74770   37.74770   24.85580   25.53000   36.14040   25.53000    -999.25    -999.25    -999.25    -999.25    -999.25    -999.25    -999.25  -62.96900  -10.78180   36.14040
 3850.00000    -999.25    9.67900    9.67900  137.87590    -999.25    -999.25    -999.25    -999.25    7.25290   81.73430   81.73430    -999.25   67.39610   67.39610    7.25290    6.44490    6.88880    6.44490    -999.25    -999.25    -999.25    -999.25    -999.25    -999.25    -999.25  -55.86660   -3.66340    6.88880
 3900.00000    -999.25    9.87410    9.87410   72.45060    -999.25    -999.25    -999.25    -999.25   13.80250   79.25130   79.25130    -999.25   44.37900   44.37900   13.80250   11.53850   12.92010   11.53850    -999.25    -999.25    -999.25    -999.25    -999.25    -999.25    -999.25  -63.66120  -11.26940   12.92010
 3950.00000    -999.25   10.01080   10.01080   94.10050    -999.25    -999.25    -999.25    -999.25   10.68020   79.16110   79.16110    -999.25   56.14990   56.14990   10.68020    8.57020    9.96130    8.57020    -999.25    -999.25    -999.25    -999.25    -999.25    -999.25    -999.25  -57.87520   -5.22300    9.96130
 4000.00000    -999.25    9.81740    9.81740  156.80620    -999.25    -999.25    -999.25    -999.25    6.37730   82.28370   82.28370    -999.25   63.40990   63.40990    6.37730    5.55920    6.17450    5.55920    -999.25    -999.25    -999.25    -999.25    -999.25    -999.25    -999.25  -55.72050   -2.81050    6.17450
 4050.00000    -999.25    9.22690    9.22690   44.28970    -999.25    -999.25    -999.25    -999.25   22.57860   76.10720   76.10720    -999.25   42.14810   42.14810   22.57860   17.13990   20.77940   17.13990    -999.25    -999.25    -999.25    -999.25    -999.25    -999.25    -999.25  -61.11500   -7.94590   20.77940
 4100.00000    -999.25    8.88940    8.88940   40.52490    -999.25    -999.25    -999.25    -999.25   24.67620   81.44980   81.44980    -999.25   37.05380   37.05380   24.67620   23.40590   26.46800   23.40590    -999.25    -999.25    -999.25    -999.25    -999.25    -999.25    -999.25  -70.63880  -17.21050   26.46800
 4150.00000    -999.25    9.29700    9.29700   34.53580    -999.25    -999.25    -999.25    -999.25   28.95550   77.59350   77.59350    -999.25   32.58620   32.58620   28.95550   25.03680   25.93030   25.03680    -999.25    -999.25    -999.25    -999.25    -999.25    -999.25    -999.25  -70.77710  -17.08970   25.93030
 4200.00000    -999.25    9.60850    9.60850   81.74200    -999.25    -999.25    -999.25    -999.25   12.25190   76.05010   76.05010    -999.25   49.08340   49.08340   12.25190   11.31880   13.28200   11.31880    -999.25    -999.25    -999.25    -999.25    -999.25    -999.25    -999.25  -57.87830   -3.93050   13.28200
 4250.00000    -999.25    9.86550    9.86550  135.41330    -999.25    -999.25    -999.25    -999.25    7.38480   86.58050   86.58050    -999.25   62.42870   62.42870    7.38480    6.74930    7.84730    6.74930    -999.25    -999.25    -999.25    -999.25    -999.25    -999.25    -999.25  -55.66660   -1.46100    7.84730
 4300.00000    -999.25    9.88080    9.88080   92.92300    -999.25    -999.25    -999.25    -999.25   10.76160   77.21600   77.21600    -999.25   44.93280   44.93280   10.76160   10.07360   11.41970   10.07360    -999.25    -999.25    -999.25    -999.25    -999.25    -999.25    -999.25  -58.25160   -3.78680   11.41970
 4350.00000    -999.25    9.87110    9.87110  152.72770    -999.25    -999.25    -999.25    -999.25    6.54760   88.17820   88.17820    -999.25   61.74200   61.74200    6.54760    5.67340    6.85780    5.67340    -999.25    -999.25    -999.25    -999.25    -999.25    -999.25    -999.25  -55.93800   -1.21410    6.85780
 4400.00000    -999.25    9.57870    9.57870  136.01370    -999.25    -999.25    -999.25    -999.25    7.35220   89.96700   89.96700    -999.25   48.68720   48.68720    7.35220    6.77510    8.08440    6.77510    -999.25    -999.25    -999.25    -999.25    -999.25    -999.25    -999.25  -59.82480   -4.84180    8.08440
 4450.00000    -999.25   10.55530   10.55530  116.01510    -999.25    -999.25    -999.25    -999.25    8.61960   80.57740   80.57740    -999.25   62.17200   62.17200    8.61960    8.10910    9.04310    8.10910    -999.25    -999.25    -999.25    -999.25    -999.25    -999.25    -999.25  -55.55270   -0.30930    9.04310
 4500.00000    -999.25    9.92740    9.92740  100.22650    -999.25    -999.25    -999.25    -999.25    9.97740   77.25290   77.25290    -999.25   51.01690   51.01690    9.97740    9.02310   10.79370    9.02310    -999.25    -999.25    -999.25    -999.25    -999.25    -999.25    -999.25  -58.55700   -3.05570   10.79370
 4550.00000    -999.25    9.46630    9.46630   21.60020    -999.25    -999.25    -999.25    -999.25   46.29590   64.01020   64.01020    -999.25   37.56750   37.56750   46.29590   48.37330   67.76440   48.37330    -999.25    -999.25    -999.25    -999.25    -999.25    -999.25    -999.25  -66.95200  -11.19160   67.76440
 4600.00000    -999.25    9.96390    9.96390   87.06710    -999.25    -999.25    -999.25    -999.25   11.48540   74.57690   74.57690    -999.25   53.19860   53.19860   11.48540   10.79940   12.37700   10.79940    -999.25    -999.25    -999.25    -999.25    -999.25    -999.25    -999.25  -61.29120   -5.27170   12.37700
 4650.00000    -999.25    9.98680    9.98680   45.48120    -999.25    -999.25    -999.25    -999.25   21.98710   74.64470   74.64470    -999.25   29.41930   29.41930   21.98710   20.21310   25.54030   20.21310    -999.25    -999.25    -999.25    -999.25    -999.25    -999.25    -999.25  -68.73330  -12.45470   25.54030
 4700.00000    -999.25    9.64490    9.64490   23.49910    -999.25    -999.25    -999.25    -999.25   42.58160   62.95510   62.95510    -999.25   38.81930   38.81930   42.58160   34.69280   46.28300   34.69280    -999.25    -999.25    -999.25    -999.25    -999.25    -999.25    -999.25  -71.62110  -15.08200   46.28300
 4750.00000    -999.25    9.09200    9.09200   32.29330    -999.25    -999.25    -999.25    -999.25   30.96620   75.56230   75.56230    -999.25   25.98470   25.98470   30.96620   29.62070   33.02050   29.62070    -999.25    -999.25    -999.25    -999.25    -999.25    -999.25    -999.25  -90.21310  -33.41620   33.02050
 4800.00000    -999.25    9.50260    9.50260   97.62000    -999.25    -999.25    -999.25    -999.25   10.24380   70.89470   70.89470    -999.25   49.12920   49.12920   10.24380    9.24150   14.04380    9.24150    -999.25    -999.25    -999.25    -999.25    -999.25    -999.25    -999.25  -62.99760   -5.94160   14.04380
 4850.00000    -999.25    9.22620    9.22620   93.52260    -999.25    -999.25    -999.25    -999.25   10.69260   74.57040   74.57040    -999.25   55.38760   55.38760   10.69260    9.01930   12.32840    9.01930    -999.25    -999.25    -999.25    -999.25    -999.25    -999.25    -999.25  -61.65820   -4.34310   12.32840
