~Version ---------------------------------------------------
VERS.      2.0 : CWLS log ASCII Standard -VERSION 2.0
WRAP.       NO : One line per depth step
CREA. 08/31/17 : LAS Creation Date
~Well ------------------------------------------------------
STRT.FT                     900.0 : START DEPTH
STOP.FT                   11750.0 : STOP DEPTH
STEP.FT                  50.00000 : STEP LENGTH
NULL.                     -999.25 : NULL VALUE
COMP.        MOBIL OIL CANADA LTD : COMPANY
WELL. MOBIL ET AL PINE CREEK 6-36 : WELL
FLD .                             : FIELD
LOC .                             : LOCATION
CTRY.                      CANADA : COUNTRY
SRVC.                Schlumberger : SERVICE COMPANY
DATE.                 21-Apr-1961 : LOGDATE
PROV.                     Alberta : PROVINCE
UWI .            100063605819W500 : UNIQUE WELL ID
SLAT.WGS84               54.05556 : SURFACE LATITUDE
SLON.WGS84              -116.6911 : SURFACE LONGITUDE
~Curve Information -----------------------------------------
DEPT  .FT         : Depth Curve
CALWS .IN         : CALIPER [MCALED]
CILDED.MMHO       : DEEP INDUCTION CONDUCTIVITY FROM IEL LOG
CONDWS.MMHO       : CONDUCTIVITY [CILDED]
DRESWS.OHMM       : DEEP RESISTIVITY [CALCULATED FROM 1000/CILDED, IF ILDED<1, ILDED]
DT1ED .US/F       : ACOUSTIC TRANSIT TIME SLOWNESS, DELTA T FROM SONIC LOG
DT2ED .US/F       : ACOUSTIC TRANSIT TIME SLOWNESS, DELTA T FROM SONIC LOG
DT3ED .US/F       : ACOUSTIC TRANSIT TIME SLOWNESS, DELTA T FROM SONIC LOG
DTED  .US/F       : ACOUSTIC TRANSIT TIME SLOWNESS, DELTA T FROM SONIC LOG
DTWS  .US/F       : COMPRESSIONAL SONIC [DTED]
GRSED .UgRa-Eq/T  : GAMMA RAY FROM SONIC LOG
GRWS  .GAPI       : GAMMA RAY [GRSED*16.5 FOR GAPI]
ILDED .OHMM       : DEEP INDUCTION FROM IEL LOG
MCALED.IN         : MLT [MICROLOG] CALIPER FROM MICRO LOG [ADJ. TO ILDED]
SNED  .OHMM       : SHORT NORMAL FROM IEL LOG
SPRED .MV         : SPONTANEOUS POTENTIAL FROM IEL LOG
SPWS  .MV         : SPONTANEOUS POTENTIAL [BASELINE 0 MV, SPRED]
SRESWS.OHMM       : SHALLOW RESISTIVITY [SNED]
~Params ----------------------------------------------------
PD  .                     GL : PERMANENT DATUM
LMF .                     KB : LOG MEASURED FROM
DAPD.FT                 13.6 : FEET ABOVE PERMANENT DATUM
DMF .                     KB : DRILLING MEASURED FROM
EKB .FT                 3433 : KELLY BUSHING
EGL .FT               3419.4 : GROUND LEVEL
DATE.               04/21/61 : RUN DATE
RUN .                      2 : RUN NUMBER
DD  .FT                11780 : DEPTH DRILLER
DL  .FT                11781 : DEPTH LOGGER
BLI .FT                11780 : BOTTOM LOG INTERVAL
TLI .FT                 8720 : TOP LOG INTERVAL
BS  .IN                    9 : BIT SIZE
BSD .FT                11780 : BIT SIZE AT DEPTH
DFT .              LIME BASE : DRILLING FLUID TYPE
DFV .                    120 : DRILLING FLUID VISCOSITY
DFPH.                     13 : DRILLING FLUID PH
DFL .                    8.8 : DRILLING FLUID LOSS
RMS .OHMM                1.0 : RESISTIVITY MUD SAMPLE
MST .DEGF                 55 : MUD SAMPLE TEMPERATURE
RMF .OHMM               0.22 : RESISTIVITY MUD FILTRATE SAMPLE
MFST.DEGF                203 : MUD FILTRATE SAMPLE TEMPERATURE
RMC .OHMM               0.39 : RESISTIVITY MUD CAKE
MCST.DEGF                203 : MUD CAKE SAMPLE TEMPERATURE
RMB .OHMM               0.28 : RESISTIVITY MUD AT BHT
TCS .HRS                   4 : TIME CIRCULATED STOPPED
LUN .                   2742 : LOGGING UNIT NUMBER
LUL .                    EDM : LOGGING UNIT LOCATION
ENGI.               MC CAMUS : RECORDING ENGINEER
WITN.           CURRIE MOORE : WITNESSED BY
CLNT.                A2DTECH : CLIENT CODE
ORIG.            2" 5" PRINT : ORIGIN OF DATA
UWI .       100063605819W500 : UNIQUE WELL ID
DICO. A2D Technologies, Inc. : DIGITIZING COMPANY
~Other -----------------------------------------------------
~ASCII -----------------------------------------------------
# ...
 9100.00000    8.98740   13.92500   13.92500   89.73970   56.68090    -999.25    -999.25   57.16980   57.16980    1.83070   30.20660   89.73970    8.98740   49.50860 -121.26370  -12.46320   49.50860
 9150.00000    9.84280   18.64470   18.64470   67.32570   61.10470    -999.25    -999.25   61.39420   61.39420    3.25410   53.69180   67.32570    9.84280   44.37480 -115.07720   -3.99230   44.37480
 9200.00000   10.67000    5.81420    5.81420  209.25190   53.33090    -999.25    -999.25   53.89100   53.89100    1.02940   16.98510  209.25190   10.67000   89.59820 -115.70300   -5.33730   89.59820
 9250.00000    9.21870    3.41520    3.41520  417.30930   52.46540    -999.25    -999.25   52.93430   52.93430    0.57200    9.43800  417.30930    9.21870   97.60710 -147.17930  -37.52810   97.60710
 9300.00000    9.42730    4.11280    4.11280  310.34650   52.15200    -999.25    -999.25   52.58750   52.58750    0.42320    6.98200  310.34650    9.42730  110.95100 -139.51310  -30.57640  110.95100
 9350.00000    9.47070    3.50190    3.50190  501.04140   50.13400    -999.25    -999.25   50.40030   50.40030    0.41940    6.92010  501.04140    9.47070  113.37780 -141.19190  -32.97440  113.37780
 9400.00000   11.03810    5.75780    5.75780  258.09500   50.83280    -999.25    -999.25   51.20110   51.20110    0.44780    7.38790  258.09500   11.03810   99.13610 -146.26390  -38.76090   99.13610
 9450.00000   10.12230    2.41770    2.41770  501.69370   54.20170    -999.25    -999.25   54.62730   54.62730    0.48390    7.98440  501.69370   10.12230  120.97460 -156.90740  -50.12360  120.97460
 9500.00000   10.69830    1.73980    1.73980  501.50290   51.53620    -999.25    -999.25   51.50050   51.50050    0.33680    5.55720  501.50290   10.69830   79.27030 -155.29270  -49.22340   79.27030
 9550.00000   11.10390    6.91060    6.91060  188.66730   51.13110    -999.25    -999.25   51.41960   51.41960    0.42490    7.01000  188.66730   11.10390  101.74960 -166.62920  -61.27440  101.74960
 9600.00000   11.18610    3.64520    3.64520  457.41060   51.05870    -999.25    -999.25   51.48080   51.48080    0.30900    5.09850  457.41060   11.18610  110.33860 -166.50690  -61.87120  110.33860
 9650.00000   11.18780    3.44400    3.44400  457.77710   50.49380    -999.25    -999.25   50.63800   50.63800    0.51110    8.43310  457.77710   11.18780   99.22630 -156.08730  -52.16610   99.22630
 9700.00000   12.32520    6.91190    6.91190  294.80350   51.60150    -999.25    -999.25   51.78300   51.78300    0.65720   10.84380  294.80350   12.32520   92.12090 -143.32490  -40.12290   92.12090
 9750.00000   11.77100    4.57540    4.57540  499.70340   51.35000    -999.25    -999.25   51.52200   51.52200    0.37620    6.20730  499.70340   11.77100   96.61680 -161.71940  -59.23190   96.61680
 9800.00000   11.95010    3.87220    3.87220  479.37220   51.18270    -999.25    -999.25   51.52940   51.52940    0.43640    7.19980  479.37220   11.95010   71.99680 -157.89090  -56.11790   71.99680
 9850.00000   11.85690    4.64570    4.64570  379.97370   50.80410    -999.25    -999.25   51.17030   51.17030    0.43750    7.21880  379.97370   11.85690   94.63080 -145.46700  -44.41320   94.63080
 9900.00000    9.27970    1.84780    1.84780  501.06830   50.60420    -999.25    -999.25   50.90060   50.90060    0.53490    8.82580  501.06830    9.27970   72.45740 -155.96310  -55.62380   72.45740
 9950.00000   10.61620   43.64700   43.64700   25.58310   63.85430    -999.25    -999.25   64.14280   64.14280    4.20550   69.39070   25.58310   10.61620   34.28250 -153.20350  -53.58340   34.28250
 10000.00000    8.84050    3.78430    3.78430  492.10970   50.40530    -999.25    -999.25   50.79750   50.79750    0.49860    8.22690  492.10970    8.84050   91.41390 -162.13350  -63.22790   91.41390
 10050.00000   12.70940   40.41700   40.41700   34.67730   52.59300    -999.25    -999.25   52.73140   52.73140    0.94490   15.59080   34.67730   12.70940   24.17580 -185.49430  -87.30320   24.17580
 10100.00000   12.85910    7.94700    7.94700  178.31730   55.67970    -999.25    -999.25   58.35370   58.35370    0.99750   16.45880  178.31730   12.85910   49.89840 -200.19640 -102.72450   49.89840
 10150.00000   10.66820    6.07600    6.07600  210.69550   54.31140    -999.25    -999.25   54.65450   54.65450    0.96640   15.94560  210.69550   10.66820   68.81080 -161.01590  -64.25850   68.81080
 10200.00000    9.24160    9.85610    9.85610  119.67190   55.35040    -999.25    -999.25   55.77250   55.77250    1.31470   21.69260  119.67190    9.24160   57.02910 -127.96980  -31.93160   57.02910
 10250.00000    9.53410    9.68640    9.68640  115.31670   57.73600    -999.25    -999.25   58.00700   58.00700    1.32770   21.90710  115.31670    9.53410   50.40430 -155.86220  -60.53850   50.40430
 10300.00000    9.13840   16.30500   16.30500   74.41100   57.00470    -999.25    -999.25   57.26330   57.26330    1.45730   24.04550   74.41100    9.13840   40.31290 -160.18940  -65.58020   40.31290
 10350.00000    9.90840   11.54100   11.54100  103.48680   55.80720    -999.25    -999.25   56.01030   56.01030    1.31680   21.72720  103.48680    9.90840   41.94700 -107.51060  -13.62060   41.94700
 10400.00000    8.70870   12.99720   12.99720   92.21900   56.24830    -999.25    -999.25   56.49430   56.49430    1.04820   17.29450   92.21900    8.70870   41.51220 -124.22820  -31.05270   41.51220
 10450.00000    9.03840   31.49250   31.49250   35.06490   59.39900    -999.25    -999.25   59.69400   59.69400    1.64320   27.11280   35.06490    9.03840   24.99390 -119.82650  -27.37010   24.99390
 10500.00000   10.23930   49.76770   49.76770   21.64450   62.99880    -999.25    -999.25   63.26800   63.26800    2.12030   34.98490   21.64450   10.23930   18.21310 -106.22570  -14.48380   18.21310
 10550.00000   13.04280   87.22110   87.22110   11.74850   67.46450    -999.25    -999.25   67.69000   67.69000    2.53810   41.87780   11.74850   13.04280   10.10640 -103.11520  -12.08780   10.10640
 10600.00000   10.53850   30.21530   30.21530   34.86470   79.94270    -999.25    -999.25   81.84930   81.84930    2.95220   48.71130   34.86470   10.53850   21.60020 -130.81660  -40.50840   21.60020
 10650.00000   12.79720  105.94200  105.94200    9.67620   63.08410    -999.25    -999.25   63.74350   63.74350    2.74780   45.33870    9.67620   12.79720   10.87550 -143.15900  -53.56530   10.87550
 10700.00000   14.48930   91.98560   91.98560   11.37950   77.62680    -999.25    -999.25   83.17380   83.17380    3.24330   53.51450   11.37950   14.48930   10.75300 -115.55440  -26.67990   10.75300
 10750.00000   13.55990   96.81360   96.81360   10.21480   78.79550    -999.25    -999.25   79.18620   79.18620    2.73490   45.12590   10.21480   13.55990    9.06690 -134.32790  -46.16790    9.06690
 10800.00000    9.40230   17.15500   17.15500   73.54040   57.04360    -999.25    -999.25   57.38790   57.38790    1.67610   27.65650   73.54040    9.40230   36.26040 -134.55380  -47.10830   36.26040
 10850.00000    9.53290   28.52050   28.52050   38.34050   60.44370    -999.25    -999.25   60.55900   60.55900    2.11760   34.94040   38.34050    9.53290   19.93000  -98.07370  -11.34740   19.93000
 10900.00000   10.10240   54.28900   54.28900   20.21440   65.64440    -999.25    -999.25   65.84610   65.84610    3.08480   50.89920   20.21440   10.10240   18.65880  -99.91250  -13.90070   18.65880
 10950.00000   11.28770   56.47880   56.47880   18.54350   65.40440    -999.25    -999.25   65.77120   65.77120    3.56970   58.90010   18.54350   11.28770   17.10490  -87.94250   -2.64990   17.10490
 11000.00000   12.36580   67.88320   67.88320   14.64590   69.13550    -999.25    -999.25   69.14650   69.14650    3.81690   62.97890   14.64590   12.36580   13.47280  -92.51180   -7.29440   13.47280
 11050.00000    9.58430   33.24920   33.24920   33.42710   66.88920    -999.25    -999.25   66.97060   66.97060    3.35320   55.32780   33.42710    9.58430   33.45190 -102.40000  -17.18260   33.45190
 11100.00000    9.33120   11.36260   11.36260  109.09870   75.93950    -999.25    -999.25   75.71100   75.71100    4.58720   75.68880  109.09870    9.33120   69.88090 -100.23650  -15.01910   69.88090
