~Version ---------------------------------------------------
VERS.      2.0 : CWLS log ASCII Standard -VERSION 2.0
WRAP.       NO : One line per depth step
CREA. 08/01/17 : LAS Creation Date
~Well ------------------------------------------------------
STRT.FT                                     650.0 : START DEPTH
STOP.FT                                    9250.0 : STOP DEPTH
STEP.FT                                  50.00000 : STEP LENGTH
NULL.                                     -999.25 : NULL VALUE
COMP.                      CALIFORNIA STANDARD CO : COMPANY
WELL. CALIFORNIA STANDARD SOUTH MORNINGSIDE 14-20 : WELL
FLD .                                             : FIELD
LOC .                                             : LOCATION
CTRY.                                      CANADA : COUNTRY
SRVC.            Schlumberger Well Surveying Corp : SERVICE COMPANY
DATE.                                 10-Mar-1955 : LOGDATE
PROV.                                     Alberta : PROVINCE
UWI .                            100142004127W400 : UNIQUE WELL ID
SLAT.WGS84                               52.54859 : SURFACE LATITUDE
SLON.WGS84                              -113.8578 : SURFACE LONGITUDE
~Curve Information -----------------------------------------
DEPT   .FT         : Depth Curve
CALI1ED.IN         : CALIPER 1 FROM CALIPER LOG
CALIED .IN         : CALIPER FROM CALIPER LOG
CALWS  .IN         : CALIPER [CALIED]
CONDWS .MMHO       : CONDUCTIVITY [1000/DRESWS]
DRESWS .OHMM       : DEEP RESISTIVITY [LNED]
GRNED  .UgRa-Eq/T  : GAMMA RAY FROM GRN LOG
GRWS   .GAPI       : GAMMA RAY [GRNED*16.5 TO CONVERTED TO GAPI]
LATED  .OHMM       : LATERAL RESISTIVITY FROM EL LOG
LL7ED  .OHMM       : LATEROLOG-7 RESISTIVITY FROM MLL LOG
LNED   .OHMM       : LONG NORMAL RESISTIVITY FROM MLL LOG
MLLED  .OHMM       : MICRO-LATEROLOG RESISTIVITY
NEUTED .NAPI       : NEUTRON FROM GRN LOG
NEUTWS .NAPI       : NEUTRON [NEUTED]
SNED   .OHMM       : SHORT NORMAL RESISTIVITY FROM EL LOG
SPMED  .MV         : SPONTAEOUS POTENTIAL FROM MICRO LOG
SPR1ED .MV         : SPONTANEOUS POTENTIAL FROM MLL LOG
SPRED  .MV         : SPONTANEOUS POTENTIAL FROM EL LOG
SPWS   .MV         : SPONTANEOUS POTENTIAL [BASELINE 0 MV,SPRED]
SRESWS .OHMM       : SHALLOW RESISTIVIOTY [SNED]
~Params ----------------------------------------------------
PD  .                     KB : PERMANENT DATUM
EKB .FT                 3032 : KELLY BUSHING
DATE.               03/10/55 : RUN DATE
RUN .                      1 : RUN NUMBER
DD  .FT                 9259 : DEPTH DRILLER
DL  .FT                 9258 : DEPTH LOGGER
BLI .FT                 9259 : BOTTOM LOG INTERVAL
TLI .FT                 6326 : TOP LOG INTERVAL
CBD .FT                  623 : CASING BOTTOM DRILLER
CBL .FT                  624 : CASING BOTTOM LOGGER
BSD .FT                 6258 : BIT SIZE AT DEPTH
DFT .              LIME BASE : DRILLING FLUID TYPE
DFD .                   10.2 : DRILLING FLUID DENSITY
DFV .                     12 : DRILLING FLUID VISCOSITY
DFPH.                   12.5 : DRILLING FLUID PH
DFL .                    7.8 : DRILLING FLUID LOSS
RMS .OHMM               0.66 : RESISTIVITY MUD SAMPLE
MST .DEGF                 74 : MUD SAMPLE TEMPERATURE
RMB .OHMM                0.3 : RESISTIVITY MUD AT BHT
TCS .HRS                   4 : TIME CIRCULATED STOPPED
LUN .                   2741 : LOGGING UNIT NUMBER
LUL .                   STST : LOGGING UNIT LOCATION
ENGI.               JOHNKLAM : RECORDING ENGINEER
WITN.                 GEDDES : WITNESSED BY
CLNT.                A2DTECH : CLIENT CODE
ORIG.        2" 5" 25" PRINT : ORIGIN OF DATA
UWI .       100142004127W400 : UNIQUE WELL ID
DICO. A2D Technologies, Inc. : DIGITIZING COMPANY
~Other -----------------------------------------------------
~ASCII -----------------------------------------------------
# ...
 6200.00000    -999.25    8.19670    8.19670   60.49060   16.50630   13.39180  220.96470   19.59560   13.93830   16.53150   19.10700  554.82750  537.18850   16.23250  -71.74700  -38.62200 -172.78860   -1.91540   16.21050
 6250.00000    -999.25    8.57920    8.57920   63.08350   15.83510   12.92250  213.22130   14.12910   13.71840   15.85200   17.85710  581.78090  576.94100   17.55400  -71.38550  -39.78000 -173.08120   -1.79420   17.54110
 6300.00000    -999.25    8.25140    8.25140    2.88320  347.30050    2.85570   47.11820  634.57040  356.57810  346.84950  187.16100 1488.10560 1487.34520  154.75390  -86.56630  -77.36010 -186.85540  -17.76170  154.99970
 6350.00000    -999.25    -999.25    -999.25    4.95040  202.00570    1.40570   23.19410  537.03950 2126.48240  202.00570  366.78670 1206.29300 1206.29300   64.92910  -69.57830  -87.92550 -199.16900  -35.35720   64.92910
 6400.00000    -999.25    -999.25    -999.25    5.30250  188.06670    1.85530   30.61240  403.90200  354.45370  188.59160  178.87940 1097.41850 1113.73830   65.36960  -64.87950  -84.68510 -173.46070  -14.89620   65.15610
 6450.00000    -999.25    -999.25    -999.25    4.39900  226.49310    1.60550   26.49070  595.51230  175.05790  227.32660   35.41850 1052.61000 1056.06230   49.68520  -34.51810  -54.82640 -159.06980   -5.78710   49.63670
 6500.00000    -999.25    -999.25    -999.25    4.56420  218.72080    1.17740   19.42710  425.30400  508.29820  219.09640  172.36720 1399.07890 1405.01540   72.55420  -42.70190  -62.54840 -157.56980   -9.53440   72.35300
 6550.00000    -999.25    -999.25    -999.25    2.89900  345.17960    1.61280   26.61040  672.94160  395.06320  344.94480   39.52520  801.79350  813.36990   89.84790  -47.06830  -67.51810 -152.35730   -9.56920   89.89560
 6600.00000    -999.25    -999.25    -999.25    4.34040  230.39560    1.34860   22.25190  443.05810  437.22800  230.39560  498.71510 1022.41560 1022.41560   59.76990  -42.39260  -62.47480 -151.55460  -13.34820   59.76990
 6650.00000    -999.25    -999.25    -999.25    4.24590  235.19000    1.50850   24.89020  494.55000  367.32850  235.51950  774.81520  825.70680  819.86320   69.71850  -65.70570  -86.01610 -166.50300  -31.75670   69.59590
 6700.00000    -999.25    -999.25    -999.25    3.36390  297.85900    1.89760   31.31040  544.50000  753.61010  297.27730  133.66340  931.33290  925.66000   79.04570  -48.97590  -67.74090 -151.29170  -20.03260   79.13890
 6750.00000    -999.25    -999.25    -999.25    1.99620  500.94850    1.56040   25.74660  899.52250 2643.87350  500.94850  656.61570 1079.73390 1074.55590  115.46080  -50.42170  -71.43690 -170.74030  -42.94570  115.45470
 6800.00000    -999.25    -999.25    -999.25    2.15940  462.86850    2.01220   33.20210  822.36490 1213.44780  463.08840  893.91080 1033.58240 1032.16780   74.90790  -55.88220  -76.59960 -202.12810  -77.79790   74.92270
 6850.00000    -999.25    -999.25    -999.25    3.36450  297.21860    1.19910   19.78520  604.52180  484.62480  297.21860  759.22590  858.64890  858.64890   63.48220  -47.16870  -66.13190 -218.33830  -97.49530   63.48220
 6900.00000    -999.25    -999.25    -999.25    3.79450  263.35150    1.31570   21.70910  440.86900  134.47650  263.53790  928.44280 1078.71030 1088.12700   71.75090  -50.96390  -70.46910 -217.10540  -99.72690   71.75090
 6950.00000    -999.25    -999.25    -999.25    2.70570  369.70550    1.22020   20.13330  745.18070 9990.97460  369.58480   98.87370 1246.57120 1243.11670   71.04390  -72.46990  -91.44870 -222.27750 -108.38620   71.12260
 7000.00000    -999.25    -999.25    -999.25    7.74850  129.96180    5.33920   88.09680  143.77780  314.98200  129.05730  210.17100  737.87100  734.68100   34.97690  -85.84340 -108.47080 -201.13400  -90.70710   35.21080
 7050.00000    -999.25    -999.25    -999.25    1.78470  560.25120    2.95800   48.80620 1090.27080  498.44760  560.31640  914.94150 1258.04500 1261.89150   98.34430  -95.06020 -118.61170 -188.73830  -81.77590   98.24780
 7100.00000    -999.25    -999.25    -999.25    1.71780  582.12990    2.06220   34.02630  698.25480 10063.17680  582.12990  280.37810 1425.69090 1425.69090  101.47880  -79.19170  -99.10460 -189.73150  -86.25630  101.47880
 7150.00000    -999.25    -999.25    -999.25    1.57160  637.68090    1.59840   26.37360 1024.26970 10022.42870  636.28160  997.93740 1501.43300 1513.51070   74.45850  -94.33730 -114.98990 -189.19080  -89.18000   74.76580
 7200.00000    -999.25    -999.25    -999.25   12.84840   78.04340    6.56960  108.39840  118.35000   81.98630   77.83090   95.83710  630.91100  637.15490   27.61150  -76.44580  -95.79480 -166.81570  -70.29220   27.83690
 7250.00000    -999.25    -999.25    -999.25   10.61640   94.40830    5.77140   95.22810  197.52130   68.86280   94.19350   68.99190  648.82290  639.67370   35.20180  -58.68630  -78.77260 -166.34110  -73.28200   35.22650
 7300.00000    -999.25    -999.25    -999.25   17.63810   56.97470    5.76590   95.13650  107.24520    -999.25   56.72340    -999.25  817.57180  818.36350   27.04940    -999.25    -999.25 -179.75130  -90.15660   27.13190
 7350.00000    -999.25    -999.25    -999.25   28.33220   35.29550    7.60710  125.51720   54.13210    -999.25   35.29550    -999.25  519.98470  519.98470   17.16220    -999.25    -999.25 -200.64540 -114.53800   17.16220
 7400.00000    -999.25    -999.25    -999.25   20.03430   49.91530    6.52140  107.60310   81.31110    -999.25   49.91440    -999.25  806.98980  809.74740   28.51350    -999.25    -999.25 -206.49460 -123.85160   28.49150
 7450.00000    -999.25    -999.25    -999.25   24.81140   40.31150    9.50710  156.86710   63.73890    -999.25   40.30410    -999.25  549.53940  552.97560   20.58560    -999.25    -999.25 -204.99230 -125.83650   20.59050
 7500.00000    -999.25    -999.25    -999.25   27.16030   36.72510    7.57860  125.04690   48.93580    -999.25   36.81850    -999.25  574.10440  574.20670   20.28190    -999.25    -999.25 -216.55060 -140.85930   20.24300
 7550.00000    -999.25    -999.25    -999.25   26.08190   38.34670    8.27530  136.54160   47.45300    -999.25   38.34080    -999.25  622.81220  622.69190   20.77520    -999.25    -999.25 -210.48550 -138.25860   20.77410
 7600.00000    -999.25    -999.25    -999.25   20.96150   47.70660    7.38580  121.86570   65.30750    -999.25   47.70660    -999.25  640.16490  640.16490   23.92550    -999.25    -999.25 -160.69880  -91.95910   23.92550
 7650.00000    -999.25    -999.25    -999.25   20.87400   47.89630    7.68570  126.81400   71.78520    -999.25   47.90660    -999.25  666.09520  666.32550   24.63960    -999.25    -999.25 -114.03870  -48.76350   24.62520
 7700.00000    -999.25    -999.25    -999.25   24.70810   40.51780    9.41430  155.33600   59.86470    -999.25   40.47250    -999.25  542.72130  538.23660   20.67570    -999.25    -999.25  -74.46450  -12.67650   20.67570
 7750.00000    -999.25    -999.25    -999.25   17.16230   58.26710    8.05420  132.89430   63.34600    -999.25   58.26710    -999.25  451.27940  451.27940   24.39750    -999.25    -999.25  -72.49170  -14.16820   24.40550
 7800.00000    -999.25    -999.25    -999.25    5.17580  192.51200   10.53010  173.74750  235.31400    -999.25  193.28270    -999.25  308.56270  310.19370   35.76650    -999.25    -999.25  -57.49770   -2.63860   35.59350
 7850.00000    -999.25    -999.25    -999.25    8.32070  120.18160    5.14970   84.97010  254.35190    -999.25  120.18160    -999.25  364.62790  364.62790   31.62160    -999.25    -999.25  -70.24170  -17.34270   31.62160
 7900.00000    -999.25    -999.25    -999.25   21.77660   46.21210    6.73620  111.14730   32.56840    -999.25   45.92080    -999.25  582.48630  589.10250   16.08110    -999.25    -999.25 -107.02900  -54.13000   16.11650
 7950.00000    -999.25    -999.25    -999.25    1.73220  578.45270    1.41140   23.28810  885.46150    -999.25  577.30850    -999.25 1249.25310 1243.37810  132.02800    -999.25    -999.25 -118.18630  -65.28730  131.74140
 8000.00000    -999.25    -999.25    -999.25    1.41930  704.99600    1.76780   29.16870  879.40440    -999.25  704.59020  358.75720 1261.21960 1260.13980  104.95790  -64.51810  -66.73720 -139.58620  -86.68720  105.08300
