~Version ---------------------------------------------------
VERS.      2.0 : CWLS log ASCII Standard -VERSION 2.0
WRAP.       NO : One line per depth step
CREA. 01/05/18 : LAS Creation Date
~Well ------------------------------------------------------
STRT.FT                              300.0 : START DEPTH
STOP.FT                            15450.0 : STOP DEPTH
STEP.FT                           50.00000 : STEP LENGTH
NULL.                              -999.25 : NULL VALUE
COMP.                        BANFF OIL LTD : COMPANY
WELL. BANFF AQUIT CHIEFCO WAWA 11-20-42-13 : WELL
FLD .                                      : FIELD
LOC .                                      : LOCATION
CTRY.                               CANADA : COUNTRY
SRVC.               Schlumberger of Canada : SERVICE COMPANY
DATE.                          07-Apr-1970 : LOGDATE
PROV.                              Alberta : PROVINCE
UWI .                     100112004213W500 : UNIQUE WELL ID
SLAT.WGS84                        52.63304 : SURFACE LATITUDE
SLON.WGS84                       -115.8375 : SURFACE LONGITUDE
~Curve Information -----------------------------------------
DEPT    .FT    : Depth Curve
CALDED  .IN    : CALIPER FROM DENSITY LOG [ADJ. TO RESISTIVITY LOG]
CALNED  .IN    : CALIPER FROM SNP LOG [ADJ. TO RESISTIVITY LOG]
CALSED  .IN    : CALIPER FROM SONIC LOG [ADJ. TO RESISTIVITY LOG]
CALWS   .IN    : CALIPER [CALSED]
CONDWS  .MMHO  : CONDUCTIVITY [1000/DRESWS]
CORRED  .G/C3  : DENSITY CORRECTION FROM DENSITY LOG [ADJ. TO RESISTIVITY LOG]
DCORWS  .G/C3  : DENSITY CORRECTION [CORRED]
DENWS   .G/C3  : FORMATION BULK DENSITY [RHOBED]
DPHILSED.V/V   : DENSITY POROSITY LIMESTONE FROM DENSITY LOG [ADJ. TO RESISTIVITY LOG]
DPOLSWS .V/V   : DENSITY POROSITY LIMESTONE [CALC. FROM DENWS, M=2.71 F=1.00]
DRESWS  .OHMM  : DEEP RESISTIVITY [ILDED]
DTED    .US/F  : DELTA T FROM SONIC LOG [ADJ. TO RESISTIVITY LOG]
DTWS    .US/F  : COMPRESSIONAL SONIC [DTED]
GRDED   .GAPI  : GAMMA RAY FROM DENSITY LOG [ADJ. TO RESISTIVITY LOG]
GRDRED  .GAPI  : GAMMA RAY (REPEAT) FROM DENSITY LOG
GRNED   .GAPI  : GAMMA RAY FROM SNP LOG [ADJ. TO RESISTIVITY LOG]
GRSED   .GAPI  : GAMMA RAY FROM SONIC LOG [ADJ. TO RESISTIVITY LOG]
GRWS    .GAPI  : GAMMA RAY [GRSED]
ILDED   .OHMM  : DEEP INDUCTION RESISTIVITY FROM RESISTIVITY LOG
ILMED   .OHMM  : MEDIUM INDUCTION RESISTIVITY FROM RESISTIVITY LOG
ILMRED  .OHMM  : MEDIUM INDUCTION RESISTIVITY(REPEAT) FROM RESISTIVITY LOG [ADJ. TO ILDED]
LL8ED   .OHMM  : LATEROLOG 8 RESISTIVITY FROM RESISTIVITY LOG
MRESWS  .OHMM  : MEDIUM RESISTIVITY [ILMED SPL. TO ILMRED @ 15233']
NPOLSWS .V/V   : NEUTRON POROSITY LIMESTONE [SNPLSED]
RHOBED  .G/C3  : BULK DENSITY FROM DENSITY LOG [ADJ. TO RESISTIVITY LOG]
SNPLSED .V/V   : SIDEWALL NEUTRON POROSITY LIMESTONE FROM SNP LOG [ADJ. TO RESISTIVITY LOG]
SPRED   .MV    : SPONTANEOUS POTENTIAL FROM RESISTIVITY LOG
SPRRED  .MV    : SPONTANEOUS POTENTIAL(REPEAT) FROM RESISTIVITY LOG [ADJ. TO ILDED]
SPWS    .MV    : SPONTANEOUS POTENTIAL [BASELINE 0 MV, SPRED SPL. TO SPRRED @ 15223']
SRESWS  .OHMM  : SHALLOW RESISTIVITY [LL8ED]
~Params ----------------------------------------------------
PD  .                     GL : PERMANENT DATUM
EPD .FT                 4345 : ELEVATION PERMANENT DATUM
LMF .                     KB : LOG MEASURED FROM
DAPD.FT                   14 : FEET ABOVE PERMANENT DATUM
EKB .FT                 4359 : KELLY BUSHING
EGL .FT                 4345 : GROUND LEVEL
DATE.               06/04/70 : RUN DATE
RUN .                      3 : RUN NUMBER
DD  .FT                15476 : DEPTH DRILLER
DL  .FT                15473 : DEPTH LOGGER
BLI .FT                15471 : BOTTOM LOG INTERVAL
TLI .FT                14327 : TOP LOG INTERVAL
CBD .FT                12360 : CASING BOTTOM DRILLER
CBL .FT                12355 : CASING BOTTOM LOGGER
BS  .IN                    6 : BIT SIZE
BSD .FT                15476 : BIT SIZE AT DEPTH
DFT .               GEL CHEM : DRILLING FLUID TYPE
DFD .                    8.9 : DRILLING FLUID DENSITY
DFV .                     47 : DRILLING FLUID VISCOSITY
DFPH.                     11 : DRILLING FLUID PH
DFL .                   12.4 : DRILLING FLUID LOSS
MSS .               FLOWLINE : MUD SAMPLE SOURCE
RMS .OHMM               2.62 : RESISTIVITY MUD SAMPLE
TCS .HRS                   4 : TIME CIRCULATED STOPPED
LUN .                  CSU C : LOGGING UNIT NUMBER
LUL .                 364 RD : LOGGING UNIT LOCATION
ENGI.                 MEGSON : RECORDING ENGINEER
WITN.                BRINKER : WITNESSED BY
CLNT.                A2DTECH : CLIENT CODE
ORIG.        2" 5" 10" PRINT : ORIGIN OF DATA
UWI .       100112004213W500 : UNIQUE WELL ID
DICO. A2D Technologies, Inc. : DIGITIZING COMPANY
~Other -----------------------------------------------------
~ASCII -----------------------------------------------------
# ...
 13500.00000   10.41860    9.47020    7.73900    7.73900    0.60200    0.26320    0.26320    2.19820    0.20000    0.29930 1661.12930   52.34110   52.34110    -999.25    -999.25   11.68290    9.69980    9.69980 1661.12930   90.84630    -999.25  291.13050   90.84630    0.08890    2.19820    0.08890    -999.25    -999.25    -999.25  291.13050
 13550.00000    9.24740    8.75840    6.40860    6.40860    0.62260    0.25000    0.25000    2.37600    0.13680    0.19530 1606.51910   50.33060   50.33060    -999.25    -999.25   12.65110   10.38940   10.38940 1606.51910 1446.27680    -999.25  636.65910 1446.27680    0.07600    2.37600    0.07600    -999.25    -999.25    -999.25  636.65910
 13600.00000    7.75650    6.79380    6.18510    6.18510    0.59210    0.08540    0.08540    2.94520   -0.08300   -0.13750 1688.84620   49.26500   49.26500    -999.25    -999.25   10.50690    7.89620    7.89620 1688.84620 1603.91590    -999.25 1730.16550 1603.91590    0.01580    2.94520    0.01580    -999.25    -999.25    -999.25 1730.16550
 13650.00000    6.67940    6.37610    6.13940    6.13940    0.61050    0.01000    0.01000    2.60910    0.03440    0.05900 1637.98860   51.86820   51.86820    -999.25    -999.25   20.11650   21.12160   21.12160 1637.98860 1635.67570    -999.25 1706.13810 1635.67570    0.02970    2.60910    0.02970  -49.05140    -999.25  -24.84700 1706.13810
 13700.00000    6.12230    5.73620    6.02750    6.02750    0.55630    0.04740    0.04740    2.95970   -0.09640   -0.14600 1797.54760   50.79060   50.79060    -999.25    -999.25    9.96140    6.15390    6.15390 1797.54760 1730.69180    -999.25 1952.79990 1730.69180    0.01180    2.95970    0.01180 -302.65820    -999.25 -284.16490 1952.79990
 13750.00000    7.65320    7.87260    6.21890    6.21890    0.63500    0.21940    0.21940    2.47420    0.05810    0.13790 1574.70810   49.98090   49.98090    -999.25    -999.25   15.80090   12.69630   12.69630 1574.70810  508.65750    -999.25 1834.76860  508.65750    0.07610    2.47420    0.07610  -47.56480    -999.25  -34.78250 1834.76860
 13800.00000    8.58240    6.00610    6.29490    6.29490    0.61940    0.25000    0.25000    2.32310    0.15570    0.22630 1614.75790   44.40510   44.40510    -999.25    -999.25   25.54300   22.75270   22.75270 1614.75790   95.84290    -999.25 2000.37740   95.84290    0.06520    2.32310    0.06520    -999.25    -999.25    -999.25 2000.37740
 13850.00000    6.14140    5.92070    6.07610    6.07610    0.61820    0.25000    0.25000    2.79190   -0.03190   -0.04790 1617.49340   49.29870   49.29870    -999.25    -999.25   41.08150   41.97040   41.97040 1617.49340 1566.17130    -999.25 1868.10660 1566.17130    0.02990    2.79190    0.02990    -999.25    -999.25    -999.25 1868.10660
 13900.00000    7.89380    8.37410    6.44860    6.44860    0.59320    0.23410    0.23410    2.05860    0.25190    0.38090 1685.81710   47.82430   47.82430    -999.25    -999.25    9.49300    8.21620    8.21620 1685.81710  229.12160    -999.25 1786.41050  229.12160    0.11810    2.05860    0.11810    -999.25    -999.25    -999.25 1786.41050
 13950.00000    5.99480    5.53830    6.08280    6.08280    4.26310    0.03370    0.03370    2.80640   -0.03560   -0.05640  234.57370   50.96460   50.96460    -999.25    -999.25   56.81060   49.11060   49.11060  234.57370  270.90800    -999.25 1699.21550  270.90800    0.04690    2.80640    0.04690    -999.25    -999.25    -999.25 1699.21550
 14000.00000    6.83300    5.77440    6.14030    6.14030    0.59780    0.24780    0.24780    2.65290    0.02010    0.03340 1672.82470   50.03950   50.03950    -999.25    -999.25   19.70240   16.07150   16.07150 1672.82470 1565.54970    -999.25 1754.99280 1565.54970    0.02200    2.65290    0.02200    -999.25    -999.25    -999.25 1754.99280
 14050.00000    6.89140    5.84310    6.10030    6.10030    1.67180    0.24430    0.24430    2.71590   -0.00210   -0.00350  600.78880   49.74100   49.74100    -999.25    -999.25   16.64560   16.66780   16.66780  600.78880 1276.64280    -999.25 1749.96790 1276.64280    0.02110    2.71590    0.02110    -999.25    -999.25    -999.25 1749.96790
 14100.00000    7.19000    6.13310    6.29490    6.29490  170.77090    0.17890    0.17890    2.69250    0.00920    0.01020    5.85580   67.62990   67.62990    -999.25    -999.25   70.02120   64.75460   64.75460    5.85580    5.92630    -999.25    8.21320    5.92630    0.07840    2.69250    0.07840    -999.25    -999.25    -999.25    8.21320
 14150.00000    6.80840    5.00900    6.46850    6.46850  212.25110    0.07780    0.07780    2.68980    0.01070    0.01180    4.71140   68.56780   68.56780    -999.25    -999.25   88.27640   81.67620   81.67620    4.71140    4.53390    -999.25    6.51200    4.53390    0.10010    2.68980    0.10010    -999.25    -999.25    -999.25    6.51200
 14200.00000    7.29110    5.98680    6.57390    6.57390  166.89200    0.06690    0.06690    2.67590    0.01670    0.01990    5.99190   67.72200   67.72200    -999.25    -999.25   74.02260   67.45550   67.45550    5.99190    5.77640    -999.25    8.29640    5.77640    0.07940    2.67590    0.07940  -57.93330    -999.25   -1.63500    8.29640
 14250.00000    8.90790    6.22090    7.15020    7.15020  320.44090    0.25000    0.25000    2.44820    0.10240    0.15310    3.12070   77.02130   77.02130    -999.25    -999.25  109.04740   98.31190   98.31190    3.12070    2.98150    -999.25    4.29470    2.98150    0.16920    2.44820    0.16920 -261.22540    -999.25 -138.90070    4.29470
 14300.00000    7.07230    5.31500    6.44490    6.44490  318.45730    0.15840    0.15840    2.51920    0.07780    0.11160    3.14020   73.88550   73.88550    -999.25    -999.25  100.82270   96.48360   96.48360    3.14020    2.99520    -999.25    4.33570    2.99520    0.13880    2.51920    0.13880 -306.52530    -999.25 -134.61250    4.33570
 14350.00000    6.63930    -999.25    6.35040    6.35040  186.91590    0.01420    0.01420    2.66270    0.01870    0.02770    5.35000   66.56400   66.56400    -999.25    -999.25    -999.25   74.28300   74.28300    5.35000    -999.25    -999.25    8.06690    -999.25    -999.25    2.66270    -999.25    -999.25    -999.25    -999.25    8.06690
 14400.00000    6.60210    -999.25    6.40950    6.40950  204.83830    0.04780    0.04780    2.71050   -0.00130   -0.00030    4.88190   70.72100   70.72100    -999.25    -999.25    -999.25   95.30810   95.30810    4.88190    -999.25    -999.25    7.02090    -999.25    -999.25    2.71050    -999.25    -999.25    -999.25    -999.25    7.02090
 14450.00000    6.43240    -999.25    6.38460    6.38460  236.80410    0.03630    0.03630    2.62270    0.03550    0.05110    4.22290   73.66500   73.66500    -999.25    -999.25    -999.25  102.78350  102.78350    4.22290    -999.25    -999.25    5.98410    -999.25    -999.25    2.62270    -999.25    -999.25    -999.25    -999.25    5.98410
 14500.00000    6.68720    -999.25    6.24260    6.24260  227.77490   -0.00020   -0.00020    2.70330    0.00320    0.00390    4.39030   71.76530   71.76530    -999.25    -999.25    -999.25  100.91080  100.91080    4.39030    -999.25    -999.25    6.11250    -999.25    -999.25    2.70330    -999.25    -999.25    -999.25    -999.25    6.11250
 14550.00000    6.76270    -999.25    6.32150    6.32150  172.32940    0.01040    0.01040    2.71860    0.00110   -0.00500    5.80290   67.69280   67.69280    -999.25    -999.25    -999.25   72.50340   72.50340    5.80290    -999.25    -999.25    7.43930    -999.25    -999.25    2.71860    -999.25    -999.25    -999.25    -999.25    7.43930
 14600.00000    7.07660    -999.25    6.23580    6.23580  184.52570    0.05540    0.05540    2.74950   -0.01840   -0.02310    5.41930   68.48000   68.48000    -999.25    -999.25    -999.25   77.94260   77.94260    5.41930    -999.25    -999.25    7.32460    -999.25    -999.25    2.74950    -999.25    -999.25    -999.25    -999.25    7.32460
 14650.00000    6.44330    -999.25    6.13400    6.13400  193.93750    0.01050    0.01050    2.71320   -0.00680   -0.00190    5.15630   68.00520   68.00520    -999.25    -999.25    -999.25   81.92020   81.92020    5.15630    -999.25    -999.25    7.77810    -999.25    -999.25    2.71320    -999.25    -999.25    -999.25    -999.25    7.77810
