~Version ---------------------------------------------------
VERS. 2.0 : CWLS log ASCII Standard -VERSION 2.0
WRAP.  NO : ONE LINE PER DEPTH STEP
~Well ------------------------------------------------------
STRT.F                         300.0 : START DEPTH
STOP.F                       17800.0 : STOP DEPTH
STEP.F                      50.00000 : STEP LENGTH
NULL.                        -999.25 : NULL VALUE
COMP.           BPOG OPERATIONS LTD. : COMPANY
WELL. BP MOBIL CREE ROUGH 4-21-38-12 : WELL
FLD .                                : FIELD
LOC .                                : LOCATION
CTRY.                         CANADA : COUNTRY
SRVC.                   Schlumberger : SERVICE COMPANY
DATE.                    26-Oct-1973 : LOGDATE
PROV.                        Alberta : PROVINCE
UWI .               100042103812W500 : UNIQUE WELL ID
SLAT.WGS84                  52.27739 : SURFACE LATITUDE
SLON.WGS84                 -115.6641 : SURFACE LONGITUDE
~Curve Information -----------------------------------------
DEPT.F    0   1   0  0 : 1 MEASURED DEPTH
NEUT.CU   35 330 22 00 : NEUTRON
GRN .CU   35 310 22 00 : GAMMA RAY FROM GRN LOG
ILD .OHMM 07 120 46 00 : INDUCTION DEEP RESISTIVITY
ILM .OHMM 07 120 44 00 : INDUCTION MEDIUM RESISTIVITY
LL8 .OHMM 07 220 08 00 : LATEROLOG 8
SPR .MV   07 010 01 00 : SPONTANEOUS POTENTIAL FROM RESISTIVITY LOG
CILD.MMHO 05 110 46 00 : INDUCTION DEEP CONDUCTIVITY
SN  .OHMM 05 040 16 00 : SHORT NORMAL RESISTIVITY
CALS.IN   60 280 50 00 : CALIPER FROM SONIC LOG
DT  .US/F 60 500 00 00 : DELTA-T (INTERVAL TRANSIT TIME)
GRS .GAPI 60 310 01 00 : GAMMA RAY FROM SONIC LOG
~Params ----------------------------------------------------
PD  .                     GL : PERMANENT DATUM
EPD .FT                 5371 : ELEVATION PERMANENT DATUM
LMF .                     KB : LOG MEASURED FROM
DAPD.FT                   24 : FEET ABOVE PERMANENT DATUM
EKB .FT                 5395 : KELLY BUSHING
EGL .FT                 5371 : GROUND LEVEL
DATE.               10/26/73 : RUN DATE
RUN .                      2 : RUN NUMBER
DD  .FT                17815 : DEPTH DRILLER
DL  .FT                17792 : DEPTH LOGGER
BLI .FT                17791 : BOTTOM LOG INTERVAL
TLI .FT                13299 : TOP LOG INTERVAL
CBD .FT                13265 : CASING BOTTOM DRILLER
CBL .FT                13299 : CASING BOTTOM LOGGER
BS  .IN                 8.25 : BIT SIZE
BSD .FT                17815 : BIT SIZE AT DEPTH
DFT .               GEL CHEM : DRILLING FLUID TYPE
DFD .                    8.9 : DRILLING FLUID DENSITY
DFV .                     41 : DRILLING FLUID VISCOSITY
DFPH.                    9.5 : DRILLING FLUID PH
DFL .                   11.9 : DRILLING FLUID LOSS
RMS .OHMM               1.05 : RESISTIVITY MUD SAMPLE
MST .DEGF                 72 : MUD SAMPLE TEMPERATURE
RMF .OHMM               0.76 : RESISTIVITY MUD FILTRATE SAMPLE
MFST.DEGF                 70 : MUD FILTRATE SAMPLE TEMPERATURE
RMB .OHMM               0.31 : RESISTIVITY MUD AT BHT
TCS .HRS                   5 : TIME CIRCULATED STOPPED
LUN .                   7640 : LOGGING UNIT NUMBER
LUL .                     RD : LOGGING UNIT LOCATION
ENGI.           NIXON KOVACS : RECORDING ENGINEER
WITN.      WILLIAMS COSTELLO : WITNESSED BY
CLNT.                A2DTECH : CLIENT CODE
ORIG.            2" 5" PRINT : ORIGIN OF DATA
UWI .       100042103812W500 : UNIQUE WELL ID
DICO. A2D Technologies, Inc. : DIGITIZING COMPANY
~Other -----------------------------------------------------
~ASCII -----------------------------------------------------
  300.00000    -999.25    -999.25   26.13570   48.51600  110.11100  -88.27970    -999.25    -999.25   14.84830   66.32020   35.79880
  350.00000    -999.25    -999.25   18.62780   20.78460   39.03990  -80.71840    -999.25    -999.25   14.85850   93.16290   53.79260
  400.00000    -999.25    -999.25   25.80340   39.52620   74.35900  -78.68900    -999.25    -999.25   14.86050   69.16420   39.43480
  450.00000    -999.25    -999.25   25.29680   57.59040   90.31710  -83.46460    -999.25    -999.25   14.84570   78.47080   23.08420
  500.00000    -999.25    -999.25   23.25320   33.80540   47.92420  -69.82500    -999.25    -999.25   14.85610   81.85970   57.87250
  550.00000    -999.25    -999.25   22.93340   49.07750   76.52250  -77.57980    -999.25    -999.25   14.78880   74.93310   64.14790
  600.00000    -999.25    -999.25   27.21770   59.93440  188.67850  -94.17870    -999.25    -999.25   11.66700   77.46380   19.79720
  650.00000    -999.25    -999.25   28.65860   73.51250  317.81320  -89.08690    -999.25    -999.25   12.02870   75.64790   26.76940
  700.00000    -999.25    -999.25   21.83480   47.82780   98.34770  -81.03170    -999.25    -999.25   13.31110   76.28230   56.81090
  750.00000    -999.25    -999.25   21.69050   40.45580   74.63900  -80.74360    -999.25    -999.25   13.47990   80.81130   54.73450
  800.00000    -999.25    -999.25   19.46050   31.56790   61.62000  -69.51350    -999.25    -999.25   14.11790   87.06620   98.08340
  850.00000    -999.25    -999.25   22.11580   27.42560   42.16330  -63.82460    -999.25    -999.25   14.83730   89.49320   81.15620
  900.00000    -999.25    -999.25   21.45030   43.89010   94.92860  -62.42590    -999.25    -999.25   11.91340   76.42540   30.83600
  950.00000    -999.25    -999.25   21.43820   26.91240   55.40950  -47.88310    -999.25    -999.25   12.36890  101.46300   88.18540
 1000.00000    -999.25    -999.25   37.01820   86.78940  813.51550  -84.64030    -999.25    -999.25   11.75680   57.30600   19.62930
 1050.00000    -999.25    -999.25   34.82760   90.94860  806.68100  -78.70650    -999.25    -999.25   11.71230   54.77940   10.82410
 1100.00000    -999.25    -999.25   18.36310   36.80590  166.30350  -55.81060    -999.25    -999.25   11.98740   55.72470   47.71170
 1150.00000    -999.25    -999.25   29.36160   65.97660  242.87620  -74.77810    -999.25    -999.25   11.26280   61.86730   10.82030
 1200.00000    -999.25    -999.25   28.18690   66.55940  381.58860  -70.56670    -999.25    -999.25   11.58550   54.17670   20.50680
 1250.00000    -999.25    -999.25   25.22920   57.26290  228.62950  -72.51820    -999.25    -999.25   11.25810   56.92430   13.86230
 1300.00000    -999.25    -999.25   35.50330   88.20360 1000.04940  -74.07830    -999.25    -999.25   11.48840   47.04660   16.06100
 1350.00000    -999.25    -999.25   26.96220   63.54340  664.39930  -75.60210    -999.25    -999.25   11.69120   51.27130   15.70430
 1400.00000    -999.25    -999.25   23.33350   44.95710  108.94940  -66.24880    -999.25    -999.25   11.57390   70.46910   60.30350
 1450.00000    -999.25    -999.25   20.97370   35.86090   77.54620  -54.52800    -999.25    -999.25   11.59430   69.69660   43.62180
 1500.00000    -999.25    -999.25   26.20320   55.62940  216.18250  -59.86790    -999.25    -999.25   11.17330   59.13960   28.02270
 1550.00000    -999.25    -999.25   44.95940  114.42490 1310.58590  -80.81920    -999.25    -999.25   11.54120   49.58090   17.76120
 1600.00000    -999.25    -999.25   35.82850   96.19290 1280.53050  -72.72930    -999.25    -999.25   11.42240   52.03330    9.09020
 1650.00000    -999.25    -999.25   32.78160   92.76280  931.68640  -76.48010    -999.25    -999.25   11.50020   50.81400    9.19760
 1700.00000    -999.25    -999.25   30.65470   85.40620  777.29330  -76.39260    -999.25    -999.25   11.55860   52.45090   13.03170
 1750.00000    -999.25    -999.25   23.74010   58.56870  191.99700  -61.29910    -999.25    -999.25   11.10350   54.37150   11.98300
 1800.00000    -999.25    -999.25   31.29500   88.44390  951.89240  -46.63900    -999.25    -999.25   11.45850   50.32200   42.43800
 1850.00000    -999.25    -999.25   33.22430   87.75870 1119.99910  -34.75990    -999.25    -999.25   11.46100   50.80410   29.83180
 1900.00000    -999.25    -999.25   31.02770   96.12590 1277.57430  -33.75600    -999.25    -999.25   11.46800   50.79620   31.27740
 1950.00000    -999.25    -999.25   31.20520   85.06340  895.08250  -19.66970    -999.25    -999.25   11.45890   51.99790   17.09950
 2000.00000    -999.25    -999.25   26.57240   60.39280  184.82220  -23.82010    -999.25    -999.25   11.40910   56.74340   25.66480
 2050.00000    -999.25    -999.25  630.67500    -999.25    -999.25    -999.25    1.80410    -999.25   12.52330   52.81160   31.27240
 2100.00000    -999.25    -999.25  432.54170    -999.25    -999.25    -999.25    2.26380    -999.25   12.41710   52.66120   34.83630
 2150.00000    -999.25    -999.25  488.44850    -999.25    -999.25    -999.25    2.87470    -999.25   12.58440   53.10880   28.36240
 2200.00000    -999.25    -999.25  416.80330    -999.25    -999.25    -999.25    2.74140    -999.25   12.44600   54.56620   31.51920
 2250.00000    -999.25    -999.25  437.26890    -999.25    -999.25    -999.25    2.26740    -999.25   12.73560   55.59150   33.28540
 2300.00000    -999.25    -999.25  364.11380    -999.25    -999.25    -999.25    3.87140    -999.25   12.14400   56.10130   41.82640
 2350.00000    -999.25    -999.25  456.65210    -999.25    -999.25    -999.25    2.93870    -999.25   12.31920   53.10060   60.78900
 2400.00000    -999.25    -999.25  367.81430    -999.25    -999.25    -999.25    3.41220    -999.25   12.17610   58.28610   75.56490
 2450.00000    -999.25    -999.25 1141.63260    -999.25    -999.25    -999.25    0.66740    -999.25   12.19320   47.93040   15.87630
 2500.00000    -999.25    -999.25  472.39450    -999.25    -999.25    -999.25    1.69790    -999.25   12.16350   48.19440   23.00160
 2550.00000    -999.25    -999.25  389.35630    -999.25    -999.25    -999.25    3.95830    -999.25   12.54220   47.70170   13.76740
 2600.00000    -999.25    -999.25  383.45640    -999.25    -999.25    -999.25    2.26280    -999.25   12.44170   48.94250   12.47330
 2650.00000    -999.25    -999.25 1142.76670    -999.25    -999.25    -999.25    0.98670    -999.25   12.48340   45.70440   14.92240
 2700.00000    -999.25    -999.25  830.31350    -999.25    -999.25    -999.25    1.59350    -999.25   12.51210   47.63690   17.01040
 2750.00000    -999.25    -999.25  915.77650    -999.25    -999.25    -999.25    1.41780    -999.25   12.51380   48.87180   16.09480
 2800.00000    -999.25    -999.25 1142.59470    -999.25    -999.25    -999.25    1.32240    -999.25   12.42180   48.82440   11.59310
 2850.00000    -999.25    -999.25  694.20380    -999.25    -999.25    -999.25    0.58850    -999.25   12.59270   51.00300   19.40770
 2900.00000    -999.25    -999.25  910.61790    -999.25    -999.25    -999.25    0.46870    -999.25   12.74750   48.85330   13.15320
 2950.00000    -999.25    -999.25  810.66090    -999.25    -999.25    -999.25    1.72990    -999.25   12.36450   46.85450   19.45690
 3000.00000    -999.25    -999.25  812.26260    -999.25    -999.25    -999.25    0.20870    -999.25   12.61300   47.72050   39.55940
 3050.00000    -999.25    -999.25  724.38530    -999.25    -999.25    -999.25    1.11410    -999.25   12.62150   49.01210   15.35480
 3100.00000    -999.25    -999.25  903.09770    -999.25    -999.25    -999.25    0.34500    -999.25   12.49650   44.89150   17.65610
 3150.00000    -999.25    -999.25 1076.92330    -999.25    -999.25    -999.25    0.85370    -999.25   12.43250   46.52670   21.50820
 3200.00000    -999.25    -999.25 1006.14720    -999.25    -999.25    -999.25    1.40130    -999.25   12.40550   45.64630   16.44720
 3250.00000    -999.25    -999.25  910.90420    -999.25    -999.25    -999.25    2.06570    -999.25   12.43340   45.67830   12.85320
 3300.00000    -999.25    -999.25  669.82490    -999.25    -999.25    -999.25    1.89800    -999.25   12.41910   45.87180   18.45290
