~Version ---------------------------------------------------
VERS.      2.0 : CWLS log ASCII Standard -VERSION 2.0
WRAP.       NO : One line per depth step
CREA. 09/23/17 : LAS Creation Date
~Well ------------------------------------------------------
STRT.FT                          900.0 : START DEPTH
STOP.FT                         9150.0 : STOP DEPTH
STEP.FT                       50.00000 : STEP LENGTH
NULL.                          -999.25 : NULL VALUE
COMP.    UNO-TEX PETROLEUM CORPORATION : COMPANY
WELL. UNO-TEX ET AL BOULDER 4-31-70-19 : WELL
FLD .                                  : FIELD
LOC .                                  : LOCATION
CTRY.                           CANADA : COUNTRY
SRVC.                     Schlumberger : SERVICE COMPANY
DATE.                      14-Sep-1974 : LOGDATE
PROV.                          Alberta : PROVINCE
UWI .                 100043107019W500 : UNIQUE WELL ID
SLAT.WGS84               55.1008449393 : SURFACE LATITUDE
SLON.WGS84             -116.8929272887 : SURFACE LONGITUDE
~Curve Information -----------------------------------------
DEPT  .FT    : Depth Curve
CALSED.IN    : CALIPER FROM SONIC LOG
CALWS .IN    : CALIPER (CALSED)
CILDED.MMHO  : CONDUCTIVITY FROM LOG
CONDWS.MMHO  : CONDUCTIVITY (1000/DRESWS)
DRESWS.OHMM  : DEEP RESISTIVITY (ILDED)
DTED  .US/F  : DELTA TIME
DTWS  .US/F  : DELTA TIME (DTED)
GRSED .GAPI  : GAMMA RAY FROM SONIC LOG
GRWS  .GAPI  : GAMMA RAY (GRSED)
ILDED .OHMM  : DEEP INDUCTION RESISTIVITY
ILMED .OHMM  : MEDIUM INDUCTION RESISTIVITY
LL8ED .OHMM  : LATEROLOG-8 RESISTIVITY
MRESWS.OHMM  : MEDIUM RESISTIVITY (ILMED)
SPRED .MV    : Spontaneous Potential from Resistivity Log
SPWS  .MV    : SPONTANEOUS POTENTIAL BASELINE 0 MV (SPRED)
SRESWS.OHMM  : SHALLOW RESISTIVITY (LL8ED)
~Params ----------------------------------------------------
PD  .                     GL : PERMANENT DATUM
EPD .FT                 2502 : ELEVATION PERMANENT DATUM
LMF .                     KB : LOG MEASURED FROM
DAPD.FT                   15 : FEET ABOVE PERMANENT DATUM
EKB .FT                 2517 : KELLY BUSHING
EGL .FT                 2502 : GROUND LEVEL
DATE.               09/14/74 : RUN DATE
RUN .                      1 : RUN NUMBER
DD  .FT                 9141 : DEPTH DRILLER
DL  .FT                 9155 : DEPTH LOGGER
BLI .FT                 9149 : BOTTOM LOG INTERVAL
TLI .FT                  912 : TOP LOG INTERVAL
CBD .FT                  912 : CASING BOTTOM DRILLER
CBL .FT                  912 : CASING BOTTOM LOGGER
BS  .IN                7.875 : BIT SIZE
BSD .FT                 9141 : BIT SIZE AT DEPTH
DFT .                    GEL : DRILLING FLUID TYPE
DFD .                    9.2 : DRILLING FLUID DENSITY
DFV .                    104 : DRILLING FLUID VISCOSITY
DFPH.                    9.5 : DRILLING FLUID PH
DFL .                    7.0 : DRILLING FLUID LOSS
MSS .             CIRCULATED : MUD SAMPLE SOURCE
RMS .OHMM               1.32 : RESISTIVITY MUD SAMPLE
MST .DEGF                 60 : MUD SAMPLE TEMPERATURE
RMF .OHMM               2.14 : RESISTIVITY MUD FILTRATE SAMPLE
MFST.DEGF                 71 : MUD FILTRATE SAMPLE TEMPERATURE
RMB .OHMM               0.97 : RESISTIVITY MUD AT BHT
TCS .HRS                   9 : TIME CIRCULATED STOPPED
LUN .                   7670 : LOGGING UNIT NUMBER
LUL .                    FDM : LOGGING UNIT LOCATION
ENGI.                   WOON : RECORDING ENGINEER
WITN.                 HARRIS : WITNESSED BY
CLNT.                A2DTECH : CLIENT CODE
ORIG.            2" 5" PRINT : ORIGIN OF DATA
UWI .       100043107019W500 : UNIQUE WELL ID
DICO. A2D Technologies, Inc. : DIGITIZING COMPANY
~Other -----------------------------------------------------
~ASCII -----------------------------------------------------
# ...
 3050.00000   11.17100   11.17100    -999.25  528.90470    1.89070  128.15040  128.15040   72.91480   72.91480    1.89070    1.98590    2.62540    1.98590  -84.50310    2.95640    2.62540
 3100.00000   10.90040   10.90040    -999.25  312.11470    3.20390  109.39430  109.39430   83.01740   83.01740    3.20390    3.36270    3.76180    3.36270  -85.10490    2.35450    3.76180
 3150.00000   11.79370   11.79370    -999.25  365.68420    2.73460  107.80680  107.80680   86.18830   86.18830    2.73460    2.79830    3.63860    2.79830  -85.34330    2.11620    3.63860
 3200.00000   11.73970   11.73970    -999.25  351.43210    2.84550  107.26150  107.26150   88.20070   88.20070    2.84550    2.99380    3.57190    2.99380  -90.66210   -3.20260    3.57190
 3250.00000    9.49890    9.49890    -999.25  189.74810    5.27160   88.12230   88.12230   72.90460   72.90460    5.27160    6.24150    6.79160    6.24150 -113.70880  -26.24940    6.79160
 3300.00000   11.11900   11.11900    -999.25  454.38020    2.20080  119.25720  119.25720   74.81790   74.81790    2.20080    2.27920    3.06390    2.27920  -89.06830   -1.60880    3.06390
 3350.00000    9.08050    9.08050    -999.25  232.40160    4.30340   89.97100   89.97100   61.05510   61.05510    4.30340    5.41620    7.00140    5.41620 -106.61440  -19.15490    7.00140
 3400.00000    9.25830    9.25830    -999.25  145.98540    6.85000   94.22040   94.22040   45.40090   45.40090    6.85000   13.08170   17.50520   13.08170 -151.58480  -64.12530   17.50520
 3450.00000    8.70670    8.70670    -999.25  235.10050    4.25350   91.12940   91.12940   53.48290   53.48290    4.25350    5.85620    8.56980    5.85620 -120.73960  -33.28010    8.56980
 3500.00000    8.69510    8.69510    -999.25  202.18610    4.94870   90.45140   90.45140   69.64130   69.64130    4.94870    6.88250   11.88470    6.88250 -127.64870  -40.18920   11.88470
 3550.00000    8.96960    8.96960    -999.25  241.24870    4.14510   96.00920   96.00920   70.58600   70.58600    4.14510    5.04900    6.14410    5.04900 -106.99320  -19.53370    6.14410
 3600.00000    9.45080    9.45080    -999.25  303.32460    3.29680   94.91440   94.91440   67.51890   67.51890    3.29680    4.00540    5.83220    4.00540 -118.61200  -31.15250    5.83220
 3650.00000    9.37430    9.37430    -999.25  295.12450    3.38840  101.02540  101.02540   55.50790   55.50790    3.38840    3.97940    5.35740    3.97940  -96.95950   -9.35540    5.35740
 3700.00000   10.09680   10.09680    -999.25  383.61210    2.60680   99.09420   99.09420   61.82960   61.82960    2.60680    3.37530    5.44160    3.37530 -120.89790  -30.37180    5.44160
 3750.00000   10.24060   10.24060    -999.25  182.67680    5.47410   79.19900   79.19900   52.12180   52.12180    5.47410    8.85910   14.48110    8.85910 -147.77430  -54.36970   14.48110
 3800.00000   10.00580   10.00580    -999.25  139.47200    7.16990   93.55650   93.55650   49.05170   49.05170    7.16990   13.80160   17.48030   13.80160 -147.10160  -50.81840   17.48030
 3850.00000    8.37610    8.37610    -999.25  115.13720    8.68530   91.44630   91.44630   30.42930   30.42930    8.68530   17.78410   22.40730   17.78410 -179.92610  -80.73540   22.40730
 3900.00000    8.46640    8.46640    -999.25   82.30050   12.15060   85.71430   85.71430   53.78320   53.78320   12.15060   22.94410   26.55610   22.94410 -183.80090  -81.73160   26.55610
 3950.00000    9.74250    9.74250    -999.25  349.88280    2.85810   94.28250   94.28250   54.08080   54.08080    2.85810    4.47220    9.23170    4.47220 -185.24330  -80.25210    9.23170
 4000.00000    9.92810    9.92810    -999.25  329.73260    3.03420   91.26380   91.26380   71.38240   71.38240    3.03420    3.88810    6.40050    3.88810 -147.98970  -40.11980    6.40050
 4050.00000   10.00000   10.00000    -999.25  217.58050    4.59600   85.84240   85.84240   64.76540   64.76540    4.59600    5.88770    7.58780    5.88770 -118.99940   -8.25100    7.58780
 4100.00000   10.26890   10.26890    -999.25  262.27480    3.81280   89.47960   89.47960   47.76020   47.76020    3.81280    6.18060   14.14950    6.18060 -171.21540  -57.55950   14.14950
 4150.00000   10.25580   10.25580    -999.25  253.93600    3.93800   89.15100   89.15100   65.25000   65.25000    3.93800    4.58500    5.68180    4.58500 -117.71990   -1.18550    5.68180
 4200.00000   10.01510   10.01510    -999.25  198.71230    5.03240   88.60690   88.60690   78.86130   78.86130    5.03240    5.37270    5.86570    5.37270 -157.24890  -37.79250    5.86570
 4250.00000   10.31720   10.31720    -999.25  200.18580    4.99570   95.68500   95.68500   70.41500   70.41500    4.99570    5.63950    5.89630    5.63950 -145.81490  -23.48000    5.89630
 4300.00000    9.23470    9.23470    -999.25   62.69280   15.95080   83.32020   83.32020   58.31710   58.31710   15.95080   24.09110   32.60250   24.09110 -161.67390  -36.46040   32.60250
 4350.00000    9.62660    9.62660    -999.25   81.92310   12.20980   84.68760   84.68760   54.27700   54.27700   12.20980   15.91710   13.65320   15.91710 -146.38250  -18.26140   13.65320
 4400.00000    9.84060    9.84060    -999.25   76.22180   13.11960   88.47940   88.47940   82.18810   82.18810   13.11960   17.45420   13.81060   17.45420 -156.42390  -25.42430   13.81060
 4450.00000    9.26870    9.26870    -999.25   75.76960   13.19790   88.38310   88.38310   43.12990   43.12990   13.19790   21.41140   23.68020   21.41140 -203.41030  -69.48870   23.68020
 4500.00000    9.37160    9.37160    -999.25  156.09940    6.40790   85.62420   85.62420   59.78960   59.78960    6.40790    8.05250   11.24930    8.05250 -202.26680  -65.46670   11.24930
 4550.00000    9.16440    9.16440    -999.25   88.55440   11.29250  109.44540  109.44540  109.96500  109.96500   11.29250   15.71770   20.45260   15.71770 -154.75520  -15.07650   20.45260
 4600.00000    8.99170    8.99170    -999.25   89.97350   11.11610  115.00870  115.00870  155.58620  155.58620   11.11610   14.59560   17.80470   14.59560 -151.52370  -16.07880   17.80470
 4650.00000    8.65600    8.65600    -999.25    3.18110  314.35510   78.55540   78.55540  299.44850  299.44850  314.35510  419.85290  192.10460  419.85290 -154.32930  -27.94800  192.10460
 4700.00000    8.69630    8.69630    -999.25    2.51830  397.08820  110.93600  110.93600  166.60450  166.60450  397.08820  306.56640 1465.81700  306.56640  -35.80170   81.37930 1465.81700
 4750.00000    9.70870    9.70870    -999.25  342.38970    2.92090   78.84870   78.84870   73.65320   73.65320    2.92090    4.24790   11.11990    4.24790  -22.77290   85.34450   11.11990
 4800.00000   10.29010   10.29010    -999.25  287.54640    3.47770   76.60730   76.60730   81.32780   81.32780    3.47770    4.84880   10.11580    4.84880  -31.35350   67.70030   10.11580
 4850.00000    8.64140    8.64140    -999.25  345.89440    2.89180   68.69610   68.69610   20.85040   20.85040    2.89180    3.70850    8.83700    3.70850   13.52490  103.42400    8.83700
 4900.00000    8.95750    8.95750    -999.25  202.31860    4.94270   68.78400   68.78400   22.31070   22.31070    4.94270   10.56440   29.47860   10.56440  -70.00890   10.82650   29.47860
 4950.00000    8.81120    8.81120    -999.25  261.95840    3.81740   61.21130   61.21130   37.00020   37.00020    3.81740    5.33050   25.39120    5.33050  -82.09470  -10.45950   25.39120
 5000.00000    8.79370    8.79370    -999.25  101.28430    9.89660   92.68590   92.68590   24.19570   24.19570    9.89660   20.15260   76.37950   20.15260 -128.46020  -65.88870   76.37950
 5050.00000    8.59690    8.59690    -999.25   89.54320   11.16780   56.65510   56.65510   14.68970   14.68970   11.16780   23.16510   88.27170   23.16510 -143.20170  -89.69380   88.27170
 5100.00000    8.75580    8.75580    -999.25   48.00340   20.83860   54.77730   54.77730   26.18780   26.18780   20.83860   37.07930  112.42390   37.07930   27.47690   71.83010  112.42390
 5150.00000    9.07530    9.07530    -999.25  657.54860    1.52080   72.19640   72.19640   48.16640   48.16640    1.52080    2.01180   10.61540    2.01180  -32.80320    2.48640   10.61540
