~Version ---------------------------------------------------
VERS.      2.0 : CWLS log ASCII Standard -VERSION 2.0
WRAP.       NO : One line per depth step
CREA. 10/26/17 : LAS Creation Date
~Well ------------------------------------------------------
STRT.FT                    1300.0 : START DEPTH
STOP.FT                   12250.0 : STOP DEPTH
STEP.FT                  50.00000 : STEP LENGTH
NULL.                     -999.25 : NULL VALUE
COMP.  TEXACO EXPLORATION COMPANY : COMPANY
WELL. TEXACO MARLBORO 10-12-54-18 : WELL
FLD .                             : FIELD
LOC .                             : LOCATION
CTRY.                      CANADA : COUNTRY
SRVC.      Schlumberger of Canada : SERVICE COMPANY
DATE.                 04-Oct-1969 : LOGDATE
PROV.                     Alberta : PROVINCE
UWI .            100101205418W500 : UNIQUE WELL ID
SLAT.WGS84                53.6526 : SURFACE LATITUDE
SLON.WGS84               -116.514 : SURFACE LONGITUDE
~Curve Information -----------------------------------------
DEPT   .FT    : Depth Curve
CALDED .IN    : CALIPER FROM DENSITY LOG [DEP. ADJ. TO RESIST. LOG]
CALSED .IN    : CALIPER FROM SONIC LOG [DEP. ADJ. TO RESIST. LOG]
CALWS  .IN    : CALIPER [3734' CALSED 8553'CALDED]
CILDED .MMHO  : CONDUCTIVITY FROM RESISTIVITY LOG
CONDWS .MMHO  : CONDUCTIVITY [1000/DRESWS]
DCORWS .G/C3  : DENSITY CORRECTION [DRHOED]
DENWS  .G/C3  : BULK DENSITY [M=2.71, F=1.00 ASSUMED] [RHOBED]
DPOLSWS.V/V   : DENSITY POROSITY [M=2.71, F=1.00 ASSUMED] [CAL. FROM DENWS]
DRESWS .OHMM  : DEEP RESISTIVITY [1000/CILDED][READINGS >2000 ARE REDUCED TO 2000 OHMM]
DRHOED .G/C3  : DENSITY CORRECTION FROM DENSITY LOG [DEP. ADJ. TO RESIST. LOG]
DTED   .US/F  : DELTA TIME FROM SONIC LOG [DEP. ADJ. TO RESIST. LOG]
DTWS   .US/F  : DELTA TIME [DTED]
GRDED  .GAPI  : GAMMA RAY FROM DENSITY LOG [DEP. ADJ. TO RESIST. LOG]
GRSED  .GAPI  : GAMMA RAY FROM SONIC LOG [DEP. ADJ. TO RESIST. LOG]
GRWS   .GAPI  : GAMMA RAY [3734' GRSED 8556' GRDED]
ILDED  .OHMM  : INDUCTION LOG DEEP RESISTIVITY
RHOBED .G/C3  : BULK DENSITY FROM DENSITY LOG [DEP. ADJ. TO RESIST. LOG]
SNED   .OHMM  : 16 INCH SHORT NORMAL RESISTIVITY FROM IEL
SPRED  .MV    : SPONTANEOUS POTENTIAL FROM RESISTIVITY LOG
SPWS   .MV    : SPONTANEOUS POTENTIAL [BASELINE 0 MV] [SPRED]
SRESWS .OHMM  : SHALLOW RESISTIVITY [SNED]
~Params ----------------------------------------------------
PD  .                     GL : PERMANENT DATUM
EPD .FT               3162.6 : ELEVATION PERMANENT DATUM
LMF .                     KB : LOG MEASURED FROM
DAPD.FT                 13.7 : FEET ABOVE PERMANENT DATUM
EKB .FT               3179.3 : KELLY BUSHING
EGL .FT               3165.6 : GROUND LEVEL
DATE.               11/18/69 : RUN DATE
RUN .                      1 : RUN NUMBER
DD  .FT                12259 : DEPTH DRILLER
DL  .FT                12263 : DEPTH LOGGER
BLI .FT                12262 : BOTTOM LOG INTERVAL
TLI .FT                 8816 : TOP LOG INTERVAL
CBD .FT                 1266 : CASING BOTTOM DRILLER
CBL .FT                 1264 : CASING BOTTOM LOGGER
BSD .FT                12259 : BIT SIZE AT DEPTH
DFT .               GEL CHEM : DRILLING FLUID TYPE
DFD .                   10.5 : DRILLING FLUID DENSITY
DFV .                     60 : DRILLING FLUID VISCOSITY
DFPH.                      9 : DRILLING FLUID PH
DFL .                    6.8 : DRILLING FLUID LOSS
RMS .OHMM               1.58 : RESISTIVITY MUD SAMPLE
MST .DEGF                 68 : MUD SAMPLE TEMPERATURE
RMF .OHMM               1.05 : RESISTIVITY MUD FILTRATE SAMPLE
MFST.DEGF                 66 : MUD FILTRATE SAMPLE TEMPERATURE
RMC .OHMM               1.92 : RESISTIVITY MUD CAKE
MCST.DEGF                 68 : MUD CAKE SAMPLE TEMPERATURE
RMB .OHMM               0.47 : RESISTIVITY MUD AT BHT
TCS .HRS                 2.5 : TIME CIRCULATED STOPPED
LUN .                   7502 : LOGGING UNIT NUMBER
LUL .                    EDM : LOGGING UNIT LOCATION
ENGI.                 SLADEN : RECORDING ENGINEER
WITN.               BRYNLUND : WITNESSED BY
CLNT.                A2DTECH : CLIENT CODE
ORIG.            2" 5" PRINT : ORIGIN OF DATA
UWI .       100101205418W500 : UNIQUE WELL ID
DICO. A2D Technologies, Inc. : DIGITIZING COMPANY
~Other -----------------------------------------------------
~ASCII -----------------------------------------------------
# ...
 2950.00000    -999.25    -999.25    -999.25  109.58780  109.58780    -999.25    -999.25    -999.25    9.12510    -999.25    -999.25    -999.25    -999.25    -999.25    -999.25    8.65970    -999.25   10.46790    0.37940   -4.18820   10.46790
 3000.00000    -999.25    -999.25    -999.25  131.04070  131.04070    -999.25    -999.25    -999.25    7.63120    -999.25    -999.25    -999.25    -999.25    -999.25    -999.25    7.43410    -999.25   10.04960    1.35930   -3.40390   10.04960
 3050.00000    -999.25    -999.25    -999.25   80.73330   80.73330    -999.25    -999.25    -999.25   12.38650    -999.25    -999.25    -999.25    -999.25    -999.25    -999.25   11.51130    -999.25   16.21030  -11.31090  -16.26980   16.21030
 3100.00000    -999.25    -999.25    -999.25   60.03100   60.03100    -999.25    -999.25    -999.25   16.65810    -999.25    -999.25    -999.25    -999.25    -999.25    -999.25   14.54440    -999.25   14.92410    0.52460   -4.63130   14.92410
 3150.00000    -999.25    -999.25    -999.25   36.85520   36.85520    -999.25    -999.25    -999.25   27.13320    -999.25    -999.25    -999.25    -999.25    -999.25    -999.25   24.30900    -999.25   28.59230  -19.07190  -24.42340   28.59230
 3200.00000    -999.25    -999.25    -999.25  270.77200  270.77200    -999.25    -999.25    -999.25    3.69310    -999.25    -999.25    -999.25    -999.25    -999.25    -999.25    3.86850    -999.25    5.38570    2.03910   -3.41940    5.38570
 3250.00000    -999.25    -999.25    -999.25   95.00130   95.00130    -999.25    -999.25    -999.25   10.52620    -999.25    -999.25    -999.25    -999.25    -999.25    -999.25    9.74710    -999.25   11.91060    2.09290   -3.39850   11.91060
 3300.00000    -999.25    -999.25    -999.25  208.33100  208.33100    -999.25    -999.25    -999.25    4.80010    -999.25    -999.25    -999.25    -999.25    -999.25    -999.25    4.97590    -999.25    6.30800    3.47790   -2.04630    6.30800
 3350.00000    -999.25    -999.25    -999.25   94.93270   94.93270    -999.25    -999.25    -999.25   10.53380    -999.25    -999.25    -999.25    -999.25    -999.25    -999.25    9.86120    -999.25   11.54060    1.63150   -3.92580   11.54060
 3400.00000    -999.25    -999.25    -999.25  144.96060  144.96060    -999.25    -999.25    -999.25    6.89840    -999.25    -999.25    -999.25    -999.25    -999.25    -999.25    6.62750    -999.25    8.08760    2.02460   -3.56560    8.08760
 3450.00000    -999.25    -999.25    -999.25  416.20330  416.20330    -999.25    -999.25    -999.25    2.40270    -999.25    -999.25    -999.25    -999.25    -999.25    -999.25    2.49540    -999.25    4.35240    2.52230   -3.10090    4.35240
 3500.00000    -999.25    -999.25    -999.25   79.08240   79.08240    -999.25    -999.25    -999.25   12.64500    -999.25    -999.25    -999.25    -999.25    -999.25    -999.25   11.96530    -999.25   14.53460    1.31300   -4.34310   14.53460
 3550.00000    -999.25    -999.25    -999.25  137.03350  137.03350    -999.25    -999.25    -999.25    7.29750    -999.25    -999.25    -999.25    -999.25    -999.25    -999.25    6.81980    -999.25    8.16270    3.25240   -2.43660    8.16270
 3600.00000    -999.25    -999.25    -999.25  129.57040  129.57040    -999.25    -999.25    -999.25    7.71780    -999.25    -999.25    -999.25    -999.25    -999.25    -999.25    7.56220    -999.25    9.70590    2.90270   -2.81930    9.70590
 3650.00000    -999.25    -999.25    -999.25  292.08700  292.08700    -999.25    -999.25    -999.25    3.42360    -999.25    -999.25    -999.25    -999.25    -999.25    -999.25    3.36210    -999.25    6.50780    2.89280   -2.86210    6.50780
 3700.00000    -999.25    -999.25    -999.25  222.16260  222.16260    -999.25    -999.25    -999.25    4.50120    -999.25    -999.25    -999.25    -999.25    -999.25    -999.25    4.45200    -999.25    6.34010    3.09490   -2.69300    6.34010
 3750.00000    -999.25   10.58660   10.58660   91.37100   91.37100    -999.25    -999.25    -999.25   10.94440    -999.25    -999.25    -999.25    -999.25   82.12110   82.12110   10.07030    -999.25   12.26040    2.12290   -3.69790   12.26040
 3800.00000    -999.25   10.49540   10.49540  208.09480  208.09480    -999.25    -999.25    -999.25    4.80550    -999.25   90.93730   90.93730    -999.25   81.81670   81.81670    4.73420    -999.25    5.91290    3.59580   -2.25790    5.91290
 3850.00000    -999.25   10.64180   10.64180   98.44590   98.44590    -999.25    -999.25    -999.25   10.15790    -999.25   79.45730   79.45730    -999.25   52.19870   52.19870    9.57620    -999.25   11.99590    0.51740   -5.36930   11.99590
 3900.00000    -999.25    9.79230    9.79230  184.42470  184.42470    -999.25    -999.25    -999.25    5.42230    -999.25   87.77290   87.77290    -999.25   85.81170   85.81170    5.16870    -999.25    6.63860    2.53440   -3.38520    6.63860
 3950.00000    -999.25   10.57690   10.57690   73.03330   73.03330    -999.25    -999.25    -999.25   13.69240    -999.25   77.97240   77.97240    -999.25   65.87190   65.87190   12.31790    -999.25   14.11830   -2.49170   -8.44440   14.11830
 4000.00000    -999.25   10.72140   10.72140  162.83210  162.83210    -999.25    -999.25    -999.25    6.14130    -999.25   87.83670   87.83670    -999.25   74.26150   74.26150    5.89670    -999.25    7.72040    2.44680   -3.53870    7.72040
 4050.00000    -999.25   10.40260   10.40260  155.29810  155.29810    -999.25    -999.25    -999.25    6.43920    -999.25   85.54830   85.54830    -999.25   80.68250   80.68250    6.00060    -999.25    8.22240    2.24250   -3.77590    8.22240
 4100.00000    -999.25   10.76880   10.76880   76.29250   76.29250    -999.25    -999.25    -999.25   13.10740    -999.25   74.87630   74.87630    -999.25   56.61920   56.61920   12.14200    -999.25   15.20680   -2.12440   -8.17580   15.20680
 4150.00000    -999.25   10.85790   10.85790   82.22270   82.22270    -999.25    -999.25    -999.25   12.16210    -999.25   74.16650   74.16650    -999.25   56.86620   56.86620   11.35840    -999.25   14.71290    1.89110   -4.19320   14.71290
 4200.00000    -999.25   11.08090   11.08090  131.65080  131.65080    -999.25    -999.25    -999.25    7.59590    -999.25   96.15420   96.15420    -999.25   74.86610   74.86610    7.38370    -999.25    8.61370    2.36830   -3.74910    8.61370
 4250.00000    -999.25    9.74970    9.74970   28.29830   28.29830    -999.25    -999.25    -999.25   35.33780    -999.25   72.54090   72.54090    -999.25   41.56150   41.56150   31.20610    -999.25   31.12880  -10.59260  -16.74280   31.12880
 4300.00000    -999.25    9.43200    9.43200   16.14400   16.14400    -999.25    -999.25    -999.25   61.94250    -999.25   70.70380   70.70380    -999.25   34.24430   34.24430   50.54290    -999.25   50.74020  -11.70590  -17.88900   50.74020
 4350.00000    -999.25   10.39690   10.39690   97.64080   97.64080    -999.25    -999.25    -999.25   10.24160    -999.25   82.69960   82.69960    -999.25   56.67990   56.67990    9.78900    -999.25   12.30020    3.61800   -2.59820   12.30020
 4400.00000    -999.25   10.77090   10.77090  122.48820  122.48820    -999.25    -999.25    -999.25    8.16410    -999.25   79.87770   79.87770    -999.25   62.16230   62.16230    7.90060    -999.25   10.50020    3.67000   -2.57900   10.50020
 4450.00000    -999.25   10.45780   10.45780  133.32520  133.32520    -999.25    -999.25    -999.25    7.50050    -999.25   82.45230   82.45230    -999.25   58.98060   58.98060    7.47000    -999.25   10.23630    3.14810   -3.13400   10.23630
 4500.00000    -999.25   10.56430   10.56430   87.76550   87.76550    -999.25    -999.25    -999.25   11.39400    -999.25   76.22380   76.22380    -999.25   43.34580   43.34580   10.85780    -999.25   14.73170    0.31540   -5.99950   14.73170
 4550.00000    -999.25   10.51550   10.51550  111.36690  111.36690    -999.25    -999.25    -999.25    8.97930    -999.25   84.95600   84.95600    -999.25   53.24560   53.24560    8.85500    -999.25   10.95320    4.00040   -2.34740   10.95320
