~Version ---------------------------------------------------
VERS.      2.0 : CWLS log ASCII Standard -VERSION 2.0
WRAP.       NO : One line per depth step
CREA. 11/17/17 : LAS Creation Date
~Well ------------------------------------------------------
STRT.FT                       300.0 : START DEPTH
STOP.FT                      9300.0 : STOP DEPTH
STEP.FT                    50.00000 : STEP LENGTH
NULL.                       -999.25 : NULL VALUE
COMP. CANADIAN EXPORT OIL & GAS LTD : COMPANY
WELL. CEGO ET AL SUNSET 10-23-69-19 : WELL
FLD .                               : FIELD
LOC .                               : LOCATION
CTRY.                        CANADA : COUNTRY
SRVC.                       Unknown : SERVICE COMPANY
DATE.                   18-Jan-1973 : LOGDATE
PROV.                       Alberta : PROVINCE
UWI .              100102306919W500 : UNIQUE WELL ID
SLAT.WGS84                   54.992 : SURFACE LATITUDE
SLON.WGS84                -116.7783 : SURFACE LONGITUDE
~Curve Information -----------------------------------------
DEPT   .FT    : Depth Curve
ASFLED .OHMM  : AMPLIFIED SHALLOW FOCUSED RESISTIVITY FROM SFIL LOG
ASNED  .OHMM  : AMPLIFIED SHORT NORMAL RESISTIVITY 16" FROM IEL LOG
CALSED .IN    : CALIPER FROM SONIC LOG
CALWS  .IN    : CALIPER [CALSED]
CILD1ED.MMHO  : CONDUCTIVITY FROM IEL LOG
CILDED .MMHO  : CONDUCTIVITY FROM SFIL LOG
CONDWS .MMHO  : CONDUCTIVITY [1000/DRESWS]
DRESWS .OHMM  : DEEP RESISTIVITY [1000/CILDED, IF ILDED<5, ILDED SPL. TO 1000/CILD1ED, IF ILD1ED<5, ILD1ED @ 8996']
DTED   .US/F  : DELTA TIME FROM SONIC LOG
DTWS   .US/F  : COMPRESSIONAL SONIC [DTED]
GRED   .GAPI  : CASED HOLE GAMMA RAY FROM CBL LOG [ADJ. TO ISF LOG/GRSED]
GRSED  .GAPI  : GAMMA RAY FROM SONIC LOG
GRWS   .GAPI  : GAMMA RAY [GRED SPL. TO GRSED @ 922'-4973', 4978'-6674' AND 6682']
ILD1ED .OHMM  : DEEP INDUCTION LOG RESISTIVITY FROM IEL LOG
ILDED  .OHMM  : DEEP INDUCTION LOG RESISTIVITY FROM SFIL LOG
SPR1ED .MV    : SPONTANEOUS POTENTIAL FROM IEL LOG
SPRED  .MV    : SPONTANEOUS POTENTIAL FROM SFIL LOG
SPWS   .MV    : SPONTANEOUS POTENTIAL [BASELINE 0 MV(SPRED SPL. TO SPR1ED @ 8996')*-1}]
SRESWS .OHMM  : SHALLOW RESISTIVITY [ASFLED SPL. TO ASNED @ 8996']
~Params ----------------------------------------------------
PD  .                     GL : PERMANENT DATUM
EPD .FT                 2660 : ELEVATION PERMANENT DATUM
LMF .                     KB : LOG MEASURED FROM
DAPD.FT                 14.7 : FEET ABOVE PERMANENT DATUM
EKB .FT               2674.7 : KELLY BUSHING
EGL .FT                 2660 : GROUND LEVEL
DATE.               01/18/73 : RUN DATE
RUN .                      2 : RUN NUMBER
DD  .FT                 9336 : DEPTH DRILLER
DL  .FT                 9336 : DEPTH LOGGER
BLI .FT                 9325 : BOTTOM LOG INTERVAL
TLI .FT                 8800 : TOP LOG INTERVAL
CBD .FT                  944 : CASING BOTTOM DRILLER
CBL .FT                  941 : CASING BOTTOM LOGGER
BS  .IN                7.875 : BIT SIZE
BSD .FT                 9336 : BIT SIZE AT DEPTH
DFT .                    KCL : DRILLING FLUID TYPE
DFD .                    9.1 : DRILLING FLUID DENSITY
DFV .                     60 : DRILLING FLUID VISCOSITY
DFPH.                    9.0 : DRILLING FLUID PH
DFL .                    8.2 : DRILLING FLUID LOSS
RMS .OHMM               0.44 : RESISTIVITY MUD SAMPLE
MST .DEGF                 55 : MUD SAMPLE TEMPERATURE
RMF .OHMM                0.6 : RESISTIVITY MUD FILTRATE SAMPLE
MFST.DEGF                 60 : MUD FILTRATE SAMPLE TEMPERATURE
RMB .OHMM               0.14 : RESISTIVITY MUD AT BHT
TCS .HRS                   2 : TIME CIRCULATED STOPPED
LUN .                   7635 : LOGGING UNIT NUMBER
LUL .                    D C : LOGGING UNIT LOCATION
ENGI.                   HALL : RECORDING ENGINEER
WITN.         WIGGINS WILMER : WITNESSED BY
CLNT.                A2DTECH : CLIENT CODE
ORIG.            2" 5" PRINT : ORIGIN OF DATA
UWI .       100102306919W500 : UNIQUE WELL ID
DICO. A2D Technologies, Inc. : DIGITIZING COMPANY
~Other -----------------------------------------------------
SFIL-IEL-BCS-GR TOOL RUN
GAP IN GR AND SPR AS PER IMAGE
SPR INOPERATIVE SALT MUD
SFIL-SONIC LOG (TOP TO 960.1M) FROM SMALL SCALE LOG
~ASCII -----------------------------------------------------
# ...
 4000.00000    4.86390    -999.25    8.63850    8.63850    -999.25  223.34490  223.34490    4.47740   92.52630   92.52630   85.13710   72.68750   72.68750    -999.25    5.82060    -999.25  -83.62120   -9.19910    4.86390
 4050.00000    4.09590    -999.25    7.84610    7.84610    -999.25  236.43620  236.43620    4.22950   94.93400   94.93400   58.15810   58.02550   58.02550    -999.25    5.49630    -999.25  -87.44630   -5.56900    4.09590
 4100.00000    4.69220    -999.25    8.93140    8.93140    -999.25  243.98680  243.98680    4.09860   92.04940   92.04940   86.07930   75.06010   75.06010    -999.25    5.42650    -999.25  -86.01630   -7.19520    4.69220
 4150.00000    5.18070    -999.25    8.23980    8.23980    -999.25  248.23650  248.23650    4.02840   91.30540   91.30540   83.08420   71.97560   71.97560    -999.25    5.38530    -999.25  -88.98830   -4.41810    5.18070
 4200.00000    2.19820    -999.25    7.67370    7.67370    -999.25  338.26030  338.26030    2.95650   97.10910   97.10910   59.15810   50.56990   50.56990    -999.25    4.14030    -999.25  -91.01260   -2.59000    2.19820
 4250.00000    8.18760    -999.25    7.49900    7.49900    -999.25  140.76540  140.76540    7.10400   84.24980   84.24980   65.15590   56.80600   56.80600    -999.25    8.39880    -999.25  -90.16460   -3.63300    8.18760
 4300.00000    4.10250    -999.25    8.84130    8.84130    -999.25  329.38860  329.38860    3.03590   94.50060   94.50060   62.95700   61.71620   61.71620    -999.25    4.14820    -999.25  -91.47780   -3.03060    4.10250
 4350.00000    4.29580    -999.25    9.12870    9.12870    -999.25  242.12850  242.12850    4.13040   93.49550   93.49550   82.33340   78.72000   78.72000    -999.25    5.41670    -999.25  -86.42320   -8.81460    4.29580
 4400.00000    3.43320    -999.25    8.73930    8.73930    -999.25  273.91930  273.91930    3.65070   87.47470   87.47470   49.33920   52.02560   52.02560    -999.25    4.62580    -999.25  -91.97750   -3.98510    3.43320
 4450.00000    5.35730    -999.25    8.65940    8.65940    -999.25  259.27400  259.27400    3.85700   88.71590   88.71590   60.97650   67.41220   67.41220    -999.25    5.18500    -999.25  -89.25180   -7.44030    5.35730
 4500.00000    4.73830    -999.25    8.57510    8.57510    -999.25  194.35800  194.35800    5.14510   92.23130   92.23130   80.77440   75.32500   75.32500    -999.25    6.50550    -999.25  -85.52110  -11.89570    4.73830
 4550.00000    6.88320    -999.25    8.63250    8.63250    -999.25  165.53310  165.53310    6.04110   85.74560   85.74560   82.65490   72.25300   72.25300    -999.25    7.50600    -999.25  -85.96040  -12.18110    6.88320
 4600.00000    1.60710    -999.25   10.92690   10.92690    -999.25  458.30750  458.30750    2.18340  139.01400  139.01400   64.41770   67.95360   67.95360    -999.25    3.18090    -999.25  -77.58320  -21.28780    1.60710
 4650.00000    6.88650    -999.25    9.57650    9.57650    -999.25  150.17000  150.17000    6.65910   82.36350   82.36350   77.63500   79.92240   79.92240    -999.25    7.95710    -999.25  -85.13430  -14.46140    6.88650
 4700.00000    9.54040    -999.25    8.38940    8.38940    -999.25  133.73720  133.73720    7.50110   80.29470   80.29470   75.49810   67.73700   67.73700    -999.25    9.25620    -999.25  -92.14070   -8.18450    9.54040
 4750.00000   18.54880    -999.25    8.56070    8.56070    -999.25   73.61250   73.61250   13.58460   76.98050   76.98050   46.43640   50.97410   50.97410    -999.25   16.55690    -999.25  -83.17570  -17.87420   18.54880
 4800.00000    8.19010    -999.25    8.69300    8.69300    -999.25  154.05980  154.05980    6.49100   84.61470   84.61470  102.74090  100.09530  100.09530    -999.25    8.00710    -999.25  -84.43000  -17.34470    8.19010
 4850.00000    2.42990    -999.25   10.86430   10.86430    -999.25  333.62370  333.62370    3.00100  107.39580  107.39580   75.69570   81.29660   81.29660    -999.25    4.13090    -999.25  -72.57450  -29.92970    2.42990
 4900.00000   26.45970    -999.25    8.17260    8.17260    -999.25   60.46460   49.42540   20.23250  113.74580  113.74580  115.23490  124.53670  124.53670    -999.25   20.23250    -999.25  -79.94090  -23.28800   26.45970
 4950.00000   26.62450    -999.25    8.11630    8.11630    -999.25  116.32000  100.32960    9.98340  109.99800  109.99800  128.72180  120.39640  120.39640    -999.25    9.98340    -999.25  -77.65880  -26.29960   26.62450
 5000.00000  127.55710    -999.25    7.74600    7.74600    -999.25    4.62530    1.79410  557.38810   80.83400   80.83400  141.76890  152.40480  152.40480    -999.25  557.38810    -999.25  -78.44250  -26.24060  127.55710
 5050.00000    6.12960    -999.25    7.41260    7.41260    -999.25  385.90770  385.90770    2.59130   77.45280   77.45280   86.86730   78.89860   78.89860    -999.25    3.59070    -999.25 -100.15190   -6.21960    6.12960
 5100.00000    8.88980    -999.25    7.55830    7.55830    -999.25  325.09510  325.09510    3.07900   74.19480   74.19480   86.65980   75.60930   75.60930    -999.25    3.95780    -999.25  -96.41100  -17.71120    8.88980
 5150.00000    6.82780    -999.25    7.87770    7.87770    -999.25  335.76280  335.76280    2.97830   74.87900   74.87900  134.15620  109.94570  109.94570    -999.25    3.86740    -999.25 -103.19060  -18.63160    6.82780
 5200.00000    2.40280    -999.25    7.32480    7.32480    -999.25  649.46810  649.46810    1.53970   79.41660   79.41660   24.76960   20.48820   20.48820    -999.25    2.33370    -999.25 -125.71920   -3.85370    2.40280
 5250.00000    5.33910    -999.25    7.36330    7.36330    -999.25  234.92220  190.97820    5.23620   67.31130   67.31130   20.28150   28.49400   28.49400    -999.25    5.23620    -999.25  -97.80530  -26.84390    5.33910
 5300.00000   10.64640    -999.25    7.76300    7.76300    -999.25  134.11580  123.11630    8.12240   58.03510   58.03510   31.38470   39.30320   39.30320    -999.25    8.12240    -999.25  -98.67670  -17.68250   10.64640
 5350.00000   38.37410    -999.25    7.64490    7.64490    -999.25   85.56010   73.81930   13.55170   60.49590   60.49590   23.81230   25.47510   25.47510    -999.25   13.55170    -999.25    -999.25    -999.25   38.37410
 5400.00000   88.87350    -999.25    7.70160    7.70160    -999.25   14.53850    9.48570  105.42220   51.32970   51.32970   17.12600   23.98680   23.98680    -999.25  105.42220    -999.25    -999.25    -999.25   88.87350
 5450.00000   46.96200    -999.25    8.04550    8.04550    -999.25   40.30820   31.44870   31.84730   54.78730   54.78730   15.07140   26.43830   26.43830    -999.25   31.84730    -999.25    -999.25    -999.25   46.96200
 5500.00000   33.80610    -999.25    8.02040    8.02040    -999.25   48.56490   39.94600   25.03380   59.07240   59.07240   40.96060   55.09100   55.09100    -999.25   25.03380    -999.25    -999.25    -999.25   33.80610
 5550.00000   16.27490    -999.25    8.34240    8.34240    -999.25   97.98080   84.74860   11.79960   68.53950   68.53950   87.62790   80.37450   80.37450    -999.25   11.79960    -999.25    -999.25    -999.25   16.27490
 5600.00000   21.23790    -999.25    7.99760    7.99760    -999.25  114.59160   94.06330   10.69680   58.57970   58.57970   12.04600   12.25080   12.25080    -999.25   10.69680    -999.25    -999.25    -999.25   21.23790
 5650.00000   18.91010    -999.25    8.21950    8.21950    -999.25  208.75780  183.63110    5.44570   64.32730   64.32730   25.95280   27.53860   27.53860    -999.25    5.44570    -999.25    -999.25    -999.25   18.91010
 5700.00000    2.72010    -999.25    8.16760    8.16760    -999.25  862.55620  862.55620    1.15970   72.89790   72.89790   34.21870   30.81890   30.81890    -999.25    1.11400    -999.25    -999.25    -999.25    2.72010
 5750.00000   17.27970    -999.25    8.15220    8.15220    -999.25   85.67870   76.05200   13.14890   63.23250   63.23250   51.90950   47.04480   47.04480    -999.25   13.14890    -999.25    -999.25    -999.25   17.27970
 5800.00000   22.72120    -999.25    8.01630    8.01630    -999.25  144.61270  134.15260    7.45420   60.99740   60.99740   35.01760   23.70110   23.70110    -999.25    7.45420    -999.25    -999.25    -999.25   22.72120
