~Version ---------------------------------------------------
VERS. 2.0 : CWLS log ASCII Standard -VERSION 2.0
WRAP.  NO : ONE LINE PER DEPTH STEP
~Well ------------------------------------------------------
STRT.F                      557.7428 : START DEPTH
STOP.F                    10838.7428 : STOP DEPTH
STEP.F                       0.50000 : STEP LENGTH
NULL.                        -999.25 : NULL VALUE
COMP.           PETROFINA CANADA LTD : COMPANY
WELL. FINA AMOCO HB FOXCK 6-35-60-18 : WELL
FLD .                                : FIELD
LOC .                                : LOCATION
CTRY.                         CANADA : COUNTRY
SRVC.         Schlumberger of Canada : SERVICE COMPANY
DATE.                    29-Aug-1976 : LOGDATE
PROV.                        Alberta : PROVINCE
UWI .               100063506018W500 : UNIQUE WELL ID
SLAT.WGS84                  54.22952 : SURFACE LATITUDE
SLON.WGS84                 -116.5928 : SURFACE LONGITUDE
~Curve Information -----------------------------------------
DEPT   .F                 : 
SPR    .MV                : SPONTANEOUS POTENTIAL FROM RESISTIVITY
ILD    .OHMM              : DEEP INDUCTION RESISTIVITY
ILM    .OHMM              : INDUCTION MEDIUM RESISTIVITY
LL8    .OHMM              : LATEROLOG-8 RESISTIVITY
CALD   .IN   70 280 01 00 : CALIPER
DCOR   .G/C3 45 356 01 00 : DENSITY CORRECTION
GRD    .GAPI 45 310 01 00 : GAMMA RAY FROM DENSITY LOG
RHOB   .G/C3 45 350 01 00 : BULK DENSITY
DPOR_SS.DEC               : DENSITY POROSITY SANDSTONE
NPOR_S .DEC               : ENCHANCED THERMAL NEUTRON POROSITY IN SELECTED LITHOLOGY SANDSTONE
DPOR_LS.DEC               : DENSITY POROSITY LIMESTONE
NPOR_LS.DEC               : ENCHANCED THERMAL NEUTRON POROSITY IN SELECTED LITHOLOGY SANDSTONE
DT     .US/F 60 520 00 00 : ACOUSTIC TRANSIT TIME SLOWNESS, DELTA T
CALS   .IN                : 
GRS    .GAPI              : GAMMA RAY FROM SONIC LOG
GR     .GAPI              : GAMMA RAY
~Params ----------------------------------------------------
PD  .                     GL : PERMANENT DATUM
EPD .FT                 3085 : ELEVATION PERMANENT DATUM
LMF .                     KB : LOG MEASURED FROM
DAPD.FT                 15.7 : FEET ABOVE PERMANENT DATUM
EKB .FT               3100.9 : KELLY BUSHING
EDF .FT               3085.2 : DRILLING FLOOR
EGL .FT               3085.5 : GROUND LEVEL
DATE.               08/29/76 : RUN DATE
RUN .                      1 : RUN NUMBER
DD  .FT                10843 : DEPTH DRILLER
DL  .FT                10840 : DEPTH LOGGER
BLI .FT                10834 : BOTTOM LOG INTERVAL
TLI .FT                 1119 : TOP LOG INTERVAL
CBD .FT                 1119 : CASING BOTTOM DRILLER
CBL .FT                 1119 : CASING BOTTOM LOGGER
BS  .IN                 8.75 : BIT SIZE
BSD .FT                10843 : BIT SIZE AT DEPTH
DFT .               GEL CHEM : DRILLING FLUID TYPE
DFD .                    9.3 : DRILLING FLUID DENSITY
DFV .                    150 : DRILLING FLUID VISCOSITY
DFPH.                   10.5 : DRILLING FLUID PH
DFL .                    7.0 : DRILLING FLUID LOSS
MSS .            CIRCULATION : MUD SAMPLE SOURCE
RMS .OHMM               2.43 : RESISTIVITY MUD SAMPLE
MST .DEGF                 76 : MUD SAMPLE TEMPERATURE
RMF .OHMM               2.33 : RESISTIVITY MUD FILTRATE SAMPLE
MFST.DEGF                 73 : MUD FILTRATE SAMPLE TEMPERATURE
RMC .OHMM               2.22 : RESISTIVITY MUD CAKE
MCST.DEGF                 67 : MUD CAKE SAMPLE TEMPERATURE
RMB .OHMM               0.86 : RESISTIVITY MUD AT BHT
TCS .HRS                   3 : TIME CIRCULATED STOPPED
LUN .                   7691 : LOGGING UNIT NUMBER
LUL .                    WCT : LOGGING UNIT LOCATION
ENGI.              CROCKFORD : RECORDING ENGINEER
WITN.                 HALKOW : WITNESSED BY
CLNT.                A2DTECH : CLIENT CODE
ORIG.            2" 5" PRINT : ORIGIN OF DATA
UWI .       100063506018W500 : UNIQUE WELL ID
DICO. A2D Technologies, Inc. : DIGITIZING COMPANY
~Other -----------------------------------------------------
~ASCII -----------------------------------------------------
# ...
 5739.24280   -4.41390    3.00820    2.62110    3.80370   14.18060    0.10480   91.59300    1.80490    0.49010    0.53820    -999.25    -999.25   98.26770   10.90330   94.20230    -999.25
 5739.74280   -4.34090    3.10140    2.68460    3.83190   13.71900    0.07490   89.19410    1.92320    0.50690    0.53000    -999.25    -999.25   94.07870   10.56850   96.14530    -999.25
 5740.24280   -4.20040    3.20720    2.76500    3.91220   13.31900    0.05290   86.11460    2.05960    0.48710    0.51690    -999.25    -999.25   92.00710   10.42800   98.95410    -999.25
 5740.74280   -3.97360    3.30970    2.84800    4.02010   13.26890    0.07060   83.37760    2.13890    0.41730    0.51250    -999.25    -999.25   92.00780   10.19200  100.02850    -999.25
 5741.24280   -3.71620    3.40130    2.93420    4.08520   13.52490    0.13090   81.77100    2.20890    0.34290    0.51980    -999.25    -999.25   97.48890    9.84370   98.95000    -999.25
 5741.74280   -3.52640    3.47910    3.02240    4.14000   13.75020    0.15180   79.81840    2.22480    0.29180    0.52850    -999.25    -999.25  108.07790    9.62380   97.71290    -999.25
 5742.24280   -3.41160    3.52730    3.09220    4.32450   13.75270    0.10520   77.85610    2.20570    0.26000    0.52780    -999.25    -999.25  106.92620    9.63810   97.30370    -999.25
 5742.74280   -3.37650    3.52940    3.06990    4.66220   14.16670    0.08690   76.52370    2.20050    0.26240    0.52610    -999.25    -999.25   97.33350    9.70350   95.68890    -999.25
 5743.24280   -3.44370    3.48620    2.94140    4.75920   15.01030    0.11920   75.03300    2.15040    0.27170    0.53580    -999.25    -999.25   92.70780    9.85940   91.87600    -999.25
 5743.74280   -3.70050    3.40060    2.78550    4.38410    -999.25    0.12230   73.13690    1.99760    0.27490    0.55740    -999.25    -999.25   85.49120   10.45950   87.19350    -999.25
 5744.24280   -4.18580    3.26010    2.63790    3.90650    -999.25    0.11140   72.01270    1.84380    0.32760    0.58200    -999.25    -999.25   77.58710   11.37770   83.30940    -999.25
 5744.74280   -4.65570    3.08910    2.49820    3.68710    -999.25    0.12600   72.05060    1.76800    0.42250    0.59640    -999.25    -999.25   77.17650   11.60620   80.31440    -999.25
 5745.24280   -4.79670    2.92710    2.40240    3.64290    -999.25    0.12360   72.41610    1.76070    0.49230    0.60010    -999.25    -999.25   86.45460   11.59800   77.54900    -999.25
 5745.74280   -4.71940    2.77350    2.35650    3.60190    -999.25    0.09140   72.69140    1.81630    0.53010    0.60210    -999.25    -999.25   99.96500   12.29980   75.24680    -999.25
 5746.24280   -4.77130    2.64440    2.31920    3.56120    -999.25    0.06090   72.78800    1.87700    0.52890    0.60100    -999.25    -999.25  109.82670   13.13830   74.00540    -999.25
 5746.74280   -4.98660    2.58820    2.28240    3.53500    -999.25    0.08010   72.94680    1.85070    0.48510    0.59650    -999.25    -999.25  111.02310   13.64870   73.50340    -999.25
 5747.24280   -5.24270    2.59370    2.24620    3.51610    -999.25    0.10430   73.31170    1.75800    0.45210    0.59030    -999.25    -999.25  105.95610   13.82060   73.23090    -999.25
 5747.74280   -5.49910    2.60080    2.21420    3.45250    -999.25    0.08510   74.74720    1.71570    0.46600    0.58370    -999.25    -999.25   99.63420   13.82120   73.31040    -999.25
 5748.24280   -5.72000    2.60130    2.19360    3.37540    -999.25    0.06710   76.69400    1.76470    0.51940    0.57540    -999.25    -999.25   96.08510   13.75510   74.41140    -999.25
 5748.74280   -5.81720    2.60100    2.18490    3.36410    -999.25    0.06750   77.56170    1.83090    0.54640    0.56520    -999.25    -999.25   96.42050   13.38840   76.29420    -999.25
 5749.24280   -5.82580    2.60070    2.18310    3.40280    -999.25    0.07810   77.31950    1.89860    0.51600    0.55960    -999.25    -999.25   98.00010   12.85910   77.32020    -999.25
 5749.74280   -5.81890    2.61940    2.21140    3.47100   15.25640    0.10010   75.14240    1.97590    0.47850    0.56350    -999.25    -999.25  100.47160   12.99860   77.08390    -999.25
 5750.24280   -5.82600    2.66670    2.27130    3.53410   15.17070    0.13070   71.65300    1.99210    0.43500    0.57430    -999.25    -999.25  101.39480   13.57220   76.38180    -999.25
 5750.74280   -5.81870    2.72340    2.33570    3.55960   15.40040    0.14050   69.78040    1.94270    0.39570    0.58790    -999.25    -999.25   99.13910   13.82660   75.64350    -999.25
 5751.24280   -5.77310    2.78130    2.40250    3.56070   15.47880    0.12790   69.92910    1.84960    0.39200    0.60070    -999.25    -999.25  100.06820   13.84800   75.15440    -999.25
 5751.74280   -5.71240    2.83600    2.47100    3.58500   15.47980    0.10530   70.98260    1.72900    0.42600    0.60840    -999.25    -999.25  104.88290   13.61890   74.94190    -999.25
 5752.24280   -5.63650    2.88650    2.54150    3.66470   14.68240    0.08080   71.85610    1.66520    0.49090    0.60820    -999.25    -999.25  110.35500   13.25810   74.79200    -999.25
 5752.74280   -5.52180    2.93730    2.58970    3.80980   13.95200    0.06440   72.22030    1.68160    0.55770    0.59870    -999.25    -999.25  111.82250   13.25890   74.40800    -999.25
 5753.24280   -5.35260    2.98890    2.60120    3.95230   14.29950    0.08350   72.70800    1.68320    0.59060    0.58510    -999.25    -999.25  104.88250   13.51180   74.30570    -999.25
 5753.74280   -5.07080    3.04160    2.59110    3.97120   14.78060    0.10720   73.81910    1.62910    0.59030    0.57010    -999.25    -999.25   94.98890   13.70740   74.88300    -999.25
 5754.24280   -4.78400    3.09510    2.57120    3.88650   15.22560    0.09990   75.31550    1.60220    0.59060    0.55960    -999.25    -999.25   89.63410   13.82850   74.86830    -999.25
 5754.74280   -4.55260    3.14960    2.59640    3.81650   15.42580    0.08410   76.98260    1.60080    0.59940    0.55640    -999.25    -999.25   89.20120   13.74690   73.92960    -999.25
 5755.24280   -4.33120    3.20500    2.72430    3.79690   15.41810    0.08040   79.44310    1.58990    0.59970    0.55330    -999.25    -999.25   89.74310   13.49920   71.82810    -999.25
 5755.74280   -4.16950    3.26150    2.91640    3.81610   14.36030    0.08960   82.59710    1.64230    0.59980    0.54310    -999.25    -999.25   91.66910   13.43170   69.28180    -999.25
 5756.24280   -4.10020    3.32100    3.08130    3.92700   12.84670    0.06440   85.07270    1.78240    0.59980    0.52330    -999.25    -999.25   94.19610   13.68250   68.02310    -999.25
 5756.74280   -4.14840    3.38920    3.16530    4.31550   12.31870    0.02120   85.84300    1.89700    0.55700    0.49970    -999.25    -999.25   95.80680   13.83710   67.49470    -999.25
 5757.24280   -4.25920    3.46480    3.16530    4.97530   12.44980    0.01270   85.17890    1.81020    0.47000    0.48360    -999.25    -999.25   98.63500   13.77260   67.66550    -999.25
 5757.74280   -4.46520    3.54220    3.11580    5.29260   12.88350    0.02700   84.10860    1.59780    0.44110    0.47810    -999.25    -999.25  101.44520   13.58830   69.17470    -999.25
 5758.24280   -4.67250    3.61960    3.05490    4.88100   13.19270    0.05210   83.55910    1.49050    0.52600    0.49040    -999.25    -999.25  101.28510   13.18980   71.57380    -999.25
 5758.74280   -4.78420    3.69600    3.01720    4.31640   13.49120    0.08950   83.64370    1.54010    0.59900    0.51980    -999.25    -999.25   99.88120   12.13140   74.50200    -999.25
 5759.24280   -4.86510    3.76620    3.02880    4.12230   13.80630    0.12310   83.63320    1.65500    0.59900    0.55120    -999.25    -999.25   98.98440   11.30440   77.78720    -999.25
 5759.74280   -4.89330    3.78760    3.08650    4.18000   13.96170    0.14070   83.48070    1.77090    0.58610    0.57190    -999.25    -999.25   96.61280   11.49960   80.49850    -999.25
 5760.24280   -4.89790    3.75420    3.16240    4.22680   13.99280    0.15100   83.54670    1.88760    0.55110    0.56790    -999.25    -999.25   94.59350   11.93200   81.93230    -999.25
