~Version ---------------------------------------------------
VERS.      2.0 : CWLS log ASCII Standard -VERSION 2.0
WRAP.       NO : One line per depth step
CREA. 12/19/17 : LAS Creation Date
~Well ------------------------------------------------------
STRT.FT                    950.0 : START DEPTH
STOP.FT                   9500.0 : STOP DEPTH
STEP.FT                 50.00000 : STEP LENGTH
NULL.                    -999.25 : NULL VALUE
COMP. WESTCOAST PETROLEUM CO LTD : COMPANY
WELL.  WESTCOAST HOPE 2-35-62-13 : WELL
FLD .                            : FIELD
LOC .                            : LOCATION
CTRY.                     CANADA : COUNTRY
SRVC.                    Unknown : SERVICE COMPANY
DATE.                02-Oct-1972 : LOGDATE
PROV.                    Alberta : PROVINCE
UWI .           100023506213W500 : UNIQUE WELL ID
SLAT.WGS84              54.40188 : SURFACE LATITUDE
SLON.WGS84             -115.8339 : SURFACE LONGITUDE
~Curve Information -----------------------------------------
DEPT  .FT    : Depth Curve
CALSED.IN    : CALIPER FROM SONIC LOG [ADJ TO ILDED]
CALWS .IN    : CALIPER [CALSED]
CILDED.MMHO  : CONDUCTIVITY FROM RESISTIVITY LOG
CONDWS.MMHO  : CONDUCTIVITY [1000/DRESWS]
DRESWS.OHMM  : DEEP RESISTIVITY [ILDED] IF ILDED<2;1000/CILDED;ELSE ILDED
DTED  .US/F  : DELTA TIME FROM SONIC LOG [ADJ TO ILDED]
DTWS  .US/F  : DELTA TIME [DTED]
GRSED .GAPI  : GAMMA RAY FROM SONIC LOG [ADJ TO ILDED]
GRWS  .GAPI  : GAMMA RAY [GRSED]
ILDED .OHMM  : INDUCTION LOG DEEP RESISTIVITY
ILMED .OHMM  : INDUCTION LOG MEDIUM RESISTIVITY
LL8ED .OHMM  : 8 INCH LATEROLOG RESISTIVITY
MRESWS.OHMM  : MEDIUM RESISTIVITY [ILMED]
SPRED .MV    : SPONTANEOUS POTENTIAL FROM RESISTIVITY LOG
SPWS  .MV    : SPONTANEOUS POTENTIAL [BASELINE 0 MV] [SPRED]
SRESWS.OHMM  : SHALLOW RESISTIVITY [LL8ED]
~Params ----------------------------------------------------
PD  .                     GL : PERMANENT DATUM
EPD .FT                 3287 : ELEVATION PERMANENT DATUM
LMF .                     KB : LOG MEASURED FROM
DAPD.FT                   14 : FEET ABOVE PERMANENT DATUM
EKB .FT                 3301 : KELLY BUSHING
EGL .FT                 3287 : GROUND LEVEL
DATE.               10/02/72 : RUN DATE
RUN .                      1 : RUN NUMBER
DD  .FT                 9540 : DEPTH DRILLER
DL  .FT                 9542 : DEPTH LOGGER
BLI .FT                 9536 : BOTTOM LOG INTERVAL
TLI .FT                  962 : TOP LOG INTERVAL
CBD .FT                  961 : CASING BOTTOM DRILLER
CBL .FT                  962 : CASING BOTTOM LOGGER
BS  .IN                 8.75 : BIT SIZE
BSD .FT                 9540 : BIT SIZE AT DEPTH
DFT .               GEL CHEM : DRILLING FLUID TYPE
DFD .                    9.5 : DRILLING FLUID DENSITY
DFV .                    140 : DRILLING FLUID VISCOSITY
DFPH.                    9.5 : DRILLING FLUID PH
DFL .                      7 : DRILLING FLUID LOSS
MSS .             CIRCULATED : MUD SAMPLE SOURCE
RMS .OHMM               2.13 : RESISTIVITY MUD SAMPLE
MST .DEGF                 64 : MUD SAMPLE TEMPERATURE
RMF .OHMM               2.04 : RESISTIVITY MUD FILTRATE SAMPLE
MFST.DEGF                 70 : MUD FILTRATE SAMPLE TEMPERATURE
RMB .OHMM              0.812 : RESISTIVITY MUD AT BHT
TCS .HRS                  10 : TIME CIRCULATED STOPPED
LUN .                   5628 : LOGGING UNIT NUMBER
LUL .                    EDM : LOGGING UNIT LOCATION
ENGI.                  IBSEN : RECORDING ENGINEER
WITN.       GRUMBLY CHAUDHRY : WITNESSED BY
CLNT.                A2DTECH : CLIENT CODE
ORIG.            2" 5" PRINT : ORIGIN OF DATA
UWI .       100023506213W500 : UNIQUE WELL ID
DICO. A2D Technologies, Inc. : DIGITIZING COMPANY
~Other -----------------------------------------------------
DIL-SONIC LOGS RUN
DIL DATA ALL CURVES TOP-4590' FROM 2" SCALE
SONIC DATA ALL CURVES TOP-4600' FROM 2" SCALE
~ASCII -----------------------------------------------------
  950.00000    -999.25    -999.25    -999.25    -999.25    -999.25    -999.25    -999.25   48.77800   48.77800    -999.25    -999.25    -999.25    -999.25    -999.25    -999.25    -999.25
 1000.00000    8.85050    8.85050  155.72300  168.31330    5.94130  112.62360  112.62360   61.83130   61.83130    5.94130    -999.25    6.68350    -999.25  -92.03770  -12.64120    6.68350
 1050.00000    8.71650    8.71650  178.53110  178.81730    5.59230  109.48120  109.48120   73.18470   73.18470    5.59230    -999.25    6.16630    -999.25  -89.31030   -8.36200    6.16630
 1100.00000    8.57100    8.57100  127.83720  136.02850    7.35140   87.32080   87.32080   69.23790   69.23790    7.35140    -999.25    8.91320    -999.25  -89.10870   -6.83730    8.91320
 1150.00000    9.85180    9.85180  264.44920  269.22970    3.71430  118.99110  118.99110   66.04210   66.04210    3.71430    -999.25    4.40750    -999.25  -86.55310   -4.99610    4.40750
 1200.00000    8.34240    8.34240  116.78550  113.86230    8.78530  104.60180  104.60180   72.94040   72.94040    8.78530    -999.25    9.47810    -999.25  -94.63710  -13.79810    9.47810
 1250.00000    9.38500    9.38500  219.45630  219.47630    4.55630  118.35140  118.35140   71.49820   71.49820    4.55630    -999.25    5.04360    -999.25  -84.07900   -3.95090    5.04360
 1300.00000    8.99280    8.99280   94.92150   95.19100   10.50520  106.51750  106.51750   56.09360   56.09360   10.50520    -999.25   11.18310    -999.25  -93.47960  -14.06590   11.18310
 1350.00000   10.12410   10.12410  560.41740  492.44100    2.03070  143.89530  143.89530  109.47090  109.47090    2.03070    -999.25    2.67820    -999.25  -81.55530   -2.85600    2.67820
 1400.00000    8.59940    8.59940  126.89430  130.72580    7.64960  108.57960  108.57960   53.22730   53.22730    7.64960    -999.25    8.39520    -999.25  -86.61190   -7.99120    8.39520
 1450.00000    9.58930    9.58930  158.62470  168.09460    5.95410  105.84670  105.84670   56.39800   56.39800    5.95410    -999.25    6.46440    -999.25  -83.04260   -4.42190    6.46440
 1500.00000   10.33250   10.33250  322.01540  322.15460    3.10410  119.26730  119.26730   67.75700   67.75700    3.10410    -999.25    3.82210    -999.25  -79.40430   -0.78360    3.82210
 1550.00000    9.28690    9.28690  212.82460  212.87010    4.69770  104.33430  104.33430   67.55400   67.55400    4.69770    -999.25    5.61770    -999.25  -80.88710   -2.26640    5.61770
 1600.00000    9.39790    9.39790  232.59220  227.89430    4.38800  125.15300  125.15300   73.75890   73.75890    4.38800    -999.25    4.87720    -999.25  -79.94840   -1.32770    4.87720
 1650.00000   10.46430   10.46430  305.80080  305.82910    3.26980  126.53720  126.53720   62.65020   62.65020    3.26980    -999.25    3.94620    -999.25  -82.19860   -3.57790    3.94620
 1700.00000    9.21620    9.21620  352.12150  352.46820    2.83820  120.40120  120.40120   69.51350   69.51350    2.83820    -999.25    3.53640    -999.25  -81.74230   -3.12160    3.53640
 1750.00000    9.85300    9.85300  266.12950  263.93580    3.78880  127.23220  127.23220   62.97640   62.97640    3.78880    -999.25    4.50810    -999.25  -81.56710   -2.94640    4.50810
 1800.00000   10.69100   10.69100  210.61200  205.52030    4.86570  109.57060  109.57060   67.06410   67.06410    4.86570    -999.25    5.64040    -999.25  -82.69830   -4.07760    5.64040
 1850.00000   10.36410   10.36410  334.80950  334.73920    2.98740  117.07400  117.07400   78.70380   78.70380    2.98740    -999.25    3.61930    -999.25  -83.98680   -5.36610    3.61930
 1900.00000    8.34490    8.34490  257.54830  263.90790    3.78920  106.60730  106.60730   68.74260   68.74260    3.78920    -999.25    4.11810    -999.25  -82.59810   -3.97740    4.11810
 1950.00000   10.82820   10.82820  298.98370  306.05780    3.26810  114.94080  114.94080   73.26840   73.26840    3.26810    -999.25    4.03540    -999.25  -82.71670   -4.09600    4.03540
 2000.00000    9.42140    9.42140  501.94880  501.94880    1.99220  113.71540  113.71540   96.45440   96.45440    1.99570    -999.25    2.77290    -999.25  -81.58540   -2.96470    2.77290
 2050.00000    9.72990    9.72990  441.17980  438.15450    2.28230  126.37590  126.37590   83.99940   83.99940    2.28230    -999.25    3.03410    -999.25  -81.58940   -2.96870    3.03410
 2100.00000   10.07770   10.07770  380.09060  379.27630    2.63660  112.06330  112.06330   73.76670   73.76670    2.63660    -999.25    3.12170    -999.25  -81.47330   -2.85260    3.12170
 2150.00000   10.11700   10.11700  237.22240  244.69020    4.08680  118.10730  118.10730   56.60410   56.60410    4.08680    -999.25    4.70980    -999.25  -82.93520   -4.31450    4.70980
 2200.00000    8.75780    8.75780  211.52660  244.74190    4.08940  105.54010  105.54010   49.01080   49.01080    4.08940    -999.25    4.85760    -999.25  -83.00290   -4.38220    4.85760
 2250.00000   10.64690   10.64690  346.13190  406.53710    2.45980  129.43710  129.43710   55.81280   55.81280    2.45980    -999.25    2.96470    -999.25  -81.56190   -2.94120    2.96470
 2300.00000    9.78400    9.78400  272.37880  302.72760    3.30330  119.90750  119.90750   52.68600   52.68600    3.30330    -999.25    3.80050    -999.25  -83.34400   -4.72330    3.80050
 2350.00000    9.23620    9.23620  283.72490  343.13560    2.91430   99.88000   99.88000   51.51930   51.51930    2.91430    -999.25    3.79570    -999.25  -82.33160   -3.71090    3.79570
 2400.00000   10.47680   10.47680  269.88210  307.32350    3.25390  107.30310  107.30310   51.56310   51.56310    3.25390    -999.25    3.86940    -999.25  -81.58350   -2.96280    3.86940
 2450.00000    9.40300    9.40300  231.20090  262.79070    3.80620  102.41620  102.41620   58.70090   58.70090    3.80620    -999.25    4.51930    -999.25  -82.26880   -3.64810    4.51930
 2500.00000    9.98950    9.98950  294.31850  297.33590    3.36320  137.21260  137.21260   42.04440   42.04440    3.36320    -999.25    4.03580    -999.25  -80.71820   -2.09750    4.03580
 2550.00000    8.23940    8.23940   82.71120   82.42190   12.13270   68.32960   68.32960   48.17660   48.17660   12.13270    -999.25   16.50660    -999.25  -85.95120   -7.40000   16.50660
 2600.00000    9.77710    9.77710  260.43150  282.71750    3.53710  108.38980  108.38980   50.49930   50.49930    3.53710    -999.25    4.15200    -999.25  -81.06050   -2.59730    4.15200
 2650.00000    9.58460    9.58460  256.33660  286.78770    3.48690  103.06910  103.06910   55.10490   55.10490    3.48690    -999.25    4.09540    -999.25  -84.49380   -6.11850    4.09540
 2700.00000   10.70100   10.70100  273.23460  303.26170    3.30490  114.55630  114.55630   49.43740   49.43740    3.30490    -999.25    3.93560    -999.25  -83.69880   -5.41200    3.93560
 2750.00000    9.98600    9.98600  277.82440  311.92490    3.20590  109.07190  109.07190   57.54250   57.54250    3.20590    -999.25    3.63880    -999.25  -84.01000   -5.81070    3.63880
 2800.00000    8.42190    8.42190  176.04450  176.02220    5.68110   99.90230   99.90230   51.83780   51.83780    5.68110    -999.25    6.19190    -999.25  -88.10100   -9.98960    6.19190
 2850.00000    8.02300    8.02300  101.45200   98.49010   10.15330  106.60460  106.60460   36.35630   36.35630   10.15330    -999.25   10.76020    -999.25  -99.78620  -21.76280   10.76020
 2900.00000    9.15670    9.15670  185.12230  195.17150    5.12370   95.51100   95.51100   47.69420   47.69420    5.12370    -999.25    5.63360    -999.25  -81.06990   -3.13450    5.63360
 2950.00000    8.76830    8.76830  188.64910  194.91850    5.13040   97.31500   97.31500   52.69420   52.69420    5.13040    -999.25    5.51710    -999.25  -81.22510   -3.37810    5.51710
 3000.00000    8.86300    8.86300  213.89560  216.81160    4.61230   93.33520   93.33520   55.56870   55.56870    4.61230    -999.25    4.90700    -999.25  -80.14690   -2.13620    4.90700
 3050.00000    9.65330    9.65330  274.28180  306.88970    3.25850  102.94250  102.94250   53.33640   53.33640    3.25850    -999.25    3.87570    -999.25  -80.98190   -2.80010    3.87570
