~Version ---------------------------------------------------
VERS. 2.0 : CWLS log ASCII Standard -VERSION 2.0
WRAP. YES : MULTIPLE LINES PER DEPTH STEP
~Well ------------------------------------------------------
STRT.FT                      2000.0 : START DEPTH
STOP.FT                     17600.0 : STOP DEPTH
STEP.FT                    50.00000 : STEP LENGTH
NULL.                      -99925.0 : NULL VALUE
COMP.        SEAFORT PETROLEUM LTD. : COMPANY
WELL. SEAFORT ET AL KAKWA 2-20-61-7 : WELL
FLD .                               : FIELD
LOC .                               : LOCATION
CTRY.                        CANADA : COUNTRY
SRVC.        Schlumberger of Canada : SERVICE COMPANY
DATE.                   12-Aug-1975 : LOGDATE
PROV.                       Alberta : PROVINCE
UWI .              100022006107W600 : UNIQUE WELL ID
SLAT.WGS84                 54.28609 : SURFACE LATITUDE
SLON.WGS84                -119.0081 : SURFACE LONGITUDE
~Curve Information -----------------------------------------
DEPT    .FT    : DEPTH FEET
CALDED  .IN    : CALIPER FROM DENSITY LOG [ADJ TO GRRED]
CALSED  .IN    : CALIPER FROM SONIC LOG
CALWS   .IN    : CALIPER [CALSED]
CONDWS  .MMHO  : CONDUCTIVITY [1000/DRESWS]
DCORED  .G/C3  : DENSITY CORRECTION FROM DENSITY LOG [ADJ TO GRRED]
DCORWS  .G/C3  : DENSITY CORRECTION [DCORED]
DENWS   .G/C3  : BULK DENSITY [M=2.65 F=1.0] <14590> [M=2.71 F=1.0] [RHOBED]
DPHILSED.V/V   : DENSITY POROSITY [M=2.71 F=1.0] FROM DENSITY LOG [ADJ TO GRRED]
DPHISSED.V/V   : DENSITY POROSITY [M=2.65 F=1.0] FROM DENSITY LOG [ADJ TO GRRED]
DPOWS   .V/V   : DENSITY POROSITY [M=2.71 F=1.0] [CALCULATED FROM DENWS]
DRESWS  .OHMM  : DEEP RESISTIVITY [SPL ILDED <14590> LLDED]
DTED    .US/F  : DELTA TIME FROM SONIC LOG
DTWS    .US/F  : DELTA TIME [DTED]
GRDED   .GAPI  : GAMMA RAY FROM DENSITY LOG [ADJ TO GRRED]
GRRED   .GAPI  : GAMMA RAY FROM RESISTIVITY LOG
GRSED   .GAPI  : GAMMA RAY FROM SONIC LOG
GRWS    .GAPI  : GAMMA RAY [GRSED, CSG ABOVE 2005F]
ILDED   .OHMM  : INDUCTION LOG DEEP RESISTIVITY
ILMED   .OHMM  : INDUCTION LOG MEDIUM RESISTIVITY
LL8ED   .OHMM  : 8 INCH LATEROLOG RESISTIVITY
LLDED   .OHMM  : LATEROLOG DEEP RESISTIVITY
LLSED   .OHMM  : LATEROLOG SHALLOW RESISTIVITY
MRESWS  .OHMM  : MEDIUM RESISTIVITY [ILMED]
NPHILSED.V/V   : NEUTRON POROSITY LIMESTONE FROM DENSITY LOG [ADJ TO GRRED]
NPHISSED.V/V   : NEUTRON POROSITY SANDSTONE FROM DENSITY LOG [ADJ TO GRRED]
NPOWS   .V/V   : NEUTRON POROSITY LIMESTONE [CONVERTED NPHISSED TO LIMESTONE SPL WITH NPHILSED @14516F]
RHOBED  .G/C3  : BULK DENSITY FROM DENSITY LOG [ADJ TO GRRED]
SPRED   .MV    : SPONTANEOUS POTENTIAL FROM RESISTIVITY LOG
SPWS    .MV    : SPONTANEOUS POTENTIAL [BASELINE 0 MV] [SPRED]
SRESWS  .OHMM  : SHALLOW RESISTIVITY [SPL LL8ED <14590> LLSED]
~Params ----------------------------------------------------
PD  .                     GL : PERMANENT DATUM
EPD .FT                 3465 : ELEVATION PERMANENT DATUM
LMF .                     KB : LOG MEASURED FROM
DAPD.FT                   21 : FEET ABOVE PERMANENT DATUM
EKB .FT                 3486 : KELLY BUSHING
EGL .FT                 3465 : GROUND LEVEL
DATE.               10/06/75 : RUN DATE
RUN .                      2 : RUN NUMBER
DD  .FT                17618 : DEPTH DRILLER
DL  .FT                17600 : DEPTH LOGGER
BLI .FT                17600 : BOTTOM LOG INTERVAL
TLI .FT                14577 : TOP LOG INTERVAL
CBD .FT                14590 : CASING BOTTOM DRILLER
CBL .FT                14577 : CASING BOTTOM LOGGER
BS  .IN                  9.5 : BIT SIZE
BSD .FT                17618 : BIT SIZE AT DEPTH
DFT .                    GEL : DRILLING FLUID TYPE
DFD .                   13.8 : DRILLING FLUID DENSITY
DFV .                    115 : DRILLING FLUID VISCOSITY
DFPH.                     11 : DRILLING FLUID PH
DFL .                      7 : DRILLING FLUID LOSS
RMS .OHMM              0.809 : RESISTIVITY MUD SAMPLE
MST .DEGF                 75 : MUD SAMPLE TEMPERATURE
WITN.                  BROWN : WITNESSED BY
CLNT.                A2DTECH : CLIENT CODE
ORIG.               5" PRINT : ORIGIN OF DATA
UWI .       100022006107W600 : UNIQUE WELL ID
DICO. A2D Technologies, Inc. : DIGITIZING COMPANY
~Other -----------------------------------------------------
~ASCII -----------------------------------------------------
# ...
 5600.00000   -99925.0   11.14020   11.14020   98.55130   -99925.0   -99925.0   -99925.0   -99925.0   -99925.0   -99925.0   10.14700   76.46830   76.46830   -99925.0   90.36850  127.06650  127.06650   10.14700   15.37170    8.55560   21.82800   17.90280   15.37170   -99925.0   -99925.0   -99925.0   -99925.0  -81.30790   -6.76830    8.55560
 5650.00000   -99925.0   11.17800   11.17800   95.57490   -99925.0   -99925.0   -99925.0   -99925.0   -99925.0   -99925.0   10.46300   72.41500   72.41500   -99925.0   83.35470  115.38240  115.38240   10.46300   15.82940    9.41080   25.65470   21.79320   15.82940   -99925.0   -99925.0   -99925.0   -99925.0  -80.94460   -6.27870    9.41080
 5700.00000   -99925.0   11.21800   11.21800   88.20440   -99925.0   -99925.0   -99925.0   -99925.0   -99925.0   -99925.0   11.33730   75.05510   75.05510   -99925.0   87.51600  124.57690  124.57690   11.33730   19.99530    9.36710   30.30560   24.94330   19.99530   -99925.0   -99925.0   -99925.0   -99925.0  -81.68930   -6.89700    9.36710
 5750.00000   -99925.0   11.11700   11.11700  113.73330   -99925.0   -99925.0   -99925.0   -99925.0   -99925.0   -99925.0    8.79250   77.44520   77.44520   -99925.0   84.80360  124.73730  124.73730    8.79250   14.22260    8.26630   24.28990   20.28370   14.22260   -99925.0   -99925.0   -99925.0   -99925.0  -80.62180   -5.70310    8.26630
 5800.00000   -99925.0   10.97770   10.97770  105.35630   -99925.0   -99925.0   -99925.0   -99925.0   -99925.0   -99925.0    9.49160   77.78110   77.78110   -99925.0   90.48660  124.84640  124.84640    9.49160   15.63610    8.32400   20.61430   19.12020   15.63610   -99925.0   -99925.0   -99925.0   -99925.0  -80.93460   -5.88960    8.32400
 5850.00000   -99925.0   11.54470   11.54470  190.80330   -99925.0   -99925.0   -99925.0   -99925.0   -99925.0   -99925.0    5.24100   84.59780   84.59780   -99925.0   78.53700  113.17170  113.17170    5.24100    8.07110    6.36410   13.02570   12.38160    8.07110   -99925.0   -99925.0   -99925.0   -99925.0  -79.73910   -4.56770    6.36410
 5900.00000   -99925.0   10.46670   10.46670  131.26120   -99925.0   -99925.0   -99925.0   -99925.0   -99925.0   -99925.0    7.61840   77.34900   77.34900   -99925.0   80.51960  125.36590  125.36590    7.61840   13.17760    9.75150   18.12810   16.39910   13.17760   -99925.0   -99925.0   -99925.0   -99925.0  -79.76410   -4.46630    9.75150
 5950.00000   -99925.0   10.63630   10.63630  101.85680   -99925.0   -99925.0   -99925.0   -99925.0   -99925.0   -99925.0    9.81770   77.97910   77.97910   -99925.0   92.74420  138.44470  138.44470    9.81770   16.59120   10.34150   19.81980   17.72160   16.59120   -99925.0   -99925.0   -99925.0   -99925.0  -79.93240   -4.50820   10.34150
 6000.00000   -99925.0   10.98650   10.98650  123.14360   -99925.0   -99925.0   -99925.0   -99925.0   -99925.0   -99925.0    8.12060   80.96820   80.96820   -99925.0   89.58980  123.28850  123.28850    8.12060    8.03010    9.01850   12.39280   11.63490    8.03010   -99925.0   -99925.0   -99925.0   -99925.0  -79.31820   -3.76770    9.01850
 6050.00000   -99925.0   10.78300   10.78300  144.86870   -99925.0   -99925.0   -99925.0   -99925.0   -99925.0   -99925.0    6.90280   78.70590   78.70590   -99925.0   87.15210  120.04000  120.04000    6.90280   10.57800    8.73750   13.12240   12.05190   10.57800   -99925.0   -99925.0   -99925.0   -99925.0  -79.81010   -4.13320    8.73750
 6100.00000   -99925.0   11.16570   11.16570  135.94350   -99925.0   -99925.0   -99925.0   -99925.0   -99925.0   -99925.0    7.35600   78.37410   78.37410   -99925.0   82.97890  127.14020  127.14020    7.35600    9.85690    8.68700   12.52910   11.41720    9.85690   -99925.0   -99925.0   -99925.0   -99925.0  -81.03220   -5.22890    8.68700
 6150.00000   -99925.0   10.93860   10.93860  137.43820   -99925.0   -99925.0   -99925.0   -99925.0   -99925.0   -99925.0    7.27600   77.42520   77.42520   -99925.0   83.09510  120.14810  120.14810    7.27600    9.87500    8.82910   13.91440   12.29790    9.87500   -99925.0   -99925.0   -99925.0   -99925.0  -80.04280   -4.11320    8.82910
 6200.00000   -99925.0   10.63930   10.63930   98.34780   -99925.0   -99925.0   -99925.0   -99925.0   -99925.0   -99925.0   10.16800   71.28950   71.28950   -99925.0   81.58150  111.41180  111.41180   10.16800   15.46150   14.61570   24.33410   22.29980   15.46150   -99925.0   -99925.0   -99925.0   -99925.0  -82.10400   -6.04800   14.61570
 6250.00000   -99925.0   10.48660   10.48660   73.08870   -99925.0   -99925.0   -99925.0   -99925.0   -99925.0   -99925.0   13.68200   65.65290   65.65290   -99925.0   62.13970   93.60800   93.60800   13.68200   26.87480   22.31030   50.09880   41.26710   26.87480   -99925.0   -99925.0   -99925.0   -99925.0  -82.00240   -5.82000   22.31030
 6300.00000   -99925.0   11.03620   11.03620  114.18000   -99925.0   -99925.0   -99925.0   -99925.0   -99925.0   -99925.0    8.75810   69.24000   69.24000   -99925.0   76.24150  102.27320  102.27320    8.75810   15.36900   12.40800   21.97490   18.22820   15.36900   -99925.0   -99925.0   -99925.0   -99925.0  -81.78970   -5.48100   12.40800
 6350.00000   -99925.0   11.01860   11.01860  132.45560   -99925.0   -99925.0   -99925.0   -99925.0   -99925.0   -99925.0    7.54970   78.00550   78.00550   -99925.0   88.78050  120.86550  120.86550    7.54970    9.62280    8.97330   14.70300   12.82960    9.62280   -99925.0   -99925.0   -99925.0   -99925.0  -81.01950   -4.58440    8.97330
 6400.00000   -99925.0   10.59010   10.59010  137.46460   -99925.0   -99925.0   -99925.0   -99925.0   -99925.0   -99925.0    7.27460   72.89120   72.89120   -99925.0   81.73710  111.58960  111.58960    7.27460   10.85950   10.43950   17.44510   16.31210   10.85950   -99925.0   -99925.0   -99925.0   -99925.0  -81.04350   -4.48200   10.43950
 6450.00000   -99925.0   10.60270   10.60270  112.92290   -99925.0   -99925.0   -99925.0   -99925.0   -99925.0   -99925.0    8.85560   78.51080   78.51080   -99925.0   83.49900  122.23150  122.23150    8.85560   23.17370   13.71400   17.52570   15.53130   23.17370   -99925.0   -99925.0   -99925.0   -99925.0  -81.04110   -4.35320   13.71400
 6500.00000   -99925.0   10.17240   10.17240   50.70940   -99925.0   -99925.0   -99925.0   -99925.0   -99925.0   -99925.0   19.72020   69.18290   69.18290   -99925.0   79.56240   94.94080   94.94080   19.72020   54.10440   24.86450   32.21000   28.14830   54.10440   -99925.0   -99925.0   -99925.0   -99925.0  -82.84210   -6.02790   24.86450
 6550.00000   -99925.0   10.28530   10.28530  196.36720   -99925.0   -99925.0   -99925.0   -99925.0   -99925.0   -99925.0    5.09250   67.02390   67.02390   -99925.0   74.39180   92.38530   92.38530    5.09250    8.32780   16.11460   45.22920   30.66640    8.32780   -99925.0   -99925.0   -99925.0   -99925.0  -80.85750   -3.91690   16.11460
 6600.00000   -99925.0   10.10810   10.10810   26.27130   -99925.0   -99925.0   -99925.0   -99925.0   -99925.0   -99925.0   38.06440   66.36440   66.36440   -99925.0   47.96030   49.71590   49.71590   38.06440 1209.48460   62.06680   91.22880   67.08820 1209.48460   -99925.0   -99925.0   -99925.0   -99925.0  -83.37080   -6.36430   62.06680
 6650.00000   -99925.0   10.53930   10.53930   88.66190   -99925.0   -99925.0   -99925.0   -99925.0   -99925.0   -99925.0   11.27880   68.37770   68.37770   -99925.0   68.75480   89.49670   89.49670   11.27880   24.06240   18.54020   37.55530   32.07850   24.06240   -99925.0   -99925.0   -99925.0   -99925.0  -80.77220   -3.74020   18.54020
 6700.00000   -99925.0   10.44250   10.44250   73.09090   -99925.0   -99925.0   -99925.0   -99925.0   -99925.0   -99925.0   13.68160   68.82400   68.82400   -99925.0   83.49240  108.82540  108.82540   13.68160   25.26700   15.39660   31.27440   25.84580   25.26700   -99925.0   -99925.0   -99925.0   -99925.0  -84.83400   -7.77640   15.39660
 6750.00000   -99925.0   10.26780   10.26780  144.32510   -99925.0   -99925.0   -99925.0   -99925.0   -99925.0   -99925.0    6.92880   73.02970   73.02970   -99925.0   82.40690  117.76910  117.76910    6.92880   15.51300   10.89470   19.69010   17.75850   15.51300   -99925.0   -99925.0   -99925.0   -99925.0  -83.35920   -6.27600   10.89470
