~Version ---------------------------------------------------
VERS.      2.0 : CWLS log ASCII Standard -VERSION 2.0
WRAP.       NO : One line per depth step
CREA. 01/03/18 : LAS Creation Date
~Well ------------------------------------------------------
STRT.FT                              300.0 : START DEPTH
STOP.FT                             8350.0 : STOP DEPTH
STEP.FT                           50.00000 : STEP LENGTH
NULL.                              -999.25 : NULL VALUE
COMP.             HOME OIL COMPANY LIMITED : COMPANY
WELL. HOME FPC ET AL MORSE RIVER 4-31-65-9 : WELL
FLD .                                      : FIELD
LOC .                                      : LOCATION
CTRY.                               CANADA : COUNTRY
SRVC.                         Schlumberger : SERVICE COMPANY
DATE.                          23-Jan-1960 : LOGDATE
PROV.                              Alberta : PROVINCE
UWI .                     100043106509W500 : UNIQUE WELL ID
SLAT.WGS84                        54.66358 : SURFACE LATITUDE
SLON.WGS84                       -115.3583 : SURFACE LONGITUDE
~Curve Information -----------------------------------------
DEPT  .FT     : Depth Curve
CALWS .IN     : CALIPER [MCALED]
CILDED.MMHO   : CONDUCTIVITY FROM RESISTIVITY LOG
CONDWS.MMHO   : CONDUCTIVITY [1000/DRESWS]
DRESWS.OHMM   : DEEP RESISTIVITY [ILDED] IF ILDED<1;1000/CILDED;ELSE ILDED
GRNED .UR/HR  : GAMMA RAY FROM NEUTRON LOG
GRWS  .GAPI   : GAMMA RAY [GRNED] CONVERTED SCALES McCULLOUGH *10.4API
ILDED .OHMM   : INDUCTION LOG DEEP RESISTIVITY
LLED  .OHMM   : LATEROLOG RESISTIVITY FROM LATEROLOG
MCALED.IN     : MICROCALIPER
NEUTED.CU     : NEUTRON FROM NEUTRON LOG [DEPTH ADJ TO ILD]
NEUTWS.CU     : NEUTRON [NEUTED]
SNED  .OHMM   : 16 INCH SHORT NORMAL RESISTIVITY FROM IEL
SPRED .MV     : SPONTANEOUS POTENTIAL FROM RESISTIVITY LOG
SPWS  .MV     : SPONTANEOUS POTENTIAL [BASELINE 0 MV] [SPRED]
SRESWS.OHMM   : SHALLOW RESISTIVITY [SNED]
~Params ----------------------------------------------------
LMF .                     KB : LOG MEASURED FROM
DMF .                     KB : DRILLING MEASURED FROM
EKB .FT                 3359 : KELLY BUSHING
EGL .FT               3345.4 : GROUND LEVEL
DATE.               01/23/60 : RUN DATE
RUN .                      2 : RUN NUMBER
DD  .FT                 8361 : DEPTH DRILLER
DL  .FT                 8359 : DEPTH LOGGER
BLI .FT                 8354 : BOTTOM LOG INTERVAL
TLI .FT                 5178 : TOP LOG INTERVAL
CBD .FT                  847 : CASING BOTTOM DRILLER
CBL .FT                  847 : CASING BOTTOM LOGGER
BSD .FT                 8361 : BIT SIZE AT DEPTH
DFT .                    GEL : DRILLING FLUID TYPE
DFD .                     10 : DRILLING FLUID DENSITY
DFV .                    106 : DRILLING FLUID VISCOSITY
DFPH.                     10 : DRILLING FLUID PH
DFL .                    4.6 : DRILLING FLUID LOSS
RMS .OHMM                2.5 : RESISTIVITY MUD SAMPLE
MST .DEGF                 62 : MUD SAMPLE TEMPERATURE
RMF .OHMM                1.6 : RESISTIVITY MUD FILTRATE SAMPLE
MFST.DEGF                 62 : MUD FILTRATE SAMPLE TEMPERATURE
RMC .OHMM                2.8 : RESISTIVITY MUD CAKE
MCST.DEGF                 62 : MUD CAKE SAMPLE TEMPERATURE
RMB .OHMM                0.9 : RESISTIVITY MUD AT BHT
TCS .HRS                   2 : TIME CIRCULATED STOPPED
LUN .                   2786 : LOGGING UNIT NUMBER
ENGI.             ARMBRUSTER : RECORDING ENGINEER
WITN.                  SZABO : WITNESSED BY
CLNT.                A2DTECH : CLIENT CODE
ORIG.            2" 5" PRINT : ORIGIN OF DATA
UWI .       100043106509W500 : UNIQUE WELL ID
DICO. A2D Technologies, Inc. : DIGITIZING COMPANY
~Other -----------------------------------------------------
IEL-LL-GRN-MICRO LOG RUN
~ASCII -----------------------------------------------------
# ...
 4900.00000    8.93500   93.41400   92.95750   10.75760    4.61240   47.96900   10.75760    -999.25    8.93500  405.57560  405.57560   13.48810 -106.84480  -14.93780   13.48810
 4950.00000    8.77640  124.77900  131.01460    7.63730    4.04350   42.05240    7.63730    -999.25    8.77640  341.07340  341.07340    9.74760 -120.62570  -28.97500    9.74760
 5000.00000    8.88130  237.28300  237.28300    4.21440    5.36330   55.77830    3.21970    -999.25    8.88130  158.61980  158.61980    4.13850 -114.72580  -23.32890    4.13850
 5050.00000    8.70910  190.26640  190.26640    5.25580    3.24600   33.75840    4.72570    -999.25    8.70910  334.20040  334.20040   10.25630 -152.54760  -61.40580   10.25630
 5100.00000    8.79940   94.12450   91.23500   10.96070    2.09380   21.77550   10.96070   15.33280    8.79940  569.80250  569.80250   17.51620 -153.76680  -62.88010   17.51620
 5150.00000    8.76170   44.94130   40.44130   24.72720    2.82610   29.39140   24.72720   34.53380    8.76170  472.50010  472.50010   37.89520 -106.39980  -15.76820   37.89520
 5200.00000    9.55570   51.36330   42.49580   23.53190    2.18110   22.68290   23.53190   71.01050    9.55570  584.12910  584.12910   35.19400 -128.16220  -37.78700   35.19400
 5250.00000    9.09220  195.08330  157.84820    6.33520    3.34190   34.75580    6.33520    8.98650    9.09220  451.06340  451.06340    9.17540 -128.39190  -38.27050    9.17540
 5300.00000    9.53400  145.02130  124.21900    8.05030    3.96750   41.26200    8.05030    8.23790    9.53400  476.69060  476.69060    8.79300 -110.64080  -20.77450    8.79300
 5350.00000    9.59110  142.64160  109.24900    9.15340    4.29410   44.65860    9.15340    9.61830    9.59110  425.90120  425.90120    7.77500 -105.00790  -15.39670    7.77500
 5400.00000   11.98710  163.26450  128.45380    7.78490    5.85040   60.84420    7.78490    7.80380   11.98710  314.65140  314.65140    6.44610  -90.88930   -1.53320    6.44610
 5450.00000   12.35470  160.75310  127.51360    7.84230    5.51460   57.35130    7.84230    8.11880   12.35470  192.93220  192.93220    7.00360  -90.84060   -1.81200    7.00360
 5500.00000    9.95600   30.47420   21.26040   47.03580    3.17120   32.98050   47.03580   86.14220    9.95600  673.81890  673.81890   36.95420 -110.11810  -21.41380   36.95420
 5550.00000   11.82790   91.96370   72.93520   13.71080    4.34280   45.16510   13.71080   15.68130   11.82790  318.73240  318.73240   12.18690  -98.94250  -10.56410   12.18690
 5600.00000   10.63830   16.08850    9.53800  104.84430    2.06550   21.48120  104.84430  252.13230   10.63830  641.42680  641.42680   78.78740 -116.06140  -28.00900   78.78740
 5650.00000    9.69880   18.10220   11.81930   84.60760    1.37700   14.32080   84.60760  191.36940    9.69880  796.82090  796.82090   66.76000 -149.02000  -61.29350   66.76000
 5700.00000    9.94720   17.24240   10.53300   94.96360    1.49870   15.58650   94.96360  189.55070    9.94720  814.55870  814.55870   76.59510 -138.92210  -51.52310   76.59510
 5750.00000   10.43290   12.91980    7.27870  137.38640    1.43400   14.91360  137.38640  248.67870   10.43290  785.70110  785.70110   93.43020 -166.94890  -79.87420   93.43020
 5800.00000    8.98170   46.04990   37.54130   26.63730    1.22260   12.71500   26.63730  107.65890    8.98170  706.83920  706.83920   61.45230 -202.33740 -115.58860   61.45230
 5850.00000    8.23760   68.53960   58.48090   17.09960    1.14540   11.91220   17.09960  121.90330    8.23760  564.76130  564.76130   72.24690 -250.47980 -164.05690   72.24690
 5900.00000    8.21000   32.49680   24.99980   40.00040    1.52610   15.87140   40.00040  250.59010    8.21000  700.72530  700.72530  105.04260 -265.76400 -179.66710  105.04260
 5950.00000    8.25510   48.65140   39.17640   25.53450    1.41060   14.67080   25.53450  184.43110    8.25510  760.63280  760.63280   92.39490 -307.79240 -222.02300   92.39490
 6000.00000    8.29440   62.96970   53.74410   18.60670    1.46690   15.25580   18.60670  141.84680    8.29440  654.02540  654.02540   69.28860 -280.63820 -195.19310   69.28860
 6050.00000    8.70200   28.53800   20.25650   49.36680    1.39430   14.50070   49.36680  213.12280    8.70200  749.66610  749.66610   93.43060 -247.63300 -162.51380   93.43060
 6100.00000    8.70420   17.65890   11.11100   90.00050    1.33990   13.93500   90.00050  149.61480    8.70420  870.57930  870.57930   82.10440 -207.59170 -122.79840   82.10440
 6150.00000    8.69100   23.51480   17.11680   58.42230    1.25810   13.08420   58.42230  289.91940    8.69100  754.54720  754.54720  103.86210 -258.52930 -174.06190  103.86210
 6200.00000    8.70580   23.12090   15.60780   64.11970    1.50860   15.68940   64.11970  248.81580    8.70580  778.86900  778.86900  106.06760 -264.74240 -180.60260  106.06760
 6250.00000    8.17530   47.12330   39.01660   25.63010    1.59700   16.60880   25.63010  148.48420    8.17530  695.81320  695.81320   84.42350 -269.48600 -185.67050   84.42350
 6300.00000    8.40460   25.24570   19.89500   50.26390    1.57860   16.41740   50.26390  298.86160    8.40460  598.32790  598.32790  106.09750 -252.84390 -169.35430  106.09750
 6350.00000    8.72790   23.33120   16.86410   59.29760    1.82250   18.95400   59.29760  128.44150    8.72790  769.85900  769.85900   81.19620 -150.96530  -67.80160   81.19620
 6400.00000    9.04460  249.46340  173.93420    5.74930    5.09610   52.99940    5.74930    6.89210    9.04460  427.81360  427.81360    5.08810 -131.78320  -48.94540    5.08810
 6450.00000    8.66190   16.08410   10.25110   98.19530    1.55710   16.19380   98.19530  226.02070    8.66190  707.24070  707.24070   84.03940 -171.00510  -88.49490   84.03940
 6500.00000    8.47080   82.90380   67.97260   14.71180    2.44640   25.44260   14.71180   46.66870    8.47080  564.32580  564.32580   46.62110 -216.02440 -133.83850   46.62110
 6550.00000    8.75230   76.82530   66.04850   15.14040    1.77570   18.46730   15.14040   21.98580    8.75230  529.73940  529.73940   20.33930 -139.74840  -57.88840   20.33930
 6600.00000    8.82250   36.96320   29.95240   33.38630    2.56320   26.65730   33.38630   37.86710    8.82250  627.36740  627.36740   21.56020 -102.47010  -20.93600   21.56020
 6650.00000    9.22270   71.50330   62.06440   16.11230    2.49590   25.95740   16.11230   18.98530    9.22270  493.48280  493.48280   14.72160  -89.52070   -8.31250   14.72160
 6700.00000   11.41420  206.79780  150.44720    6.64690    5.93370   61.71050    6.64690    -999.25   11.41420  231.91920  231.91920    6.09460  -86.10500   -5.33000    6.09460
 6750.00000    9.27230  194.09180  151.63690    6.59470    5.14240   53.48100    6.59470    -999.25    9.27230  376.12230  376.12230    6.05220  -85.11750   -5.20600    6.05220
 6800.00000   10.82740  244.76300  187.55040    5.33190    4.74870   49.38650    5.33190    -999.25   10.82740  208.13970  208.13970    3.50560  -87.08670   -8.04300    3.50560
 6850.00000    8.73130   47.94220   39.03580   25.61750    3.60480   37.48990   25.61750    -999.25    8.73130  559.61470  559.61470   21.53290  -91.92970  -13.75380   21.53290
 6900.00000    8.71480  111.51880   89.47670   11.17610    4.35060   45.24620   11.17610    -999.25    8.71480  465.39110  465.39110   10.31230  -79.77960   -2.47150   10.31230
 6950.00000   10.14920  237.48570  175.39650    5.70290    4.61570   48.00330    5.70290    -999.25   10.14920  228.29260  228.29260    4.86080  -85.08510   -8.64910    4.86080
 7000.00000   10.14040  285.91630  285.91630    3.49750    5.83150   60.64760    4.81200    -999.25   10.14040  303.72750  303.72750    4.21700  -82.67030   -7.09780    4.21700
 7050.00000   15.21840  323.19390  323.19390    3.09410    5.36490   55.79500    4.27620    -999.25   15.21840  206.95830  206.95830    3.12860  -86.58200  -11.87730    3.12860
 7100.00000   14.52490  256.79260  194.28420    5.14710    4.96220   51.60690    5.14710    -999.25   14.52490  230.53030  230.53030    3.79760  -85.54900  -11.71210    3.79760
 7150.00000   14.98780  225.76850  172.46730    5.79820    4.68870   48.76250    5.79820    -999.25   14.98780  167.32240  167.32240    4.28700  -88.24180  -15.27270    4.28700
