~Version ---------------------------------------------------
VERS.      2.0 : CWLS log ASCII Standard -VERSION 2.0
WRAP.       NO : One line per depth step
CREA. 11/15/17 : LAS Creation Date
~Well ------------------------------------------------------
STRT.FT                        600.0 : START DEPTH
STOP.FT                      10800.0 : STOP DEPTH
STEP.FT                     50.00000 : STEP LENGTH
NULL.                        -999.25 : NULL VALUE
COMP.           PETROFINA CANADA LTD : COMPANY
WELL. FINA AMOCO HB FOXCK 6-35-60-18 : WELL
FLD .                                : FIELD
LOC .                                : LOCATION
CTRY.                         CANADA : COUNTRY
SRVC.         Schlumberger of Canada : SERVICE COMPANY
DATE.                    29-Aug-1976 : LOGDATE
PROV.                        Alberta : PROVINCE
UWI .               100063506018W500 : UNIQUE WELL ID
SLAT.WGS84                  54.22952 : SURFACE LATITUDE
SLON.WGS84                 -116.5928 : SURFACE LONGITUDE
~Curve Information -----------------------------------------
DEPT    .FT    : Depth Curve
CALDED  .IN    : CALIPER FROM DENSITY LOG, DEPTH ADJUSTED WITH [SPRED]
CALSED  .IN    : CALIPER FROM SONIC LOG, DEPTH ADJUSTED WITH [SPRED]
CALWS   .IN    : CALIPER [CALSED]
CONDWS  .MMHO  : CONDUCTIVITY [1000/DRESWS]
DCORED  .G/C3  : DENSITY CORRECTION FROM DENSITY LOG, DEPTH ADJUSTED WITH [SPRED]
DCORWS  .G/C3  : DENSITY CORRECTION [DCORED]
DENWS   .G/C3  : BULK DENSITY [RHOBED]
DPOLSWS .V/V   : DENSITY POROSITY LIMESTONE [CALCULATED FROM DENWS]
DPORLSED.V/V   : DENSITY POROSITY LIMESTONE FROM DENSITY LOG, DEPTH ADJUSTED WITH [SPRED]
DPORSSED.V/V   : DENSITY POROSITY SANDSTONE FROM DENSITY LOG, DEPTH ADJUSTED WITH [SPRED]
DRESWS  .OHMM  : DEEP RESISTIVITY [ILDED]
DTED    .US/F  : DELTA TIME FROM SONIC LOG, DEPTH ADJUSTED WITH [SPRED]
DTWS    .US/F  : DELTA TIME [DTED]
GRDED   .GAPI  : GAMMA RAY FROM DENSITY LOG, DEPTH ADJUSTED WITH [SPRED]
GRED    .GAPI  : GAMMA RAY FROM CEMENT LOG, DEPTH ADJUSTED WITH [SPRED]
GRSED   .GAPI  : GAMMA RAY FROM SONIC LOG, DEPTH ADJUSTED WITH [SPRED]
GRWS    .GAPI  : GAMMA RAY [GRSED], SPLICED WITH [GRED] FROM TOP TO 1095'
ILDED   .OHMM  : INDUCTION LOG DEEP RESISTIVITY
ILMED   .OHMM  : INDUCTION LOG MEDIUM RESISTIVITY
LL8ED   .OHMM  : 8 INCH LATEROLOG RESISTIVITY
MRESWS  .OHMM  : MEDIUM RESISTIVITY [ILMED]
NPOLSWS .V/V   : NEUTRON POROSITY LIMESTONE [NPORLSED], MATRIX CONVERTED FROM [NPORSSED] TO LIMESTONE FROM TOP TO 6954'
NPORLSED.V/V   : NEUTRON POROSITY LIMESTONE FROM DENSITY LOG, DEPTH ADJUSTED WITH [SPRED]
NPORSSED.V/V   : NEUTRON POROSITY SANDSTONE FROM DENSITY LOG, DEPTH ADJUSTED WITH [SPRED]
RHOBED  .G/C3  : BULK DENSITY FROM DENSITY LOG, DEPTH ADJUSTED WITH [SPRED]
SPRED   .MV    : SPONTANEOUS POTENTIAL FROM RESISTIVITY LOG
SPWS    .MV    : SPONTANEOUS POTENTIAL [BASELINE 0 MV] [SPRED]
SRESWS  .OHMM  : SHALLOW RESISTIVITY [LL8ED]
~Params ----------------------------------------------------
PD  .                     GL : PERMANENT DATUM
EPD .FT                 3085 : ELEVATION PERMANENT DATUM
LMF .                     KB : LOG MEASURED FROM
DAPD.FT                 15.7 : FEET ABOVE PERMANENT DATUM
EKB .FT               3100.9 : KELLY BUSHING
EDF .FT               3085.2 : DRILLING FLOOR
EGL .FT               3085.5 : GROUND LEVEL
DATE.               08/29/76 : RUN DATE
RUN .                      1 : RUN NUMBER
DD  .FT                10843 : DEPTH DRILLER
DL  .FT                10840 : DEPTH LOGGER
BLI .FT                10834 : BOTTOM LOG INTERVAL
TLI .FT                 1119 : TOP LOG INTERVAL
CBD .FT                 1119 : CASING BOTTOM DRILLER
CBL .FT                 1119 : CASING BOTTOM LOGGER
BS  .IN                 8.75 : BIT SIZE
BSD .FT                10843 : BIT SIZE AT DEPTH
DFT .               GEL CHEM : DRILLING FLUID TYPE
DFD .                    9.3 : DRILLING FLUID DENSITY
DFV .                    150 : DRILLING FLUID VISCOSITY
DFPH.                   10.5 : DRILLING FLUID PH
DFL .                    7.0 : DRILLING FLUID LOSS
MSS .            CIRCULATION : MUD SAMPLE SOURCE
RMS .OHMM               2.43 : RESISTIVITY MUD SAMPLE
MST .DEGF                 76 : MUD SAMPLE TEMPERATURE
RMF .OHMM               2.33 : RESISTIVITY MUD FILTRATE SAMPLE
MFST.DEGF                 73 : MUD FILTRATE SAMPLE TEMPERATURE
RMC .OHMM               2.22 : RESISTIVITY MUD CAKE
MCST.DEGF                 67 : MUD CAKE SAMPLE TEMPERATURE
RMB .OHMM               0.86 : RESISTIVITY MUD AT BHT
TCS .HRS                   3 : TIME CIRCULATED STOPPED
LUN .                   7691 : LOGGING UNIT NUMBER
LUL .                    WCT : LOGGING UNIT LOCATION
ENGI.              CROCKFORD : RECORDING ENGINEER
WITN.                 HALKOW : WITNESSED BY
CLNT.                A2DTECH : CLIENT CODE
ORIG.            2" 5" PRINT : ORIGIN OF DATA
UWI .       100063506018W500 : UNIQUE WELL ID
DICO. A2D Technologies, Inc. : DIGITIZING COMPANY
~Other -----------------------------------------------------
~ASCII -----------------------------------------------------
# ...
 4350.00000   11.71710   10.30790   10.30790  111.44920    0.07330    0.07330    2.57140    0.08110    -999.25    0.05460    8.97270   83.54800   83.54800   98.81260    -999.25   92.01270   92.01270    8.97270    7.70950    8.87960    7.70950    0.24530    -999.25    0.29680    2.57140  -29.65140  -11.75220    8.87960
 4400.00000   11.27690   11.30970   11.30970   92.73260    0.20580    0.20580    2.14110    0.33270    -999.25    0.30330   10.78370   80.23450   80.23450   86.75820    -999.25   82.09900   82.09900   10.78370    9.33610    9.37410    9.33610    0.23380    -999.25    0.28570    2.14110  -30.68470  -13.38050    9.37410
 4450.00000   11.88210   11.30140   11.30140  114.56460    0.19390    0.19390    2.13200    0.33800    -999.25    0.31990    8.72870   83.07050   83.07050   97.38200    -999.25   96.60860   96.60860    8.72870    7.89530    9.00850    7.89530    0.28680    -999.25    0.33650    2.13200  -30.37580  -13.66660    9.00850
 4500.00000   12.86210   11.58010   11.58010  143.23570    0.14590    0.14590    1.87090    0.49070    -999.25    0.46570    6.98150   86.78090   86.78090   98.63160    -999.25   88.28150   88.28150    6.98150    6.28510    7.49370    6.28510    0.31960    -999.25    0.36730    1.87090  -30.20510  -14.09090    7.49370
 4550.00000   14.77750   11.95780   11.95780  149.44900    0.00290    0.00290    2.13760    0.33470    -999.25    0.32930    6.69130   89.51890   89.51890   96.20340    -999.25   91.51380   91.51380    6.69130    5.66550    6.34950    5.66550    0.41320    -999.25    0.45270    2.13760  -31.30420  -15.78190    6.34950
 4600.00000   11.34760    9.61830    9.61830  106.26880    0.06920    0.06920    1.89300    0.47780    -999.25    0.46800    9.41010   86.06680   86.06680   83.02100    -999.25   84.95550   84.95550    9.41010    8.01160    9.59340    8.01160    0.36140    -999.25    0.40590    1.89300  -29.02440  -14.10010    9.59340
 4650.00000    9.08460    8.76760    8.76760   59.65520    0.12090    0.12090    2.52820    0.10630    -999.25    0.07120   16.76300   75.70100   75.70100   68.85410    -999.25   68.31950   68.31950   16.76300   17.51020   21.40780   17.51020    0.14720    -999.25    0.19780    2.52820  -39.23520  -24.90590   21.40780
 4700.00000   13.82420   10.54560   10.54560  100.27580    0.18990    0.18990    2.25290    0.26730    -999.25    0.24020    9.97250   85.96480   85.96480   95.57510    -999.25   91.34640   91.34640    9.97250    8.69340    9.60800    8.69340    0.23960    -999.25    0.29120    2.25290  -25.35560  -11.62140    9.60800
 4750.00000   13.57930    9.88720    9.88720  116.38600    0.18310    0.18310    2.36020    0.20460    -999.25    0.18560    8.59210   83.79580   83.79580  111.88960    -999.25   98.66730   98.66730    8.59210    7.82580    8.82410    7.82580    0.22570    -999.25    0.27790    2.36020  -29.73810  -16.59880    8.82410
 4800.00000   14.69990   11.33790   11.33790  114.44120    0.12100    0.12100    2.12560    0.34180    -999.25    0.31140    8.73840   87.27870   87.27870  109.27620    -999.25  105.87660  105.87660    8.73840    7.36820    8.21230    7.36820    0.27810    -999.25    0.32820    2.12560  -28.70220  -16.15500    8.21230
 4850.00000   13.98290   11.20350   11.20350  117.85920    0.08450    0.08450    2.56180    0.08670    -999.25    0.06470    8.48470   85.79920   85.79920  104.90970    -999.25  106.24580  106.24580    8.48470    7.38120    9.26070    7.38120    0.25960    -999.25    0.31060    2.56180  -31.03800  -19.08880    9.26070
 4900.00000    -999.25   13.64830   13.64830  135.69810    0.11590    0.11590    2.52660    0.10730    -999.25    0.07650    7.36930   88.94370   88.94370  105.38690    -999.25   98.93130   98.93130    7.36930    6.77040    8.30670    6.77040    0.32220    -999.25    0.36970    2.52660  -29.72300  -18.36870    8.30670
 4950.00000    -999.25   13.53160   13.53160  119.45720    0.11570    0.11570    2.55000    0.09360    -999.25    0.05420    8.37120   87.13540   87.13540  110.13790    -999.25  107.80260  107.80260    8.37120    7.25470    9.42200    7.25470    0.25210    -999.25    0.30340    2.55000  -28.89210  -18.13280    9.42200
 5000.00000    -999.25   13.37940   13.37940  114.27660    0.06550    0.06550    2.46930    0.14080    -999.25    0.11510    8.75070   91.54910   91.54910  113.31600    -999.25  109.63770  109.63770    8.75070    7.43720    8.88740    7.43720    0.32080    -999.25    0.36840    2.46930  -27.11140  -16.94720    8.88740
 5050.00000    -999.25   12.91530   12.91530  109.17910    0.17900    0.17900    1.99370    0.41890    -999.25    0.38860    9.15940   92.19820   92.19820  103.13970    -999.25  105.21280  105.21280    9.15940    7.93110   10.00570    7.93110    0.34360    -999.25    0.38950    1.99370  -26.71300  -17.14080   10.00570
 5100.00000   13.43940   11.66260   11.66260   89.45900    0.21120    0.21120    2.12690    0.34100    -999.25    0.30990   11.17830   91.20470   91.20470  114.93870    -999.25  108.87300  108.87300   11.17830   10.91940   13.54420   10.91940    0.31730    -999.25    0.36510    2.12690  -24.55360  -15.57930   13.54420
 5150.00000   12.30780   10.56530   10.56530   92.90830    0.22370    0.22370    2.25040    0.26880    -999.25    0.24760   10.76330   91.21140   91.21140  132.21980    -999.25  118.57470  118.57470   10.76330    9.76510   13.56390    9.76510    0.33640    -999.25    0.38290    2.25040  -23.53370  -15.15440   13.56390
 5200.00000   11.42130    9.74330    9.74330   86.38040    0.22860    0.22860    2.10770    0.35220    -999.25    0.33620   11.57670   93.98340   93.98340  120.50220    -999.25  116.88080  116.88080   11.57670   10.56710   15.30280   10.56710    0.32660    -999.25    0.37380    2.10770  -22.92800  -15.14380   15.30280
 5250.00000   12.87160    9.96880    9.96880  126.08590    0.23260    0.23260    2.21790    0.28780    -999.25    0.26010    7.93110   92.43030   92.43030  111.80390    -999.25  108.64700  108.64700    7.93110    7.28140    9.65850    7.28140    0.35710    -999.25    0.40200    2.21790  -14.73610   -7.54680    9.65850
 5300.00000   11.64440   10.94280   10.94280  149.25600    0.19360    0.19360    2.11110    0.35020    -999.25    0.32130    6.69990   83.62930   83.62930   93.68360    -999.25  102.62920  102.62920    6.69990    6.09680    6.96050    6.09680    0.32430    -999.25    0.37170    2.11110  -13.91350   -7.38380    6.96050
 5350.00000   13.00470   10.66260   10.66260  152.55760    0.14600    0.14600    2.06520    0.37710    -999.25    0.35040    6.55490   80.30810   80.30810   93.03430    -999.25   99.31860   99.31860    6.55490    6.16020    6.91020    6.16020    0.29700    -999.25    0.34610    2.06520  -14.85530   -9.13240    6.91020
 5400.00000   13.63820   11.26720   11.26720  130.34240    0.20600    0.20600    2.19410    0.30170    -999.25    0.28180    7.67210   78.56550   78.56550   88.65350    -999.25   92.76810   92.76810    7.67210    7.10210    7.75630    7.10210    0.25950    -999.25    0.31050    2.19410  -13.39950   -8.47940    7.75630
 5450.00000   12.23690   10.77060   10.77060  125.05000    0.13340    0.13340    2.17740    0.31150    -999.25    0.28460    7.99680   80.10130   80.10130   91.62670    -999.25   99.65210   99.65210    7.99680    7.45190    8.43630    7.45190    0.29480    -999.25    0.34400    2.17740  -12.60570   -8.48830    8.43630
 5500.00000   10.53430    9.78920    9.78920   61.16620    0.10650    0.10650    2.42610    0.16600    -999.25    0.12900   16.34890   72.25450   72.25450   78.68670    -999.25   75.77570   75.77570   16.34890   14.75480   19.77860   14.75480    0.19640    -999.25    0.24900    2.42610  -13.54830  -10.23370   19.77860
 5550.00000    9.01980    9.14240    9.14240   94.65200    0.13980    0.13980    2.50740    0.11850    -999.25    0.09100   10.56600   76.69070   76.69070   96.80210    -999.25  103.06010  103.06010   10.56600   10.65040   10.54920   10.65040    0.24520    -999.25    0.29660    2.50740   -7.79380   -5.27790   10.54920
