~Version ---------------------------------------------------
VERS.      2.0 : CWLS log ASCII Standard -VERSION 2.0
WRAP.       NO : One line per depth step
CREA. 12/29/17 : LAS Creation Date
~Well ------------------------------------------------------
STRT.FT                   1050.0 : START DEPTH
STOP.FT                   9900.0 : STOP DEPTH
STEP.FT                 50.00000 : STEP LENGTH
NULL.                    -999.25 : NULL VALUE
COMP.     PACIFIC PETROLEUMS LTD : COMPANY
WELL. PACIFIC KAYBOB 10-25-63-18 : WELL
FLD .                     KAYBOB : FIELD
LOC .                            : LOCATION
CTRY.                     CANADA : COUNTRY
SRVC.                 Lane Wells : SERVICE COMPANY
DATE.                15-Mar-1963 : LOGDATE
PROV.                    Alberta : PROVINCE
UWI .           100102506318W500 : UNIQUE WELL ID
SLAT.WGS84              54.48159 : SURFACE LATITUDE
SLON.WGS84             -116.5805 : SURFACE LONGITUDE
~Curve Information -----------------------------------------
DEPT  .FT    : Depth Curve
CALWS .IN    : CALIPER [MCALED]
CILDED.MMHO  : CONDUCTIVITY FROM IEL LOG
CONDWS.MMHO  : CONDUCTIVITY [1000/DRESWS]
DRESWS.OHMM  : DEEP RESISTIVITY [1000/CILDED IF ILDED<4, ILDED]
DTED  .US/F  : DELTA TIME FROM SONIC LOG
DTWS  .US/F  : COMPRESSIONAL SONIC [DTED]
GRED  .GAPI  : GAMMA RAY FROM GR LOG
GRSED .GAPI  : GAMMA RAY FROM SONIC LOG
GRWS  .GAPI  : GAMMA RAY [GRSED SPL. TO GRED @ 1395'-1770']
ILDED .OHMM  : DEEP INDUCTION FROM IEL LOG
MCALED.IN    : CALIPER FROM MINILOG
SNED  .OHMM  : 16 INCH SHORT NORMAL RESISTIVITY FROM IEL LOG
SPRED .MV    : SPONTANEOUS POTENTIAL FROM IEL LOG
SPWS  .MV    : SPONTANEOUS POTENTIAL [BASELINE 0 MV, SPRED]
SRESWS.OHMM  : SHALLOW RESISTIVITY [SNED]
~Params ----------------------------------------------------
PD  .                     GL : PERMANENT DATUM
EPD .FT                 2676 : ELEVATION PERMANENT DATUM
LMF .                     KB : LOG MEASURED FROM
DAPD.FT                   16 : FEET ABOVE PERMANENT DATUM
DMF .                     KB : DRILLING MEASURED FROM
EKB .FT                 2692 : KELLY BUSHING
EGL .FT                 2676 : GROUND LEVEL
DATE.               03/15/63 : RUN DATE
RUN .                      1 : RUN NUMBER
DD  .FT                 9920 : DEPTH DRILLER
DL  .FT                 9923 : DEPTH LOGGER
BLI .FT                 9919 : BOTTOM LOG INTERVAL
TLI .FT                  992 : TOP LOG INTERVAL
CS  .IN                 10.3 : CASING SIZE
CBD .FT                  993 : CASING BOTTOM DRILLER
CBL .FT                  992 : CASING BOTTOM LOGGER
BS  .IN                 8.75 : BIT SIZE
BSD .FT                 9920 : BIT SIZE AT DEPTH
DFT .                MUD GEL : DRILLING FLUID TYPE
DFD .                    9.8 : DRILLING FLUID DENSITY
DFV .                    120 : DRILLING FLUID VISCOSITY
DFPH.                    9.5 : DRILLING FLUID PH
DFL .                    6.8 : DRILLING FLUID LOSS
MSS .                   CIRC : MUD SAMPLE SOURCE
RMS .OHMM                2.6 : RESISTIVITY MUD SAMPLE
MST .DEGF                 50 : MUD SAMPLE TEMPERATURE
RMF .OHMM                2.4 : RESISTIVITY MUD FILTRATE SAMPLE
MFST.DEGF                 44 : MUD FILTRATE SAMPLE TEMPERATURE
RMC .OHMM                1.6 : RESISTIVITY MUD CAKE
MCST.DEGF                 58 : MUD CAKE SAMPLE TEMPERATURE
MFSS.                   MEAS : MUD FILTRATE SAMPLE SOURCE
MCSS.                   MEAS : MUD CAKE SAMPLE SOURCE
RMB .OHMM              0.715 : RESISTIVITY MUD AT BHT
TCS .HRS                   5 : TIME CIRCULATED STOPPED
LUN .                   8035 : LOGGING UNIT NUMBER
LUL .                    EDM : LOGGING UNIT LOCATION
ENGI.                  BLAND : RECORDING ENGINEER
WITN.                 CHUNTA : WITNESSED BY
CLNT.                A2DTECH : CLIENT CODE
ORIG.            2" 5" PRINT : ORIGIN OF DATA
UWI .       100102506318W500 : UNIQUE WELL ID
DICO. A2D Technologies, Inc. : DIGITIZING COMPANY
~Other -----------------------------------------------------
IEL-GR-MINILOG
~ASCII -----------------------------------------------------
# ...
 7950.00000    8.30830   72.20860   68.50960   14.59650   53.79120   53.79120    -999.25   23.75120   23.75120   14.59650    8.30830   74.88120 -160.49440 -138.69080   74.88120
 8000.00000    9.02000   48.70990   46.28130   21.60700   49.98490   49.98490    -999.25   45.27960   45.27960   21.60700    9.02000   39.45830 -120.93580  -98.80340   39.45830
 8050.00000    8.97580   43.64300   31.24080   32.00940   48.42830   48.42830    -999.25   27.85910   27.85910   32.00940    8.97580   81.75100 -114.49750  -92.03640   81.75100
 8100.00000    8.58280   40.66250   38.09290   26.25160   49.91360   49.91360    -999.25   29.64180   29.64180   26.25160    8.58280   94.94290 -169.35410 -146.56210   94.94290
 8150.00000   11.48020   20.86560   14.05460   71.15090   47.55160   47.55160    -999.25   44.07310   44.07310   71.15090   11.48020   44.74200 -120.36130  -97.24060   44.74200
 8200.00000   10.42990   31.42920   28.56860   35.00350   49.26550   49.26550    -999.25   44.24880   44.24880   35.00350   10.42990   32.82970  -89.60110  -66.14950   32.82970
 8250.00000   11.00690   12.23490    8.44710  118.38370   49.50070   49.50070    -999.25   24.40620   24.40620  118.38370   11.00690  156.92610  -50.94540  -27.16510  156.92610
 8300.00000    9.17550   27.85030   25.64210   38.99840   54.80090   54.80090    -999.25   61.63580   61.63580   38.99840    9.17550   39.05500  -46.74510  -22.63600   39.05500
 8350.00000    9.27740   38.28440   35.58350   28.10290   56.34240   56.34240    -999.25   62.81360   62.81360   28.10290    9.27740   29.72640  -35.86850  -11.42850   29.72640
 8400.00000   16.00000  145.81240  122.86070    8.13930   78.31460   78.31460    -999.25  114.67740  114.67740    8.13930   16.00000    7.69120  -41.41780  -16.64910    7.69120
 8450.00000   16.00000  137.52310  119.18670    8.39020   74.50190   74.50190    -999.25  105.42410  105.42410    8.39020   16.00000    7.95430  -44.64630  -19.54670    7.95430
 8500.00000   16.00000  115.52140   99.77150   10.02290   67.86450   67.86450    -999.25   95.27360   95.27360   10.02290   16.00000    9.80350  -37.32200  -11.89370    9.80350
 8550.00000   13.56240  107.86730   94.27740   10.60700   70.50400   70.50400    -999.25   96.48820   96.48820   10.60700   13.56240   10.40470  -32.78000   -7.02290   10.40470
 8600.00000    9.08240   88.84220   79.48050   12.58170   67.08370   67.08370    -999.25  107.12260  107.12260   12.58170    9.08240   15.40830  -29.79590   -3.73760   15.40830
 8650.00000   11.25580  109.41090  102.54100    9.75220   70.42260   70.42260    -999.25  101.33340  101.33340    9.75220   11.25580   10.31630  -38.32310  -12.31160   10.31630
 8700.00000   12.66670  139.13830  126.19090    7.92450   75.22600   75.22600    -999.25  104.59560  104.59560    7.92450   12.66670    8.51750  -47.52870  -21.56420    8.51750
 8750.00000   14.52090  162.48610  143.19880    6.98330   80.32400   80.32400    -999.25  128.18270  128.18270    6.98330   14.52090    7.62160  -44.94430  -19.02660    7.62160
 8800.00000   11.16460   94.69250   86.15940   11.60640   61.94840   61.94840    -999.25  119.29300  119.29300   11.60640   11.16460   12.90360  -37.81400  -11.94310   12.90360
 8850.00000   16.00000  179.80930  146.19030    6.84040   81.68340   81.68340    -999.25  119.14120  119.14120    6.84040   16.00000    6.49570  -52.82020  -26.99640    6.49570
 8900.00000    9.82260   85.38280   76.10180   13.14030   60.85170   60.85170    -999.25  100.10950  100.10950   13.14030    9.82260   14.16920  -40.65800  -14.88090   14.16920
 8950.00000    9.22050   76.41180   66.87130   14.95410   63.46370   63.46370    -999.25  124.26100  124.26100   14.95410    9.22050   16.85440  -33.63520   -7.90520   16.85440
 9000.00000    9.13600   91.96740   80.20730   12.46770   65.86330   65.86330    -999.25  118.26280  118.26280   12.46770    9.13600   13.95710  -34.52920   -8.84600   13.95710
 9050.00000    9.16220   78.77570   69.69610   14.34800   63.70370   63.70370    -999.25  114.63530  114.63530   14.34800    9.16220   15.73330  -31.01830   -5.38190   15.73330
 9100.00000   11.46690  111.26710   95.90490   10.42700   72.95310   72.95310    -999.25  143.84630  143.84630   10.42700   11.46690   11.76090  -40.00170  -14.41230   11.76090
 9150.00000   11.08790  114.97390   99.89110   10.01090   73.09390   73.09390    -999.25  111.91980  111.91980   10.01090   11.08790   11.40330  -32.11550   -6.57290   11.40330
 9200.00000    9.94460   84.18440   75.59040   13.22920   76.80530   76.80530    -999.25  122.78820  122.78820   13.22920    9.94460   14.37740  -34.64060   -9.43290   14.37740
 9250.00000    9.76920   73.59110   63.95820   15.63520   70.03090   70.03090    -999.25  122.34640  122.34640   15.63520    9.76920   15.21160  -33.52000   -8.96670   15.21160
 9300.00000    8.78440    2.67020    2.00000  500.00000   63.33700   63.33700    -999.25  113.37100  113.37100  500.00000    8.78440  125.78880  -30.36470   -6.46580  125.78880
 9350.00000    8.79060    8.84430    4.21620  237.17910   69.45440   69.45440    -999.25  119.08900  119.08900  237.17910    8.79060  130.02670  -29.82860   -6.58840  130.02670
 9400.00000    8.98300   15.02540    9.03900  110.63220   53.37240   53.37240    -999.25   58.84630   58.84630  110.63220    8.98300   91.19520  -34.02320  -11.43740   91.19520
 9450.00000    9.75390   28.08070   21.46840   46.58000   73.88400   73.88400    -999.25  152.06070  152.06070   46.58000    9.75390   40.95080  -30.32790   -8.40080   40.95080
 9500.00000    8.87360   20.42360   11.63180   85.97130   54.40360   54.40360    -999.25   46.94520   46.94520   85.97130    8.87360   71.69620  -26.99610   -5.72340   71.69620
 9550.00000    9.02620   16.87790    9.34490  107.01080   53.64570   53.64570    -999.25   54.41550   54.41550  107.01080    9.02620   82.98350  -32.50230  -11.88390   82.98350
 9600.00000    9.06090    9.06620    3.87220  258.25100   49.06020   49.06020    -999.25   31.52060   31.52060  258.25100    9.06090  121.37740  -37.12180  -14.20950  121.37740
 9650.00000    9.09760   13.79420    5.35650  186.68830   49.76840   49.76840    -999.25   39.33860   39.33860  186.68830    9.09760  117.59960  -44.02880  -18.83750  117.59960
 9700.00000    9.35780   17.62550    9.87150  101.30130   52.28250   52.28250    -999.25   20.13390   20.13390  101.30130    9.35780   81.68800 -161.44000 -133.95480   81.68800
 9750.00000    8.93580   14.65530    5.63700  177.39990   53.49870   53.49870    -999.25   18.12430   18.12430  177.39990    8.93580  143.48320 -150.79740 -121.03320  143.48320
 9800.00000    9.02720   12.14200    3.28250  304.64680   50.22720   50.22720    -999.25   30.63850   30.63850  304.64680    9.02720  186.86110 -134.55960 -102.51640  186.86110
 9850.00000    8.66640   22.89010   13.14310   76.08580   60.30250   60.30250    -999.25   92.98040   92.98040   76.08580    8.66640   87.34300  -37.84470   -3.50750   87.34300
 9900.00000    8.69400   58.88500   48.82980   20.47930   65.18640   65.18640    -999.25  110.28800  110.28800   20.47930    8.69400   37.21770  -62.75290  -27.98090   37.21770
