~Version ---------------------------------------------------
VERS. 2.0 : CWLS log ASCII Standard -VERSION 2.0
WRAP.  NO : ONE LINE PER DEPTH STEP
~Well ------------------------------------------------------
STRT.M                       300.0 : START DEPTH
STOP.M                      3700.0 : STOP DEPTH
STEP.M                    50.00000 : STEP LENGTH
NULL.                      -999.25 : NULL VALUE
COMP. DEKALB PETROLEUM CORPORATION : COMPANY
WELL.    DEKALB OCHIESE 7-25-44-10 : WELL
FLD .                              : FIELD
LOC .                              : LOCATION
CTRY.                       CANADA : COUNTRY
SRVC.                 Schlumberger : SERVICE COMPANY
DATE.                  20-Feb-1981 : LOGDATE
PROV.                      Alberta : PROVINCE
UWI .             100072504410W500 : UNIQUE WELL ID
SLAT.WGS84                   52.82 : SURFACE LATITUDE
SLON.WGS84               -115.3154 : SURFACE LONGITUDE
~Curve Information -----------------------------------------
DEPT    .M      : DEPTH METERS
CALDED  .MM     : CALIPER FROM DENSITY LOG
CALSED  .MM     : CALIPER FROM SONIC LOG
CALWS   .MM     : CALIPER [MERGED CALSED/CALXSED AT 3074]
CALXED  .MM     : CALIPER X FROM DENSITY LOG
CALXSED .IN     : CALIPER X FROM SONIC LOG
CALYED  .MM     : CALIPER Y FROM DENSITY LOG
CDLLSED .V/V    : COMPENSATED DENSITY POROSITY [M=2710 F=1000] FROM SENSITY LOG
CNSLSED .V/V    : COMPENSATED NEUTRON POROSITY LIMESTONE FROM DENSITY LOG
CONDWS  .MMHO   : CONDUCTIVITY [1000/DRESWS]
DCORED  .KG/M3  : DENSITY CORRECTION FROM DENSITY LOG
DCORWS  .KG/M2  : DENSITY CORRECTION [DCORED]
DENWS   .KG/M3  : BULK DENSITY [M=2650/2710 AT 2595 F=1000] [CALCULATED FROM DPHISSED/DPHILSED/CDLLSED AT 2595/3076]
DPHILSED.V/V    : DENSITY POROSITY [M=2710 F=1000] FROM DENSITY LOG
DPHISSED.V/V    : DENSITY POROSITY [M=2650 F=1000] FROM DENSITY LOG
DPOLSWS .V/V    : DENSITY POROSITY [M=2710 F=1000] [CALCULATED FROM DENWS]
DRESWS  .OHMM   : DEEP RESISTIVITY [ILDED]
DTED    .US/M   : DELTA TIME FROM SONIC LOG
DTWS    .US/M   : DELTA TIME [DTED]
GRDED   .GAPI   : GAMMA RAY FROM DENSITY LOG
GRSED   .GAPI   : GAMMA RAY FROM SONIC LOG
GRWS    .GAPI   : GAMMA RAY [GRSED] CSG @ 317m
ILDED   .OHMM   : INDUCTION LOG DEEP RESISTIVITY
ILMED   .OHMM   : INDUCTION LOG MEDIUM RESISTIVITY
MRESWS  .OHMM   : MEDIUM RESISTIVITY [ILMED]
NPHILSED.V/V    : NEUTRON POROSITY LIMESTONE FROM DENSITY LOG
NPHISSED.V/V    : NEUTRON POROSITY SANDSTONE FROM DENSITY LOG
NPOLSWS .V/V    : NEUTRON POROSITY LIMESTONE [NPHISSED CONVERTED TOM LIME FROM POWER LOG FRPM START TO 2595,THEN NPHILSED/CNSLSED FROM 3068 TO END]
RHOBED  .KG/M3  : BULK DENSITY FROM DENSITY LOG
RLLED   .OHMM   : LATEROLOG RESISTIVITY
SFLED   .OHMM   : SPHERICALLY FOCUSED LOG RESISTIVITY
SPHIED  .V/V    : SONIC POROSITY FROM SONIC LOG
SPOWS   .V/V    : SONIC POROSITY [SPHIED]
SPRED   .MV     : SPONTANEOUS POTENTIAL FROM RESISTIVITY LOG SHIFTED
SPWS    .MV     : SPONTANEOUS POTENTIAL [BASELINE 0 MV] [SPRED] REVERSED IN SOME AREAS
SRESWS  .OHMM   : SHALLOW RESISTIVITY [MERGED SFLED/RLLED 3076]
~Params ----------------------------------------------------
PD  .                         GL : PERMANENT DATUM
EPD .M                    981.74 : ELEVATION PERMANENT DATUM
LMF .                         KB : LOG MEASURED FROM
DAPD.M                       8.8 : FEET ABOVE PERMANENT DATUM
EKB .M                    989.82 : KELLY BUSHING
EGL .M                    981.74 : GROUND LEVEL
DATE.                   02/20/81 : RUN DATE
RUN .                          1 : RUN NUMBER
DD  .M                    3718.2 : DEPTH DRILLER
DL  .M                      3716 : DEPTH LOGGER
BLI .M                    3715.3 : BOTTOM LOG INTERVAL
TLI .M                      3074 : TOP LOG INTERVAL
CS  .MM                      244 : CASING SIZE
CBD .M                      3074 : CASING BOTTOM DRILLER
CBL .M                      3074 : CASING BOTTOM LOGGER
BS  .MM                      216 : BIT SIZE
BSD .M                    3718.2 : BIT SIZE AT DEPTH
DFT .                   GEL CHEM : DRILLING FLUID TYPE
DFD .                       1150 : DRILLING FLUID DENSITY
DFV .                         60 : DRILLING FLUID VISCOSITY
DFPH.                         11 : DRILLING FLUID PH
DFL .                        6.8 : DRILLING FLUID LOSS
RMS .OHMM                    1.5 : RESISTIVITY MUD SAMPLE
MST .DEGC                   15.6 : MUD SAMPLE TEMPERATURE
RMF .OHMM                    2.0 : RESISTIVITY MUD FILTRATE SAMPLE
MFST.DEGC                   16.7 : MUD FILTRATE SAMPLE TEMPERATURE
RMC .OHMM                    1.1 : RESISTIVITY MUD CAKE
MCST.DEGC                   16.1 : MUD CAKE SAMPLE TEMPERATURE
TCS .HRS                       6 : TIME CIRCULATED STOPPED
LUN .                        314 : LOGGING UNIT NUMBER
LUL .                   EDMONTON : LOGGING UNIT LOCATION
ENGI.          JESIOLOWSKI BRULE : RECORDING ENGINEER
WITN.              JAYNE DITTMER : WITNESSED BY
CLNT.                    A2DTECH : CLIENT CODE
ORIG. 6.5"/100M 16.5"/100M PRINT : ORIGIN OF DATA
UWI .           100072504410W500 : UNIQUE WELL ID
DICO.     A2D Technologies, Inc. : DIGITIZING COMPANY
~Other -----------------------------------------------------
~ASCII -----------------------------------------------------
# ...
 2400.00000  319.47670  315.23060  315.23060    -999.25    -999.25    -999.25    -999.25    -999.25   32.76330   14.43400   14.43400 2558.59010    -999.25    0.05540    0.08850   30.52200  227.65280  227.65280   59.16620   54.66300   54.66300   30.52200   13.91000   13.91000    -999.25    0.08490    0.04490 2559.78810    -999.25   25.67420    -999.25    -999.25  -21.06090  -10.26440   25.67420
 2450.00000  320.00460  315.99200  315.99200    -999.25    -999.25    -999.25    -999.25    -999.25   39.59930   11.02720   11.02720 2633.83010    -999.25    0.00980    0.04450   25.25300  217.11080  217.11080   66.45570   61.28730   61.28730   25.25300   10.91240   10.91240    -999.25    0.14740    0.10490 2634.15650    -999.25   19.78640    -999.25    -999.25  -56.20890  -44.49070   19.78640
 2500.00000  314.62560  318.29990  318.29990    -999.25    -999.25    -999.25    -999.25    -999.25    8.11230   23.04890   23.04890 2545.55490    -999.25    0.06330    0.09620  123.26900  234.88130  234.88130   60.93280   55.96930   55.96930  123.26900   29.38820   29.38820    -999.25    0.15300    0.11040 2540.12770    -999.25   55.17490    -999.25    -999.25  -23.46100  -10.82110   55.17490
 2550.00000  308.02730  309.49560  309.49560    -999.25    -999.25    -999.25    -999.25    -999.25   16.96280    9.30540    9.30540 2556.28000    -999.25    0.05680    0.08990   58.95270  232.01140  232.01140   65.76580   62.37650   62.37650   58.95270   14.81280   14.81280    -999.25    0.10590    0.06420 2555.48390    -999.25   28.59580    -999.25    -999.25  -27.20610  -13.64450   28.59580
 2600.00000  303.47210  312.32760  312.32760    -999.25    -999.25    -999.25    -999.25    -999.25   21.56670   19.03810   19.03810 2566.01810    0.08420    -999.25    0.08420   46.36770  205.07110  205.07110   47.97210   44.66320   44.66320   46.36770   17.59680   17.59680    0.05710    -999.25    0.05710 2569.60330    -999.25   33.11530    -999.25    -999.25  -24.89290   -8.90640   33.11530
 2650.00000  374.74090  324.98570  324.98570    -999.25    -999.25    -999.25    -999.25    -999.25    0.50000  126.94180  126.94180 2588.24800    0.07120    -999.25    0.07120 2000.00000  168.30060  168.30060   27.17180   27.03140   27.03140 2000.00000   15.90610   15.90610   -0.00090    -999.25   -0.00090 2591.82740    -999.25   76.77920    -999.25    -999.25  -90.28040  -67.35960   76.77920
 2700.00000  527.92660  368.22630  368.22630    -999.25    -999.25    -999.25    -999.25    -999.25   29.55740  -49.57400  -49.57400 1424.08010    0.75200    -999.25    0.75200   33.83250  214.93960  214.93960   50.47290   42.12770   42.12770   33.83250    3.39170    3.39170    0.39930    -999.25    0.39930    -999.25    -999.25    7.16910    -999.25    -999.25  -38.31960   -8.46450    7.16910
 2750.00000  314.02610  314.32080  314.32080    -999.25    -999.25    -999.25    -999.25    -999.25    0.50000    0.80750    0.80750 2691.87400    0.01060    -999.25    0.01060 2000.00000  180.88940  180.88940   40.77280   45.37410   45.37410 2000.00000   39.48250   39.48250    0.00390    -999.25    0.00390 2689.86470    -999.25  476.76480    -999.25    -999.25 -118.18280  -81.39340  476.76480
 2800.00000  438.61910  325.48300  325.48300    -999.25    -999.25    -999.25    -999.25    -999.25    0.50000   65.36820   65.36820 2173.23100    0.31390    -999.25    0.31390 2000.00000  166.47150  166.47150   32.05960   36.66930   36.66930 2000.00000   16.13930   16.13930    0.03660    -999.25    0.03660 2177.23070    -999.25  434.49230    -999.25    -999.25 -155.44630 -111.72260  434.49230
 2850.00000  323.25410  315.26920  315.26920    -999.25    -999.25    -999.25    -999.25    -999.25    0.50000   81.61250   81.61250 2290.36600    0.24540    -999.25    0.24540 2000.00000  196.98720  196.98720   87.77230   99.95040   99.95040 2000.00000    7.84870    7.84870    0.02340    -999.25    0.02340 2250.38840    -999.25   87.90380    -999.25    -999.25 -146.99380  -96.33580   87.90380
 2900.00000  367.80380  319.73220  319.73220    -999.25    -999.25    -999.25    -999.25    -999.25    0.50000  249.16920  249.16920 2659.21290    0.02970    -999.25    0.02970 2000.00000  161.81810  161.81810   29.97970   29.97340   29.97340 2000.00000   10.50180   10.50180    0.00360    -999.25    0.00360 2647.35840    -999.25  119.79900    -999.25    -999.25 -190.17110 -132.57870  119.79900
 2950.00000  369.75120  306.50230  306.50230    -999.25    -999.25    -999.25    -999.25    0.10930    0.49700  121.85070  121.85070 2181.26810    0.30920    -999.25    0.30920 2011.98560  159.02980  159.02980   29.96550   28.70810   28.70810 2011.98560 1915.60290 1915.60290    0.11880    -999.25    0.11880 2152.23100    -999.25   71.06540    -999.25    -999.25 -118.70710  -54.18040   71.06540
 3000.00000  403.23260  320.01720  320.01720    -999.25    -999.25    -999.25    -999.25    0.13490    0.50000  107.29010  107.29010 2219.23000    0.28700    -999.25    0.28700 2000.00000  159.23970  159.23970   31.40940   34.30220   34.30220 2000.00000 1867.70560 1867.70560    0.08010    -999.25    0.08010 2221.91920    -999.25  281.17660    -999.25    -999.25 -212.15730 -147.51310  281.17660
 3050.00000  478.16610  321.65160  321.65160    -999.25    -999.25    -999.25    -999.25    0.31050    0.50200   96.93870   96.93870 2012.49100    0.40790    -999.25    0.40790 1991.99400  180.05040  180.05040   38.52030   41.33390   41.33390 1991.99400    4.52000    4.52000    0.19310    -999.25    0.19310 2062.93210    -999.25   31.21640    -999.25    -999.25 -206.62880 -143.32310   31.21640
 3100.00000    -999.25    -999.25  289.31270  211.93160  289.31270  280.18400   -0.02120    0.03340    6.79500   33.67570   33.67570 2746.25200    -999.25    -999.25   -0.02120  147.16760  173.74500  173.74500   25.25610   24.19770   24.19770  147.16760   76.88460   76.88460    -999.25    -999.25    0.03340 2741.81520  334.44770    -999.25    0.03850    0.03850  -74.92110  -13.53300  334.44770
 3150.00000    -999.25    -999.25  231.33260  212.24060  231.33260  224.05020    0.01550    0.06910   68.31670   32.70260   32.70260 2683.49510    -999.25    -999.25    0.01550   14.63770  170.35130  170.35130    8.28890    9.65120    9.65120   14.63770   27.54880   27.54880    -999.25    -999.25    0.06910 2682.27830  109.58780    -999.25    0.03130    0.03130 -170.15530 -117.72640  109.58780
 3200.00000    -999.25    -999.25  235.96130  214.36700  235.96130  235.54220   -0.02170    0.08820   13.13750   16.09340   16.09340 2747.10690    -999.25    -999.25   -0.02170   76.11780  199.56200  199.56200   85.62480   81.42010   81.42010   76.11780   85.39290   85.39290    -999.25    -999.25    0.08820 2744.42630  164.24610    -999.25    0.09460    0.09460  -54.55350  -11.08380  164.24610
 3250.00000    -999.25    -999.25  245.76810  214.96060  245.76810  231.16200   -0.00490    0.14250   19.34290    2.93400    2.93400 2718.37890    -999.25    -999.25   -0.00490   51.69850  210.43000  210.43000   89.72280   93.13510   93.13510   51.69850   54.34530   54.34530    -999.25    -999.25    0.14250 2719.56960   91.96350    -999.25    0.11750    0.11750  -59.31400  -11.52100   91.96350
 3300.00000    -999.25    -999.25  250.55840  212.20720  250.55840  248.40950   -0.01030    0.14010   21.16760   33.68790   33.68790 2727.61300    -999.25    -999.25   -0.01030   47.24210  215.78070  215.78070   94.62890   94.15350   94.15350   47.24210   58.35710   58.35710    -999.25    -999.25    0.14010 2726.24220   81.62260    -999.25    0.12780    0.12780  -72.83840  -17.76670   81.62260
 3350.00000    -999.25    -999.25  213.20920  211.52840  213.20920  212.94100   -0.00740    0.07890   13.95440   66.83610   66.83610 2722.65410    -999.25    -999.25   -0.00740   71.66180  191.58000  191.58000   66.44960   65.19020   65.19020   71.66180   95.92100   95.92100    -999.25    -999.25    0.07890 2711.11180  162.54270    -999.25    0.07640    0.07640  -75.74430  -13.39390  162.54270
 3400.00000    -999.25    -999.25  221.07190  214.18010  221.07190  227.85730    0.00120    0.07210   11.81690   26.64110   26.64110 2707.94800    -999.25    -999.25    0.00120   84.62460  193.44860  193.44860   64.50460   64.40210   64.40210   84.62460  119.37690  119.37690    -999.25    -999.25    0.07210 2715.87010  196.87120    -999.25    0.08150    0.08150  -72.98270   -3.16060  196.87120
