~Version ---------------------------------------------------
VERS.      2.0 : CWLS log ASCII Standard -VERSION 2.0
WRAP.       NO : One line per depth step
CREA. 08/16/13 : LAS Creation Date
~Well ------------------------------------------------------
STRT.M                      350.0 : START DEPTH
STOP.M                     2000.0 : STOP DEPTH
STEP.M                   50.00000 : STEP LENGTH
NULL.                     -999.25 : NULL VALUE
COMP.         MARK RESOURCES INC. : COMPANY
WELL. MARK RED WILLOW 14-11-39-17 : WELL
FLD .                             : FIELD
LOC .                             : LOCATION
CTRY.                      CANADA : COUNTRY
SRVC.                     Unknown : SERVICE COMPANY
DATE.                 06-Nov-1987 : LOGDATE
PROV.                     Alberta : PROVINCE
UWI .            100141103917W400 : UNIQUE WELL ID
SLAT.WGS84                52.3462 : SURFACE LATITUDE
SLON.WGS84              -112.3454 : SURFACE LONGITUDE
~Curve Information -----------------------------------------
DEPT   .M      : DEPTH METER
C2D    .MM     : CALIPER 2 FROM DENSITY LOG
CALD   .MM     : CALIPER FROM DENSITY LOG
CALS   .MM     : CALIPER FROM SONIC LOG
DPHI_LS.DEC    : DENSITY POROSITY LIMESTONE [M=2710,F=1000] FROM DENSITY LOG
DPHI_SS.DEC    : DENSITY POROSITY SANDSTONE [M=2650,F=1000] FROM DENSITY LOG
DRHO   .KG/M3  : DENSITY CORRECTION FROM DENSITY LOG
DT     .US/M   : DELTA TIME FROM SONIC LOG
GRD    .GAPI   : GAMMA RAY FROM DENSITY LOG
GRS    .GAPI   : GAMMA RAY FROM SONIC LOG
ILD    .OHMM   : DEEP INDUCTION RESISTIVITY FROM RESISTIVITY LOG
ILM    .OHMM   : MEDIUM INDUCTION RESISTIVITY FROM RESISTIVITY LOG
NPHI_LS.DEC    : NEUTRON POROSITY LIMESTONE FROM DENSITY LOG
NPHI_SS.DEC    : NEUTRON POROSITY SANDSTONE FROM DENSITY LOG
PEF    .B/E    : PHOTOELECTRIC FACTOR FROM DENSITY LOG
RHOB   .KG/M3  : BULK DENSITY FROM DENSITY LOG
SFLU   .OHMM   : SHALLOW FOCUS LOG FROM RESISTIVITY LOG
SPR    .MV     : SPONTANEOUS POTENTIAL FROM RESISTIVITY LOG
TEND   .N      : TENSION FROM DENSITY LOG
TENR   .N      : TENSION FROM RESISTIVITY LOG
TENS   .N      : TENSION FROM SONIC LOG
~Params ----------------------------------------------------
PD  .                         GL : PERMANENT DATUM
EPD .M                     792.2 : ELEVATION PERMANENT DATUM
LMF .                         KB : LOG MEASURED FROM
DAPD.M                       4.1 : FEET ABOVE PERMANENT DATUM
DMF .                         KB : DRILLING MEASURED FROM
EKB .M                     796.3 : KELLY BUSHING
EGL .M                     792.2 : GROUND LEVEL
DATE.                   11/06/87 : RUN DATE
RUN .                          2 : RUN NUMBER
DD  .M                      2025 : DEPTH DRILLER
DL  .M                    2023.1 : DEPTH LOGGER
BLI .M                      2021 : BOTTOM LOG INTERVAL
TLI .M                      1275 : TOP LOG INTERVAL
CS  .MM                      244 : CASING SIZE
CBD .M                       364 : CASING BOTTOM DRILLER
CBL .M                       364 : CASING BOTTOM LOGGER
BS  .MM                      222 : BIT SIZE
BSD .M                      2025 : BIT SIZE AT DEPTH
DFT .                   GEL CHEM : DRILLING FLUID TYPE
DFD .                       1075 : DRILLING FLUID DENSITY
DFV .                         50 : DRILLING FLUID VISCOSITY
DFPH.                       11.5 : DRILLING FLUID PH
DFL .                       19.6 : DRILLING FLUID LOSS
MSS .                   FLOWLINE : MUD SAMPLE SOURCE
RMS .OHMM                    0.2 : RESISTIVITY MUD SAMPLE
MST .DEGC                     32 : MUD SAMPLE TEMPERATURE
RMF .OHMM                   0.14 : RESISTIVITY MUD FILTRATE SAMPLE
MFST.DEGC                     27 : MUD FILTRATE SAMPLE TEMPERATURE
RMC .OHMM                  0.082 : RESISTIVITY MUD CAKE
MCST.DEGC                     61 : MUD CAKE SAMPLE TEMPERATURE
MFSS.                      PRESS : MUD FILTRATE SAMPLE SOURCE
RMB .OHMM                   0.13 : RESISTIVITY MUD AT BHT
TCS .HRS                     700 : TIME CIRCULATED STOPPED
TLAB.HRS                    1630 : TIME LOGGER AT BOTTOM
LUN .                       8063 : LOGGING UNIT NUMBER
LUL .                         RD : LOGGING UNIT LOCATION
ENGI.                     BRKICH : RECORDING ENGINEER
WITN.                     CHIZEN : WITNESSED BY
CLNT.                    A2DTECH : CLIENT CODE
ORIG. 6.5"/100M 16.5"/100M PRINT : ORIGIN OF DATA
UWI .           100141103917W400 : UNIQUE WELL ID
DICO.     A2D Technologies, Inc. : DIGITIZING COMPANY
~Other -----------------------------------------------------
~ASCII -----------------------------------------------------
  350.00000    -999.25    -999.25    -999.25    -999.25    -999.25    -999.25    -999.25   35.07790    -999.25    -999.25    -999.25    -999.25    0.54290    -999.25    -999.25    -999.25    -999.25    -999.25    -999.25    -999.25
  400.00000  239.74060  227.19310  243.96480    -999.25    0.23660   39.41720  381.23800   65.29570   66.47930    5.18140    4.99170    -999.25    0.45010    -999.25 2177.93260    5.62660  -46.17480 6959.45410 6425.63330 6333.73680
  450.00000  219.85120  223.76530  227.00940    -999.25    0.18210   14.91830  338.68850   54.87190   53.88300    5.46900    5.70100    -999.25    0.40760    -999.25 2349.90530    5.88810  -44.41500 7112.77150 6770.27780 6634.62890
  500.00000  212.68880  221.99930  226.22180    -999.25    0.16590    7.37260  317.42720   47.77250   46.43510    6.69030    6.48410    -999.25    0.35530    -999.25 2361.10380    5.66730  -41.48680 7009.73440 6822.22750 6580.42630
  550.00000  221.23320  223.03380  229.14480    -999.25    0.14240   76.60590  343.50140   65.08390   64.11450    4.82910    4.63440    -999.25    0.46100    -999.25 2424.39090    4.08210  -37.74190 7556.14210 7080.92480 6980.43700
  600.00000  236.51400  228.99450  243.46430    -999.25    0.15760   74.63190  339.49710  103.83720   99.38130    5.16250    4.96040    -999.25    0.40910    -999.25 2387.34060    5.41680  -31.57390 7360.90770 7202.05270 7118.68700
  650.00000  253.93300  220.98150  240.34880    -999.25    0.21750  146.36640  317.13080   92.20290   99.91720    8.19440    8.03730    -999.25    0.37780    -999.25 2285.62520    8.48060  -32.83950 7577.18310 7403.23970 7303.38570
  700.00000  249.80110  224.47040  245.12410    -999.25    0.18440  143.67980  341.18460  113.14380  109.31240    7.21930    7.08700    -999.25    0.44490    -999.25 2343.70460    7.95670  -30.34950 7686.58450 7594.60060 7482.14210
  750.00000  243.47450  225.26140  238.67480    -999.25    0.11220   93.86160  345.11870  117.61350  134.30650    7.21490    7.12680    -999.25    0.47250    -999.25 2470.42360    8.43080  -26.47020 8005.15530 7818.22410 7733.85060
  800.00000  229.67740  215.02500  231.15600    -999.25    0.08680  111.13050  289.70800  101.84850  101.68930   10.08460   10.26110    -999.25    0.35560    -999.25 2513.25830   12.90780  -21.82870 8498.66700 8031.59280 7982.79350
  850.00000  232.27860  228.55990  233.43780    -999.25    0.14130   78.90800  307.08050  100.64460   98.28480    8.04470    7.88060    -999.25    0.36070    -999.25 2423.00490    8.39310  -17.70910 8568.60550 8162.66500 8182.86910
  900.00000  242.28000  232.26640  239.32260    -999.25    0.16350  155.60160  338.20980  109.67110  114.53400    5.82350    5.99040    -999.25    0.41970    -999.25 2376.83180    6.94970  -10.55450 8719.95120 8618.14750 8533.09570
  950.00000  239.32700  228.17130  231.93270    -999.25    0.11520  146.39650  334.37270  122.49850  133.43030    6.04250    5.58800    -999.25    0.48020    -999.25 2462.82520    7.52900   -6.76780 9211.61620 8914.32420 8781.65720
 1000.00000  224.32600  219.52390  225.52070    -999.25    0.14470   18.17900  342.01770  151.25960  161.09530    3.62250    3.69740    -999.25    0.41150    -999.25 2408.65820    4.53120  -26.20280 8928.94240 9040.07710 8912.14650
 1050.00000  232.04360  243.63150  247.90250    -999.25    0.08510  120.01380  334.18010  109.47890  113.29760    2.94480    3.06620    -999.25    0.40580    -999.25 2498.22850    3.39700  -18.07160 9656.43070 9272.19340 9195.66310
 1100.00000  258.04240  272.35030  264.62530    -999.25    0.26610  142.43730  354.47210   86.77170   92.90320    1.94160    2.03830    -999.25    0.49040    -999.25 2204.33570    2.32850  -10.18960 9852.56050 9580.28710 9341.11430
 1150.00000  229.31910  234.22000  239.12720    -999.25    0.06240   16.79190  259.57270   74.56270   82.40600    7.02820    7.34640    -999.25    0.31180    -999.25 2545.80760    8.88840  -15.63940 9945.91020 10233.59770 10048.03130
 1200.00000  245.22700  261.08810  253.92440    -999.25    0.27920  164.34960  321.62500   98.28720  103.05380    3.26180    3.44390    -999.25    0.47090    -999.25 2232.37430    3.60550    1.47400 10837.65430 10135.33590 10162.93950
 1250.00000  221.27560  217.26100  223.10490    -999.25    0.12650    5.34670  249.16680   34.00920   31.61560    1.33300    1.61290    -999.25    0.21660    2.37480 2440.56300    5.53050  -70.56020 10154.54200 10480.87010 10254.98440
 1300.00000  287.97880  246.74390  265.19590   -0.08410    -999.25   17.50640  174.98000   22.02300   20.12600   71.64990   69.51770    0.00900    -999.25    4.49390 2854.87770   54.89540  -79.87610 10497.38090 9123.88380 9492.86430
 1350.00000  265.64700  249.40080  260.48770   -0.10380    -999.25   11.37460  178.74370   22.92810   27.41550  165.78950  673.10750    0.03120    -999.25    4.65410 2889.30690  130.79340  -98.29340 10489.53320 9546.00200 9685.17770
 1400.00000  257.97880  232.76140  243.38890   -0.08310    -999.25    1.71970  159.11170   17.13200   16.65500  181.84720 1697.11510    0.05920    -999.25    3.23370 2854.23050  124.93060  -86.32270 10876.82230 9952.36230 9942.14260
 1450.00000  261.68420  246.92590  254.87670   -0.00790    -999.25    5.67890  221.66610   79.13220   78.16960   11.24090   12.61130    0.20940    -999.25    3.02960 2723.74710   11.31690  -61.41110 11175.86230 10194.82810 10255.40630
 1500.00000  286.50150  262.05960  275.43350    0.00310    -999.25   -4.12990  227.08750  100.07520   91.68230    8.69970    8.28230    0.18830    -999.25    3.48900 2703.80080    9.57910  -58.73780 11450.88280 10516.36040 10484.95800
 1550.00000  252.40320  233.35980  246.09950    0.02250    -999.25   -1.90490  186.94870   38.67650   34.85000 1998.87230    -999.25    0.07460    -999.25    5.17470 2664.03420 1115.35620  -85.76220 11507.38570 10651.32520 10693.82520
 1600.00000  252.55980  235.66410  248.57780   -0.00310    -999.25    0.07030  175.04210   21.34900   23.19220 1574.03220    -999.25    0.02320    -999.25    4.92690 2714.60690  787.80600  -71.58660 11951.00290 10876.37400 10868.48340
 1650.00000  276.38020  241.06410  260.83380    0.01460    -999.25   -5.30260  166.57340    8.60580    9.59230  352.04430    -999.25    0.02140    -999.25    4.96660 2685.59840   88.65550 -102.18440 11964.97360 11146.11620 11168.76370
 1700.00000  262.51610  240.73380  251.17830    0.02830    -999.25   -0.64870  179.99150   14.01680   10.25270    5.57860    5.72470    0.10120    -999.25    4.13930 2659.31270    6.08010 -101.08180 12001.55370 11335.77150 11278.55180
 1750.00000  275.20070  260.55350  280.28020    0.02850    -999.25   -3.97100  179.16210   12.27360   10.50830   23.14330   27.14720    0.11140    -999.25    4.41080 2652.22780   25.63300  -53.87760 12434.47660 11594.90920 11572.47950
 1800.00000  242.30710  228.57680  236.46570    0.01010    -999.25   -9.98360  172.16990   12.49550   10.97710   37.45090   42.11190    0.04290    -999.25    4.39710 2689.64480   31.41440  -52.01730 12721.40430 11899.00680 11917.55270
 1850.00000  240.72340  227.76400  239.43550   -0.01050    -999.25    0.81590  162.15790   14.61350   12.09200 1984.17630 1978.05850    0.01430    -999.25    5.17110 2729.27370  233.93520  -54.78690 12988.36330 12134.55080 12082.27250
 1900.00000  230.70300  221.90860  232.84180   -0.01580    -999.25  -24.13200  163.48630   19.04530   17.80570 1127.91990    -999.25    0.01470    -999.25    5.14550 2731.39940  548.61550  -49.91150 13142.91990 12302.21390 12254.37210
 1950.00000  433.46240  435.05530  406.98390    0.38890    -999.25  -15.14720  223.71580   11.41620   12.00620    -999.25    3.43580    0.00990    -999.25    4.24430 2047.17820 1726.12120 -109.81390 13051.61230 12395.64940 12420.20510
 2000.00000  219.54500  212.48890  206.22330    0.08720    -999.25  -22.07770  233.95120   86.56440   92.23950    0.86300    1.09480    0.23150    -999.25    2.94420 2571.29050    1.90630  -50.73720 13768.39750 12860.08300 12825.59280
