~Version ---------------------------------------------------
VERS.      2.0 : CWLS log ASCII Standard -VERSION 2.0
WRAP.       NO : One line per depth step
CREA. 09/29/17 : LAS Creation Date
~Well ------------------------------------------------------
STRT.FT                        1400.0 : START DEPTH
STOP.FT                       12550.0 : STOP DEPTH
STEP.FT                      50.00000 : STEP LENGTH
NULL.                         -999.25 : NULL VALUE
COMP.    PAN AMERICAN PETROLEUM CORP. : COMPANY
WELL. SCURRY C-1 GOLD CREEK 6-17-68-4 : WELL
FLD .                                 : FIELD
LOC .                                 : LOCATION
CTRY.                          CANADA : COUNTRY
SRVC.                      Lane Wells : SERVICE COMPANY
DATE.                     15-Apr-1965 : LOGDATE
PROV.                         Alberta : PROVINCE
UWI .                100061706804W600 : UNIQUE WELL ID
SLAT.WGS84                   54.88524 : SURFACE LATITUDE
SLON.WGS84                   -118.574 : SURFACE LONGITUDE
~Curve Information -----------------------------------------
DEPT  .FT    : Depth Curve
AC1ED .US/F  : DELTA TIME (1' SPAN ACOUSTIC) FROM SONIC LOG
ACED  .US/F  : DELTA TIME (3' SPAN ACOUSTIC) FROM SONIC LOG
CALWS .IN    : CALIPER [MCALED]
CILDED.MMHO  : CONDUCTIVITY FROM RESISTIVITY LOG
CONDWS.MMHO  : CONDUCTIVITY [1000/DRESWS]
DRESWS.OHMM  : DEEP RESISTIVITY [1000/CILDED IF ILDED <=1 THEN ILDED]
DTWS  .US/F  : COMPRESSIONAL SONIC [ACED]
GRNED .GAPI  : GAMMA RAY FROM NEUTRON LOG [ADJ.TO RESISTIVITY LOG]
GRSED .GAPI  : GAMMA RAY FROM SONIC LOG
GRWS  .GAPI  : GAMMA RAY [GRSED]
ILDED .OHMM  : DEEP INDUCTION FROM RESISTIVITY LOG
MCALED.IN    : MICRO CALIPER FROM MLL LOG [ADJ.TO RESISTIVITY LOG]
NEUTED.NAPI  : NEUTRON FROM NEUTRON LOG [ADJ.TO RESISTIVITY LOG]
NEUTWS.NAPI  : NEUTRON [NEUTED]
SNED  .OHMM  : SHORT NORMAL FROM RESISTIVITY LOG
SPRED .MV    : SPONTANEOUS POTENTIAL FROM RESISTIVITY LOG
SPWS  .MV    : SPONTANEOUS POTENTIAL [BASELINE 0 MV, SPRED]
SRESWS.OHMM  : SHALLOW RESISTIVITY [SNED]
~Params ----------------------------------------------------
PD  .                     GL : PERMANENT DATUM
EPD .FT                 2238 : ELEVATION PERMANENT DATUM
LMF .                     KB : LOG MEASURED FROM
DAPD.FT                 15.1 : FEET ABOVE PERMANENT DATUM
DMF .                     KB : DRILLING MEASURED FROM
EKB .FT                 2253 : KELLY BUSHING
EGL .FT                 2238 : GROUND LEVEL
DATE.               04/15/65 : RUN DATE
RUN .                      2 : RUN NUMBER
DD  .FT                12655 : DEPTH DRILLER
DL  .FT                12596 : DEPTH LOGGER
BLI .FT                12592 : BOTTOM LOG INTERVAL
TLI .FT                11054 : TOP LOG INTERVAL
CS  .IN               13.375 : CASING SIZE
CBD .FT                 1389 : CASING BOTTOM DRILLER
CBL .FT                 1389 : CASING BOTTOM LOGGER
BS  .IN                6.125 : BIT SIZE
BSD .FT                12655 : BIT SIZE AT DEPTH
DFT .                MUD GEL : DRILLING FLUID TYPE
DFD .                    9.8 : DRILLING FLUID DENSITY
DFV .                    120 : DRILLING FLUID VISCOSITY
DFPH.                   10.5 : DRILLING FLUID PH
DFL .                      7 : DRILLING FLUID LOSS
MSS .               MUD TANK : MUD SAMPLE SOURCE
RMS .OHMM                1.4 : RESISTIVITY MUD SAMPLE
MST .DEGF                 40 : MUD SAMPLE TEMPERATURE
RMF .OHMM                0.8 : RESISTIVITY MUD FILTRATE SAMPLE
MFST.DEGF                 55 : MUD FILTRATE SAMPLE TEMPERATURE
RMC .OHMM               1.15 : RESISTIVITY MUD CAKE
MCST.DEGF                 60 : MUD CAKE SAMPLE TEMPERATURE
MFSS.                   MEAS : MUD FILTRATE SAMPLE SOURCE
MCSS.                   MEAS : MUD CAKE SAMPLE SOURCE
RMB .OHMM               0.25 : RESISTIVITY MUD AT BHT
TCS .HRS                   7 : TIME CIRCULATED STOPPED
LUN .                   8054 : LOGGING UNIT NUMBER
LUL .                     WC : LOGGING UNIT LOCATION
ENGI.        MOORE MCFADZEAN : RECORDING ENGINEER
WITN.                  SAMIS : WITNESSED BY
CLNT.                A2DTECH : CLIENT CODE
ORIG.            2" 5" PRINT : ORIGIN OF DATA
UWI .       100061706804W600 : UNIQUE WELL ID
DICO. A2D Technologies, Inc. : DIGITIZING COMPANY
~Other -----------------------------------------------------
IEL-AC-NEUTRON LOG RUN
~ASCII -----------------------------------------------------
# ...
 11100.00000   55.58910   50.70230    7.28680   52.15880   62.22430   16.07090   50.70230    -999.25   17.63480   17.63480   16.07090    7.28680    -999.25    -999.25   46.66640 -149.39730 -147.61970   46.66640
 11150.00000   54.85560   54.77050    7.26600   70.90420   83.60780   11.96060   54.77050    -999.25   15.61980   15.61980   11.96060    7.26600    -999.25    -999.25   27.44150 -121.05410 -118.88590   27.44150
 11200.00000   65.23080   49.62600    7.25860   33.99710   39.08890   25.58270   49.62600    -999.25   16.51390   16.51390   25.58270    7.25860    -999.25    -999.25   97.71480 -183.11020 -180.54750   97.71480
 11250.00000   49.31650   52.01600    7.26220   46.64810   47.17690   21.19680   52.01600    -999.25   23.06540   23.06540   21.19680    7.26220    -999.25    -999.25   83.68840 -160.61030 -157.65500   83.68840
 11300.00000   53.73940   52.96170    7.20080   26.16840   30.28810   33.01800   52.96170    -999.25   22.86470   22.86470   33.01800    7.20080    -999.25    -999.25   92.75940 -167.32670 -163.98070   92.75940
 11350.00000   53.00700   48.53620    7.49570   14.39060   15.86070   63.04900   48.53620    -999.25   26.54560   26.54560   63.04900    7.49570    -999.25    -999.25  205.02710 -176.91490 -173.17440  205.02710
 11400.00000   53.59290   51.25500    8.44490   13.08850   14.52950   68.82540   51.25500    -999.25   29.25250   29.25250   68.82540    8.44490    -999.25    -999.25  231.44040 -125.84680 -121.71550  231.44040
 11450.00000   51.23990   50.84020    8.08660   20.81520   23.80470   42.00850   50.84020    -999.25   33.94380   33.94380   42.00850    8.08660    -999.25    -999.25  142.58960 -102.01180  -97.48610  142.58960
 11500.00000   70.12170   72.54150   11.64110  114.47510  129.09560    7.74620   72.54150    -999.25   95.63890   95.63890    7.74620   11.64110    -999.25    -999.25   19.12390  -64.42200  -59.50380   19.12390
 11550.00000   78.73940   83.71150   16.37430   94.92770  107.51830    9.30580   83.71150    -999.25   78.11740   78.11740    9.30580   16.37430    -999.25    -999.25   11.44630  -54.60620  -49.29730   11.44630
 11600.00000   75.45320   77.04430   16.14180  127.07620  145.01790    6.89570   77.04430    -999.25   76.97610   76.97610    6.89570   16.14180    -999.25    -999.25   10.09760  -30.20340  -24.49990   10.09760
 11650.00000   73.53490   67.97350   15.18840  134.52880  153.59800    6.51050   67.97350    -999.25  104.37910  104.37910    6.51050   15.18840    -999.25    -999.25    6.88020  -35.85160  -29.75740    6.88020
 11700.00000   80.20610   84.83350   16.43040  123.64260  146.07920    6.84560   84.83350    -999.25   84.95210   84.95210    6.84560   16.43040    -999.25    -999.25    7.86030  -51.64940  -45.16060    7.86030
 11750.00000   77.85840   77.19500   16.44340  137.34410  155.00510    6.45140   77.19500    -999.25   80.33450   80.33450    6.45140   16.44340    -999.25    -999.25    9.57680  -45.58770  -38.87630    9.57680
 11800.00000   81.12730   84.06850   15.57770  140.71350  164.05710    6.09580   84.06850    -999.25   84.98480   84.98480    6.09580   15.57770    -999.25    -999.25    6.84630  -45.62790  -38.72950    6.84630
 11850.00000   88.97240   86.06450   16.37820  141.87310  158.46860    6.31040   86.06450    -999.25   78.85580   78.85580    6.31040   16.37820    -999.25    -999.25    8.21140  -45.55560  -38.46810    8.21140
 11900.00000   77.88770   84.07850   16.41670  112.35970  129.17060    7.74170   84.07850    -999.25   84.65130   84.65130    7.74170   16.41670    -999.25    -999.25    7.20670  -47.01880  -39.74420    7.20670
 11950.00000   79.95820   76.10800   14.55590   92.77810  107.66230    9.28830   76.10800    -999.25   91.28100   91.28100    9.28830   14.55590    -999.25    -999.25   13.12870  -59.30280  -51.83930   13.12870
 12000.00000   82.85540   85.91620   15.03450   63.57730   71.11520   14.06170   85.91620    -999.25   93.38420   93.38420   14.06170   15.03450    -999.25    -999.25   14.34220  -61.41760  -53.76610   14.34220
 12050.00000   62.36820   62.83520    7.59570   34.10300   40.78510   24.52690   62.83520    -999.25   76.57360   76.57360   24.52690    7.59570    -999.25    -999.25   36.40890  -46.15410  -38.31550   36.40890
 12100.00000   66.34700   69.34500    7.56400   47.29960   56.28510   17.76670   69.34500    -999.25   77.98990   77.98990   17.76670    7.56400    -999.25    -999.25   27.60380  -50.32830  -42.30070   27.60380
 12150.00000   63.75260   64.04850    7.37410   33.50000   39.08370   25.58610   64.04850    -999.25   73.26670   73.26670   25.58610    7.37410    -999.25    -999.25   38.53140  -34.79860  -26.58390   38.53140
 12200.00000   63.74040   68.96050    7.54850   45.56420   54.63140   18.30450   68.96050    -999.25   83.27270   83.27270   18.30450    7.54850    -999.25    -999.25   29.35770  -31.91220  -23.50850   29.35770
 12250.00000   71.87400   77.27250    9.42110   62.82650   72.94110   13.70970   77.27250    -999.25  117.65670  117.65670   13.70970    9.42110    -999.25    -999.25   22.26300  -33.08880  -24.49720   22.26300
 12300.00000   73.93760   74.23180    8.02550   36.20710   41.71400   23.99810   74.23180    -999.25  176.89020  176.89020   23.99810    8.02550    -999.25    -999.25   38.97410  -44.92000  -36.14130   38.97410
 12350.00000   53.59260   52.00830    7.21400    7.82090    8.20770  121.83700   52.00830    -999.25   21.57110   21.57110  121.83700    7.21400    -999.25    -999.25  140.90320  -88.63950  -79.72080  140.90320
 12400.00000   50.81860   49.54530    7.81480    8.24200    8.60360  116.23040   49.54530    -999.25   22.97810   22.97810  116.23040    7.81480    -999.25    -999.25  170.94100 -102.89910  -93.98040  170.94100
 12450.00000   53.06640   53.76930    7.15450    6.62790    5.90040  169.48090   53.76930    -999.25   36.81220   36.81220  169.48090    7.15450    -999.25    -999.25  152.21250  -80.86840  -71.94970  152.21250
 12500.00000   61.86340   61.40850    7.49380    9.31160    9.58120  104.37160   61.40850    -999.25   79.61230   79.61230  104.37160    7.49380    -999.25    -999.25   88.61670  -66.08030  -57.16160   88.61670
 12550.00000   46.30110   48.09050    7.60520    6.79320    6.59190  151.82030   48.09050    -999.25   19.83810   19.83810  151.82030    7.60520    -999.25    -999.25  107.92720 -141.65210 -132.73340  107.92720
