~Version ---------------------------------------------------
VERS. 2.0 : CWLS log ASCII Standard -VERSION 2.0
WRAP.  NO : ONE LINE PER DEPTH STEP
~Well ------------------------------------------------------
STRT.F                       1050.0 : START DEPTH
STOP.F                       9550.0 : STOP DEPTH
STEP.F                     50.00000 : STEP LENGTH
NULL.                       -999.25 : NULL VALUE
COMP. GOLDEN EAGLE REFINING COMPANY : COMPANY
WELL. GREC GOA SAKWATAMAU 6-1-63-15 : WELL
FLD .                            WC : FIELD
LOC .                               : LOCATION
CTRY.                        CANADA : COUNTRY
SRVC.                  Schlumberger : SERVICE COMPANY
DATE.                   08-Dec-1970 : LOGDATE
PROV.                       Alberta : PROVINCE
UWI .              100060106315W500 : UNIQUE WELL ID
SLAT.WGS84                 54.41837 : SURFACE LATITUDE
SLON.WGS84                -116.1336 : SURFACE LONGITUDE
~Curve Information -----------------------------------------
DEPT.F                 : 
DT  .US/F 60 500 00 00 : DELTA-T (INTERVAL TRANSIT TIME)
GRS .GAPI 60 310 01 00 : GAMMA RAY FROM SONIC LOG
CALS.IN   60 280 50 00 : CALIPER FROM SONIC LOG
ILD .OHMM 07 120 46 00 : INDUCTION DEEP RESISTIVITY
ILM .OHMM 07 120 44 00 : INDUCTION MEDIUM RESISTIVITY
LL8 .OHMM 07 220 08 00 : LATEROLOG 8
SPR .MV   07 010 01 00 : SPONTANEOUS POTENTIAL FROM RESISTIVITY LOG
~Params ----------------------------------------------------
PD  .                     GL : PERMANENT DATUM
EPD .FT                 2985 : ELEVATION PERMANENT DATUM
LMF .                     KB : LOG MEASURED FROM
DAPD.FT                   14 : FEET ABOVE PERMANENT DATUM
EKB .FT                 2999 : KELLY BUSHING
EGL .FT                 2985 : GROUND LEVEL
DATE.               12/08/70 : RUN DATE
RUN .                      1 : RUN NUMBER
DD  .FT                 9566 : DEPTH DRILLER
DL  .FT                 9567 : DEPTH LOGGER
BLI .FT                 9559 : BOTTOM LOG INTERVAL
TLI .FT                 1035 : TOP LOG INTERVAL
CBD .FT                 1035 : CASING BOTTOM DRILLER
CBL .FT                 1035 : CASING BOTTOM LOGGER
BS  .IN                7.875 : BIT SIZE
BSD .FT                 9566 : BIT SIZE AT DEPTH
DFT .                    GEL : DRILLING FLUID TYPE
DFD .                      9 : DRILLING FLUID DENSITY
DFV .                    115 : DRILLING FLUID VISCOSITY
DFPH.                     10 : DRILLING FLUID PH
DFL .                   11.5 : DRILLING FLUID LOSS
MSS .               FLOWLINE : MUD SAMPLE SOURCE
RMS .OHMM               6.04 : RESISTIVITY MUD SAMPLE
MST .DEGF                 70 : MUD SAMPLE TEMPERATURE
RMF .OHMM               5.75 : RESISTIVITY MUD FILTRATE SAMPLE
MFST.DEGF                 62 : MUD FILTRATE SAMPLE TEMPERATURE
RMB .OHMM               2.15 : RESISTIVITY MUD AT BHT
TCS .HRS                   3 : TIME CIRCULATED STOPPED
LUN .                   7002 : LOGGING UNIT NUMBER
LUL .                     RD : LOGGING UNIT LOCATION
ENGI.                 TALBOT : RECORDING ENGINEER
WITN.               DUCHARME : WITNESSED BY
CLNT.                A2DTECH : CLIENT CODE
ORIG.        2" 5" 10" PRINT : ORIGIN OF DATA
UWI .       100060106315W500 : UNIQUE WELL ID
DICO. A2D Technologies, Inc. : DIGITIZING COMPANY
~Other -----------------------------------------------------
~ASCII -----------------------------------------------------
 1050.00000  120.78040   69.55540   10.56600    3.88140    3.52420    4.59660  -67.76850
 1100.00000  109.55540   66.81330   10.77220   11.79610   11.07560   12.08920  -67.07400
 1150.00000  111.56190   88.16010   10.96220    3.96390    3.70120    4.88890  -66.70200
 1200.00000  125.06520   79.52120   11.69800    3.86500    3.49290    4.65570  -67.06440
 1250.00000  114.97330   70.37270   11.88290    3.85620    3.44740    4.48470  -66.78680
 1300.00000  108.00330   51.35870   11.13560    6.66380    5.98090    8.66690  -66.18010
 1350.00000  125.58840   69.89800   13.80890    3.59080    3.20480    4.34250  -66.38820
 1400.00000  170.06690   60.15350   11.02530    6.54870    6.03720    7.41350  -68.16430
 1450.00000  131.21280   82.99940   11.03510    3.79530    3.41250    5.11310  -69.09220
 1500.00000  126.10780   79.82640   10.85310    5.53480    4.88050    5.92150  -68.07310
 1550.00000  109.88500   71.07970   12.66320    3.30820    3.05380    4.23830  -64.12480
 1600.00000  128.55670   64.47750   12.45880    4.03760    3.85280    5.00010  -65.13790
 1650.00000  106.12410   84.69860   10.84460    3.70660    3.59550    5.39040  -66.71840
 1700.00000  107.86850   65.64420   10.89610    6.18260    5.53440    6.78770  -67.42080
 1750.00000  138.91310   82.21080   12.68730    2.62190    2.42670    4.22490  -65.74430
 1800.00000  113.18530   65.24400   10.48780    5.60780    5.02480    7.36250  -68.91150
 1850.00000  141.00810   68.74640   14.79740    2.76830    2.65180    3.57010  -64.02290
 1900.00000  101.43690   69.09950   10.16430    7.03630    6.76700    7.83680  -67.98100
 1950.00000  105.68990   55.32300    9.08940    9.05410    8.50470    9.71650  -79.98580
 2000.00000  103.41780   58.46030    9.89520    6.73540    6.31380    7.84970  -72.12070
 2050.00000   93.20500   68.89050   11.98870    4.14030    3.97110    4.76800  -66.50520
 2100.00000  106.78980   66.21930   10.54370    3.47710    3.21230    4.27210  -65.48310
 2150.00000  106.90160   54.31840    9.57660    6.77400    6.53210    8.17950  -69.38560
 2200.00000  136.02480   59.14590   10.58740   10.99590   11.46200   13.09290  -75.31700
 2250.00000  111.07860   71.24340   10.41960    4.48990    4.36970    5.14920  -66.08160
 2300.00000  111.65910   63.80930    9.75190    3.43650    3.21820    4.07710  -65.18870
 2350.00000   88.64580   51.72520    9.38420    9.19910    8.75730   11.19340  -69.14150
 2400.00000   98.44520   54.52840    9.80140    4.08970    3.46760    4.66960  -63.83340
 2450.00000  125.54820   50.82920    9.96700    3.73530    3.38710    4.33180  -63.83730
 2500.00000  100.35850   61.22930    9.49600    4.47100    4.20630    4.77060  -65.60100
 2550.00000   96.35080   46.23520    8.77390   14.54710   18.42120   26.32890  -69.12030
 2600.00000  100.09040   62.60100    9.43560    5.34100    5.51150    9.38730  -73.61190
 2650.00000  128.10010   67.24190   11.61080    3.39390    3.58410    4.66850  -67.12340
 2700.00000   94.73190   53.96520    9.70470    4.68840    4.99970    5.82760  -70.32600
 2750.00000   97.05350   68.49990   10.75820    3.71610    3.99070    4.41920  -67.91750
 2800.00000  110.09700   56.60470   10.30640    3.84000    4.10380    5.30090  -63.15310
 2850.00000   98.43710   46.33550    8.88960    9.52650   10.32060   10.92130  -83.19610
 2900.00000  101.50810   44.98510    9.06180   13.29620   13.93550   16.17980  -86.31160
 2950.00000  106.57590   65.04000    9.63180    3.43470    3.57610    4.85170  -65.79750
 3000.00000   97.67920   58.03430    9.51620    4.99640    5.26520    5.95920  -68.90370
 3050.00000   99.44810   65.88930    9.56050    4.21090    4.32340    5.62330  -67.42160
 3100.00000  107.34520   73.27870   11.10100    5.52340    5.73670    6.93780  -69.20420
 3150.00000  135.54110   79.00740   11.04510    7.63890    7.95000    8.71300  -71.03330
 3200.00000  105.10650   83.48400   12.64770    5.46090    5.75570    7.09390  -67.10520
 3250.00000  117.84340   76.78570   12.22610    5.25710    5.80070    7.06820  -66.77060
 3300.00000   94.83210   96.98130    9.92320    9.57140   10.17870   12.35780  -68.66820
 3350.00000   98.52030   96.79650   11.76520    6.73910    6.92110    8.95890  -67.18500
 3400.00000   91.48490   80.89430   12.39600    8.02620    8.33090    9.56130  -69.02170
 3450.00000   90.29540   85.37850   13.00920    5.64190    6.18790    6.95220  -67.09810
 3500.00000  112.45410   83.77230   12.24900    6.43490    6.72900    8.17940  -69.52830
 3550.00000   96.60670   83.13100   11.51210    6.74740    7.07620    9.26080  -68.60480
 3600.00000   98.79160   91.87030   11.04610    5.99380    6.16290    7.72200  -68.74040
 3650.00000   99.17200   95.31350   10.79050    5.77830    6.02480    6.79110  -67.21090
 3700.00000  100.35840   86.15930   10.97110    7.35800    7.59440    8.84090  -66.38540
 3750.00000   84.70290   90.42080   11.19220    6.73830    7.02490    8.15510  -65.41180
 3800.00000   92.56470   80.03380   12.10810    7.53280    7.96520    8.96240  -65.17800
 3850.00000  116.40140   86.88460   11.77340    6.52810    6.88770    7.93100  -64.74140
 3900.00000   89.47950   89.13540   13.17400    5.73570    6.22200    7.33840  -61.64790
 3950.00000  100.32190   88.02170   12.48460    6.85220    7.16320    8.79410  -66.25230
 4000.00000  114.53210  102.51850   11.76330    5.54080    5.95410    7.73740  -63.22450
 4050.00000   99.60180  107.98420   11.07610    5.84390    6.29120    7.91460  -61.78380
 4100.00000  101.93670  114.71420   10.47260    6.92980    7.47380    9.95620  -61.65810
 4150.00000   99.12870  115.55300   10.29250    7.60050    8.03230   11.18180  -61.30420
 4200.00000  102.19640  127.93120   10.44160    7.68510    8.25790   12.11240  -62.49800
 4250.00000   97.05380  106.73680   10.86560    5.65380    6.07540    8.28380  -58.10150
 4300.00000   93.36120   93.17160   11.56930    4.93270    5.29100    6.44840  -57.46910
 4350.00000   89.79430   91.60310   11.52750    4.33070    4.67140    6.23180  -56.83510
 4400.00000   89.88210   96.38860   11.51960    5.15860    5.54070    7.03140  -58.12600
 4450.00000   86.44450   89.64910   11.27670    5.91980    6.57910    8.00300  -59.21140
 4500.00000   88.66870   93.85580   11.65900    4.77010    5.20540    6.74270  -55.26340
 4550.00000   94.24390   96.24910   12.53270    3.70750    3.98550    5.75130  -54.63250
 4600.00000   98.78020   95.10630   12.78680    4.00790    4.31240    6.08320  -53.91790
 4650.00000  124.93040  120.65520   12.15710    2.32950    2.50650    4.10640  -53.50440
 4700.00000   92.69270   81.39100   12.34690    2.22540    2.40530    3.79180  -50.61600
 4750.00000   90.74930   88.69960   11.75060    3.72300    4.01180    5.76050  -53.27630
 4800.00000   94.09480   99.77850   11.44750    3.33970    3.60360    4.79620  -53.30710
 4850.00000   77.52560   83.49360    9.26490    8.37760    9.12100   11.11780  -58.51470
 4900.00000   96.23240   84.90870   11.75280    5.49290    5.97280    7.48990  -52.47470
 4950.00000   76.64770   70.35730   11.48780    9.77150   10.70210   13.03340  -63.29190
 5000.00000   75.21390   63.41270   10.65950    8.74530    9.43190   11.86290  -60.11930
 5050.00000  175.36220   48.28520   14.81840    5.85160    5.36860    9.65300  -53.29180
 5100.00000   77.62640   80.98350   10.61590    5.60010    6.02260    7.64870  -57.23890
 5150.00000   78.58030   78.73090   10.75800    5.86140    6.41180    8.94830  -50.14940
 5200.00000  142.23660   29.14170   13.29220   58.61970   34.28710   87.23720  -67.19590
 5250.00000   80.13720   54.54780   10.52240    8.74130   13.86350   31.22710 -103.37820
 5300.00000   78.70720   68.74240   10.75910    7.27530    7.99910    9.66300  -55.21590
 5350.00000   79.33260   70.18420   10.83740    6.27300    6.83890    9.21710  -53.88760
 5400.00000   80.34350   68.71280    9.99990    3.69290    4.55210    7.47910  -70.95310
 5450.00000   79.91020   73.44110   10.24790    5.54860    6.03430    7.71070  -58.68460
 5500.00000   75.02760   86.25260   10.33710   10.07030   10.74890   13.97060  -52.69730
