~Version ---------------------------------------------------
VERS.      2.0 : CWLS log ASCII Standard -VERSION 2.0
WRAP.       NO : One line per depth step
CREA. 11/17/17 : LAS Creation Date
~Well ------------------------------------------------------
STRT.FT                      850.0 : START DEPTH
STOP.FT                     7850.0 : STOP DEPTH
STEP.FT                   50.00000 : STEP LENGTH
NULL.                      -999.25 : NULL VALUE
COMP. PAN AMERICAN PETROLEUM CORP. : COMPANY
WELL. MUSKEG A-1 SANGUDO 2-18-57-6 : WELL
FLD .                              : FIELD
LOC .                              : LOCATION
CTRY.                       CANADA : COUNTRY
SRVC.                        Welex : SERVICE COMPANY
DATE.                  02-Feb-1965 : LOGDATE
PROV.                      Alberta : PROVINCE
UWI .             100021805706W500 : UNIQUE WELL ID
SLAT.WGS84                53.92069 : SURFACE LATITUDE
SLON.WGS84                -114.878 : SURFACE LONGITUDE
~Curve Information -----------------------------------------
DEPT  .FT    : Depth Curve
AC1ED .US/F  : ACOUSTIC 1' SPAN FROM SONIC LOG [ADJ, TO RESISTIVITY LOG]
ACED  .US/F  : ACOUSTIC 3' SPAN FROM SONIC LOG [ADJ, TO RESISTIVITY LOG]
CALSED.IN    : CALIPER FROM SONIC LOG [ADJ, TO RESISTIVITY LOG]
CALWS .IN    : CALIPER [CALSED]
CILDED.MMHO  : CONDUCTIVITY FROM IEL LOG
CONDWS.MMHO  : CONDUCTIVITY [1000/DRESWS]
DRESWS.OHMM  : DEEP RESISTIVITY [1000/CILDED IF ILDED <2,ILDED]
DTWS  .US/F  : COMPRESSIONAL SONIC [ACED]
GRSED .GAPI  : GAMMA RAY FROM SONIC LOG [ADJ, TO RESISTIVITY LOG]
GRWS  .GAPI  : GAMMA RAY [GRSED]
ILDED .OHMM  : 40" SPACING DEEP INDUCTION FROM IEL LOG
LATED .OHMM  : 16 FOOT LATERAL FROM RESISTIVITY LOG
SNED  .OHMM  : 18 INCH SPACING SHORT NORMAL FROM IEL LOG
SPRED .MV    : SPONTANEOUS POTENTIAL FROM IEL LOG
SPWS  .MV    : SPONTANEOUS POTENTIAL [BASELINE 0 MV,SPRED]
SRESWS.OHMM  : SHALLOW RESISTIVITY [SNED]
~Params ----------------------------------------------------
PD  .                     GL : PERMANENT DATUM
EPD .FT               2386.8 : ELEVATION PERMANENT DATUM
LMF .                     KB : LOG MEASURED FROM
DAPD.FT                 13.2 : FEET ABOVE PERMANENT DATUM
DMF .                     KB : DRILLING MEASURED FROM
EKB .FT                 2400 : KELLY BUSHING
EGL .FT               2386.8 : GROUND LEVEL
DATE.               02/02/65 : RUN DATE
RUN .                      1 : RUN NUMBER
DD  .FT                 7900 : DEPTH DRILLER
DL  .FT                 7901 : DEPTH LOGGER
BLI .FT                 7896 : BOTTOM LOG INTERVAL
TLI .FT                  819 : TOP LOG INTERVAL
CS  .IN                8.625 : CASING SIZE
CBD .FT                  819 : CASING BOTTOM DRILLER
CBL .FT                  819 : CASING BOTTOM LOGGER
BS  .IN                7.875 : BIT SIZE
BSD .FT                 7900 : BIT SIZE AT DEPTH
DFT .               GEL BASE : DRILLING FLUID TYPE
DFD .                   10.8 : DRILLING FLUID DENSITY
DFV .                    107 : DRILLING FLUID VISCOSITY
DFPH.                    9.5 : DRILLING FLUID PH
DFL .                    9.8 : DRILLING FLUID LOSS
MSS .                   CIRC : MUD SAMPLE SOURCE
RMS .OHMM               1.64 : RESISTIVITY MUD SAMPLE
MST .DEGF                 69 : MUD SAMPLE TEMPERATURE
RMF .OHMM                1.2 : RESISTIVITY MUD FILTRATE SAMPLE
MFST.DEGF                 74 : MUD FILTRATE SAMPLE TEMPERATURE
RMC .OHMM               1.78 : RESISTIVITY MUD CAKE
MCST.DEGF                 74 : MUD CAKE SAMPLE TEMPERATURE
MFSS.                   MEAS : MUD FILTRATE SAMPLE SOURCE
MCSS.                   MEAS : MUD CAKE SAMPLE SOURCE
RMB .OHMM               0.77 : RESISTIVITY MUD AT BHT
TCS .HRS                  11 : TIME CIRCULATED STOPPED
LUN .                    728 : LOGGING UNIT NUMBER
LUL .                     25 : LOGGING UNIT LOCATION
ENGI.                  BUSSE : RECORDING ENGINEER
WITN.                  SAMIS : WITNESSED BY
CLNT.                A2DTECH : CLIENT CODE
ORIG.            2" 5" PRINT : ORIGIN OF DATA
UWI .       100021805706W500 : UNIQUE WELL ID
DICO. A2D Technologies, Inc. : DIGITIZING COMPANY
~Other -----------------------------------------------------
IEL-SONIC LOG RUN
NULL VALUE IN AC1ED FROM 4176'-4180' DUE TO POOR IMAGE
~ASCII -----------------------------------------------------
# ...
 5150.00000   67.97100  101.57080   10.66510   10.66510   12.13860   14.49960   68.96760  101.57080  179.64380  179.64380   68.96760  223.59380  147.26050  -42.60740  -11.23030  147.26050
 5200.00000   44.47940   54.77600    9.91640    9.91640   11.35910   14.01460   71.35420   54.77600   32.48060   32.48060   71.35420  500.00000  210.30940 -116.08570  -84.63990  210.30940
 5250.00000   63.73120   63.45660    8.54990    8.54990  131.29530  141.09750    7.08730   63.45660   35.45280   35.45280    7.08730   44.18020   40.45550 -155.90440 -124.38980   40.45550
 5300.00000   54.66150   58.15400    9.13200    9.13200   67.49060   64.05780   15.61090   58.15400   26.70170   26.70170   15.61090   12.34110   67.99190 -156.38950 -124.80620   67.99190
 5350.00000   52.04250   53.07610   10.94600   10.94600   24.58850   23.68780   42.21580   53.07610   26.88540   26.88540   42.21580   60.75750  129.24250 -151.64790 -119.99580  129.24250
 5400.00000   48.43780   51.47990    9.12880    9.12880   33.94660   34.73030   28.79330   51.47990   25.05720   25.05720   28.79330  158.42140  125.21020 -159.57260 -127.85180  125.21020
 5450.00000    -999.25   59.80990    8.42170    8.42170   56.26000   58.47060   17.10260   59.80990   30.91190   30.91190   17.10260  450.93100   86.45380 -161.45750 -129.66790   86.45380
 5500.00000    -999.25   52.81840    9.87930    9.87930   14.03420   16.24260   61.56660   52.81840   26.01150   26.01150   61.56660  375.05620  161.85690 -146.39590 -114.53760  161.85690
 5550.00000    -999.25   53.67660    9.23900    9.23900   19.82020   21.29690   46.95510   53.67660   31.34180   31.34180   46.95510  500.00000  177.62920 -180.72660 -148.79960  177.62920
 5600.00000    -999.25   50.51330   10.86280   10.86280    7.89400    8.98250  111.32770   50.51330   26.37820   26.37820  111.32770  500.00000  268.93880 -134.14350 -102.14770  268.93880
 5650.00000    -999.25   54.17830    8.42890    8.42890   59.72730   60.63250   16.49280   54.17830   26.07100   26.07100   16.49280  459.07200  107.81940 -181.88270 -149.81820  107.81940
 5700.00000    -999.25   54.70160    8.71360    8.71360   42.16000   41.55720   24.06320   54.70160   30.43390   30.43390   24.06320  146.65750   85.63160 -136.52660 -104.39330   85.63160
 5750.00000    -999.25   52.28310    8.64510    8.64510   36.88000   35.14580   28.45290   52.28310   28.64780   28.64780   28.45290   49.05270   83.67880 -161.54440 -129.34240   83.67880
 5800.00000    -999.25   61.77350   10.69300   10.69300    9.07140   10.74610   93.05720   61.77350   39.65110   39.65110   93.05720  500.00000  307.65640  -70.07790  -37.80710  307.65640
 5850.00000    -999.25   56.83350    7.46180    7.46180   28.26570   27.87910   35.86910   56.83350   30.21110   30.21110   35.86910   14.20000   65.39960 -116.11430  -83.77480   65.39960
 5900.00000    -999.25   55.58610    8.13780    8.13780   82.32970   80.47970   12.42550   55.58610   39.55850   39.55850   12.42550   30.59270   51.98790 -161.83280 -129.42450   51.98790
 5950.00000    -999.25   58.77160    8.53270    8.53270   34.25170   34.28850   29.16430   58.77160   45.98640   45.98640   29.16430   65.47070   97.96330 -149.22700 -116.75000   97.96330
 6000.00000    -999.25   65.51880   10.26510   10.26510   58.11220   56.49400   17.70100   65.51880   57.53970   57.53970   17.70100    9.63060   23.93630  -56.86630  -24.32060   23.93630
 6050.00000    -999.25   68.55120   15.49780   15.49780   67.00400   71.50770   13.98450   68.55120   72.18970   72.18970   13.98450   21.48030   22.05890  -40.60810   -8.21350   22.05890
 6100.00000    -999.25   90.36640   24.16480   24.16480   91.72370   95.82490   10.43570   90.36640   68.42820   68.42820   10.43570   23.12360   14.73180  -49.97010  -17.89260   14.73180
 6150.00000    -999.25   86.78990   16.30970   16.30970  152.03370  165.49720    6.04240   86.78990   70.72690   70.72690    6.04240    6.56810    8.18730  -36.29810   -4.53770    8.18730
 6200.00000    -999.25  132.68280   25.00000   25.00000  226.36800  257.91140    3.87730  132.68280   63.83510   63.83510    3.87730    6.56270    5.38860  -48.41240  -16.96910    5.38860
 6250.00000    -999.25   70.96770   10.11720   10.11720   73.16710   73.47750   13.60960   70.96770   84.15760   84.15760   13.60960    9.89570   19.63530  -57.14650  -26.02030   19.63530
 6300.00000    -999.25   61.88660   10.01440   10.01440   71.55780   79.05390   12.64960   61.88660   47.75540   47.75540   12.64960   32.15050   23.55950  -43.08430  -12.27520   23.55950
 6350.00000    -999.25   93.10460   23.75690   23.75690  174.20690  185.07210    5.40330   93.10460   72.85100   72.85100    5.40330    9.26820    7.13250  -46.02880  -15.53670    7.13250
 6400.00000    -999.25   97.22640   25.00000   25.00000  173.13490  183.32480    5.45480   97.22640   65.48620   65.48620    5.45480    6.32850    7.18900  -47.15440  -16.97940    7.18900
 6450.00000    -999.25   98.04890   12.56980   12.56980  160.21100  183.30130    5.45550   98.04890   69.35920   69.35920    5.45550    6.81760    9.13660  -49.33150  -19.47360    9.13660
 6500.00000    -999.25   70.07840   12.32650   12.32650   67.84860   68.62660   14.57160   70.07840   66.99380   66.99380   14.57160   18.69380   22.12370  -33.08100   -3.54020   22.12370
 6550.00000    -999.25   68.45080   10.99820   10.99820   58.98350   59.56390   16.78870   68.45080   66.54530   66.54530   16.78870   14.91370   24.11820  -32.50220   -3.27850   24.11820
 6600.00000    -999.25   79.32950   12.66050   12.66050  140.74000  150.11410    6.66160   79.32950   65.15660   65.15660    6.66160    7.86390    9.87870  -40.59190  -11.68530    9.87870
 6650.00000    -999.25   78.23970   12.25130   12.25130  112.30890  115.59090    8.65120   78.23970   68.17760   68.17760    8.65120   14.29100   12.22740  -41.29500  -12.70550   12.22740
 6700.00000    -999.25   87.36740   15.02330   15.02330   93.57290   99.70980   10.02910   87.36740   65.18530   65.18530   10.02910   11.83220   14.12310  -41.31120  -13.03870   14.12310
 6750.00000    -999.25   78.34240   12.25480   12.25480   87.27830   90.84470   11.00780   78.34240   68.78340   68.78340   11.00780   10.61550   17.15560  -35.26140   -7.30600   17.15560
 6800.00000    -999.25   67.20040    9.51930    9.51930   53.91040   50.80940   19.68140   67.20040   53.43770   53.43770   19.68140   26.10240   28.80110  -34.05490   -6.31210   28.80110
 6850.00000    -999.25   67.78720   11.20230   11.20230   84.88620   87.30120   11.45460   67.78720   59.39380   59.39380   11.45460   16.03630   19.62120  -35.58910   -7.11780   19.62120
 6900.00000    -999.25   78.68580   13.15020   13.15020  110.76310  114.02120    8.77030   78.68580   61.40850   61.40850    8.77030    7.12810   12.81780  -40.63330  -11.43350   12.81780
 6950.00000    -999.25   64.32000    9.04670    9.04670   88.83510   88.41340   11.31050   64.32000   53.38790   53.38790   11.31050    5.97100   16.54090  -37.26860   -7.34030   16.54090
 7000.00000    -999.25   82.01270    8.77970    8.77970   34.62850   34.85060   28.69390   82.01270  105.16890  105.16890   28.69390    7.62050   47.94950  -36.74040   -6.08360   47.94950
 7050.00000    -999.25   63.37210    8.39580    8.39580   46.92520   45.57240   21.94310   63.37210   48.53600   48.53600   21.94310   36.08810   36.28450  -37.34580   -6.00620   36.28450
 7100.00000    -999.25   59.37660    8.98610    8.98610   57.79970   57.06850   17.52280   59.37660   55.19420   55.19420   17.52280   42.41570   23.26540  -43.59750  -12.44490   23.26540
 7150.00000    -999.25   84.76310   15.88860   15.88860  179.28180  196.14770    5.09820   84.76310   85.68320   85.68320    5.09820    4.66250    7.57960  -43.56000  -12.59430    7.57960
 7200.00000   73.50100   98.20700   21.84000   21.84000  177.89780  199.68050    5.00800   98.20700   68.32690   68.32690    5.00800    6.79370    7.82950  -46.35740  -15.57870    7.82950
 7250.00000   86.01500   65.40340    8.56570    8.56570   20.98960   22.92830   43.61430   65.40340   41.67400   41.67400   43.61430   14.61720   67.53390  -36.82920   -6.23740   67.53390
