~Version ---------------------------------------------------
VERS.      2.0 : CWLS log ASCII Standard -VERSION 2.0
WRAP.       NO : One line per depth step
CREA. 10/25/17 : LAS Creation Date
~Well ------------------------------------------------------
STRT.FT                 1200.0 : START DEPTH
STOP.FT                12350.0 : STOP DEPTH
STEP.FT               50.00000 : STEP LENGTH
NULL.                  -999.25 : NULL VALUE
COMP.     CHEVRON STANDARD LTD : COMPANY
WELL. CHEVRON EDSON 7-28-52-17 : WELL
FLD .                          : FIELD
LOC .                          : LOCATION
CTRY.                   CANADA : COUNTRY
SRVC.             Schlumberger : SERVICE COMPANY
DATE.              18-Oct-1968 : LOGDATE
PROV.                  Alberta : PROVINCE
UWI .         100072805217W500 : UNIQUE WELL ID
SLAT.WGS84             53.5164 : SURFACE LATITUDE
SLON.WGS84           -116.4412 : SURFACE LONGITUDE
~Curve Information -----------------------------------------
DEPT    .FT    : Depth Curve
CALDED  .IN    : CALIPER FROM FDC LOG [ADJ.TO RESISTIVITY LOG]
CALNED  .IN    : CALIPER FROM SNP LOG [ADJ.TO RESISTIVITY LOG]
CALSED  .IN    : CALIPER FROM SONIC LOG [ADJ. TO RESISTIVITY LOG]
CALWS   .IN    : CALIPER [CALSED]
CILDED  .MMHO  : DEEP CONDUCTIVITY FROM RESISTIVITY LOG
CONDWS  .MMHO  : CONDUCTIVITY [1000/DRESWS]
DCORED  .G/C3  : DENSITY CORRECTION FROM FDC LOG  [ADJ.TO RESISTIVITY LOG]
DCORWS  .G/C3  : DENSITY CORRECTION [DCORED]
DENWS   .G/C3  : FORMATION BULK DENSITY [RHOBED]
DPHILSED.V/V   : DENSITY POROSITY LIMESTONE [M=2.71, F=1.00] FROM FDC LOG [ADJ. TO RESISTIVITY LOG]
DPOLSWS .V/V   : DENSITY POROSITY LIMESTONE [DPHILSED]
DRESWS  .OHMM  : DEEP RESISTIVITY [ILDED]
DTED    .US/F  : DELTA TIME FROM SONIC LOG [ADJ. TO RESISTIVITY LOG]
DTWS    .US/F  : COMPRESSIONAL SONIC [DTED]
GRDED   .GAPI  : GAMMA RAY FROM SNP-FDC LOG [ADJ. TO RESISTIVITY LOG]
GRNED   .GAPI  : GAMMA RAY FROM SNP LOG  [ADJ. TO RESISTIVITY LOG]
GRSED   .GAPI  : GAMMA RAY FROM SONIC LOG [ADJ. TO RESISTIVITY LOG]
GRWS    .GAPI  : GAMMA RAY [GRSED SPL. TO GRDED @ 12330']
ILDED   .OHMM  : DEEP INDUCTION FROM RESISTIVITY LOG
NPOLSWS .V/V   : NEUTRON POROSITY LIMESONTE [SNPLSED]
RHOBED  .G/C3  : BULK DENSITY FROM FDC LOG [ADJ.TO RESISTIVITY LOG]
SNED    .OHMM  : SHORT NORMAL 16" FROM RESISTIVITY LOG
SNPLSED .V/V   : SIDEWALL NEUTRON POROSITY LIMESONTE FROM SNP LOG [ADJ.TO RESISTIVITY LOG]
SPRED   .MV    : SPONTANEOUS POTENTIAL FROM RESISTIVITY LOG
SPWS    .MV    : SPONTANEOUS POTENTIAL [BASELINE 0 MV, SPRED]
SRESWS  .OHMM  : SHALLOW RESISTIVITY [SNED]
~Params ----------------------------------------------------
PD  .                     GL : PERMANENT DATUM
EPD .FT                 3060 : ELEVATION PERMANENT DATUM
LMF .                     KB : LOG MEASURED FROM
DAPD.FT                   13 : FEET ABOVE PERMANENT DATUM
EKB .FT                 3073 : KELLY BUSHING
EGL .FT                 3060 : GROUND LEVEL
DATE.               10/18/68 : RUN DATE
RUN .                      1 : RUN NUMBER
DD  .FT                12360 : DEPTH DRILLER
DL  .FT                12367 : DEPTH LOGGER
BLI .FT                12366 : BOTTOM LOG INTERVAL
TLI .FT                 1258 : TOP LOG INTERVAL
CBD .FT                 1258 : CASING BOTTOM DRILLER
CBL .FT                 1258 : CASING BOTTOM LOGGER
BS  .IN                 8.75 : BIT SIZE
BSD .FT                12360 : BIT SIZE AT DEPTH
DFT .                    GEL : DRILLING FLUID TYPE
DFD .                    9.8 : DRILLING FLUID DENSITY
DFV .                     69 : DRILLING FLUID VISCOSITY
DFPH.                   10.5 : DRILLING FLUID PH
DFL .                    6.3 : DRILLING FLUID LOSS
RMF .OHMM               0.93 : RESISTIVITY MUD FILTRATE SAMPLE
MFST.DEGF                 63 : MUD FILTRATE SAMPLE TEMPERATURE
RMC .OHMM               1.94 : RESISTIVITY MUD CAKE
MCST.DEGF                 67 : MUD CAKE SAMPLE TEMPERATURE
TCS .HRS                   4 : TIME CIRCULATED STOPPED
LUN .                   7501 : LOGGING UNIT NUMBER
LUL .                    EDM : LOGGING UNIT LOCATION
ENGI.               CHADDOCK : RECORDING ENGINEER
WITN.                HOVDEBO : WITNESSED BY
CLNT.                A2DTECH : CLIENT CODE
ORIG.            2" 5" PRINT : ORIGIN OF DATA
UWI .       100072805217W500 : UNIQUE WELL ID
DICO. A2D Technologies, Inc. : DIGITIZING COMPANY
~Other -----------------------------------------------------
~ASCII -----------------------------------------------------
# ...
 7950.00000    -999.25    -999.25    9.79870   10.05120   79.56300   87.58560    -999.25    -999.25    -999.25    -999.25    -999.25   11.41740   71.35410   71.35410    -999.25    -999.25   56.18920   57.86750   11.41740    -999.25    -999.25   18.60500    -999.25 -130.29700  -12.66850   18.60500
 8000.00000    -999.25    -999.25   13.06370   10.99740   91.32640  100.71810    -999.25    -999.25    -999.25    -999.25    -999.25    9.92870   78.31650   78.31650    -999.25    -999.25   68.16540   69.80950    9.92870    -999.25    -999.25   14.02970    -999.25 -126.58310  -12.80300   14.02970
 8050.00000    -999.25    -999.25    9.54370   10.45050   63.51730   68.38040    -999.25    -999.25    -999.25    -999.25    -999.25   14.66070   74.25510   74.25510    -999.25    -999.25   65.47870   64.89110   14.66070    -999.25    -999.25   17.85590    -999.25 -129.68640  -19.75470   17.85590
 8100.00000    -999.25    -999.25   10.00260    9.55810   65.61280   70.31850    -999.25    -999.25    -999.25    -999.25    -999.25   14.22100   64.10490   64.10490    -999.25    -999.25   52.56600   46.32350   14.22100    -999.25    -999.25   19.00010    -999.25 -124.60680  -18.54880   19.00010
 8150.00000    -999.25    -999.25    9.25570    9.31780   58.22250   61.87700    -999.25    -999.25    -999.25    -999.25    -999.25   16.16110   69.59530   69.59530    -999.25    -999.25   66.53050   61.29200   16.16110    -999.25    -999.25   22.29270    -999.25 -124.32520  -22.11560   22.29270
 8200.00000    -999.25    -999.25    9.47170    9.45850   71.92490   78.74450    -999.25    -999.25    -999.25    -999.25    -999.25   12.69930   69.72290   69.72290    -999.25    -999.25   59.83460   55.69730   12.69930    -999.25    -999.25   18.60130    -999.25 -107.92180   -8.35720   18.60130
 8250.00000    -999.25    -999.25    9.80340    9.79630   51.03020   54.61260    -999.25    -999.25    -999.25    -999.25    -999.25   18.31080   65.35760   65.35760    -999.25    -999.25   38.27990   37.96370   18.31080    -999.25    -999.25   21.81520    -999.25 -117.19360  -17.03050   21.81520
 8300.00000    -999.25    -999.25   10.60320   10.60320   74.86830   81.59060    -999.25    -999.25    -999.25    -999.25    -999.25   12.26210   73.83030   73.83030    -999.25    -999.25   59.87290   59.87290   12.26210    -999.25    -999.25   14.96710    -999.25 -112.68020  -11.91860   14.96710
 8350.00000    -999.25    -999.25    9.36050    9.54670   66.69250   71.96830    -999.25    -999.25    -999.25    -999.25    -999.25   13.89500   70.19450   70.19450    -999.25    -999.25   64.82380   65.34850   13.89500    -999.25    -999.25   18.51740    -999.25 -113.83260  -12.46850   18.51740
 8400.00000    -999.25    -999.25    9.94000   10.17310   41.20220   39.60930    -999.25    -999.25    -999.25    -999.25    -999.25   25.24660   68.49760   68.49760    -999.25    -999.25   41.79740   65.01260   25.24660    -999.25    -999.25   29.02600    -999.25 -109.31860   -7.35600   29.02600
 8450.00000    -999.25    -999.25   10.75790   11.10490   58.31010   61.28500    -999.25    -999.25    -999.25    -999.25    -999.25   16.31720   90.47760   90.47760    -999.25    -999.25   74.17370   58.26610   16.31720    -999.25    -999.25   28.81870    -999.25 -110.28010   -7.71510   28.81870
 8500.00000    -999.25    -999.25   10.92620    9.97810   24.81790   23.41610    -999.25    -999.25    -999.25    -999.25    -999.25   42.70560   77.23190   77.23190    -999.25    -999.25   81.78590   56.04240   42.70560    -999.25    -999.25   20.73690    -999.25 -109.89150   -6.72800   20.73690
 8550.00000    -999.25    -999.25   13.12880   10.61680   46.29160   47.76660    -999.25    -999.25    -999.25    -999.25    -999.25   20.95750   73.72940   73.72940    -999.25    -999.25   77.23150   53.43140   20.95750    -999.25    -999.25   29.29220    -999.25 -106.61570   -2.85370   29.29220
 8600.00000    -999.25    -999.25   10.14040   12.16730   38.05130   38.23290    -999.25    -999.25    -999.25    -999.25    -999.25   26.15550   65.79030   65.79030    -999.25    -999.25   48.01710   79.94940   26.15550    -999.25    -999.25   24.78350    -999.25 -108.66400   -4.29950   24.78350
 8650.00000   11.64000   10.95530   10.52860   10.36530   93.68650   98.12190    0.21440    0.21440    2.37000    0.19490    0.19880   10.19140   75.44740   75.44740   98.22000   95.33140   73.15070   82.75420   10.19140    0.27210    2.37000   14.79210    0.27210 -112.84830   -7.50770   14.79210
 8700.00000   10.37810   11.90140    9.99950   14.73670   34.27940   32.91860    0.11660    0.11660    1.96220    0.30000    0.43730   30.37800   49.70420   49.70420   59.59440   56.29090   29.86680   35.18250   30.37800    0.24920    1.96220   28.18940    0.24920 -128.78370  -22.01540   28.18940
 8750.00000   10.45440   12.32620   13.16470   15.00000  129.52770  138.51570    0.01250    0.01250    1.44450    0.30000    0.74010    7.21940   72.59260   72.59260  116.37050  110.66770   98.33530   64.84930    7.21940    0.30000    1.44450   11.46250    0.30000 -110.97750   -3.16870   11.46250
 8800.00000    8.68310    9.02130    9.18770    9.31670   25.28720   25.44460    0.02390    0.02390    2.59940    0.06130    0.06470   39.40430   60.67450   60.67450   67.74520   66.58390   36.14970   21.59580   39.40430    0.04140    2.59940   51.08320    0.04140 -194.16300  -89.33440   51.08320
 8850.00000    8.79220    9.11840    8.71990    9.29030    2.44440    1.84230    0.06630    0.06630    2.64810    0.03350    0.03620  542.81430   54.90520   54.90520   43.47900   45.12500   16.00720   19.96310  542.81430    0.02470    2.64810  190.82990    0.02470 -132.63660  -30.80780  190.82990
 8900.00000    8.98860    9.44080    9.14830    8.99610    3.12880    2.30410    0.03140    0.03140    2.59940    0.06720    0.06470  434.01750   56.22510   56.22510   57.94590   58.04670   19.83890   21.64090  434.01750    0.05390    2.59940  148.53990    0.05390 -108.36490   -9.51630  148.53990
 8950.00000   10.94550   10.84730   10.68990   10.85210   25.08140   25.08790    0.21170    0.21170    2.20850    0.29510    0.29330   39.85990   61.54970   61.54970   61.69010   62.51600   24.78820   27.98400   39.85990    0.15810    2.20850   51.77320    0.15810 -131.58760  -30.04500   51.77320
 9000.00000    8.10340    8.42170    8.80500    8.98140  128.68440  136.99380    0.03850    0.03850    2.58700    0.07050    0.07190    7.29960   56.01000   56.01000   50.62270   52.45240   15.20840   27.68120    7.29960    0.11910    2.58700   24.44970    0.11910 -158.36780  -53.29820   24.44970
 9050.00000    8.73930    8.81720    9.44930    9.51890   13.70870   13.58790    0.12610    0.12610    2.79060   -0.06090   -0.04710   73.68120   50.39010   50.39010   70.14320   79.86210   28.86970   30.87540   73.68120    0.02220    2.79060   60.41590    0.02220 -124.47110  -15.87450   60.41590
 9100.00000    8.39960   13.43070   10.12220   10.12210   14.21370   14.16250    0.02430    0.02430    2.77440   -0.03960   -0.03770   70.60910   51.49410   51.49410   66.62550   64.53420   16.55810   17.97570   70.60910    0.08520    2.77440   59.55640    0.08520 -145.17190  -33.02520   59.55640
 9150.00000    8.96560    9.31490    9.56320    9.47200   21.59520   21.57200    0.00350    0.00350    2.76740   -0.04320   -0.03360   46.35640   57.24950   57.24950  101.18680   96.15790   41.09920   44.64970   46.35640    0.03570    2.76740   60.59160    0.03570 -124.46090   -8.78720   60.59160
 9200.00000    9.38180    9.38270   10.94490    9.90440   19.62100   19.66010    0.02420    0.02420    2.94030   -0.14040   -0.13470   50.86440   51.32230   51.32230   69.04150   71.23570    8.44510   11.14360   50.86440    0.03060    2.94030   70.25730    0.03060 -157.39630  -42.23620   70.25730
 9250.00000    8.65030    8.95970    9.47520    9.52220   11.44670   11.24670    0.16070    0.16070    2.85380   -0.09090   -0.08410   88.91510   51.91490   51.91490   79.42820   76.41210   11.57290   11.66200   88.91510    0.02770    2.85380   98.39320    0.02770 -169.08050  -57.18120   98.39320
