~Version ---------------------------------------------------
VERS.      2.0 : CWLS log ASCII Standard -VERSION 2.0
WRAP.       NO : One line per depth step
CREA. 09/09/14 : LAS Creation Date
~Well ------------------------------------------------------
STRT.FT                            1500.0 : START DEPTH
STOP.FT                           10450.0 : STOP DEPTH
STEP.FT                          50.00000 : STEP LENGTH
NULL.                             -999.25 : NULL VALUE
COMP.                CHEVRON STANDARD LTD : COMPANY
WELL. CHEVRON ET AL HEAVYSOUND 3-25-61-17 : WELL
FLD .                                     : FIELD
LOC .                                     : LOCATION
CTRY.                              CANADA : COUNTRY
SRVC.                        Schlumberger : SERVICE COMPANY
DATE.                         27-Nov-1977 : LOGDATE
PROV.                             Alberta : PROVINCE
UWI .                    100032506117W500 : UNIQUE WELL ID
SLAT.WGS84                       54.30091 : SURFACE LATITUDE
SLON.WGS84                       -116.419 : SURFACE LONGITUDE
~Curve Information -----------------------------------------
DEPT   .FT    : Depth Curve
CALD   .IN    : CALIPER FROM DENSITY LOG
CALS   .IN    : CALIPER FROM SONIC LOG
DPHI_LS.DEC   : DENSITY POROSITY LIMESTONE FROM DENSITY LOG
DPHI_SS.DEC   : DENSITY POROSITY SANDSTONE FROM DENSITY LOG
DRHO   .G/C3  : BULK DENSITY CORRECTION FROM DENSITY LOG
DT     .US/F  : DELTA-T (INTERVAL TRANSIT TIME)
GRD    .GAPI  : GAMMA RAY FROM DENSITY LOG
GRN    .CU    : GAMMA RAY FROM GRN LOG
GRS    .GAPI  : GAMMA RAY FROM SONIC LOG
ILD    .OHMM  : INDUCTION DEEP RESISTIVITY
ILM    .OHMM  : INDUCTION MEDIUM RESISTIVITY
LL8    .OHMM  : LATEROLOG 8
NEUT   .CU    : NEUTRON FROM GRN LOG
NPHI_LS.DEC   : NEUTRON POROSITY LIMESTONE FROM DENSITY LOG
NPHI_SS.DEC   : NEUTRON POROSITY SANDSTONE FROM DENSITY LOG
RHOB   .G/C3  : BULK DENSITY FROM DENSITY LOG
SPR    .MV    : SPONTANEOUS POTENTIAL FROM RESISTIVITY LOG
TEND   .LBF   : TENSION FROM DENSITY LOG
TENS   .LBF   : TENSION FROM SONIC LOG
~Params ----------------------------------------------------
PD  .                     GL : PERMANENT DATUM
EPD .FT                 3014 : ELEVATION PERMANENT DATUM
LMF .                     KB : LOG MEASURED FROM
DAPD.FT                   19 : FEET ABOVE PERMANENT DATUM
EKB .FT                 3033 : KELLY BUSHING
EGL .FT                 3014 : GROUND LEVEL
DATE.               11/27/77 : RUN DATE
RUN .                      1 : RUN NUMBER
DD  .FT                10428 : DEPTH DRILLER
DL  .FT                10435 : DEPTH LOGGER
BLI .FT                10429 : BOTTOM LOG INTERVAL
TLI .FT                 1501 : TOP LOG INTERVAL
CS  .IN                9.625 : CASING SIZE
CBD .FT                 1500 : CASING BOTTOM DRILLER
CBL .FT                 1501 : CASING BOTTOM LOGGER
DFT .                GEL OIL : DRILLING FLUID TYPE
DFD .                    9.1 : DRILLING FLUID DENSITY
DFV .                     83 : DRILLING FLUID VISCOSITY
MSS .               FLOWLINE : MUD SAMPLE SOURCE
RMS .OHMM               1.69 : RESISTIVITY MUD SAMPLE
MST .DEGF                 60 : MUD SAMPLE TEMPERATURE
RMF .OHMM               1.11 : RESISTIVITY MUD FILTRATE SAMPLE
MFST.DEGF                 54 : MUD FILTRATE SAMPLE TEMPERATURE
TCS .HRS                   4 : TIME CIRCULATED STOPPED
LUN .                   7670 : LOGGING UNIT NUMBER
LUL .                    EDM : LOGGING UNIT LOCATION
ENGI.                   DALY : RECORDING ENGINEER
WITN.     RICHARDSON SPRAGUE : WITNESSED BY
CLNT.                A2DTECH : CLIENT CODE
ORIG.            2" 5" PRINT : ORIGIN OF DATA
UWI .       100032506117W500 : UNIQUE WELL ID
DICO. A2D Technologies, Inc. : DIGITIZING COMPANY
~Other -----------------------------------------------------
~ASCII -----------------------------------------------------
# ...
 8900.00000    -999.25    8.64820    -999.25    -999.25    -999.25   68.88710    -999.25    -999.25   71.46750    7.65320    8.30130   11.65150    -999.25    -999.25    -999.25    -999.25  -70.36430    -999.25 1552.48940
 8950.00000    -999.25    8.57050    -999.25    -999.25    -999.25   59.86980    -999.25    -999.25   51.30590   14.63720   16.64250   21.45400    -999.25    -999.25    -999.25    -999.25  -69.59390    -999.25 1560.57410
 9000.00000    -999.25    8.54650    -999.25    -999.25    -999.25   65.66410    -999.25    -999.25   67.34140    9.11070   10.30210   13.55700    -999.25    -999.25    -999.25    -999.25  -68.69260    -999.25 1576.30290
 9050.00000    -999.25    8.73280    -999.25    -999.25    -999.25   69.96630    -999.25    -999.25   82.43020    7.69730    8.45350   10.51180    -999.25    -999.25    -999.25    -999.25  -70.87570    -999.25 1626.21330
 9100.00000    -999.25    8.74260    -999.25    -999.25    -999.25   73.84440    -999.25    -999.25   99.43830   10.00310   12.56730   19.64920    -999.25    -999.25    -999.25    -999.25  -67.57960    -999.25 1524.07820
 9150.00000    -999.25    8.42160    -999.25    -999.25    -999.25   72.28700    -999.25    -999.25  100.99390    7.60850    8.15900   10.41600    -999.25    -999.25    -999.25    -999.25  -65.56350    -999.25 1556.12590
 9200.00000    -999.25    9.12400    -999.25    -999.25    -999.25   70.22760    -999.25    -999.25   76.20670    8.48130    9.39420   11.95430    -999.25    -999.25    -999.25    -999.25  -76.64650    -999.25 1621.94960
 9250.00000    -999.25    8.80180    -999.25    -999.25    -999.25   69.33090    -999.25    -999.25   76.27050    8.53740   10.71540   12.44810    -999.25    -999.25    -999.25    -999.25  -78.50980    -999.25 1528.83180
 9300.00000    -999.25    8.00820    -999.25    -999.25    -999.25   61.27350    -999.25    -999.25   69.82140   15.51010   16.74530   20.75360    -999.25    -999.25    -999.25    -999.25  -74.99180    -999.25 1570.63090
 9350.00000    -999.25    8.05850    -999.25    -999.25    -999.25   65.76670    -999.25    -999.25   83.51740    9.63280   10.67300   14.21710    -999.25    -999.25    -999.25    -999.25  -74.60320    -999.25 1622.13720
 9400.00000    -999.25    8.26250    -999.25    -999.25    -999.25   67.16080    -999.25    -999.25   85.09450    9.90200   11.44400   15.27030    -999.25    -999.25    -999.25    -999.25  -73.42650    -999.25 1652.37110
 9450.00000    -999.25    8.96720    -999.25    -999.25    -999.25   69.44200    -999.25    -999.25   99.40060    8.46360    9.44740   14.40750    -999.25    -999.25    -999.25    -999.25  -71.62360    -999.25 1682.38440
 9500.00000    -999.25    8.95210    -999.25    -999.25    -999.25   68.68540    -999.25    -999.25   88.20720    8.43100    9.41100   13.58910    -999.25    -999.25    -999.25    -999.25  -62.86870    -999.25 1472.17200
 9550.00000    -999.25    9.04730    -999.25    -999.25    -999.25   68.26770    -999.25    -999.25   92.20130    8.32330   10.02270   14.38740    -999.25    -999.25    -999.25    -999.25  -59.41080    -999.25 1511.44570
 9600.00000    -999.25    8.89100    -999.25    -999.25    -999.25   68.97080    -999.25    -999.25   88.61310    8.05020    9.49920   14.19620    -999.25    -999.25    -999.25    -999.25  -58.18160    -999.25 1503.84790
 9650.00000    -999.25    8.81810    -999.25    -999.25    -999.25   66.20920    -999.25    -999.25  220.22830 1375.68900 1466.25000 1305.37930    -999.25    -999.25    -999.25    -999.25 -108.30450    -999.25 1579.64120
 9700.00000    9.57700    8.84770    0.10460    -999.25   -0.01540   72.87130  162.19840    -999.25  143.72110  238.36620  419.34550  604.25820    -999.25    0.14760    -999.25    2.52830  -70.56550    -999.25 1621.83060
 9750.00000    9.64090    8.86300   -0.00800    -999.25    0.00260   55.95720   50.61400    -999.25   45.95640   60.98530   80.52650  114.30340    -999.25    0.03230    -999.25    2.72080  -52.45260 1421.11500 1426.23800
 9800.00000    9.59400    8.93240   -0.02120    -999.25   -0.00990   56.42830   55.45250    -999.25   54.55510  116.85210  265.71330 1155.79610    -999.25    0.03830    -999.25    2.75490  -57.33780 1323.29940 1455.36050
 9850.00000    9.79720    8.93180   -0.02350    -999.25   -0.00620   50.02960   12.22100    -999.25    9.29740  360.08380 1297.05580 1322.39730    -999.25    0.00340    -999.25    2.76680 -132.93230 1186.28040 1464.96780
 9900.00000   10.96400    8.97530   -0.00020    -999.25    0.14330   48.48170   12.27480    -999.25    9.43890  847.35760 1341.21860 1284.80330    -999.25   -0.00060    -999.25    2.62490 -145.20940 1245.01970 1516.78580
 9950.00000    9.32300    8.92170    0.00160    -999.25   -0.01360   49.70520   16.88760    -999.25   12.86620  676.10630 1254.75150 1249.28780    -999.25    0.00160    -999.25    2.73980 -112.86570 1308.03660 1518.23170
 10000.00000    9.34980    8.91720   -0.01980    -999.25   -0.00370   51.09760   19.56880    -999.25   16.46470   74.94160   73.61340  134.43470    -999.25    0.00330    -999.25    2.75720 -152.44820 1261.07420 1545.18490
 10050.00000    9.15700    8.82010    0.02130    -999.25    0.01230   50.18900   10.45680    -999.25    8.79130   35.97640   67.33980  288.25790    -999.25    0.09730    -999.25    2.67270 -186.56620 1223.25590 1485.99120
 10100.00000    9.03240    8.77220    0.03560    -999.25    0.03940   53.63130   12.26930    -999.25    9.49710   23.52980   31.88200   49.65590    -999.25    0.12300    -999.25    2.62940 -187.15770 1267.71070 1527.05850
 10150.00000   10.28460    9.08490   -0.00580    -999.25    0.07220   47.53090   11.02190    -999.25    9.50720 1266.43990 1418.65390 1309.06080    -999.25    0.00190    -999.25    2.65380 -160.10950 1377.61210 1562.47400
 10200.00000   10.19700    8.97370    0.00600    -999.25    0.08400   48.93330   17.75010    -999.25   15.74620 1360.11820 1459.01060 1303.77360    -999.25    0.00220    -999.25    2.62400 -163.85900 1458.95130 1594.91980
 10250.00000    9.50860    8.96340    0.01540    0.00880   -0.00090   69.32130  192.45980    -999.25  179.71460   23.13330   27.36770   51.79910    -999.25    0.16580    0.20920    2.72040  -64.87220 1440.60070 1557.66410
 10300.00000    9.32790    8.84210   -0.00580   -0.03900   -0.01350   54.38040  117.14630    -999.25  101.78420   17.33420   19.89630   31.83370    -999.25    0.07840    0.13940    2.75980  -65.57340 1442.58300 1585.85670
 10350.00000    9.30040    8.91710   -0.02830   -0.06220    0.01360   51.31900   22.82140    -999.25   18.28250   17.86010   26.88650   29.77340    -999.25    0.11320    0.12510    2.73590 -120.51550 1431.37260 1554.37620
 10400.00000    9.26810    9.79610   -0.00770   -0.04270   -0.00720   50.74780   18.72920    -999.25   16.69360    6.94790    7.55330   11.63540    -999.25    0.10690    0.14350    2.77030 -135.40670 1554.94890 1400.46740
 10450.00000    -999.25    -999.25    -999.25    -999.25    -999.25    -999.25    -999.25    -999.25    -999.25    -999.25    -999.25    -999.25    -999.25    -999.25    -999.25    -999.25    -999.25    -999.25 1576.65730
