~Version ---------------------------------------------------
VERS.      2.0 : CWLS log ASCII Standard -VERSION 2.0
WRAP.       NO : One line per depth step
CREA. 08/30/13 : LAS Creation Date
~Well ------------------------------------------------------
STRT.M                         300.0 : START DEPTH
STOP.M                        2300.0 : STOP DEPTH
STEP.M                      50.00000 : STEP LENGTH
NULL.                        -999.25 : NULL VALUE
COMP.            PRODECO OIL AND GAS : COMPANY
WELL. PRODECO ET AL ETHEL 12-14-67-8 : WELL
FLD .                                : FIELD
LOC .                                : LOCATION
CTRY.                         CANADA : COUNTRY
SRVC.                     Computalog : SERVICE COMPANY
DATE.                    10-Dec-1984 : LOGDATE
PROV.                        Alberta : PROVINCE
UWI .               100121406708W500 : UNIQUE WELL ID
SLAT.WGS84                  54.80167 : SURFACE LATITUDE
SLON.WGS84                 -115.1135 : SURFACE LONGITUDE
~Curve Information -----------------------------------------
DEPT   .M      : DEPTH METER
CALWS  .MM     : CALIPER [CALXDED]
CALXDED.MM     : 13 CALIPER X FROM DENSITY [ADJ. TO RESISTIVITY LOG]
CALXSED.MM     : CALIPER FROM SONIC LOG [ADJ. TO RESISTIVITY LOG]
CALYDED.MM     : CALIPER FROM DENSITY LOG [ADJ. TO RESISTIVITY LOG]
CDLLSED.V/V    : DENSITY POROSITY LIMESTONE [M=2710, F=1000] FROM DENSITY LOG [ADJ. TO RESISTIVITY LOG]
CDLSSED.V/V    : DENSITY POROSITY SANDSTONE [M=2710, F=1000] FROM DENSITY LOG
CNSLSED.V/V    : NEUTRON POROSITY LIMESTONE FROM DENSITY LOG [ADJ. TO RESISTIVITY LOG]
CNSSSED.V/V    : NEUTRON POROSITY LIMESTONE FROM DENSITY LOG
CONDWS .MMHO   : CONDUCTIVITY [1000/DRESWS]
DCORWS .KG/M3  : DENSITY CORRECTION [DRHOED]
DENWS  .KG/M3  : FORMATION BULK DENSITY [CALC. FROM DENWS, M=2710, F=1000]
DPOLSWS.V/V    : DENSITY POROSITY LIMESTONE [CDLLSED]
DRESWS .OHMM   : DEEP RESISTIVITY [RILDED]
DRHOED .KG/M3  : DENSITY CORRECTION FROM DENSITY LOG [ADJ. TO RESISTIVITY LOG]
DTED   .US/M   : COMPRESSIONAL SONIC FROM SONIC LOG  [ADJ. TO RESISTIVITY LOG]
DTWS   .US/M   : COMPRESSIONAL SONIC [DTED]
GRDED  .GAPI   : GAMMA RAY FROM DENSITY LOG
GRSED  .GAPI   : GAMMA RAY FROM SONIC LOG  [ADJ. TO RESISTIVITY LOG]
GRWS   .GAPI   : GAMMA RAY [GRDED]
MRESWS .OHMM   : MEDIUM RESISTIVITY [RILMED]
NPOLSWS.V/V    : NEUTRON POROSITY LIMESTONE [CNSLSED]
RHOBED .KG/M3  : BULK DENSITY FROM DENSITY LOG [ADJ. TO RESISTIVITY LOG]
RILDED .OHMM   : RESISTIVITY DEEP FROM RESISTIVITY LOG
RILMED .OHMM   : RESISTIVITY MEDIUM FROM RESISTIVITY LOG
RLLED  .OHMM   : LATERO LOG FROM RESISTIVITY LOG
SPRED  .MV     : SPONTANEOUS POTENTIAL FROM RESISTIVITY LOG
SPWS   .MV     : SPONTANEOUS POTENTIAL [BASELINE 0 MV, SPRED]
SRESWS .OHMM   : SHALLOW RESISTIVITY [RLLED]
~Params ----------------------------------------------------
PD  .                         GL : PERMANENT DATUM
EPD .M                    921.39 : ELEVATION PERMANENT DATUM
LMF .                         KB : LOG MEASURED FROM
DAPD.M                      7.08 : FEET ABOVE PERMANENT DATUM
EKB .M                    928.47 : KELLY BUSHING
EGL .M                    921.39 : GROUND LEVEL
DATE.                   12/10/84 : RUN DATE
RUN .                          1 : RUN NUMBER
DD  .M                      2345 : DEPTH DRILLER
DL  .M                    2368.5 : DEPTH LOGGER
BLI .M                    2343.5 : BOTTOM LOG INTERVAL
TLI .M                       275 : TOP LOG INTERVAL
CS  .MM                    219.1 : CASING SIZE
CBD .M                       275 : CASING BOTTOM DRILLER
CBL .M                       275 : CASING BOTTOM LOGGER
BS  .MM                      200 : BIT SIZE
BSD .M                      2345 : BIT SIZE AT DEPTH
DFT .                   GEL CHEM : DRILLING FLUID TYPE
DFD .                       1110 : DRILLING FLUID DENSITY
DFV .                         55 : DRILLING FLUID VISCOSITY
DFPH.                       10.5 : DRILLING FLUID PH
DFL .                         11 : DRILLING FLUID LOSS
RMS .OHMM                    1.4 : RESISTIVITY MUD SAMPLE
MST .DEGC                     18 : MUD SAMPLE TEMPERATURE
RMF .OHMM                   0.85 : RESISTIVITY MUD FILTRATE SAMPLE
MFST.DEGC                     18 : MUD FILTRATE SAMPLE TEMPERATURE
RMC .OHMM                    1.4 : RESISTIVITY MUD CAKE
MCST.DEGC                     20 : MUD CAKE SAMPLE TEMPERATURE
RMB .OHMM                    0.6 : RESISTIVITY MUD AT BHT
TCS .HRS                       4 : TIME CIRCULATED STOPPED
LUN .                        316 : LOGGING UNIT NUMBER
LUL .                   EDMONTON : LOGGING UNIT LOCATION
ENGI.                        ARD : RECORDING ENGINEER
WITN.                     SAHOTA : WITNESSED BY
CLNT.                    A2DTECH : CLIENT CODE
ORIG. 6.5"/100M 16.5"/100M PRINT : ORIGIN OF DATA
UWI .           100121406708W500 : UNIQUE WELL ID
DICO.     A2D Technologies, Inc. : DIGITIZING COMPANY
~Other -----------------------------------------------------
DIL-BCS LOG RAN IN COMBO & CNFD LOG RUN
RHOBED IS FROM SMALL SCALE
X-CALIPER DRIFT IN UPPER SEGMENT OF LOG
SONIC SIGNAL TRIGGERED ON NOISE AT 1068,1110 & 1777M
~ASCII -----------------------------------------------------
# ...
 1550.00000  197.02750  197.02750  200.37930  188.61920    0.08160    -999.25    0.10330    -999.25   90.39140  113.64590 2570.46400    0.08160   11.06300  113.64590  188.14550  188.14550    9.77530   10.91330    9.77530   21.99520    0.10330 2571.34840   11.06300   21.99520   63.10910 -148.93340  -98.63570   63.10910
 1600.00000  248.16880  248.16880  249.86360  250.39090    0.01850    -999.25    0.02740    -999.25   27.46350   35.09990 2678.36500    0.01850   36.41190   35.09990  170.43550  170.43550   14.03660   13.23030   14.03660   46.04440    0.02740 2672.09890   36.41190   46.04440   72.73920 -108.26920  -58.63900   72.73920
 1650.00000  198.78810  198.78810  203.90170  207.78770    0.03290    -999.25    0.02320    -999.25   77.09570   19.14220 2653.74100    0.03290   12.97090   19.14220  172.19920  172.19920   12.88690   12.62990   12.88690   25.59260    0.02320 2675.85890   12.97090   25.59260   96.63700 -132.29080  -83.32820   96.63700
 1700.00000  200.96240  200.96240  205.05540  204.73210    0.02670    -999.25    0.09990    -999.25   91.31340   99.84420 2664.34300    0.02670   10.95130   99.84420  176.43010  176.43010   22.03870   20.74610   22.03870   18.94420    0.09990 2663.74070   10.95130   18.94420   55.32090 -117.28130  -68.98630   55.32090
 1750.00000  329.76910  329.76910  327.89590  321.64560    0.28230    -999.25    0.24420    -999.25  196.69550  205.30300 2227.26700    0.28230    5.08400  205.30300  252.67840  252.67840   69.05470   69.30830   69.05470    5.55120    0.24420 2224.45950    5.08400    5.55120    6.94710  -69.84030  -20.59470    6.94710
 1800.00000  227.45090  227.45090  224.28960  225.32500    0.03310    -999.25    0.16800    -999.25  130.52620   29.61040 2653.39900    0.03310    7.66130   29.61040  217.42840  217.42840   55.14830   58.04810   55.14830    6.91960    0.16800 2648.95020    7.66130    6.91960   10.98880  -51.51100    9.37950   10.98880
 1850.00000  412.28580  412.28580  367.25420  422.15800    0.36300    -999.25    0.35180    -999.25  367.14760  122.69740 2089.27000    0.36300    2.72370  122.69740  313.58390  313.58390   70.58470   66.62210   70.58470    2.26000    0.35180 2142.99580    2.72370    2.26000    2.85580  -81.43830    1.57880    2.85580
 1900.00000  360.46970  360.46970  360.43440  352.56040    0.16470    -999.25    0.34560    -999.25  355.07580   90.42420 2428.36300    0.16470    2.81630   90.42420  283.00850  283.00850   75.44910   73.86040   75.44910    2.95510    0.34560 2434.37870    2.81630    2.95510    3.27710  -49.15730   26.49730    3.27710
 1950.00000  356.70320  356.70320  363.61020  328.82850    0.42300    -999.25    0.38430    -999.25  337.86070   88.09110 1986.67000    0.42300    2.95980   88.09110  267.47990  267.47990   79.85660   84.87530   79.85660    2.71860    0.38430 1971.13790    2.95980    2.71860    3.17510  -54.33480   12.85430    3.17510
 2000.00000  265.59740  265.59740  291.99230  259.56500    0.20150    -999.25    0.14930    -999.25  206.70980  253.31300 2365.43500    0.20150    4.83770  253.31300  223.88860  223.88860   49.13530   44.96290   49.13530    5.76100    0.14930 2363.93970    4.83770    5.76100    8.48980  -37.36730   20.70960    8.48980
 2050.00000  228.78430  228.78430  219.12120  231.77230    0.02290    -999.25    0.12700    -999.25  104.88670   24.54080 2670.84100    0.02290    9.53410   24.54080  207.63020  207.63020   46.50170   45.81850   46.50170   10.83390    0.12700 2673.86720    9.53410   10.83390   12.12420  -22.71240   35.36450   12.12420
 2100.00000  393.38890  393.38890  364.72710  390.78200    0.17810    -999.25    0.32080    -999.25  400.73740  141.93350 2405.44900    0.17810    2.49540  141.93350  288.70610  288.70610   77.45320   80.83540   77.45320    2.58780    0.32080 2402.95900    2.49540    2.58780    3.13740  -43.04000   12.00920    3.13740
 2150.00000  254.57760  254.57760  340.39320  285.84270    0.39020    -999.25    0.25190    -999.25  155.74140  250.81000 2042.75800    0.39020    6.42090  250.81000  275.81560  275.81560   71.85860   65.81750   71.85860    6.85340    0.25190 2049.92820    6.42090    6.85340    9.61040  -28.20750   13.20320    9.61040
 2200.00000  225.39350  225.39350  223.96600  227.00330    0.02880    -999.25    0.07660    -999.25   62.95130    4.63130 2660.75200    0.02880   15.88530    4.63130  192.06500  192.06500   33.45290   33.12510   33.45290   19.91510    0.07660 2652.81100   15.88530   19.91510   23.11040  -11.25940   29.42440   23.11040
 2250.00000  227.75540  227.75540  220.93300  230.12800    0.01820    -999.25    0.09890    -999.25   77.19980    7.73760 2678.87800    0.01820   12.95340    7.73760  199.17990  199.17990   41.85720   42.15030   41.85720   14.78840    0.09890 2679.90970   12.95340   14.78840   17.62300   -0.64560   42.26150   17.62300
 2300.00000  205.57180  205.57180  201.87030  207.14140    0.04080   -0.01850    0.02970    0.06700    2.01830   10.97480 2640.23200    0.04080  495.47240   10.97480  178.60890  178.60890   15.69600   13.50400   15.69600  440.03640    0.02970 2649.99660  495.47240  440.03640  539.33130  -14.85320   30.27720  539.33130
