~Version ---------------------------------------------------
VERS.      2.0 : CWLS log ASCII Standard -VERSION 2.0
WRAP.       NO : One line per depth step
CREA. 01/03/18 : LAS Creation Date
~Well ------------------------------------------------------
STRT.FT                     1000.0 : START DEPTH
STOP.FT                     9900.0 : STOP DEPTH
STEP.FT                   50.00000 : STEP LENGTH
NULL.                      -999.25 : NULL VALUE
COMP.       CALIFORNIA STANDARD CO : COMPANY
WELL. CAL STAN MEEKWAP 10-11-65-19 : WELL
FLD .                              : FIELD
LOC .                              : LOCATION
CTRY.                       CANADA : COUNTRY
SRVC.       Schlumberger of Canada : SERVICE COMPANY
DATE.                  22-Nov-1960 : LOGDATE
PROV.                      Alberta : PROVINCE
UWI .             100101106519W500 : UNIQUE WELL ID
SLAT.WGS84                54.61203 : SURFACE LATITUDE
SLON.WGS84               -116.7575 : SURFACE LONGITUDE
~Curve Information -----------------------------------------
DEPT  .FT         : Depth Curve
CALWS .IN         : CALIPER [CALSED]
CILDED.MMHO       : CONDUCTIVITY FROM RESISTIVITY LOG
CONDWS.MMHO       : CONDUCTIVITY [1000/DRESWS]
DRESWS.OHMM       : DEEP RESISTIVITY [ILDED] IF ILDED<5;1000/CILDED;ELSE ILDED
DTED  .US/F       : DELTA TIME FROM SONIC LOG
DTWS  .US/F       : DELTA TIME [DTED]
GRSED .UgRa-Eq/T  : GAMMA RAY FROM SONIC LOG
GRWS  .GAPI       : GAMMA RAY [GRSED] [CONVERTED SCALE *16.5 API]
ILDED .OHMM       : INDUCTION LOG DEEP RESISTIVITY
MCALED.IN         : MICROCALIPER
SNED  .OHMM       : 16 INCH SHORT NORMAL RESISTIVITY FROM IEL
SPRED .MV         : SPONTANEOUS POTENTIAL FROM RESISTIVITY LOG
SPWS  .MV         : SPONTANEOUS POTENTIAL [BASELINE 0 MV] [SPRED]
SRESWS.OHMM       : SHALLOW RESISTIVITY [SNED]
~Params ----------------------------------------------------
LMF .                     KB : LOG MEASURED FROM
DMF .                     KB : DRILLING MEASURED FROM
EKB .FT                 2664 : KELLY BUSHING
EGL .FT               2652.4 : GROUND LEVEL
DATE.               11/22/60 : RUN DATE
RUN .                      1 : RUN NUMBER
DD  .FT                 9934 : DEPTH DRILLER
DL  .FT                 9940 : DEPTH LOGGER
BLI .FT                 9934 : BOTTOM LOG INTERVAL
TLI .FT                 1001 : TOP LOG INTERVAL
CBD .FT               1000.5 : CASING BOTTOM DRILLER
CBL .FT                 1001 : CASING BOTTOM LOGGER
BS  .IN                    9 : BIT SIZE
BSD .FT                 9934 : BIT SIZE AT DEPTH
DFT .                    GEL : DRILLING FLUID TYPE
DFD .                   10.6 : DRILLING FLUID DENSITY
DFV .                     93 : DRILLING FLUID VISCOSITY
DFPH.                    9.5 : DRILLING FLUID PH
DFL .                    8.8 : DRILLING FLUID LOSS
RMS .OHMM               0.73 : RESISTIVITY MUD SAMPLE
MST .DEGF                182 : MUD SAMPLE TEMPERATURE
RMB .OHMM               0.73 : RESISTIVITY MUD AT BHT
TCS .HRS                   3 : TIME CIRCULATED STOPPED
LUN .                   1534 : LOGGING UNIT NUMBER
LUL .                    EDM : LOGGING UNIT LOCATION
ENGI.               WILLIAMS : RECORDING ENGINEER
WITN.                  CHANT : WITNESSED BY
CLNT.                A2DTECH : CLIENT CODE
ORIG.            2" 5" PRINT : ORIGIN OF DATA
UWI .       100101106519W500 : UNIQUE WELL ID
DICO. A2D Technologies, Inc. : DIGITIZING COMPANY
~Other -----------------------------------------------------
~ASCII -----------------------------------------------------
# ...
 8350.00000   10.04230   22.74060   17.47280   57.23180   53.75700   53.75700    3.55690   58.68890   57.23180   10.04230   46.51840  -93.91300  -41.08870   46.51840
 8400.00000    9.70680   21.62160   17.07240   58.57410   55.50830   55.50830    2.33830   38.58190   58.57410    9.70680   57.67550  -70.92980  -17.79690   57.67550
 8450.00000   11.44520    9.38440    3.05580  327.24300   52.25550   52.25550    1.25860   20.76690  327.24300   11.44520  103.75100  -80.04800  -26.60650  103.75100
 8500.00000    9.68980   45.74290   41.69690   23.98260   59.09780   59.09780    2.32370   38.34110   23.98260    9.68980   23.90150  -57.19220   -3.44210   23.90150
 8550.00000   10.88410  136.76640  140.63910    7.11040   67.86980   67.86980    4.12860   68.12190    7.11040   10.88410    9.32350  -59.09660   -5.03790    9.32350
 8600.00000   12.69420  261.48760  261.48760    3.82430   81.03280   81.03280    4.43320   73.14780    3.35570   12.69420    4.20600  -65.96470  -11.59730    4.20600
 8650.00000   14.27880  233.73560  233.73560    4.27830   81.18000   81.18000    4.47790   73.88540    3.93310   14.27880    4.51120  -60.17390   -5.49790    4.51120
 8700.00000   12.31590  252.63870  252.63870    3.95820   78.97300   78.97300    5.22440   86.20260    3.49960   12.31590    4.49670  -64.51470   -9.53010    4.49670
 8750.00000   15.36810  222.19580  222.19580    4.50050   80.17580   80.17580    4.56110   75.25820    4.06140   15.36810    5.12800  -68.05370  -12.76050    5.12800
 8800.00000   15.27460  274.90630  274.90630    3.63760   84.23030   84.23030    4.73250   78.08620    3.15760   15.27460    3.90980  -62.22390   -6.62210    3.90980
 8850.00000   15.44660  268.50870  268.50870    3.72430   83.57850   83.57850    4.19120   69.15480    3.28540   15.44660    3.94990  -62.80160   -6.89120    3.94990
 8900.00000   13.82220  239.19130  239.19130    4.18080   86.33700   86.33700    4.75880   78.52020    3.71820   13.82220    4.75090  -65.89640   -9.67740    4.75090
 8950.00000    9.59210   37.25490   29.48040   33.92080   55.89700   55.89700    2.68350   44.27770   33.92080    9.59210   31.53640 -227.05510 -172.76170   31.53640
 9000.00000   10.14290   97.81490   97.12230   10.29630   65.37900   65.37900    4.56670   75.35050   10.29630   10.14290   13.04670 -239.24870 -188.63640   13.04670
 9050.00000   10.03370   95.85170   96.25660   10.38890   67.37170   67.37170    5.30150   87.47480   10.38890   10.03370   13.16250 -216.45050 -169.51920   13.16250
 9100.00000    9.90780  101.83360  103.03330    9.70560   68.32270   68.32270    5.03510   83.07910    9.70560    9.90780   12.57550 -162.87100 -119.62080   12.57550
 9150.00000   10.06340   97.35130   94.93610   10.53340   64.80450   64.80450    4.32500   71.36250   10.53340   10.06340   13.25780 -117.39010  -77.82100   13.25780
 9200.00000   11.53450  135.27360  137.42120    7.27690   74.46080   74.46080    6.18490  102.05090    7.27690   11.53450    9.50460  -55.18770  -19.29970    9.50460
 9250.00000   10.85380  126.67790  124.38430    8.03960   65.32170   65.32170    5.17710   85.42220    8.03960   10.85380   11.62420  -32.59650   -0.38950   11.62420
 9300.00000   11.38040  139.14970  147.63420    6.77350   75.86350   75.86350    5.56920   91.89180    6.77350   11.38040    9.08760  -52.76930  -24.24340    9.08760
 9350.00000    8.82750   16.20880    7.94020  125.94120   70.21170   70.21170    7.93460  130.92090  125.94120    8.82750   90.68050  -73.27090  -48.42610   90.68050
 9400.00000    8.90460   10.69540    5.07120  197.19170   73.05380   73.05380    8.83760  145.82040  197.19170    8.90460   84.48850  -54.56840  -33.40470   84.48850
 9450.00000    9.02930   29.19860   22.99780   43.48250   56.39320   56.39320    3.21340   53.02110   43.48250    9.02930   44.32220 -142.96590 -125.48320   44.32220
 9500.00000    9.13090   51.60720   44.93150   22.25610   83.13650   83.13650    6.46860  106.73190   22.25610    9.13090   39.17470 -227.33820 -213.53660   39.17470
 9550.00000    8.94840    7.89910    3.68690  271.23420   55.75450   55.75450    2.07870   34.29850  271.23420    8.94840  111.90340 -188.67270 -178.55220  111.90340
 9600.00000    9.99830  110.40350  114.23740    8.75370   70.35130   70.35130    5.51550   91.00580    8.75370    9.99830   12.53280 -130.35850 -123.91910   12.53280
 9650.00000    8.95450   39.03690   32.99450   30.30810   59.88830   59.88830    3.32410   54.84770   30.30810    8.95450   33.75870  -53.98280  -51.22440   33.75870
 9700.00000    9.10390   22.95260   19.93830   50.15480   56.32400   56.32400    2.36830   39.07700   50.15480    9.10390   49.83120   -7.10650   -8.02920   49.83120
 9750.00000    9.01290   14.98270    8.99060  111.22770   53.59480   53.59480    2.24550   37.05070  111.22770    9.01290   69.50710   -6.95990   -8.91330   69.50710
 9800.00000   10.59930   12.77330    7.35400  135.98080   53.38470   53.38470    1.26070   20.80150  135.98080   10.59930  125.95030 -152.95970 -154.91310  125.95030
 9850.00000   10.10110   12.65060    6.61000  151.28550   51.56400   51.56400    0.94150   15.53480  151.28550   10.10110  147.80920 -214.14860 -216.10200  147.80920
 9900.00000    9.32930   37.27390   26.31450   38.00180   51.37220   51.37220    4.65830   76.86190   38.00180    9.32930   78.78270 -202.06530 -204.01870   78.78270
