~Version ---------------------------------------------------
VERS.      2.0 : CWLS log ASCII Standard -VERSION 2.0
WRAP.       NO : One line per depth step
CREA. 07/10/13 : LAS Creation Date
~Well ------------------------------------------------------
STRT.FT                         55.3 : START DEPTH
STOP.FT                      11119.8 : STOP DEPTH
STEP.FT                      0.50000 : STEP LENGTH
NULL.                        -999.25 : NULL VALUE
COMP.         PACIFIC PETROLEUMS LTD : COMPANY
WELL. PACIFIC ET AL TONY 10-18-63-21 : WELL
FLD .                     TONY TOWER : FIELD
LOC .                                : LOCATION
CTRY.                         CANADA : COUNTRY
SRVC.                   Schlumberger : SERVICE COMPANY
DATE.                    24-Sep-1975 : LOGDATE
PROV.                        Alberta : PROVINCE
UWI .               100101806321W500 : UNIQUE WELL ID
SLAT.WGS84                  54.45338 : SURFACE LATITUDE
SLON.WGS84                 -117.1585 : SURFACE LONGITUDE
~Curve Information -----------------------------------------
DEPT   .FT    : DEPTH FEET
CALD   .IN    : CALIPER FROM DENSITY LOG
DCOR   .G/C3  : DENSITY CORRECTION FROM DENSITY LOG
DPHI_LS.DEC   : DENSITY POROSITY LIMESTONE [M=2.71,F=1.0] FROM DENSITY LOG
DPHI_SS.DEC   : DENSITY POROSITY SANDSTONE [M=2.65,F=1.0] FROM DENSITY LOG
GRD    .GAPI  : GAMMA RAY FROM DENSITY LOG
ILD    .OHMM  : DEEP INDUCTION FROM RESISTIVITY LOG
ILM    .OHMM  : MEDIUM INDUCTION FROM RESISTIVITY LOG
LL8    .OHMM  : LATEROLOG FROM RESISTIVITY LOG
NPHI_LS.DEC   : NEUTRON POROSITY LIMESTONE FROM DENSITY LOG
NPHI_SS.DEC   : NEUTRON POROSITY SANDSTONE FROM DENSITY LOG
RHOB   .G/C3  : BULK DENSITY FROM DENSITY LOG
SPR    .MV    : SPONTANEOUS POTENTIAL FROM RESISTIVITY LOG
~Params ----------------------------------------------------
PD  .                     GL : PERMANENT DATUM
EPD .FT                 2714 : ELEVATION PERMANENT DATUM
LMF .                     KB : LOG MEASURED FROM
DAPD.FT                 13.7 : FEET ABOVE PERMANENT DATUM
EKB .FT               2727.7 : KELLY BUSHING
EGL .FT                 2714 : GROUND LEVEL
DATE.               09/24/75 : RUN DATE
RUN .                      1 : RUN NUMBER
DD  .FT                11125 : DEPTH DRILLER
DL  .FT                11121 : DEPTH LOGGER
BLI .FT                11115 : BOTTOM LOG INTERVAL
TLI .FT                 1125 : TOP LOG INTERVAL
CBD .FT                 1125 : CASING BOTTOM DRILLER
CBL .FT                 1125 : CASING BOTTOM LOGGER
BS  .IN                 8.75 : BIT SIZE
BSD .FT                11125 : BIT SIZE AT DEPTH
DFT .               GEL CHEM : DRILLING FLUID TYPE
DFD .                    9.3 : DRILLING FLUID DENSITY
DFV .                    147 : DRILLING FLUID VISCOSITY
DFPH.                    9.5 : DRILLING FLUID PH
DFL .                    9.2 : DRILLING FLUID LOSS
MSS .               FLOWLINE : MUD SAMPLE SOURCE
RMS .OHMM               1.62 : RESISTIVITY MUD SAMPLE
MST .DEGF                 72 : MUD SAMPLE TEMPERATURE
RMF .OHMM               1.26 : RESISTIVITY MUD FILTRATE SAMPLE
MFST.DEGF                 68 : MUD FILTRATE SAMPLE TEMPERATURE
RMB .OHMM               0.41 : RESISTIVITY MUD AT BHT
TCS .HRS                 3.5 : TIME CIRCULATED STOPPED
LUN .                   7691 : LOGGING UNIT NUMBER
LUL .                    EDM : LOGGING UNIT LOCATION
ENGI.              CROCKFORD : RECORDING ENGINEER
WITN.                   ROSS : WITNESSED BY
CLNT.                A2DTECH : CLIENT CODE
ORIG.            2" 5" PRINT : ORIGIN OF DATA
UWI .       100101806321W500 : UNIQUE WELL ID
DICO. A2D Technologies, Inc. : DIGITIZING COMPANY
~Other -----------------------------------------------------
~ASCII -----------------------------------------------------
# ...
 8427.30000    9.59080    0.05760    0.04850    -999.25   35.55710  101.78960  159.35860  243.15050    0.03260    -999.25    2.63280  -64.12930
 8427.80000    9.59270    0.04900    0.04550    -999.25   36.94340  101.00810  159.28440  233.49810    0.03120    -999.25    2.61950  -63.81710
 8428.30000    9.59460    0.06100    0.04140    -999.25   37.66900   99.96460  159.10090  225.79010    0.03110    -999.25    2.62950  -63.40550
 8428.80000    9.59650    0.07420    0.04050    -999.25   37.65670   98.86260  157.48900  219.56950    0.03170    -999.25    2.64030  -62.94940
 8429.30000    9.59700    0.06740    0.04690    -999.25   37.77290   97.77440  153.29390  212.06230    0.03230    -999.25    2.63230  -62.45640
 8429.80000    9.59650    0.05530    0.04450    -999.25   38.19180   97.64140  148.99080  208.17840    0.03290    -999.25    2.62090  -62.21330
 8430.30000    9.59590    0.04320    0.03940    -999.25   39.55650   97.54190  144.97980  206.40410    0.03350    -999.25    2.62490  -61.56540
 8430.80000    9.59540    0.04350    0.03450    -999.25   41.17970   97.52010  144.19480  205.15170    0.03410    -999.25    2.63640  -61.08790
 8431.30000    9.59480    0.06220    0.03690    -999.25   43.41210   97.68700  146.44310  203.33240    0.03470    -999.25    2.64780  -61.04900
 8431.80000    9.59430    0.05800    0.03890    -999.25   44.95550   98.12790  151.80270  200.06370    0.03540    -999.25    2.64620  -61.09990
 8432.30000    9.59370    0.04800    0.03940    -999.25   47.11650   98.57080  164.05930  213.41370    0.03620    -999.25    2.63650  -60.73790
 8432.80000    9.59310    0.05280    0.03900    -999.25   48.98680   98.38520  177.49170  254.68130    0.03730    -999.25    2.63390  -60.59440
 8433.30000    9.59260    0.06450    0.03910    -999.25   51.57610   94.53140  179.92370  281.52290    0.04060    -999.25    2.64240  -60.35120
 8433.80000    9.59200    0.07450    0.05000    -999.25   54.27340   88.88860  162.92930  274.17280    0.05010    -999.25    2.64490  -59.88680
 8434.30000    9.59150    0.04520    0.05960    -999.25   56.31990   83.02790  139.84740  253.34900    0.05960    -999.25    2.61110  -59.21770
 8434.80000    9.59090    0.03510    0.06830    -999.25   57.35810   76.19460  110.66140  200.11650    0.06510    -999.25    2.59730  -58.88850
 8435.30000    9.59040    0.04370    0.06410    -999.25   58.29140   69.72920   87.66980  129.36340    0.06450    -999.25    2.58920  -58.63530
 8435.80000    9.58980    0.05680    0.05030    -999.25   59.06170   63.81400   76.15200   98.15650    0.06360    -999.25    2.59310  -58.05920
 8436.30000    9.58930    0.07220    0.04510    -999.25   59.03440   58.45340   70.08680   87.72340    0.06260    -999.25    2.61650  -57.87770
 8436.80000    9.58870    0.05560    0.05090    -999.25   58.67370   53.49560   64.53090   86.77800    0.06320    -999.25    2.63050  -57.70040
 8437.30000    9.58820    0.04450    0.05780    -999.25   58.31300   49.12650   59.41540   86.76820    0.06400    -999.25    2.62090  -57.32470
 8437.80000    9.58760    0.04460    0.04970    -999.25   57.95230   47.65510   55.45480   86.36040    0.06480    -999.25    2.60230  -56.78810
 8438.30000    9.58710    0.03340    0.05160    -999.25   57.91800   46.86340   54.18470   83.29540    0.06560    -999.25    2.60580  -56.63970
 8438.80000    9.58650    0.03460    0.04950    -999.25   57.90680   46.14630   52.66960   82.60640    0.06570    -999.25    2.61770  -56.87290
 8439.30000    9.58600    0.04630    0.04600    -999.25   57.89550   45.67960   51.53890   81.40970    0.06460    -999.25    2.62460  -56.87980
 8439.80000    9.58540    0.04240    0.04500    -999.25   57.44200   46.21200   51.77710   77.81360    0.06300    -999.25    2.62480  -56.95950
 8440.30000    9.58490    0.03740    0.04530    -999.25   55.75870   47.14770   52.57450   74.19900    0.06140    -999.25    2.61980  -56.91760
 8440.80000    9.58430    0.05150    0.03320    -999.25   53.67100   48.10330   54.36140   74.13770    0.05980    -999.25    2.62980  -56.71170
 8441.30000    9.58380    0.07070    0.02820    -999.25   52.18480   49.07910   56.62790   81.81650    0.05820    -999.25    2.65650  -56.59460
 8441.80000    9.58320    0.05960    0.04520    -999.25   50.86700   50.07310   58.52620   91.57560    0.05660    -999.25    2.64720  -56.19210
 8442.30000    9.58260    0.06270    0.02580    -999.25   49.06010   51.08800   60.82390   89.00350    0.05490    -999.25    2.62910  -55.89900
 8442.80000    9.58210    0.07360    0.00750    -999.25   47.91020   52.12360   63.28650   86.17980    0.05330    -999.25    2.65650  -55.95100
 8443.30000    9.58700    0.08450    0.01060    -999.25   47.24830   53.18000   66.20400   92.99860    0.05210    -999.25    2.68440  -56.01470
 8443.80000    9.58750    0.09460    0.03170    -999.25   47.19620   53.95020   68.05960   99.30310    0.05090    -999.25    2.68720  -56.35990
 8444.30000    9.58810    0.07290    0.04450    -999.25   47.89990   54.37090   67.56290  102.48860    0.05100    -999.25    2.65560  -56.53930
 8444.80000    9.58860    0.05120    0.05490    -999.25   48.63830   54.79530   66.51880  100.77300    0.05200    -999.25    2.62890  -56.83190
 8445.30000    9.58910    0.03290    0.05930    -999.25   48.76770   55.21340   65.25030   90.36060    0.05250    -999.25    2.61420  -56.84160
 8445.80000    9.58960    0.03550    0.05290    -999.25   48.12630   54.94100   65.15360   76.64440    0.05220    -999.25    2.60140  -56.69550
 8446.30000    9.59020    0.04780    0.04610    -999.25   46.46480   54.57970   65.83480   80.27770    0.05140    -999.25    2.61730  -56.21560
 8446.80000    9.59070    0.03500    0.05760    -999.25   46.15480   54.20710   66.95480   93.75320    0.05060    -999.25    2.62260  -56.35950
 8447.30000    9.59120    0.03870    0.05210    -999.25   45.71120   53.83700   67.47370  100.41550    0.04980    -999.25    2.60280  -56.63100
 8447.80000    9.59170    0.05460    0.03990    -999.25   45.51890   53.46950   65.45640   98.56330    0.04900    -999.25    2.62050  -56.83140
 8448.30000    9.59230    0.07440    0.02760    -999.25   45.85260   53.10450   63.90630   94.69890    0.04820    -999.25    2.65630  -56.99700
 8448.80000    9.59280    0.08220    0.03170    -999.25   46.30750   52.52530   62.35510   91.17380    0.04770    -999.25    2.65790  -56.92060
 8449.30000    9.59330    0.06360    0.03250    -999.25   46.79870   51.89210   61.42560   87.96960    0.04820    -999.25    2.64450  -56.97430
 8449.80000    9.59380    0.05020    0.02880    -999.25   47.28730   51.26620   61.21530   87.87300    0.04770    -999.25    2.64010  -56.79330
 8450.30000    9.59430    0.04890    0.02260    -999.25   46.79480   50.63920   61.28580   89.94250    0.04740    -999.25    2.65820  -57.12410
 8450.80000    9.59490    0.05420    0.01650    -999.25   46.09740   50.78240   61.54090   93.93940    0.04780    -999.25    2.67430  -57.40290
 8451.30000    9.59540    0.06030    0.02780    -999.25   45.41250   51.11920   62.28760   94.47380    0.04830    -999.25    2.66830  -57.73020
 8451.80000    9.59640    0.06300    0.02160    -999.25   44.69310   51.45880   62.71330   92.89790    0.04890    -999.25    2.65480  -57.68470
 8452.30000    9.60450    0.06890    0.02560    -999.25   44.04340   51.79970   63.05890   93.47230    0.04950    -999.25    2.65220  -57.40330
 8452.80000    9.61340    0.05910    0.02070    -999.25   43.39380   52.14380   63.23720   95.99340    0.04960    -999.25    2.66330  -57.71280
 8453.30000    9.62230    0.06890    0.02290    -999.25   43.74940   52.48970   63.63860   96.85410    0.04930    -999.25    2.66810  -57.78210
 8453.80000    9.63120    0.07930    0.03170    -999.25   44.45740   52.62160   64.11380   96.07770    0.04820    -999.25    2.65960  -57.36050
 8454.30000    9.64010    0.07210    0.03480    -999.25   45.87560   52.12170   64.62160   99.26280    0.04830    -999.25    2.65100  -56.60510
 8454.80000    9.64900    0.06150    0.04030    -999.25   47.61520   51.40230   63.44640  100.86810    0.04870    -999.25    2.64030  -56.22100
