~Version ---------------------------------------------------
VERS.      2.0 : CWLS log ASCII Standard -VERSION 2.0
WRAP.       NO : One line per depth step
CREA. 11/14/17 : LAS Creation Date
~Well ------------------------------------------------------
STRT.FT                             950.0 : START DEPTH
STOP.FT                           10850.0 : STOP DEPTH
STEP.FT                          50.00000 : STEP LENGTH
NULL.                             -999.25 : NULL VALUE
COMP.        CANADIAN HOMESTEAD OILS LTD. : COMPANY
WELL. HOMESTEAD ET AL ROSEVEAR 11-5-55-15 : WELL
FLD .                                     : FIELD
LOC .                                     : LOCATION
CTRY.                              CANADA : COUNTRY
SRVC.              Schlumberger of Canada : SERVICE COMPANY
DATE.                         05-Oct-1975 : LOGDATE
PROV.                             Alberta : PROVINCE
UWI .                    100110505515W500 : UNIQUE WELL ID
SLAT.WGS84                       53.72589 : SURFACE LATITUDE
SLON.WGS84                      -116.1973 : SURFACE LONGITUDE
~Curve Information -----------------------------------------
DEPT    .FT    : Depth Curve
CALDED  .IN    : CALIPER FROM DENSITY LOG
CALSED  .IN    : CALIPER FROM SONIC LOG
CALWS   .IN    : CALIPER [CALDED]
CONDWS  .MMHO  : CONDUCTIVITY [1000/DRESWS]
DCORWS  .G/C3  : DENSITY CORRECTION [DRHOED]
DENWS   .G/C3  : FORMATION BULK DENSITY [RHOBED]
DPHILSED.V/V   : DENSITY POROSITY LIME [M=2.71, F=1.00] FROM DENSITY LOG [ADJ. TO RHOBED]
DPHISSED.V/V   : DENSITY POROSITY SAND [M=2.65, F=1.00] FROM DENSITY LOG [ADJ. TO RHOBED]
DPOLSWS .V/V   : DENSITY POROSITY LIME [CALC FROM DENWS, M=2.71, F=1.00]
DRESWS  .OHMM  : DEEP RESISTIVITY [ILDED]
DRHOED  .G/C3  : DENSITY CORRECTION FROM DENSITY LOG
DTED    .US/F  : DELTA-T FROM SONIC LOG [ADJ. TO DENSITY LOG]
DTWS    .US/F  : COMPRESSIONAL SONIC [DTED]
GRDED   .GAPI  : GAMMA RAY FROM DENSITY LOG
GRSED   .GAPI  : GAMMA RAY FROM SONIC LOG
GRWS    .GAPI  : GAMMA RAY [GRSED SPL. TO GRDED @ 1083']
ILDED   .OHMM  : DEEP INDUCTION RESISTIVITY FROM RESISTIVITY LOG
ILMED   .OHMM  : INDUCTION MEDIUM RESISTIVITY FROM RESISTIVITY LOG
LL8ED   .OHMM  : LATEROLOG-8 RESISTIVITY FROM RESISTIVITY LOG
MRESWS  .OHMM  : MEDIUM RESISTIVITY [ILMED]
NPHILSED.V/V   : NEUTRON POROSITY LIME FROM DENSITY LOG
NPHISSED.V/V   : NEUTRON POROSITY SAND FROM DENSITY LOG
NPOLSWS .V/V   : NEUTRON POROSITY LIME [SS MATRIX CONVERT TO LS & SPL. TO LS @ 7306']
RHOBED  .G/C3  : BULK DENSITY FROM DENSITY LOG
SPRED   .MV    : SPONTANEOUS POTENTIAL FROM RESISTIVITY LOG
SPWS    .MV    : SPONTANEOUS POTENTIAL [BASELINE 0 MV, SPRED]
SRESWS  .OHMM  : SHALLOW RESISTIVITY [LL8ED]
~Params ----------------------------------------------------
PD  .                     GL : PERMANENT DATUM
EPD .FT               2836.1 : ELEVATION PERMANENT DATUM
LMF .                     KB : LOG MEASURED FROM
DAPD.FT                15.85 : FEET ABOVE PERMANENT DATUM
EKB .FT              2851.95 : KELLY BUSHING
EGL .FT               2836.1 : GROUND LEVEL
DATE.               10/05/75 : RUN DATE
RUN .                      1 : RUN NUMBER
DD  .FT                10878 : DEPTH DRILLER
DL  .FT                10878 : DEPTH LOGGER
BLI .FT                10872 : BOTTOM LOG INTERVAL
TLI .FT                 1099 : TOP LOG INTERVAL
CBD .FT                 1096 : CASING BOTTOM DRILLER
CBL .FT                 1099 : CASING BOTTOM LOGGER
BS  .IN                 8.75 : BIT SIZE
BSD .FT                10878 : BIT SIZE AT DEPTH
DFT .               GEL CHEM : DRILLING FLUID TYPE
DFD .                    9.7 : DRILLING FLUID DENSITY
DFV .                    487 : DRILLING FLUID VISCOSITY
DFPH.                   10.5 : DRILLING FLUID PH
MSS .             CIRCULATED : MUD SAMPLE SOURCE
RMS .OHMM               1.34 : RESISTIVITY MUD SAMPLE
MST .DEGF                 64 : MUD SAMPLE TEMPERATURE
RMF .OHMM               0.91 : RESISTIVITY MUD FILTRATE SAMPLE
MFST.DEGF                 74 : MUD FILTRATE SAMPLE TEMPERATURE
RMB .OHMM               0.34 : RESISTIVITY MUD AT BHT
TCS .HRS                   4 : TIME CIRCULATED STOPPED
LUN .                   7690 : LOGGING UNIT NUMBER
LUL .                    EDM : LOGGING UNIT LOCATION
ENGI.     WILLIGER WILTSHIRE : RECORDING ENGINEER
WITN.                  SLOAN : WITNESSED BY
CLNT.                A2DTECH : CLIENT CODE
ORIG.            2" 5" PRINT : ORIGIN OF DATA
UWI .       100110505515W500 : UNIQUE WELL ID
DICO. A2D Technologies, Inc. : DIGITIZING COMPANY
~Other -----------------------------------------------------
~ASCII -----------------------------------------------------
  950.00000    -999.25    -999.25    -999.25    -999.25    -999.25    -999.25    -999.25    -999.25    -999.25    -999.25    -999.25    -999.25    -999.25    -999.25   16.74300   16.74300    -999.25    -999.25    -999.25    -999.25    -999.25    -999.25    -999.25    -999.25    -999.25    -999.25    -999.25
 1000.00000    -999.25    -999.25    -999.25    -999.25    -999.25    -999.25    -999.25    -999.25    -999.25    -999.25    -999.25    -999.25    -999.25    -999.25   13.15690   13.15690    -999.25    -999.25    -999.25    -999.25    -999.25    -999.25    -999.25    -999.25    -999.25    -999.25    -999.25
 1050.00000    -999.25    -999.25    -999.25    -999.25    -999.25    -999.25    -999.25    -999.25    -999.25    -999.25    -999.25    -999.25    -999.25    -999.25   14.64330   14.64330    -999.25    -999.25    -999.25    -999.25    -999.25    -999.25    -999.25    -999.25    -999.25    -999.25    -999.25
 1100.00000   11.63750   10.52450   11.63750    -999.25    -999.25    -999.25    -999.25    0.32190    -999.25    -999.25    -999.25    -999.25    -999.25   82.79760   16.06790   82.79760    -999.25    -999.25    -999.25    -999.25    -999.25    0.50010    0.45840    -999.25    -999.25    -999.25    -999.25
 1150.00000   10.78760   11.66860   10.78760  118.69580    0.12500    2.46640    -999.25    0.11330    0.14250    8.42490    0.12500   99.31220   99.31220   70.96780   19.79050   70.96780    8.42490    7.78210    8.74110    7.78210    -999.25    0.41190    0.36930    2.46640 -130.73240  -11.56360    8.74110
 1200.00000   11.60480   13.01140   11.60480  116.07390    0.11160    2.37680    -999.25    0.16990    0.19490    8.61520    0.11160   96.78620   96.78620   70.14670   20.95180   70.14670    8.61520    7.12580    7.93020    7.12580    -999.25    0.36970    0.32630    2.37680 -126.27090   -3.63310    7.93020
 1250.00000   11.06520   12.74160   11.06520  111.09880    0.14750    2.47750    -999.25    0.11060    0.13600    9.00100    0.14750   97.26150   97.26150   72.64050   21.32620   72.64050    9.00100    8.69970   11.10470    8.69970    -999.25    0.35400    0.31040    2.47750 -130.88990   -7.21730   11.10470
 1300.00000   14.08860   13.49190   14.08860  206.58670    0.11620    1.55070    -999.25    0.59980    0.67800    4.84190    0.11620  144.56070  144.56070   70.81390   23.03080   70.81390    4.84190    4.80170    5.15720    4.80170    -999.25    0.61030    0.56870    1.55070 -129.64520   -5.82860    5.15720
 1350.00000   11.64340   13.72790   11.64340  160.23840    0.22940    2.19140    -999.25    0.28440    0.30330    6.24070    0.22940  110.20240  110.20240   78.00250   23.41920   78.00250    6.24070    5.48700    5.90380    5.48700    -999.25    0.38420    0.34100    2.19140 -129.97940   -6.01780    5.90380
 1400.00000   12.63590   13.12470   12.63590  109.77190    0.24490    2.08660    -999.25    0.34770    0.36460    9.10980    0.24490  108.84130  108.84130   85.32300   16.40210   85.32300    9.10980    7.86180    7.12560    7.86180    -999.25    0.38150    0.33830    2.08660 -131.10970   -7.00410    7.12560
 1450.00000   11.34120   15.32510   11.34120  127.80700    0.18920    2.25740    -999.25    0.25140    0.26470    7.82430    0.18920   91.36880   91.36880   56.08060   22.48420   56.08060    7.82430    8.05490   10.42580    8.05490    -999.25    0.31150    0.26760    2.25740 -130.70040   -6.44980   10.42580
 1500.00000   11.29580   15.40550   11.29580  175.58340    0.20650    2.08200    -999.25    0.34360    0.36730    5.69530    0.20650   99.18410   99.18410   90.80170   19.95140   90.80170    5.69530    4.90780    3.71020    4.90780    -999.25    0.34500    0.30130    2.08200 -129.84430   -5.44960    3.71020
 1550.00000   10.43340   13.13720   10.43340  116.13610    0.10630    2.46380    -999.25    0.12010    0.14400    8.61290    0.10630   93.15540   93.15540   82.92840   22.82050   82.92840    8.61290    7.16950    7.53970    7.16950    -999.25    0.32180    0.27790    2.46380 -131.59490   -7.05620    7.53970
 1600.00000   10.31840   12.71590   10.31840  207.96940    0.07930    2.48490    -999.25    0.10940    0.13160    4.80840    0.07930   81.31030   81.31030   78.87160   23.87250   78.87160    4.80840    4.67830    8.42720    4.67830    -999.25    0.36040    0.31690    2.48490 -132.02360   -7.33990    8.42720
 1650.00000   14.84300   11.82980   14.84300  122.92870    0.11260    2.16940    -999.25    0.30180    0.31610    8.13480    0.11260  115.65000  115.65000   90.11240   23.17380   90.11240    8.13480    5.68080    7.01430    5.68080    -999.25    0.47780    0.43610    2.16940 -133.68780   -8.86010    7.01430
 1700.00000   12.83610   14.72630   12.83610  182.50510    0.16510    2.52340    -999.25    0.08180    0.10910    5.47930    0.16510   96.54920   96.54920   98.46940   19.62460   98.46940    5.47930    4.53080    4.41640    4.53080    -999.25    0.25990    0.21590    2.52340 -132.21780   -7.24510    4.41640
 1750.00000   12.65250   11.42220   12.65250  107.99840    0.05360    2.46860    -999.25    0.11900    0.14120    9.25940    0.05360   86.71090   86.71090   72.06360   19.57530   72.06360    9.25940    7.63200    8.13500    7.63200    -999.25    0.26960    0.22560    2.46860 -132.87170   -7.75500    8.13500
 1800.00000   12.18470   11.39290   12.18470   98.50400    0.05880    2.54320    -999.25    0.06550    0.09750   10.15230    0.05880   77.64870   77.64870   69.64840   24.21520   69.64840   10.15230    8.23490    8.84130    8.23490    -999.25    0.20180    0.15840    2.54320 -133.85630   -8.59550    8.84130
 1850.00000   13.03720   12.37530   13.03720  134.72550    0.05640    2.58510    -999.25    0.03850    0.07300    7.42250    0.05640   76.91280   76.91280   68.50300   24.97980   68.50300    7.42250    6.99150    6.63920    6.99150    -999.25    0.18600    0.14280    2.58510 -134.36520   -8.95950    6.63920
 1900.00000   13.23420   11.85740   13.23420  232.79090    0.08370    2.37370    -999.25    0.17660    0.19670    4.29570    0.08370  114.69870  114.69870  103.67990   26.20130  103.67990    4.29570    3.51810    3.31930    3.51810    -999.25    0.39080    0.34780    2.37370 -131.16100   -5.61120    3.31930
 1950.00000   11.72250   13.51400   11.72250  111.85810    0.04510    2.49400    -999.25    0.10480    0.12630    8.93990    0.04510   83.55720   83.55720   61.29640   21.65690   61.29640    8.93990    7.35740    7.57470    7.35740    -999.25    0.27820    0.23420    2.49400 -132.57660   -6.88180    7.57470
 2000.00000   11.79200   12.45160   11.79200  194.35970    0.04010    2.46320    -999.25    0.11810    0.14430    5.14510    0.04010   97.92610   97.92610   87.55890   26.02100   87.55890    5.14510    4.24210    4.76730    4.24210    -999.25    0.38260    0.33940    2.46320 -130.97420   -5.13540    4.76730
 2050.00000   10.18040   15.03650   10.18040  180.65900    0.01440    2.43080    -999.25    0.31330    0.16330    5.53640    0.01440   95.52020   95.52020   83.30020   24.84800   83.30020    5.53640    4.67450    7.98070    4.67450    -999.25    0.37670    0.33340    2.43080 -130.60320   -4.62040    7.98070
 2100.00000   10.09470   15.35100   10.09470  227.28310    0.11470    2.51420    -999.25    0.36640    0.11450    4.39980    0.11470   99.29970   99.29970   87.38070   26.29340   87.38070    4.39980    3.45100    5.12230    3.45100    -999.25    0.41910    0.37660    2.51420 -132.20140   -6.07360    5.12230
 2150.00000   10.08440   13.02040   10.08440  272.19030    0.09610    2.42540    -999.25    0.14080    0.16640    3.67390    0.09610   99.90620   99.90620   98.25190   24.79040   98.25190    3.67390    3.47750    4.35760    3.47750    -999.25    0.38560    0.34250    2.42540 -131.48700   -5.21520    4.35760
 2200.00000    9.50010   10.34270    9.50010  301.58630    0.07040    2.48490    -999.25    0.10250    0.13160    3.31580    0.07040   97.83580   97.83580  102.14150   23.35020  102.14150    3.31580    2.59280    2.78900    2.59280    -999.25    0.39280    0.34980    2.48490 -130.62890   -4.21210    2.78900
