~Version ---------------------------------------------------
VERS.      2.0 : CWLS log ASCII Standard -VERSION 2.0
WRAP.       NO : One line per depth step
CREA. 11/15/17 : LAS Creation Date
~Well ------------------------------------------------------
STRT.FT                                  300.0 : START DEPTH
STOP.FT                                 8650.0 : STOP DEPTH
STEP.FT                               50.00000 : STEP LENGTH
NULL.                                  -999.25 : NULL VALUE
COMP. CONOCOPHILLIPS CANADA ENERGY PARTNERSHIP : COMPANY
WELL.       ATLANTIS UNIT S THREECK 9-17-34-25 : WELL
FLD .                                          : FIELD
LOC .                                          : LOCATION
CTRY.                                   CANADA : COUNTRY
SRVC.                   Schlumberger of Canada : SERVICE COMPANY
DATE.                              23-Jul-1959 : LOGDATE
PROV.                                  Alberta : PROVINCE
UWI .                         100091703425W400 : UNIQUE WELL ID
SLAT.WGS84                            51.92011 : SURFACE LATITUDE
SLON.WGS84                            -113.503 : SURFACE LONGITUDE
~Curve Information -----------------------------------------
DEPT  .FT         : Depth Curve
CALMED.IN         : CALIPER FROM MICRO LATEROLOG
CALWS .IN         : CALIPER [MCALED SPL. TO CALMED @ 6192']
CILDED.MMHO       : CONDUCTIVITY INDUCTION LOG FROM INDUCTION ELERICAL LOG
CONDWS.MMHO       : CONDUCTIVITY [1000/DRESWS]
DRESWS.OHMM       : DEEP RESISTIVITY [1000/CILDED, IF <5 ILDED, ILDED]
GRNED .UgRa-Eq/T  : GAMMA RAY  FROM GAMMA RAY NEUTRON LOG
GRWS  .GAPI       : GAMMA RAY [GRNED*16.50]
ILDED .OHMM       : DEEP INDUCTION RESISTIVITY FROM INDUCTION ELERICAL LOG
MCALED.IN         : MICROLOG CALIPER FROM MICROLOG
MLLED .OHMM       : MICRO-LATEROLOG RESISTIVITY FROM MICRO LATEROLOG
NEUTED.CPS        : NEUTRON FROM  GAMMA RAY NEUTRON LOG
NEUTWS.CPS        : NEUTRON [NEUTED]
SNED  .OHMM       : SHORT NORMAL 16 'FROM INDUCTION ELERICAL LOG
SPRED .MV         : SPONTANEOUS POTENTIAL FROM RESISTIVITY LOG
SPWS  .MV         : SPONTANEOUS POTENTIAL [SPRED]
SRESWS.OHMM       : SHALLOW RESISTIVITY [SNED]
~Params ----------------------------------------------------
PD  .                     KB : PERMANENT DATUM
EKB .FT                 2985 : KELLY BUSHING
EGL .FT               2971.8 : GROUND LEVEL
DATE.               07/23/59 : RUN DATE
RUN .                      2 : RUN NUMBER
DD  .FT                 8668 : DEPTH DRILLER
DL  .FT                 8667 : DEPTH LOGGER
BLI .FT                 8662 : BOTTOM LOG INTERVAL
TLI .FT                 6271 : TOP LOG INTERVAL
CBD .FT                 1211 : CASING BOTTOM DRILLER
CBL .FT                 1211 : CASING BOTTOM LOGGER
BS  .IN                    9 : BIT SIZE
BSD .FT                 8668 : BIT SIZE AT DEPTH
DFT .                    GEL : DRILLING FLUID TYPE
DFD .                   10.2 : DRILLING FLUID DENSITY
DFV .                     78 : DRILLING FLUID VISCOSITY
DFPH.                    6.4 : DRILLING FLUID PH
DFL .                      7 : DRILLING FLUID LOSS
RMS .OHMM                1.4 : RESISTIVITY MUD SAMPLE
MST .DEGF                 70 : MUD SAMPLE TEMPERATURE
RMF .OHMM                  1 : RESISTIVITY MUD FILTRATE SAMPLE
MFST.DEGF                 70 : MUD FILTRATE SAMPLE TEMPERATURE
RMC .OHMM                1.4 : RESISTIVITY MUD CAKE
MCST.DEGF                 70 : MUD CAKE SAMPLE TEMPERATURE
RMB .OHMM               0.63 : RESISTIVITY MUD AT BHT
TCS .HRS                 1.5 : TIME CIRCULATED STOPPED
LUN .                   2548 : LOGGING UNIT NUMBER
LUL .                      C : LOGGING UNIT LOCATION
ENGI.                 YUNKER : RECORDING ENGINEER
WITN.                DOMENKO : WITNESSED BY
CLNT.                A2DTECH : CLIENT CODE
ORIG.            2" 5" PRINT : ORIGIN OF DATA
UWI .       100091703425W400 : UNIQUE WELL ID
DICO. A2D Technologies, Inc. : DIGITIZING COMPANY
~Other -----------------------------------------------------
~ASCII -----------------------------------------------------
  300.00000    -999.25    -999.25    -999.25    -999.25    -999.25    2.38780   39.39870    -999.25    -999.25    -999.25  169.51540  169.51540    -999.25    -999.25    -999.25    -999.25
  350.00000    -999.25    -999.25    -999.25    -999.25    -999.25    3.17910   52.45520    -999.25    -999.25    -999.25  152.24630  152.24630    -999.25    -999.25    -999.25    -999.25
  400.00000    -999.25    -999.25    -999.25    -999.25    -999.25    5.51700   91.03050    -999.25    -999.25    -999.25  153.55360  153.55360    -999.25    -999.25    -999.25    -999.25
  450.00000    -999.25    -999.25    -999.25    -999.25    -999.25    5.83380   96.25770    -999.25    -999.25    -999.25  140.61160  140.61160    -999.25    -999.25    -999.25    -999.25
  500.00000    -999.25    -999.25    -999.25    -999.25    -999.25    2.62310   43.28110    -999.25    -999.25    -999.25  142.36690  142.36690    -999.25    -999.25    -999.25    -999.25
  550.00000    -999.25    -999.25    -999.25    -999.25    -999.25    2.83240   46.73460    -999.25    -999.25    -999.25  162.16460  162.16460    -999.25    -999.25    -999.25    -999.25
  600.00000    -999.25    -999.25    -999.25    -999.25    -999.25    5.68930   93.87350    -999.25    -999.25    -999.25  144.68840  144.68840    -999.25    -999.25    -999.25    -999.25
  650.00000    -999.25    -999.25    -999.25    -999.25    -999.25    2.72450   44.95430    -999.25    -999.25    -999.25  150.04090  150.04090    -999.25    -999.25    -999.25    -999.25
  700.00000    -999.25    -999.25    -999.25    -999.25    -999.25    2.54060   41.91990    -999.25    -999.25    -999.25  154.26880  154.26880    -999.25    -999.25    -999.25    -999.25
  750.00000    -999.25    -999.25    -999.25    -999.25    -999.25    4.33070   71.45660    -999.25    -999.25    -999.25  146.23860  146.23860    -999.25    -999.25    -999.25    -999.25
  800.00000    -999.25    -999.25    -999.25    -999.25    -999.25    3.44820   56.89530    -999.25    -999.25    -999.25  155.57130  155.57130    -999.25    -999.25    -999.25    -999.25
  850.00000    -999.25    -999.25    -999.25    -999.25    -999.25    3.04690   50.27380    -999.25    -999.25    -999.25  165.76370  165.76370    -999.25    -999.25    -999.25    -999.25
  900.00000    -999.25    -999.25    -999.25    -999.25    -999.25    3.89610   64.28570    -999.25    -999.25    -999.25  167.47880  167.47880    -999.25    -999.25    -999.25    -999.25
  950.00000    -999.25    -999.25    -999.25    -999.25    -999.25    3.29070   54.29660    -999.25    -999.25    -999.25  179.79760  179.79760    -999.25    -999.25    -999.25    -999.25
 1000.00000    -999.25    -999.25    -999.25    -999.25    -999.25    2.58310   42.62120    -999.25    -999.25    -999.25  177.96260  177.96260    -999.25    -999.25    -999.25    -999.25
 1050.00000    -999.25    -999.25    -999.25    -999.25    -999.25    2.94290   48.55780    -999.25    -999.25    -999.25  157.88820  157.88820    -999.25    -999.25    -999.25    -999.25
 1100.00000    -999.25    -999.25    -999.25    -999.25    -999.25    2.33720   38.56380    -999.25    -999.25    -999.25  170.40280  170.40280    -999.25    -999.25    -999.25    -999.25
 1150.00000    -999.25    -999.25    -999.25    -999.25    -999.25    2.61240   43.10460    -999.25    -999.25    -999.25  164.74220  164.74220    -999.25    -999.25    -999.25    -999.25
 1200.00000    -999.25    -999.25    -999.25    -999.25    -999.25    5.82330   96.08440    -999.25    -999.25    -999.25  159.85500  159.85500    -999.25    -999.25    -999.25    -999.25
 1250.00000    -999.25    -999.25  198.72480  198.72480    5.03210    5.34620   88.21230    4.68610    -999.25    -999.25  179.46260  179.46260    6.51010  -60.57920   -4.67800    6.51010
 1300.00000    -999.25    -999.25  143.48970  146.17320    6.84120    4.61080   76.07820    6.84120    -999.25    -999.25  198.06230  198.06230    9.00380  -59.48090   -3.88290    9.00380
 1350.00000    -999.25    -999.25  164.83160  177.95490    5.61940    4.74710   78.32710    5.61940    -999.25    -999.25  190.94810  190.94810    9.80510  -60.79090   -5.49800    9.80510
 1400.00000    -999.25    -999.25  243.76800  243.76800    4.10230    5.94710   98.12720    3.98180    -999.25    -999.25  193.56520  193.56520    4.96180  -59.18350   -4.19380    4.96180
 1450.00000    -999.25    -999.25  221.80780  221.80780    4.50840    5.22040   86.13660    4.41780    -999.25    -999.25  183.38360  183.38360    5.23530  -58.72620   -4.04160    5.23530
 1500.00000    -999.25    -999.25  100.22520  113.68670    8.79610    3.91770   64.64200    8.79610    -999.25    -999.25  224.41210  224.41210   10.30390  -61.34360   -6.96220   10.30390
 1550.00000    -999.25    -999.25  185.40350  195.13340    5.12470    4.94710   81.62720    5.12470    -999.25    -999.25  169.18760  169.18760    9.55870  -59.74460   -5.66630    9.55870
 1600.00000    -999.25    -999.25  165.93760  189.20400    5.28530    4.38410   72.33760    5.28530    -999.25    -999.25  186.17410  186.17410    8.11310  -59.05640   -5.28330    8.11310
 1650.00000    -999.25    -999.25  200.25380  200.25380    4.99370    4.62750   76.35380    4.88250    -999.25    -999.25  202.64660  202.64660    6.47500  -58.52140   -4.63180    6.47500
 1700.00000    -999.25    -999.25  215.54300  215.54300    4.63940    5.04430   83.23090    4.94150    -999.25    -999.25  190.44860  190.44860    5.72430  -58.04880   -3.73480    5.72430
 1750.00000    -999.25    -999.25  141.64600  153.96460    6.49500    4.43780   73.22370    6.49500    -999.25    -999.25  172.07760  172.07760   10.26290  -59.53940   -4.80370   10.26290
 1800.00000    -999.25    -999.25  306.90180  306.90180    3.25840    3.28120   54.13980    3.93630    -999.25    -999.25  172.03350  172.03350    7.56750  -59.23290   -4.07560    7.56750
 1850.00000    -999.25    -999.25  140.60160  153.30370    6.52300    4.01770   66.29200    6.52300    -999.25    -999.25  204.49050  204.49050    9.38310  -60.54270   -4.96100    9.38310
 1900.00000    -999.25    -999.25  194.79630  194.79630    5.13360    4.90570   80.94410    4.94140    -999.25    -999.25  189.03300  189.03300    8.67020  -61.62560   -5.62220    8.67020
 1950.00000    -999.25    -999.25   90.58090   98.75570   10.12600    3.28780   54.24870   10.12600    -999.25    -999.25  231.87610  231.87610   11.78000  -64.50500   -8.71460   11.78000
 2000.00000    -999.25    -999.25  152.33210  153.38830    6.51940    3.06450   50.56420    6.51940    -999.25    -999.25  155.52110  155.52110   17.40010  -60.32590   -4.75550   17.40010
 2050.00000    -999.25    -999.25  161.12750  168.41250    5.93780    3.68720   60.83880    5.93780    -999.25    -999.25  165.24650  165.24650    9.12920  -59.68920   -4.33880    9.12920
 2100.00000    -999.25    -999.25  160.96900  174.82210    5.72010    5.12810   84.61360    5.72010    -999.25    -999.25  200.58100  200.58100    6.96060  -58.67180   -3.54280    6.96060
 2150.00000    -999.25    -999.25  174.73480  185.38770    5.39410    4.90490   80.93080    5.39410    -999.25    -999.25  198.02640  198.02640    6.66270  -58.54430   -3.63530    6.66270
 2200.00000    -999.25    -999.25  205.85320  205.85320    4.85780    4.60800   76.03200    4.57830    -999.25    -999.25  182.84490  182.84490    5.67690  -60.50050   -5.81300    5.67690
 2250.00000    -999.25    -999.25  174.86900  196.60660    5.08630    4.84710   79.97720    5.08630    -999.25    -999.25  210.44440  210.44440    6.25500  -59.67700   -5.20940    6.25500
 2300.00000    -999.25    -999.25  107.78090  117.44670    8.51450    4.57180   75.43470    8.51450    -999.25    -999.25  204.55640  204.55640   10.80790  -60.32890   -6.08130   10.80790
 2350.00000    -999.25    -999.25   73.78240   79.69140   12.54840    2.96980   49.00170   12.54840    -999.25    -999.25  205.53430  205.53430   18.92080 -108.79110  -54.76500   18.92080
 2400.00000    -999.25    -999.25  204.64140  204.64140    4.88660    3.92500   64.76250    4.80810    -999.25    -999.25  182.52190  182.52190    5.94470  -58.19320   -4.38710    5.94470
