~Version ---------------------------------------------------
VERS.      2.0 : CWLS log ASCII Standard -VERSION 2.0
WRAP.       NO : One line per depth step
CREA. 12/01/17 : LAS Creation Date
~Well ------------------------------------------------------
STRT.FT                        1050.0 : START DEPTH
STOP.FT                        9950.0 : STOP DEPTH
STEP.FT                      50.00000 : STEP LENGTH
NULL.                         -999.25 : NULL VALUE
COMP.          PACIFIC PETROLEUMS LTD : COMPANY
WELL. PACIFIC ET AL KAYBOB 6-23-63-18 : WELL
FLD .                                 : FIELD
LOC .                                 : LOCATION
CTRY.                          CANADA : COUNTRY
SRVC.          Schlumberger of Canada : SERVICE COMPANY
DATE.                     28-Feb-1971 : LOGDATE
PROV.                         Alberta : PROVINCE
UWI .                100062306318W500 : UNIQUE WELL ID
SLAT.WGS84                   54.46224 : SURFACE LATITUDE
SLON.WGS84                  -116.6138 : SURFACE LONGITUDE
~Curve Information -----------------------------------------
DEPT  .FT    : Depth Curve
CALSED.IN    : CALIPER FROM SONIC LOG [ADJ. TO RESISTIVITY LOG]
CALWS .IN    : CALIPER [CALSED]
CILDED.MMHO  : DEEP INDUCTION CONDUCTIVITY FROM RESISTIVITY LOG
CONDWS.MMHO  : CONDUCTIVITY [1000/DRESWS]
DRESWS.OHMM  : DEEP RESISTIVITY [1000/CILDED IF ILDED<1,ILDED & SPL. TO ILDED @ 4488'
DTED  .US/F  : DELTA-T FROM SONIC LOG [ADJ. TO RESISTIVITY LOG]
DTWS  .US/F  : COMPRESSIONAL SONIC [DTED]
GRSED .GAPI  : GAMMA RAY FROM SONIC LOG [ADJ. TO RESISTIVITY LOG]
GRWS  .GAPI  : AMMA RAY [GRSED]
ILDED .OHMM  : DEEP INDUCTION FROM RESISTIVITY LOG
ILMED .OHMM  : MEDIUM INDUCTION FROM RESISTIVITY LOG
LL8ED .OHMM  : LATEROLOG 8 RESISTIVITY FROM RESISTIVITY LOG
MRESWS.OHMM  : MEDIUM RESISTIVITY [ILMED]
SPRED .MV    : SPONTANEOUS POTENTIAL FROM RESISTIVITY LOG
SPWS  .MV    : SPONTANEOUS POTENTIAL [BASELINE 0 MV,SPRED]
SRESWS.OHMM  : SHALLOW RESISTIVITY [LL8ED]
~Params ----------------------------------------------------
PD  .                     GL : PERMANENT DATUM
EPD .FT               2627.5 : ELEVATION PERMANENT DATUM
LMF .                     KB : LOG MEASURED FROM
DAPD.FT                 17.5 : FEET ABOVE PERMANENT DATUM
EKB .FT                 2645 : KELLY BUSHING
EGL .FT               2627.5 : GROUND LEVEL
DATE.               02/28/71 : RUN DATE
RUN .                      1 : RUN NUMBER
DD  .FT                 9960 : DEPTH DRILLER
DL  .FT                 9964 : DEPTH LOGGER
BLI .FT                 9958 : BOTTOM LOG INTERVAL
TLI .FT                 1035 : TOP LOG INTERVAL
CBD .FT                 1035 : CASING BOTTOM DRILLER
CBL .FT                 1035 : CASING BOTTOM LOGGER
BS  .IN                 8.75 : BIT SIZE
BSD .FT                 9960 : BIT SIZE AT DEPTH
DFT .              FRESH GEL : DRILLING FLUID TYPE
DFD .                    9.5 : DRILLING FLUID DENSITY
DFV .                     90 : DRILLING FLUID VISCOSITY
DFPH.                    9.5 : DRILLING FLUID PH
DFL .                    9.2 : DRILLING FLUID LOSS
MSS .               FLOWLINE : MUD SAMPLE SOURCE
RMS .OHMM               2.04 : RESISTIVITY MUD SAMPLE
MST .DEGF                 60 : MUD SAMPLE TEMPERATURE
RMF .OHMM               1.79 : RESISTIVITY MUD FILTRATE SAMPLE
MFST.DEGF                 60 : MUD FILTRATE SAMPLE TEMPERATURE
RMC .OHMM                1.7 : RESISTIVITY MUD CAKE
MCST.DEGF                 64 : MUD CAKE SAMPLE TEMPERATURE
RMB .OHMM               0.55 : RESISTIVITY MUD AT BHT
TCS .HRS                   5 : TIME CIRCULATED STOPPED
LUN .                   7501 : LOGGING UNIT NUMBER
LUL .                    EDM : LOGGING UNIT LOCATION
ENGI.                 BUFTON : RECORDING ENGINEER
WITN.                SHEDDEN : WITNESSED BY
CLNT.                A2DTECH : CLIENT CODE
ORIG.            2" 5" PRINT : ORIGIN OF DATA
UWI .       100062306318W500 : UNIQUE WELL ID
DICO. A2D Technologies, Inc. : DIGITIZING COMPANY
~Other -----------------------------------------------------
DIL-BHC LOG RUN
ALL DATA FROM TOP TO 4488' FROM 2" SCALE SECTION
~ASCII -----------------------------------------------------
 1050.00000   11.14630   11.14630  516.46310  531.63210    1.88100  119.95060  119.95060  125.87430  125.87430    1.88100    -999.25    3.71230    -999.25  -72.97080   -4.75490    3.71230
 1100.00000   12.57600   12.57600  375.63400  385.07450    2.59690  131.12170  131.12170   71.93550   71.93550    2.59690    -999.25    3.65120    -999.25  -71.97820   -3.76230    3.65120
 1150.00000   13.49310   13.49310  344.09060  350.66800    2.85170  119.28800  119.28800   63.75960   63.75960    2.85170    -999.25    4.21500    -999.25  -73.74830   -1.97880    4.21500
 1200.00000   13.85310   13.85310  252.59190  247.74550    4.03640  104.28280  104.28280   68.05470   68.05470    4.03640    -999.25    4.72450    -999.25  -79.15860   -3.00450    4.72450
 1250.00000   13.88420   13.88420  169.09290  163.71440    6.10820  111.36710  111.36710   59.22320   59.22320    6.10820    -999.25    6.50040    -999.25  -81.57700   -3.87490    6.50040
 1300.00000   13.93820   13.93820  302.46120  310.94530    3.21600  119.31750  119.31750   72.59680   72.59680    3.21600    -999.25    5.01470    -999.25  -82.40310   -4.79090    5.01470
 1350.00000   11.25950   11.25950  265.42860  251.95900    3.96890  108.69970  108.69970   71.53040   71.53040    3.96890    -999.25    4.98290    -999.25  -81.61690   -4.09520    4.98290
 1400.00000   11.36720   11.36720  238.81980  244.12870    4.09620  113.71480  113.71480   70.49650   70.49650    4.09620    -999.25    5.12270    -999.25  -79.93890   -2.50710    5.12270
 1450.00000   11.70130   11.70130  230.46860  213.06970    4.69330  112.48920  112.48920   65.69630   65.69630    4.69330    -999.25    5.40780    -999.25  -80.30000   -2.95860    5.40780
 1500.00000   10.72400   10.72400  185.45900  168.85050    5.92240   97.26520   97.26520   93.27380   93.27380    5.92240    -999.25    6.69410    -999.25  -80.34250   -3.09100    6.69410
 1550.00000   11.04380   11.04380  345.30510  343.11200    2.91450  122.62140  122.62140   71.06880   71.06880    2.91450    -999.25    4.13420    -999.25  -79.47390   -2.31230    4.13420
 1600.00000   10.86470   10.86470  223.41000  215.05840    4.64990  117.15430  117.15430   68.91770   68.91770    4.64990    -999.25    4.99530    -999.25  -79.44140   -2.37030    4.99530
 1650.00000    9.74090    9.74090  124.69470  123.51930    8.09590   89.71350   89.71350   79.24690   79.24690    8.09590    -999.25    8.55330    -999.25  -78.72590   -1.74470    8.55330
 1700.00000   10.99430   10.99430  344.51140  337.91780    2.95930  109.70210  109.70210   72.48520   72.48520    2.95930    -999.25    4.35530    -999.25  -78.46250   -1.57180    4.35530
 1750.00000   10.14260   10.14260  165.74410  162.83990    6.14100  100.12180  100.12180   65.70860   65.70860    6.14100    -999.25    6.72580    -999.25  -81.70820   -4.90740    6.72580
 1800.00000   10.90560   10.90560  161.16930  158.97750    6.29020   95.19130   95.19130   55.75220   55.75220    6.29020    -999.25    6.70230    -999.25  -80.53040   -3.81950    6.70230
 1850.00000   13.25520   13.25520  373.21580  365.65750    2.73480  114.82630  114.82630   55.82380   55.82380    2.73480    -999.25    3.94490    -999.25  -80.35630   -3.73590    3.94490
 1900.00000    9.55300    9.55300   99.59670   95.37890   10.48450  104.91510  104.91510   43.90870   43.90870   10.48450    -999.25    9.01400    -999.25  -86.57800  -10.04750    9.01400
 1950.00000    9.10080    9.10080  108.44040  108.49870    9.21670  101.72190  101.72190   51.54090   51.54090    9.21670    -999.25    9.84650    -999.25  -87.74520  -11.26470    9.84650
 2000.00000    9.96970    9.96970  160.51360  156.09390    6.40640   97.63600   97.63600   46.63640   46.63640    6.40640    -999.25    7.07050    -999.25  -78.01730   -1.55060    7.07050
 2050.00000   10.06450   10.06450  161.72290  159.16220    6.28290  100.91330  100.91330   65.02340   65.02340    6.28290    -999.25    7.71430    -999.25  -80.01750   -3.56470    7.71430
 2100.00000   10.25630   10.25630  205.85230  203.79880    4.90680   92.65480   92.65480   50.92870   50.92870    4.90680    -999.25    5.59560    -999.25  -78.01620   -1.57740    5.59560
 2150.00000    9.26590    9.26590  117.51020  114.72490    8.71650   99.19400   99.19400   57.56300   57.56300    8.71650    -999.25    9.37450    -999.25  -82.16640   -5.74140    9.37450
 2200.00000   10.27160   10.27160  236.15790  234.08240    4.27200  109.31170  109.31170   60.42880   60.42880    4.27200    -999.25    5.15390    -999.25  -79.07670   -2.66570    5.15390
 2250.00000   10.25580   10.25580  225.63740  213.44720    4.68500  101.22930  101.22930   56.09260   56.09260    4.68500    -999.25    5.40780    -999.25  -77.46380   -1.06670    5.40780
 2300.00000   10.65900   10.65900  293.11190  287.75320    3.47520  101.38530  101.38530   44.33720   44.33720    3.47520    -999.25    5.02370    -999.25  -79.23050   -2.84730    5.02370
 2350.00000   10.45320   10.45320  181.29190  182.58170    5.47700  101.87810  101.87810   44.23960   44.23960    5.47700    -999.25    6.37140    -999.25  -78.34920   -1.97990    6.37140
 2400.00000   10.34620   10.34620  200.53510  193.66330    5.16360   99.60050   99.60050   54.22160   54.22160    5.16360    -999.25    5.54370    -999.25  -78.68350   -2.32810    5.54370
 2450.00000    9.35530    9.35530   80.24480   77.47130   12.90800   92.57780   92.57780   39.60380   39.60380   12.90800    -999.25   12.49250    -999.25  -84.68580   -8.29910   12.49250
 2500.00000    9.07880    9.07880  219.73830  208.53320    4.79540   91.81720   91.81720   49.83170   49.83170    4.79540    -999.25    5.70340    -999.25  -78.88820   -2.46620    5.70340
 2550.00000    8.61810    8.61810   70.33140   66.52340   15.03230   96.33000   96.33000   37.00020   37.00020   15.03230    -999.25   13.37840    -999.25  -92.49730  -16.04000   13.37840
 2600.00000   12.18520   12.18520  234.68370  250.37560    3.99400  107.11210  107.11210   43.67720   43.67720    3.99400    -999.25    5.24180    -999.25  -79.65870   -3.17080    5.24180
 2650.00000   11.60570   11.60570  245.93090  243.32080    4.10980  104.98670  104.98670   56.93780   56.93780    4.10980    -999.25    5.10160    -999.25  -79.40230   -2.91430    5.10160
 2700.00000    9.76240    9.76240  128.30540  129.58240    7.71710   91.03410   91.03410   48.47000   48.47000    7.71710    -999.25    9.42900    -999.25  -82.30700   -5.81900    9.42900
 2750.00000    9.55030    9.55030  117.28230  113.92510    8.77770   91.38130   91.38130   38.12110   38.12110    8.77770    -999.25   11.61270    -999.25  -87.41170  -10.92370   11.61270
 2800.00000    9.55590    9.55590  175.51490  174.53230    5.72960   90.33260   90.33260   57.99460   57.99460    5.72960    -999.25    6.69720    -999.25  -80.41260   -3.92460    6.69720
 2850.00000    9.93700    9.93700  226.77550  228.68120    4.37290   96.74100   96.74100   54.70510   54.70510    4.37290    -999.25    5.86960    -999.25  -80.17380   -3.68580    5.86960
 2900.00000   10.17650   10.17650  230.93650  222.23700    4.49970   97.20260   97.20260   54.37850   54.37850    4.49970    -999.25    5.95870    -999.25  -78.40000   -1.91210    5.95870
 2950.00000   10.26000   10.26000  145.97990  143.68640    6.95960   86.04790   86.04790   62.76360   62.76360    6.95960    -999.25    8.94570    -999.25  -78.44760   -1.91580    8.94570
 3000.00000   10.88790   10.88790  156.17660  153.66650    6.50760   93.04200   93.04200   88.10150   88.10150    6.50760    -999.25    7.40870    -999.25  -81.10090   -4.19870    7.40870
 3050.00000   12.81890   12.81890  158.15950  152.77200    6.54570   92.20920   92.20920   68.04010   68.04010    6.54570    -999.25    7.59420    -999.25  -81.32420   -4.05170    7.59420
 3100.00000   12.62730   12.62730  147.71820  143.01450    6.99230   92.63100   92.63100   72.44800   72.44800    6.99230    -999.25    7.85220    -999.25  -80.37740   -2.73210    7.85220
 3150.00000   10.39970   10.39970  128.49410  126.11770    7.92910   99.64350   99.64350  114.16650  114.16650    7.92910    -999.25   10.79640    -999.25  -77.97990   -3.70860   10.79640
