~Version ---------------------------------------------------
VERS.      2.0 : CWLS log ASCII Standard -VERSION 2.0
WRAP.       NO : One line per depth step
CREA. 09/16/14 : LAS Creation Date
~Well ------------------------------------------------------
STRT.FT                         1450.0 : START DEPTH
STOP.FT                        13550.0 : STOP DEPTH
STEP.FT                       50.00000 : STEP LENGTH
NULL.                          -999.25 : NULL VALUE
COMP. AMOCO CANADA PETROLEUM CO., LTD. : COMPANY
WELL.            AMOCO TONY 7-16-62-24 : WELL
FLD .                                  : FIELD
LOC .                                  : LOCATION
CTRY.                           CANADA : COUNTRY
SRVC.                     Schlumberger : SERVICE COMPANY
DATE.                      27-Nov-1977 : LOGDATE
PROV.                          Alberta : PROVINCE
UWI .                 100071606224W500 : UNIQUE WELL ID
SLAT.WGS84                    54.36239 : SURFACE LATITUDE
SLON.WGS84                   -117.5361 : SURFACE LONGITUDE
~Curve Information -----------------------------------------
DEPT   .FT    : DEPTH FEET
CALD   .IN    : CALIPER FROM DENSITY LOG
CALS   .IN    : CALIPER FROM SONIC LOG
DPHI_LS.V/V   : DENSITY POROSITY LIMESTONE [M=2.71,F=1.0] FROM DENSITY LOG
DPHI_SS.V/V   : DENSITY POROSITY SANDSTONE [M=2.65,F=1.0] FROM DENSITY LOG
DRHO   .G/C3  : DENSITY CORRECTION FROM DENSITY LOG
DT     .US/F  : DELTA TIME FROM SONIC LOG
GRD    .GAPI  : GAMMA RAY FROM DENSITY LOG
GRS    .GAPI  : GAMMA RAY FROM SONIC LOG
ILD    .OHMM  : DEEP INDUCTION FROM RESISTIVITY LOG
ILM    .OHMM  : MEDIUM INDUCTION FROM RESISTIVITY LOG
LL8    .OHMM  : 8 INCH LATEROLOG RESISTIVITY FROM RESISTIVITY LOG
NPHI_LS.V/V   : NEUTRON POROSITY LIMESTONE FROM DENSITY LOG
NPHI_SS.V/V   : NEUTRON POROSITY SANDSTONE FROM DENSITY LOG
RHOB   .G/C3  : BULK DENSITY FROM DENSITY LOG
SPR    .MV    : SPONTANEOUS POTENTIAL FROM RESISTIVITY LOG
~Params ----------------------------------------------------
PD  .                     GL : PERMANENT DATUM
EPD .FT                 5402 : ELEVATION PERMANENT DATUM
LMF .                     KB : LOG MEASURED FROM
DAPD.FT                   17 : FEET ABOVE PERMANENT DATUM
DATE.               11/27/77 : RUN DATE
RUN .                      2 : RUN NUMBER
DD  .FT                13685 : DEPTH DRILLER
DL  .FT                13579 : DEPTH LOGGER
BLI .FT                13573 : BOTTOM LOG INTERVAL
TLI .FT                 8448 : TOP LOG INTERVAL
CBD .FT                 8448 : CASING BOTTOM DRILLER
CBL .FT                 8448 : CASING BOTTOM LOGGER
BSD .FT                13685 : BIT SIZE AT DEPTH
DFT .                    8.6 : DRILLING FLUID TYPE
DFD .                     86 : DRILLING FLUID DENSITY
CLNT.                A2DTECH : CLIENT CODE
ORIG.          1" 2.5" PRINT : ORIGIN OF DATA
UWI .       100071606224W500 : UNIQUE WELL ID
DICO. A2D Technologies, Inc. : DIGITIZING COMPANY
~Other -----------------------------------------------------
~ASCII -----------------------------------------------------
 1450.00000    -999.25    -999.25    -999.25    -999.25    -999.25    -999.25    -999.25   50.55310    -999.25    -999.25    -999.25    -999.25    -999.25    -999.25    -999.25
 1500.00000    -999.25    -999.25    -999.25    -999.25    -999.25    -999.25   45.84780   46.80630    -999.25    -999.25    -999.25    -999.25    0.56900    -999.25    -999.25
 1550.00000   14.24300   13.14180    -999.25    0.16680    0.03750  104.21910   78.56110   85.34190    6.33240    4.74500    5.54030    -999.25    0.40220    2.38820  -26.90740
 1600.00000   13.89530   12.74550    -999.25    0.08790    0.04400   74.58430   69.84410   74.62040   15.58060   13.84470   16.79180    -999.25    0.22040    2.51540  -25.90370
 1650.00000   14.58130   12.84470    -999.25    0.13310    0.04530   87.76340   61.52980   77.59960   11.99430    8.98250   12.14280    -999.25    0.25880    2.42860  -24.46470
 1700.00000   14.05560   12.75920    -999.25    0.22110    0.06080   95.89390   61.62570   67.74350   13.17010   10.11320   10.52410    -999.25    0.34240    2.29480  -29.89880
 1750.00000   12.30120   12.85710    -999.25    0.24040    0.06450   99.58880   82.44550  101.58130    6.98310    5.16540    6.20010    -999.25    0.42620    2.24770  -25.97620
 1800.00000   12.25620   12.84500    -999.25    0.25190    0.08940  101.00280   92.24790  104.73590    6.94440    5.67890    7.19420    -999.25    0.41140    2.24180  -23.24240
 1850.00000   14.50520   12.99150    -999.25    0.43770    0.17580  104.68690   91.00310   99.78370    6.22710    5.14100   10.72430    -999.25    0.42950    1.85090  -24.68520
 1900.00000   12.39190   12.73200    -999.25    0.22590    0.10000   91.40370   77.73490   76.21990    6.62750    5.31290    6.99960    -999.25    0.39620    2.26200  -26.29820
 1950.00000   15.85450   12.92180    -999.25    0.46440    0.21490  104.26640   86.04440   95.63680    6.20000    5.08750    6.93840    -999.25    0.44100    2.00720  -24.04690
 2000.00000   11.69650   12.43810    -999.25    0.17180    0.02370   90.84790   80.24530   85.26860    7.53510    5.84060    6.87020    -999.25    0.37220    2.37600  -26.97300
 2050.00000   11.77820   12.22570    -999.25    0.21910    0.04510   88.61340   80.34030   81.25530    6.80500    5.44000    6.54540    -999.25    0.37090    2.29630  -26.01720
 2100.00000   12.00790   12.22790    -999.25    0.30550    0.12770   89.00930   78.48970   76.80250    6.81230    5.18970    5.33070    -999.25    0.36660    2.19960  -25.99040
 2150.00000   12.88970   12.53030    -999.25    0.23850    0.19840   91.40810   89.26820   93.74080    8.64040    6.97920    7.40160    -999.25    0.38170    2.25810  -27.47870
 2200.00000   14.82830   12.95870    -999.25    0.34560    0.15790   95.41830   86.46290  100.75020    5.84760    4.79210    5.74920    -999.25    0.40920    2.06920  -25.62140
 2250.00000   12.47190   12.70620    -999.25    0.35630    0.20270  108.24430  104.30440  119.05520    5.94280    4.50710    5.58370    -999.25    0.45840    2.01850  -25.52880
 2300.00000   11.47090   12.18700    -999.25    0.33190    0.10550  130.25220  101.87850  107.29330    3.42620    2.85220    4.08990    -999.25    0.51570    2.11800  -26.37440
 2350.00000   11.73600   12.39220    -999.25    0.27270    0.03180   83.49750   64.44290   65.12370    6.93290    5.46990    6.12770    -999.25    0.35180    2.20960  -27.47250
 2400.00000   11.48920   12.07090    -999.25    0.18360    0.10470   89.97910   68.75830   62.53800    8.85170    6.83880    7.38550    -999.25    0.32630    2.35730  -29.57060
 2450.00000   14.49810   12.66970    -999.25    0.26800    0.08730  100.62820   99.84520  103.54360    3.08170    2.82080    3.51650    -999.25    0.43940    2.18710  -24.45910
 2500.00000   13.82010   12.60780    -999.25    0.29530    0.06990  104.41090  101.10960  111.53920    3.42380    2.72750    3.62740    -999.25    0.50160    2.17260  -26.49220
 2550.00000   13.16910   12.44660    -999.25    0.31960    0.19430   94.04890   96.60740  111.24180    7.12720    5.82270    6.55570    -999.25    0.40260    2.11790  -26.86830
 2600.00000   12.86380   12.36800    -999.25    0.32290    0.20130   94.20160   74.85890   87.08890    5.35720    4.32930    5.28140    -999.25    0.40860    2.11020  -26.02680
 2650.00000   13.18300   12.57960    -999.25    0.35760    0.16520  113.22460   88.90010   99.48310    2.99760    2.45270    3.40180    -999.25    0.49780    2.06040  -27.23230
 2700.00000   14.88310   12.83910    -999.25    0.39570    0.13490  104.18210   90.53210   92.22210    4.58300    3.82770    4.47710    -999.25    0.50380    1.99150  -28.83470
 2750.00000   15.22940   12.96100    -999.25    0.39640    0.18180  108.09610  113.27140  121.13830    2.59800    2.26530    3.00020    -999.25    0.45760    2.04740  -26.69870
 2800.00000   13.14750   12.61550    -999.25    0.34130    0.09500  116.76530   88.24550   97.11410    6.45810    5.12910    7.57240    -999.25    0.57700    2.04260  -27.70620
 2850.00000   12.31830   12.53060    -999.25    0.27550    0.18770   86.80540  100.88150  111.58470    9.34290    7.66000    8.68680    -999.25    0.41590    2.16780  -28.78620
 2900.00000   13.08780   12.40740    -999.25    0.33790    0.16340   96.70990   98.47580  101.66460    4.38210    3.85600    4.68090    -999.25    0.44250    2.08600  -26.11850
 2950.00000   15.18190   12.64930    -999.25    0.42850    0.11790   94.64390   93.86310  100.71530    4.44680    3.54870    4.84240    -999.25    0.46820    1.96390  -27.06660
 3000.00000   13.96130   12.42220    -999.25    0.36600    0.20180  102.46530   92.41930   98.91980    4.84900    4.12560    5.03390    -999.25    0.42820    2.03770  -28.09540
 3050.00000   12.35640   12.33440    -999.25    0.18010    0.19930   84.81110   81.23430   88.84070   11.02670    9.50360   10.90570    -999.25    0.34520    2.31020  -28.55350
 3100.00000   11.93400   12.27040    -999.25    0.21420    0.16340   86.49970   73.69490   81.11370    8.80350    7.48660   10.40630    -999.25    0.36650    2.28610  -27.38400
 3150.00000   12.01850   12.44130    -999.25    0.39150    0.13180  114.94530   90.32990   93.75970    4.53570    3.87220    6.45350    -999.25    0.55670    1.99030  -27.42900
 3200.00000   12.32590   12.53920    -999.25    0.31910    0.15080   93.40120   85.89840   90.56640    8.50950    6.60650    7.63070    -999.25    0.44650    2.12410  -28.59610
 3250.00000   12.95230   12.56140    -999.25    0.31160    0.14920  101.84370   76.52000   88.00140    5.11820    4.17500    4.89750    -999.25    0.46020    2.14550  -27.99630
 3300.00000   13.77620   12.93250    -999.25    0.30880    0.14450  102.90760   85.27780   94.44360    5.66780    4.80860    5.25260    -999.25    0.50410    2.10990  -26.99200
 3350.00000   11.15710   12.22410    -999.25    0.23050    0.11260   87.74280   56.29870   61.20710   18.36730   15.28630   15.63170    -999.25    0.36330    2.26960  -48.21070
 3400.00000   11.72510   12.94480    -999.25    0.19350    0.11490   88.92560   76.04020   86.34760    5.17030    4.22300    4.94410    -999.25    0.44590    2.32370  -27.08650
 3450.00000   11.50290   12.39700    -999.25    0.42360    0.13220  124.45520  121.23200  143.61920    2.32670    2.17790    3.27870    -999.25    0.54010    1.93560  -27.15690
 3500.00000   12.75490   12.24140    -999.25    0.27680    0.13750   91.57990   91.60540  100.09060    5.34140    4.50130    5.32640    -999.25    0.41650    2.18470  -26.83540
 3550.00000   13.30070   12.37170    -999.25    0.21180    0.21020   85.85050   69.58560   73.93530    9.22760    7.65840    7.91880    -999.25    0.39600    2.31650  -29.25490
 3600.00000   11.67330   12.25940    -999.25    0.16970    0.04820   82.37020   57.55470   58.07830   11.61880   10.69300   11.63660    -999.25    0.31520    2.37370  -29.19270
 3650.00000   12.16300   12.49940    -999.25    0.24330    0.16980   96.66300   74.96460   77.46060    5.73650    4.52830    5.12280    -999.25    0.50360    2.23700  -29.54240
 3700.00000   11.87660   12.23130    -999.25    0.24240    0.10700   94.14560   70.62790   73.08440    4.87170    4.23940    5.16130    -999.25    0.48430    2.25760  -30.20340
