~Version ---------------------------------------------------
VERS.      2.0 : CWLS log ASCII Standard -VERSION 2.0
WRAP.       NO : One line per depth step
CREA. 07/26/17 : LAS Creation Date
~Well ------------------------------------------------------
STRT.FT                     1250.0 : START DEPTH
STOP.FT                    11900.0 : STOP DEPTH
STEP.FT                   50.00000 : STEP LENGTH
NULL.                      -999.25 : NULL VALUE
COMP.         TALISMAN ENERGY INC. : COMPANY
WELL. BP ETHYL BASELINE 11-4-66-26 : WELL
FLD .                              : FIELD
LOC .                              : LOCATION
CTRY.                       CANADA : COUNTRY
SRVC.                      Unknown : SERVICE COMPANY
DATE.                  19-Feb-1971 : LOGDATE
PROV.                      Alberta : PROVINCE
UWI .             100110406626W500 : UNIQUE WELL ID
SLAT.WGS84                54.68586 : SURFACE LATITUDE
SLON.WGS84               -117.8738 : SURFACE LONGITUDE
~Curve Information -----------------------------------------
DEPT  .FT    : Depth Curve
CALSED.IN    : CALIPER FROM SONIC LOG
CALWS .IN    : CALIPER [CALSED]
CILDED.MMHO  : CONDUCTIVITY FROM RESISTIVITY LOG
CONDWS.MMHO  : CONDUCTIVITY [1000/DRESWS]
DRESWS.OHMM  : DEEP RESISTIVITY [1000/CILDED, IF ILDED < 5. ILDED]
DTED  .US/F  : DELTA-T FROM SONIC LOG
DTWS  .US/F  : COMPRESSIONAL SONIC [DTED]
GRSED .GAPI  : GAMMA RAY FROM SONIC LOG
GRWS  .GAPI  : GAMMA RAY [GRSED]
ILDED .OHMM  : INDUCTION DEEP RESISTIVITY
SNED  .OHMM  : SHORT NORMAL FROM  RESISTIVITY LOG
SPRED .MV    : SPONTANEOUS POTENTIAL FROM RESISTIVITY LOG
SPWS  .MV    : SPONTANEOUS POTENTIAL [BASELINE 0 MV, SPRED]
SRESWS.OHMM  : SHALLOW RESISITIVITY [SNED]
~Params ----------------------------------------------------
PD  .                     GL : PERMANENT DATUM
EPD .FT                 2594 : ELEVATION PERMANENT DATUM
LMF .                     KB : LOG MEASURED FROM
DAPD.FT                   14 : FEET ABOVE PERMANENT DATUM
EKB .FT                 2608 : KELLY BUSHING
EGL .FT                 2594 : GROUND LEVEL
DATE.               02/19/71 : RUN DATE
RUN .                      1 : RUN NUMBER
DD  .FT                11931 : DEPTH DRILLER
DL  .FT                11931 : DEPTH LOGGER
BLI .FT                11930 : BOTTOM LOG INTERVAL
TLI .FT                 1238 : TOP LOG INTERVAL
CBD .FT                 1238 : CASING BOTTOM DRILLER
CBL .FT                 1238 : CASING BOTTOM LOGGER
BS  .IN                7.875 : BIT SIZE
BSD .FT                11931 : BIT SIZE AT DEPTH
DFT .                    GEL : DRILLING FLUID TYPE
DFD .                    9.5 : DRILLING FLUID DENSITY
DFV .                     80 : DRILLING FLUID VISCOSITY
DFPH.                     10 : DRILLING FLUID PH
DFL .                    7.8 : DRILLING FLUID LOSS
RMS .OHMM               0.97 : RESISTIVITY MUD SAMPLE
MST .DEGF                 72 : MUD SAMPLE TEMPERATURE
RMF .OHMM               0.67 : RESISTIVITY MUD FILTRATE SAMPLE
MFST.DEGF                 74 : MUD FILTRATE SAMPLE TEMPERATURE
TCS .HRS                   4 : TIME CIRCULATED STOPPED
LUN .                   7002 : LOGGING UNIT NUMBER
LUL .                     RD : LOGGING UNIT LOCATION
ENGI.                 TALBOT : RECORDING ENGINEER
WITN.    KERKEGI DANIELEWICZ : WITNESSED BY
CLNT.                A2DTECH : CLIENT CODE
ORIG.            2" 5" PRINT : ORIGIN OF DATA
UWI .       100110406626W500 : UNIQUE WELL ID
DICO. A2D Technologies, Inc. : DIGITIZING COMPANY
~Other -----------------------------------------------------
~ASCII -----------------------------------------------------
# ...
 8600.00000    8.33160    8.33160   26.23600   27.42870   36.45820   51.57020   51.57020   13.83680   13.83680   36.45820   43.22800  -31.46440  -41.64840   43.22800
 8650.00000    8.61510    8.61510    3.69480    2.80270  365.79500   50.92610   50.92610   11.73840   11.73840  365.79500  169.73980  -78.47470  -87.18790  169.73980
 8700.00000    8.03320    8.03320  220.20750  220.20750    4.54120   63.56630   63.56630   16.32800   16.32800    4.81630   22.35700 -117.41680 -124.64960   22.35700
 8750.00000    8.66990    8.66990    4.75220    3.15370  317.09190   49.30780   49.30780   10.28850   10.28850  317.09190  140.29720  -87.97450  -93.73650  140.29720
 8800.00000    8.53000    8.53000   47.42790   45.97190   21.78700   61.43870   61.43870   63.64630   63.64630   21.78700   26.09500  -20.92100  -25.21220   26.09500
 8850.00000    8.30500    8.30500   49.28570   47.12600   21.21970   54.40370   54.40370   50.54200   50.54200   21.21970   24.06530  -36.37880  -39.18950   24.06530
 8900.00000    8.25810    8.25810   22.45300   21.38740   46.75730   57.88340   57.88340   35.61700   35.61700   46.75730   35.31220  -21.90630  -23.24620   35.31220
 8950.00000    9.36860    9.36860  102.98350   95.30530   10.49260   68.30640   68.30640   50.18440   50.18440   10.49260   15.03770  -18.52410  -18.38360   15.03770
 9000.00000    8.62570    8.62570   64.58970   56.19650   17.79470   52.22950   52.22950   27.09210   27.09210   17.79470   21.18000  -12.18070  -10.56940   21.18000
 9050.00000    8.47880    8.47880    9.02440    6.19880  163.39870   53.90840   53.90840   11.38370   11.38370  163.39870   66.39380   -6.28670   -3.20460   66.39380
 9100.00000    8.26170    8.26170   23.40120   21.08400   47.42940   54.42190   54.42190   28.56640   28.56640   47.42940   49.43820  -10.47210   -6.66410   49.43820
 9150.00000    8.24530    8.24530   47.03100   44.56340   22.44000   60.27800   60.27800   39.74290   39.74290   22.44000   26.43060  -17.89210  -14.01210   26.43060
 9200.00000    8.34050    8.34050   36.71700   34.93610   28.62370   58.26620   58.26620   39.50160   39.50160   28.62370   33.38040  -25.37190  -21.41940   33.38040
 9250.00000    8.37940    8.37940   49.15540   45.82240   21.82340   64.30220   64.30220   60.47470   60.47470   21.82340   29.20060  -28.47640  -24.45190   29.20060
 9300.00000    8.17610    8.17610   26.14200   23.76790   42.10080   59.78450   59.78450   54.03760   54.03760   42.10080   44.47360  -31.02290  -26.92630   44.47360
 9350.00000    8.17690    8.17690   12.30080   10.00690   99.93080   55.14420   55.14420   27.69910   27.69910   99.93080   72.17740  -38.39610  -34.22700   72.17740
 9400.00000    8.29220    8.29220    6.85040    5.40100  185.15330   55.78930   55.78930   24.03900   24.03900  185.15330  123.21700  -42.78040  -38.53930  123.21700
 9450.00000    8.09470    8.09470   47.83950   43.61780   22.92640   60.85790   60.85790   74.06190   74.06190   22.92640   33.60980  -48.22010  -43.90640   33.60980
 9500.00000    8.12950    8.12950    3.31130    1.73430  576.60900   50.27380   50.27380   11.10480   11.10480  576.60900  268.61630  -96.52400  -92.13840  268.61630
 9550.00000    8.45380    8.45380    3.24730    1.72980  578.11150   50.55530   50.55530   10.10230   10.10230  578.11150  219.63800 -104.60940 -100.15170  219.63800
 9600.00000    8.61700    8.61700    4.22550    1.98910  502.74680   50.94740   50.94740   12.42550   12.42550  502.74680  231.08490 -112.11850 -107.58830  231.08490
 9650.00000    8.64820    8.64820    2.58140    1.72560  579.49580   50.43180   50.43180   10.23960   10.23960  579.49580  236.13750 -128.36990 -123.76770  236.13750
 9700.00000    8.54860    8.54860    3.73540    1.70400  586.84610   52.63800   52.63800   11.07470   11.07470  586.84610  193.34440 -143.65130 -138.97660  193.34440
 9750.00000    8.64440    8.64440    2.84150    1.78970  558.74910   49.69310   49.69310    7.48000    7.48000  558.74910  183.29600 -163.03540 -158.28860  183.29600
 9800.00000    8.42320    8.42320    2.75960    1.71400  583.43390   50.72910   50.72910    9.90990    9.90990  583.43390  180.02800 -166.60150 -161.78270  180.02800
 9850.00000    8.71390    8.71390    3.02990    1.73100  577.68410   51.52910   51.52910    9.01980    9.01980  577.68410  248.86980 -144.85860 -139.96730  248.86980
 9900.00000    8.84720    8.84720    1.94370    1.67160  598.23010   52.29930   52.29930   13.02160   13.02160  598.23010  170.77070 -136.85680 -131.89350  170.77070
 9950.00000    8.64500    8.64500    3.16170    1.77310  563.98460   51.81910   51.81910   12.64490   12.64490  563.98460  203.26630 -131.56120 -126.52540  203.26630
 10000.00000    8.62080    8.62080    3.25550    1.72320  580.31820   51.41760   51.41760    9.46050    9.46050  580.31820  211.48150 -129.04830 -123.94040  211.48150
 10050.00000    8.61060    8.61060    3.13880    1.72840  578.58310   52.02190   52.02190    8.96670    8.96670  578.58310  216.76910 -126.54490 -121.36500  216.76910
 10100.00000    8.70880    8.70880    4.28880    2.77710  360.08440   52.31080   52.31080   12.86110   12.86110  360.08440  164.47450 -131.96490 -126.71250  164.47450
 10150.00000    8.17080    8.17080   34.41420   32.53040   30.74720   51.41510   51.41510    9.09940    9.09940   30.74720   89.99450 -159.53890 -154.21450   89.99450
 10200.00000    8.57470    8.57470   12.70390   10.05960   99.40800   50.33740   50.33740   11.29700   11.29700   99.40800   65.83720 -145.00130 -139.60430   65.83720
 10250.00000    8.85860    8.85860   82.54240   79.25630   12.61730   67.55230   67.55230   98.74530   98.74530   12.61730   15.98830  -63.97770  -58.50870   15.98830
 10300.00000    8.37120    8.37120   59.86710   55.72760   18.04570   60.02820   60.02820   45.92150   45.92150   18.04570   29.04150  -73.42080  -67.87980   29.04150
 10350.00000    8.42540    8.42540    4.64640    3.35140  298.38660   52.63240   52.63240   37.18390   37.18390  298.38660  159.68590  -28.52000  -22.90640  159.68590
 10400.00000    8.57380    8.57380    5.22650    3.76140  267.15920   50.11110   50.11110   17.97150   17.97150  267.15920  255.83700  -29.87530  -24.18980  255.83700
 10450.00000    8.86510    8.86510    3.00290    1.73030  577.92830   50.03390   50.03390    7.63790    7.63790  577.92830  319.86410  -49.31460  -43.55650  319.86410
 10500.00000    9.04850    9.04850    2.59220    1.72980  578.08540   50.32980   50.32980    9.39570    9.39570  578.08540  315.28390  -51.66160  -45.83150  315.28390
 10550.00000    9.22850    9.22850    2.81440    1.73220  577.28960   50.83490   50.83490    7.41690    7.41690  577.28960  306.84660  -59.47480  -53.57260  306.84660
 10600.00000    9.08320    9.08320    4.01730    1.78170  561.27260   50.34280   50.34280   14.92360   14.92360  561.27260  227.90910  -79.59500  -73.62040  227.90910
 10650.00000    9.17620    9.17620    2.06060    1.66280  601.39460   50.23920   50.23920   12.87260   12.87260  601.39460  183.02870 -101.35130  -95.30460  183.02870
 10700.00000    8.55900    8.55900    9.49920    7.98400  125.25110   55.86270   55.86270   32.66310   32.66310  125.25110  120.02040  -85.38310  -79.26390  120.02040
 10750.00000    8.53770    8.53770    5.97380    4.20380  237.87810   55.37290   55.37290   21.49590   21.49590  237.87810   78.69830  -94.07980  -87.88860   78.69830
 10800.00000    8.04360    8.04360    9.72260    7.67660  130.28170   54.46950   54.46950   22.82830   22.82830  130.28170   83.41010  -87.03820  -80.77500   83.41010
 10850.00000    8.18710    8.18710   20.36780   20.07520   49.81280   59.56540   59.56540   32.15310   32.15310   49.81280   52.77200  -73.72890  -67.39310   52.77200
 10900.00000    8.39880    8.39880  127.74690  128.89310    7.76510   74.36920   74.36920   84.58050   84.58050    7.76510   16.56870  -47.52460  -41.11680   16.56870
 10950.00000   12.70070   12.70070  268.61510  268.61510    3.72280   79.51690   79.51690   61.96070   61.96070    3.37300    4.54980  -50.96320  -44.48290    4.54980
 11000.00000    8.75400    8.75400  170.57330  180.37520    5.54400   66.19470   66.19470   47.03820   47.03820    5.54400    8.17270  -35.82500  -29.27260    8.17270
