~Version ---------------------------------------------------
VERS.      2.0 : CWLS log ASCII Standard -VERSION 2.0
WRAP.       NO : One line per depth step
CREA. 11/17/17 : LAS Creation Date
~Well ------------------------------------------------------
STRT.FT                         1100.0 : START DEPTH
STOP.FT                        10550.0 : STOP DEPTH
STEP.FT                       50.00000 : STEP LENGTH
NULL.                          -999.25 : NULL VALUE
COMP.          MIDWEST OIL CORPORATION : COMPANY
WELL. MIDWEST CANKEE PEERS 10-28-54-14 : WELL
FLD .                                  : FIELD
LOC .                                  : LOCATION
CTRY.                           CANADA : COUNTRY
SRVC.                     Schlumberger : SERVICE COMPANY
DATE.                      15-Jul-1970 : LOGDATE
PROV.                          Alberta : PROVINCE
UWI .                 100102805414W500 : UNIQUE WELL ID
SLAT.WGS84                     53.6964 : SURFACE LATITUDE
SLON.WGS84                   -115.9982 : SURFACE LONGITUDE
~Curve Information -----------------------------------------
DEPT  .FT    : Depth Curve
CALSED.IN    : CALIPER FROM SONIC LOG
CALWS .IN    : CALIPER [CALSED]
CILDED.MMHO  : DEEP INDUCTION CONDUCTIVITY FROM RESISTIVITY LOG
CONDWS.MMHO  : CONDUCTIVITY [1000/DRESWS]
DRESWS.OHMM  : DEEP RESISTIVITY [1000/CILDED, IF ILDED < 1, ILDED]
DTED  .US/F  : DELTA-TRANSIT TIME FROM SONIC LOG
DTWS  .US/F  : COMPRESSIONAL SONIC [DTED]
GRSED .GAPI  : GAMMA RAY FROM SONIC LOG
GRWS  .GAPI  : GAMMA RAY [GRSED]
ILDED .OHMM  : DEEP INDUCTION FROM RESISTIVITY LOG
SNED  .OHMM  : SHORT NORMAL 16" FROM RESISTIVITY LOG
SPRED .MV    : SPONTANEOUS POTENTIAL FROM RESISTIVITY LOG
SPWS  .MV    : SPONTANEOUS POTENTIAL [BASELINE 0 MV, SPRED]
SRESWS.OHMM  : SHALLOW RESISTIVITY [SNED]
~Params ----------------------------------------------------
PD  .                     GL : PERMANENT DATUM
EPD .FT               2798.5 : ELEVATION PERMANENT DATUM
LMF .                     KB : LOG MEASURED FROM
DAPD.FT                 13.5 : FEET ABOVE PERMANENT DATUM
EKB .FT                 2812 : KELLY BUSHING
EGL .FT               2798.5 : GROUND LEVEL
DATE.               07/15/70 : RUN DATE
RUN .                      1 : RUN NUMBER
DD  .FT                10576 : DEPTH DRILLER
DL  .FT                10576 : DEPTH LOGGER
BLI .FT                10575 : BOTTOM LOG INTERVAL
TLI .FT                 1090 : TOP LOG INTERVAL
CBD .FT                 1090 : CASING BOTTOM DRILLER
CBL .FT                 1090 : CASING BOTTOM LOGGER
BS  .IN                 8.75 : BIT SIZE
BSD .FT                10576 : BIT SIZE AT DEPTH
DFT .              GEL BENEX : DRILLING FLUID TYPE
DFD .                    9.2 : DRILLING FLUID DENSITY
DFV .                    102 : DRILLING FLUID VISCOSITY
DFPH.                    8.5 : DRILLING FLUID PH
DFL .                    9.4 : DRILLING FLUID LOSS
RMS .OHMM               2.18 : RESISTIVITY MUD SAMPLE
MST .DEGF                 93 : MUD SAMPLE TEMPERATURE
RMF .OHMM               1.81 : RESISTIVITY MUD FILTRATE SAMPLE
MFST.DEGF                 93 : MUD FILTRATE SAMPLE TEMPERATURE
RMC .OHMM               2.63 : RESISTIVITY MUD CAKE
MCST.DEGF                 93 : MUD CAKE SAMPLE TEMPERATURE
RMB .OHMM               1.14 : RESISTIVITY MUD AT BHT
TCS .HRS                 2.5 : TIME CIRCULATED STOPPED
LUN .                   7501 : LOGGING UNIT NUMBER
LUL .                    EDM : LOGGING UNIT LOCATION
ENGI.                 HADDOW : RECORDING ENGINEER
WITN.              BURROUGHS : WITNESSED BY
CLNT.                A2DTECH : CLIENT CODE
ORIG.            2" 5" PRINT : ORIGIN OF DATA
UWI .       100102805414W500 : UNIQUE WELL ID
DICO. A2D Technologies, Inc. : DIGITIZING COMPANY
~Other -----------------------------------------------------
~ASCII -----------------------------------------------------
# ...
 8450.00000    9.36410    9.36410    6.67950    9.73900  102.69470   49.66580   49.66580   17.77520   17.77520  102.69470   95.84000 -183.52990 -138.38410   95.84000
 8500.00000   10.47140   10.47140    3.83920    4.35310  229.72060   51.09350   51.09350   19.60440   19.60440  229.72060  205.54110 -175.32720 -130.09800  205.54110
 8550.00000    9.23440    9.23440    4.19320    6.84350  146.12410   49.04370   49.04370   16.83480   16.83480  146.12410  119.46640 -161.44710 -116.13410  119.46640
 8600.00000    8.83550    8.83550   30.48720   34.81660   28.73040   53.92260   53.92260   20.26770   20.26770   28.73040   90.28300 -181.27760 -135.88050   90.28300
 8650.00000    9.09080    9.09080   13.79990   14.91820   67.03210   49.25870   49.25870   19.33610   19.33610   67.03210  213.78380 -169.89980 -124.41930  213.78380
 8700.00000    9.43010    9.43010   36.74940   41.78010   23.94080   55.06990   55.06990   35.40600   35.40600   23.94080   56.51990 -170.27580 -124.71120   56.51990
 8750.00000    9.53800    9.53800    4.80000    7.40780  134.99200   52.75430   52.75430   36.60140   36.60140  134.99200  119.54800 -153.18980 -107.54180  119.54800
 8800.00000    9.81210    9.81210    8.19030    9.20900  108.59000   53.13210   53.13210   30.46280   30.46280  108.59000   76.98130 -160.39540 -114.66370   76.98130
 8850.00000    9.01730    9.01730    9.12820    9.69710  103.18730   51.53060   51.53060   38.66330   38.66330  103.18730  108.53990  -61.21740  -15.40160  108.53990
 8900.00000    9.24360    9.24360   19.32480   21.13450   47.31600   54.92670   54.92670   45.46660   45.46660   47.31600   51.62240  -50.02160   -4.12240   51.62240
 8950.00000    9.14540    9.14540   30.97810   35.61510   28.07880   56.80380   56.80380   53.91840   53.91840   28.07880   38.84980  -62.56730  -16.85040   38.84980
 9000.00000   12.79150   12.79150  129.27080  145.42920    6.87620   73.53950   73.53950   78.45560   78.45560    6.87620    9.55860  -56.94210  -11.63770    9.55860
 9050.00000   13.59220   13.59220  105.03260  122.18960    8.18400   71.27120   71.27120   66.43920   66.43920    8.18400   11.34780  -68.76670  -23.87680   11.34780
 9100.00000   12.67660   12.67660  115.26200  130.16680    7.68360   69.84570   69.84570   67.90270   67.90270    7.68360   10.51900  -64.19250  -19.71920   10.51900
 9150.00000    9.31970    9.31970   19.14690   21.91460   45.63160   79.95900   79.95900   77.65820   77.65820   45.63160   60.80770  -56.72910  -12.66830   60.80770
 9200.00000    9.86730    9.86730   68.86020   84.40530   11.86280   65.78860   65.78860   68.27190   68.27190   11.86280   24.83700  -65.16050  -21.51620   24.83700
 9250.00000   13.55630   13.55630  133.69190  150.99130    6.62290   75.25440   75.25440   74.52360   74.52360    6.62290    8.99770  -74.44850  -31.21670    8.99770
 9300.00000    9.47880    9.47880   21.72030   25.43870   39.31020   54.33680   54.33680   36.65760   36.65760   39.31020   50.99130  -65.31150  -22.49420   50.99130
 9350.00000   10.38150   10.38150   89.88720  101.31350    9.87120   68.25730   68.25730   81.14890   81.14890    9.87120   14.80240  -57.25870  -14.85800   14.80240
 9400.00000    9.30250    9.30250   65.15700   77.82400   12.84950   64.04320   64.04320   72.18670   72.18670   12.84950   20.51780  -49.89940   -7.91110   20.51780
 9450.00000    9.64850    9.64850   81.17060   94.13800   10.62350   66.65800   66.65800   80.67210   80.67210   10.62350   16.34620  -61.57860  -20.00690   16.34620
 9500.00000   11.37100   11.37100   92.18890  108.47400    9.21880   69.95140   69.95140   76.65520   76.65520    9.21880   15.64300  -62.45780  -21.29850   15.64300
 9550.00000   10.15000   10.15000  101.97470  116.96860    8.54930   71.23580   71.23580   96.34400   96.34400    8.54930   13.41540  -77.79350  -37.04870   13.41540
 9600.00000    9.48410    9.48410   84.19400   98.50120   10.15260   66.91900   66.91900   79.97210   79.97210   10.15260   17.06790  -61.34180  -21.01370   17.06790
 9650.00000    9.05890    9.05890   57.25010   65.63660   15.23540   57.32120   57.32120   62.34220   62.34220   15.23540   23.97800  -46.56470   -6.64890   23.97800
 9700.00000    9.81430    9.81430   93.58890  108.23800    9.23900   70.15320   70.15320   88.93680   88.93680    9.23900   15.51740  -47.06700   -7.56780   15.51740
 9750.00000   11.05010   11.05010  103.63790  120.22840    8.31750   72.51630   72.51630   91.03300   91.03300    8.31750   14.39820  -63.51620  -24.54250   14.39820
 9800.00000    9.41090    9.41090  106.64930  120.96580    8.26680   70.51620   70.51620   89.14150   89.14150    8.26680   14.31050  -54.29590  -15.90300   14.31050
 9850.00000    9.03140    9.03140   51.89400   61.72180   16.20520   63.94180   63.94180   82.42350   82.42350   16.20520   28.46260  -51.63770  -13.82850   28.46260
 9900.00000    8.99230    8.99230    6.55390    6.47260  154.49680   65.39890   65.39890  114.89310  114.89310  154.49680  160.39810  -44.80690   -7.57560  160.39810
 9950.00000    9.03280    9.03280   31.18080   35.34210   28.29870   64.23770   64.23770   74.51950   74.51950   28.29870   44.24690  -59.02480  -22.37720   44.24690
 10000.00000   11.02820   11.02820   51.74110   60.49310   16.53080   71.88480   71.88480   90.59710   90.59710   16.53080   26.73070  -48.84080  -12.77110   26.73070
 10050.00000   10.71520   10.71520   67.37390   80.13210   12.47940   74.07090   74.07090   84.67180   84.67180   12.47940   17.92980  -56.94340  -21.45450   17.92980
 10100.00000    8.92760    8.92760    3.68930    5.52690  181.15920   51.48220   51.48220   28.63770   28.63770  181.15920  174.18940  -42.58670   -7.68150  174.18940
 10150.00000    8.89510    8.89510    6.42100    5.31760  188.05410   49.81320   49.81320   11.17040   11.17040  188.05410  211.56460 -144.49630 -108.71380  211.56460
 10200.00000    9.46770    9.46770    4.57480    2.33730  428.00480   49.13840   49.13840   15.83530   15.83530  428.00480  317.44680 -123.52210  -85.88580  317.44680
 10250.00000    8.91270    8.91270    4.88610    2.22420  449.59850   48.34040   48.34040   17.66350   17.66350  449.59850  434.32930 -114.08830  -74.61660  434.32930
 10300.00000    9.34270    9.34270    4.47420    2.23800  446.82790   47.98530   47.98530   14.58260   14.58260  446.82790  500.00000 -125.53630  -84.22000  500.00000
 10350.00000    8.95350    8.95350    3.15700    2.23700  447.02860   47.91640   47.91640   11.28210   11.28210  447.02860  539.29970 -130.25780  -87.08770  539.29970
 10400.00000    9.30150    9.30150    1.10810    2.22800  448.83080   49.36130   49.36130   11.51110   11.51110  448.83080  504.43110 -126.62870  -81.62330  504.43110
 10450.00000    8.82990    8.82990    4.52830    5.16980  197.70950   49.01550   49.01550   12.80790   12.80790  197.70950  252.25950 -161.66400 -114.80470  252.25950
 10500.00000    8.89600    8.89600   28.18140   30.67000   32.60520   62.93620   62.93620  128.05530  128.05530   32.60520   57.62120  -55.28830   -6.59370   57.62120
 10550.00000    8.89590    8.89590   22.14590   23.07100   43.34440   55.63320   55.63320    -999.25    -999.25   43.34440   56.85740  -51.09980   -0.56060   56.85740
