~Version ---------------------------------------------------
VERS. 2.0 : CWLS log ASCII Standard -VERSION 2.0
WRAP. YES : MULTIPLE LINES PER DEPTH STEP
~Well ------------------------------------------------------
STRT.M                       300.0 : START DEPTH
STOP.M                      3900.0 : STOP DEPTH
STEP.M                    50.00000 : STEP LENGTH
NULL.                      -999.25 : NULL VALUE
COMP.       FOREST OIL CORPORATION : COMPANY
WELL. FOREST ET AL KARR 14-10-66-1 : WELL
FLD .                           WC : FIELD
LOC .                              : LOCATION
CTRY.                       CANADA : COUNTRY
SRVC.                 Schlumberger : SERVICE COMPANY
DATE.                  17-Oct-1980 : LOGDATE
LOC1.                              : LOCATION 1
SECT.                              : SECTION
TOWN.                              : TOWNSHIP
RNGE.                              : RANGE
PDAT.                              : PERM DATUM
EPD .                       857.38 : ELEVATION
LMF .                           KB : LOG MEASURED FROM
DMF .                           KB : DRILL MEASURED FROM
APD .                              : ABOVE PERM DATUM
EKB .                       865.37 : ELEV-KELLY BUSHING.
EDF .                              : ELEV-DRILL FLOOR
EGL .                       857.38 : ELEV-GROUND LEVEL
PROV.                      Alberta : PROVINCE
UWI .             100141006601W600 : UNIQUE WELL ID
SLAT.WGS84                54.70329 : SURFACE LATITUDE
SLON.WGS84               -118.0652 : SURFACE LONGITUDE
~Curve Information -----------------------------------------
DEPT    .M      : DEPTH METERS
CALDED  .MM     : CALIPER FROM CNFD LOG
CALSED  .MM     : CALIPER FROM SONIC LOG
CALWS   .MM     : CALIPER [CALSED]
CONDWS  .MMHO   : CONDUCTIVITY [1000/DRESWS]
DCORED  .KG/M3  : DENSITY CORRECTION FROM CNFD LOG
DCORWS  .KG/M3  : DENSITY CORRECTION [DCORED]
DENWS   .KG/M3  : BULK DENSITY [RHOBED]
DPHILSED.V/V    : DENSITY POROSITY [M=2.71 F=1.0] FROM CNFD LOG
DPHISSED.V/V    : DENSITY POROSITY [M=2.65 F=1.0] FROM CNFD LOG
DPOLSWS .V/V    : DENSITY POROSITY LIMESTONE [CALCULATED FROM RHOBED]
DRESWS  .OHMM   : DEEP RESISTIVITY [LLDED]
DTED    .US/M   : DELTA TIME FROM SONIC LOG
DTWS    .US/M   : DELTA TIME [DTED]
GRDED   .GAPI   : GAMMA RAY FROM CNFD LOG
GRRED   .GAPI   : GAMMA RAY FROM RESISTIVITY LOG
GRSED   .GAPI   : GAMMA RAY FROM SONIC LOG
GRWS    .GAPI   : GAMMA RAY [GRSED]
LLDED   .OHMM   : LATEROLOG DEEP RESISTIVITY
LLSED   .OHMM   : LATEROLOG SHALLOW RESISTIVITY
MRESWS  .OHMM   : MEDIUM RESISTIVITY [LLSED]
NPHILSED.V/V    : NEUTRON POROSITY LIMESTONE FROM CNFD LOG
NPHISSED.V/V    : NEUTRON POROSITY SANDSTONE FROM CNFD LOG
NPOLSWS .V/V    : NEUTRON POROSITY LINESTONE [NPHILSED], SPLICED WITH CONVERTED MATRIX FROM SANDSTONE TO LIMESTONE FROM 300-2606
RHOBED  .KG/M3  : BULK DENSITY FROM CNFD LOG
SPRED   .MV     : SPONTANEOUS POTENTIAL FROM RESISTIVITY LOG
SPWS    .MV     : SPONTANEOUS POTENTIAL [BASELINE 0 MV] [SPRED]
TENDED  .N      : TENSION FROM CNFD LOG
~Params ----------------------------------------------------
CLNT. A2DTECH : CLIENT CODE
~Other -----------------------------------------------------
~ASCII -----------------------------------------------------
  300.00000    -999.25    -999.25    -999.25    -999.25    -999.25    -999.25    -999.25    -999.25    -999.25    -999.25    -999.25    -999.25    -999.25    -999.25    -999.25   53.64490   83.64490    -999.25    -999.25    -999.25    -999.25    -999.25    -999.25    -999.25    -999.25    -999.25    -999.25
  350.00000    -999.25    -999.25    -999.25    -999.25    -999.25    -999.25    -999.25    -999.25    -999.25    -999.25    -999.25    -999.25    -999.25   61.25750   63.18000   57.91040   87.91040    -999.25    -999.25    -999.25    -999.25    -999.25    -999.25    -999.25    -999.25    -999.25    -999.25
  400.00000    -999.25  316.58050  316.58050  149.02460   -0.02460   -0.02460 2359.99100    -999.25    0.17330    0.20470    6.71030  352.66060  352.66060   91.83530   93.20090   84.63760   84.63760    6.71030    4.41790    4.41790    -999.25    0.40990    0.36580 2359.99100  -84.54170  -17.96710 16072.59550
  450.00000    -999.25  326.68740  326.68740  214.67520   22.35800   22.35800 2331.19780    -999.25    0.19110    0.22150    4.65820  352.74700  352.74700   99.42830   98.36260   95.40760   95.40760    4.65820    3.03890    3.03890    -999.25    0.41130    0.36730 2331.19780  -87.01710  -22.20150 15759.94650
  500.00000    -999.25  318.19360  318.19360  171.55900   20.46070   20.46070 2382.82180    -999.25    0.15590    0.19130    5.82890  343.29910  343.29910  109.95350  102.11890  104.82410  104.82410    5.82890    4.12140    4.12140    -999.25    0.42340    0.38060 2382.82180  -86.55090  -23.49420 15453.52940
  550.00000    -999.25  305.50080  305.50080   78.44490   30.89150   30.89150 2361.57420    -999.25    0.17190    0.20380   12.74780  298.26430  298.26430   82.94510   78.31120   86.28960   86.28960   12.74780    8.32420    8.32420    -999.25    0.35410    0.30550 2361.57420  -81.58290  -20.28520 15149.49740
  600.00000    -999.25  321.45050  321.45050  159.75970  205.35260  205.35260 2200.27170    -999.25    0.26960    0.29810    6.25940  329.95610  329.95610  105.14120  101.19690  100.80370  100.80370    6.25940    4.26890    4.26890    -999.25    0.41750    0.37410 2200.27170  -75.39070  -15.85200 14950.68370
  650.00000    -999.25  334.48610  334.48610  238.83450   34.76480   34.76480 1678.95290    -999.25    0.60820    0.60300    4.18700  367.04000  367.04000  102.47960  102.76780  104.61830  104.61830    4.18700    2.79050    2.79050    -999.25    0.49440    0.45450 1678.95290  -86.31230  -28.53260 14614.16630
  700.00000    -999.25  307.25390  307.25390  241.76200  172.14660  172.14660 2040.07760    -999.25    0.36080    0.39180    4.13630  317.64610  317.64610   82.77470   79.87550   78.71770   78.71770    4.13630    2.57800    2.57800    -999.25    0.42320    0.38040 2040.07760  -61.03110   -5.01040 14309.84340
  750.00000    -999.25  372.06390  372.06390  170.09120   33.60780   33.60780 2005.27580    -999.25    0.48150    0.41210    5.87920  314.62730  314.62730   82.05490   76.49070   79.14810   79.14810    5.87920    2.93580    2.93580    -999.25    0.55230    0.51240 2005.27580  -76.23830  -21.97660 14170.28140
  800.00000    -999.25  317.01390  317.01390  153.62630   95.42770   95.42770 2377.63890    -999.25    0.16500    0.19440    6.50930  305.86690  305.86690   81.16060   74.56840   77.10090   77.10090    6.50930    4.60800    4.60800    -999.25    0.40970    0.36560 2377.63890  -82.34070  -29.83800 13697.14400
  850.00000    -999.25  323.79410  323.79410   84.87450   94.41990   94.41990 2459.58940    -999.25    0.11460    0.14640   11.78210  272.20890  272.20890   69.32330   69.80990   63.13370   63.13370   11.78210    8.41900    8.41900    -999.25    0.30220    0.25090 2459.58940  -67.76260  -17.01890 13454.94100
  900.00000    -999.25  333.34730  333.34730  197.28150   -4.41800   -4.41800 2429.21260    -999.25    0.12990    0.16420    5.06890  325.96710  325.96710   90.40180   87.59860   93.08240   93.08240    5.06890    4.08900    4.08900    -999.25    0.47510    0.43520 2429.21260  -79.13430  -30.14960 13238.55140
  950.00000    -999.25  313.17690  313.17690   77.62110   52.64490   52.64490 2477.72340    -999.25    0.10150    0.13580   12.88310  281.46070  281.46070   74.98020   70.07730   76.57920   76.57920   12.88310    7.76110    7.76110    -999.25    0.39510    0.34960 2477.72340  -65.43300  -18.20730 12961.04910
 1000.00000    -999.25  315.85340  315.85340  169.80240   71.31550   71.31550 2414.10990    -999.25    0.13880    0.17300    5.88920  307.00740  307.00740   86.73420   89.17120   82.38920   82.38920    5.88920    4.77470    4.77470    -999.25    0.39830    0.35310 2414.10990  -81.31070  -35.84400 12558.59130
 1050.00000    -999.25  323.87070  323.87070   71.95640  219.90400  219.90400 2314.35030    -999.25    0.20970    0.23140   13.89730  281.91040  281.91040  106.20210  108.25140   98.83970   98.83970   13.89730   11.64780   11.64780    -999.25    0.40470    0.36010 2314.35030  -78.91790  -35.21020 12373.79930
 1100.00000    -999.25  321.89490  321.89490  101.85370   20.29490   20.29490 2523.36500    -999.25    0.07370    0.10910    9.81800  297.72440  297.72440  113.72050  118.57950  111.68080  111.68080    9.81800    8.14240    8.14240    -999.25    0.35920    0.31100 2523.36500  -78.06100  -36.11230 11986.89290
 1150.00000    -999.25  316.80290  316.80290  145.39530   76.33430   76.33430 2354.52470    -999.25    0.17610    0.20790    6.87780  308.35880  308.35880  117.05420  109.47090  110.51030  110.51030    6.87780    5.93910    5.93910    -999.25    0.46060    0.42070 2354.52470  -75.96240  -35.77270 11814.79480
 1200.00000    -999.25  324.34440  324.34440   75.22080  173.17890  173.17890 2536.82400    -999.25    0.05910    0.10130   13.29420  269.30410  269.30410  108.00540  109.26200  102.26490  102.26490   13.29420   10.92770   10.92770    -999.25    0.30490    0.25370 2536.82400  -77.16920  -38.73850 11460.70160
 1250.00000    -999.25  335.18630  335.18630   78.84690  173.98690  173.98690 2488.84300    -999.25    0.09230    0.12930   12.68280  272.04540  272.04540  109.41400  105.84490  108.83040  108.83040   12.68280   10.50850   10.50850    -999.25    0.29520    0.24370 2488.84300  -76.87240  -40.20070 10881.30340
 1300.00000    -999.25  319.96660  319.96660   90.43550   27.19090   27.19090 2523.69480    -999.25    0.07530    0.10900   11.05760  272.66570  272.66570  109.72740  118.82980  104.13550  104.13550   11.05760    9.17510    9.17510    -999.25    0.27880    0.22660 2523.69480  -77.58130  -42.66860 11002.54680
 1350.00000    -999.25  320.90180  320.90180   87.33550   46.37710   46.37710 2533.08570    -999.25    0.07420    0.10350   11.45010  298.02590  298.02590  129.01460  118.42790  113.09610  113.09610   11.45010   10.18800   10.18800    -999.25    0.38000    0.33330 2533.08570  -79.40340  -46.24970 10521.26700
 1400.00000    -999.25  321.86110  321.86110   84.10780   25.48090   25.48090 2546.08670    -999.25    0.06010    0.09590   11.88950  286.26230  286.26230  110.69670  112.11780   96.64620   96.64620   11.88950   10.77430   10.77430    -999.25    0.32880    0.27870 2546.08670  -76.91200  -45.51730 10184.80030
 1450.00000    -999.25  320.85310  320.85310   83.09580   41.95130   41.95130 2504.64400    -999.25    0.08630    0.12010   12.03430  302.41310  302.41310  127.87870  129.38570  118.13270  118.13270   12.03430   11.17690   11.17690    -999.25    0.36870    0.32110 2504.64400  -81.17910  -51.54340 9959.60820
 1500.00000    -999.25  317.16910  317.16910   78.51390   17.45950   17.45950 2587.87480    -999.25    0.01780    0.07140   12.73660  252.78160  252.78160  103.79630  105.00350  102.38320  102.38320   12.73660   11.25980   11.25980    -999.25    0.26330    0.21070 2587.87480  -77.32160  -49.44480 9564.14750
 1550.00000    -999.25  322.43080  322.43080  131.58590  127.95430  127.95430 2472.71260    -999.25    0.10110    0.13880    7.59960  281.26580  281.26580  121.89870  119.57390  119.45150  119.45150    7.59960    7.17000    7.17000    -999.25    0.35840    0.31010 2472.71260  -75.63130  -49.51350 9285.15940
