~Version ---------------------------------------------------
VERS.      2.0 : CWLS log ASCII Standard -VERSION 2.0
WRAP.       NO : One line per depth step
CREA. 10/26/17 : LAS Creation Date
~Well ------------------------------------------------------
STRT.FT                           1550.0 : START DEPTH
STOP.FT                          15350.0 : STOP DEPTH
STEP.FT                         50.00000 : STEP LENGTH
NULL.                            -999.25 : NULL VALUE
COMP.   AMOCO CANADA PETROLEUM CO., LTD. : COMPANY
WELL. AMOCO CHEVRON A-1 WAWA 10-13-43-15 : WELL
FLD .                                    : FIELD
LOC .                                    : LOCATION
CTRY.                             CANADA : COUNTRY
SRVC.             Schlumberger of Canada : SERVICE COMPANY
DATE.                        16-Jan-1970 : LOGDATE
PROV.                            Alberta : PROVINCE
UWI .                   100101304315W500 : UNIQUE WELL ID
SLAT.WGS84                      52.70789 : SURFACE LATITUDE
SLON.WGS84                     -116.0388 : SURFACE LONGITUDE
~Curve Information -----------------------------------------
DEPT    .FT    : Depth Curve
CALDED  .IN    : CALIPER FROM DENSITY LOG [DEP. ADJ. TO DIL LOG]
CALMED  .IN    : CALIPER FROM MICROLOG
CALNED  .IN    : CALIPER FROM SNP LOG [DEP. ADJ. TO DIL LOG]
CALSED  .IN    : CALIPER FROM SONIC LOG
CALWS   .IN    : CALIPER [1640' CALMED 14068' CALDED]
CILDED  .MMHO  : CONDUCTIVITY FROM RESISTIVITY LOG
CONDWS  .MMHO  : CONDUCTIVITY [1000/DRESWS]
DCORWS  .G/C3  : DENSITY CORRECTION [DRHOED]
DENWS   .G/C3  : BULK DENSITY [M=2.71, F=1.00] [RHOBED]
DPHILSED.V/V   : DENSITY POROSITY [M=2.71, F=1.00] FROM DENSITY LOG [DEP. ADJ. TO DIL LOG]
DPOLSWS .V/V   : DENSITY POROSITY [M=2.71, F=1.00] [DPHILSED]
DRESWS  .OHMM  : DEEP RESISTIVITY [1650' 1000/CILDED 14058' ILDED][VALUES >2000 ARE REDUCED TO 2000 OHMM]
DRHOED  .G/C3  : DENSITY CORRECTION FROM DENSITY LOG [DEP. ADJ. TO DIL LOG]
DTED    .US/F  : DELTA TIME FROM SONIC LOG
DTWS    .US/F  : DELTA TIME [DTED]
GRDED   .GAPI  : GAMMA RAY FROM DENSITY LOG [DEP. ADJ. TO DIL LOG]
GRNED   .GAPI  : GAMMA RAY FROM SNP LOG [DEP. ADJ. TO DIL LOG]
GRSED   .GAPI  : GAMMA RAY FROM SONIC LOG
GRWS    .GAPI  : GAMMA RAY [1529' GRSED 14072' GRDED]
ILDED   .OHMM  : INDUCTION LOG DEEP RESISTIVITY
ILMED   .OHMM  : INDUCTION LOG MEDIUM RESISTIVITY
LL8ED   .OHMM  : 8 INCH LATEROLOG RESISTIVITY
MRESWS  .OHMM  : MEDIUM RESISTIVITY [ILMED]
NPOLSWS .V/V   : NEUTRON POROSITY LIMESTONE [SNPLSED]
RHOBED  .G/C3  : BULK DENSITY FROM DENSITY LOG [DEP. ADJ. TO DIL LOG]
SNPLSED .V/V   : SIDEWALL NEUTRON POROSITY [LIMESTONE][DEP. ADJ. TO DIL LOG]
SPRED   .MV    : SPONTANEOUS POTENTIAL FROM RESISTIVITY LOG
SPWS    .MV    : SPONTANEOUS POTENTIAL [BASELINE 0 MV] [SPRED]
SRESWS  .OHMM  : SHALLOW RESISTIVITY [LL8ED]
~Params ----------------------------------------------------
PD  .                     GL : PERMANENT DATUM
EPD .FT               4009.5 : ELEVATION PERMANENT DATUM
LMF .                     KB : LOG MEASURED FROM
DAPD.FT                 22.4 : FEET ABOVE PERMANENT DATUM
EKB .FT               4031.9 : KELLY BUSHING
EGL .FT               4009.5 : GROUND LEVEL
DATE.               01/16/70 : RUN DATE
RUN .                      2 : RUN NUMBER
DD  .FT                15390 : DEPTH DRILLER
DL  .FT                15386 : DEPTH LOGGER
BLI .FT                15383 : BOTTOM LOG INTERVAL
TLI .FT                14060 : TOP LOG INTERVAL
CBD .FT                14065 : CASING BOTTOM DRILLER
CBL .FT                14060 : CASING BOTTOM LOGGER
BS  .IN                    6 : BIT SIZE
BSD .FT                15390 : BIT SIZE AT DEPTH
DFT .                    GEL : DRILLING FLUID TYPE
DFD .                   13.9 : DRILLING FLUID DENSITY
DFV .                     92 : DRILLING FLUID VISCOSITY
DFPH.                   11.5 : DRILLING FLUID PH
DFL .                   14.0 : DRILLING FLUID LOSS
MSS .               FLOWLINE : MUD SAMPLE SOURCE
RMS .OHMM               0.21 : RESISTIVITY MUD SAMPLE
MST .DEGF                 52 : MUD SAMPLE TEMPERATURE
RMF .OHMM                0.1 : RESISTIVITY MUD FILTRATE SAMPLE
MFST.DEGF                 60 : MUD FILTRATE SAMPLE TEMPERATURE
RMB .OHMM              0.022 : RESISTIVITY MUD AT BHT
TCS .HRS                 3.5 : TIME CIRCULATED STOPPED
LUN .                   7003 : LOGGING UNIT NUMBER
LUL .                     RD : LOGGING UNIT LOCATION
ENGI.              MCQUILLAN : RECORDING ENGINEER
WITN.                 MURRAY : WITNESSED BY
CLNT.                A2DTECH : CLIENT CODE
ORIG.            2" 5" PRINT : ORIGIN OF DATA
UWI .       100101304315W500 : UNIQUE WELL ID
DICO. A2D Technologies, Inc. : DIGITIZING COMPANY
~Other -----------------------------------------------------
~ASCII -----------------------------------------------------
# ...
 12800.00000    -999.25    9.25810    -999.25    -999.25    9.25810   71.08830   71.08830    -999.25    -999.25    -999.25    -999.25   14.06700    -999.25   61.08280   61.08280    -999.25    -999.25   44.83820   44.83820   15.30770    -999.25   22.05990    -999.25    -999.25    -999.25    -999.25  -82.41510  -46.20320   22.05990
 12850.00000    -999.25    9.44110    -999.25    -999.25    9.44110    0.29700    0.50000    -999.25    -999.25    -999.25    -999.25 2000.00000    -999.25   54.03840   54.03840    -999.25    -999.25   19.85770   19.85770  521.33300    -999.25  125.63500    -999.25    -999.25    -999.25    -999.25  -97.53470  -62.14050  125.63500
 12900.00000    -999.25    9.27860    -999.25    -999.25    9.27860    0.00000    0.50000    -999.25    -999.25    -999.25    -999.25 2000.00000    -999.25   51.84270   51.84270    -999.25    -999.25   16.03190   16.03190  659.35960    -999.25  144.28630    -999.25    -999.25    -999.25    -999.25 -107.10000  -72.51820  144.28630
 12950.00000    -999.25    8.96780    -999.25    -999.25    8.96780    0.40630    0.50000    -999.25    -999.25    -999.25    -999.25 2000.00000    -999.25   54.65410   54.65410    -999.25    -999.25   19.55440   19.55440  668.80350    -999.25  143.62640    -999.25    -999.25    -999.25    -999.25 -102.61020  -68.84610  143.62640
 13000.00000    -999.25    8.81910    -999.25    -999.25    8.81910    0.00000    0.68420    -999.25    -999.25    -999.25    -999.25 1461.61440    -999.25   53.74110   53.74110    -999.25    -999.25   20.60280   20.60280  364.51480    -999.25  202.26020    -999.25    -999.25    -999.25    -999.25  -88.07410  -55.12240  202.26020
 13050.00000    -999.25    9.03360    -999.25    6.75770    9.03360   14.27700   14.27700    -999.25    -999.25    -999.25    -999.25   70.04270    -999.25   59.86340   59.86340    -999.25    -999.25   41.54910   41.54910   67.61960    -999.25   57.24150    -999.25    -999.25    -999.25    -999.25  -93.45890  -61.31950   57.24150
 13100.00000    -999.25    8.72150    -999.25    6.76320    8.72150    1.32720    1.32720    -999.25    -999.25    -999.25    -999.25  753.46590    -999.25   57.69220   57.69220    -999.25    -999.25   63.62090   63.62090  380.61260    -999.25   74.67730    -999.25    -999.25    -999.25    -999.25 -130.90240  -99.58070   74.67730
 13150.00000    -999.25    9.90230    -999.25    6.77310    9.90230    0.00000    0.52870    -999.25    -999.25    -999.25    -999.25 1891.35190    -999.25   51.56410   51.56410    -999.25    -999.25   10.53440   10.53440  669.16760    -999.25  312.86670    -999.25    -999.25    -999.25    -999.25 -123.41070  -92.90140  312.86670
 13200.00000    -999.25    9.63660    -999.25    6.78550    9.63660    0.00000    0.52150    -999.25    -999.25    -999.25    -999.25 1917.69940    -999.25   50.80100   50.80100    -999.25    -999.25    7.45310    7.45310  667.35470    -999.25  260.92700    -999.25    -999.25    -999.25    -999.25 -150.21620 -120.52460  260.92700
 13250.00000    -999.25   10.24700    -999.25    6.83220   10.24700    0.00000    0.52190    -999.25    -999.25    -999.25    -999.25 1915.90420    -999.25   51.26990   51.26990    -999.25    -999.25   12.58460   12.58460  666.45210    -999.25  128.01900    -999.25    -999.25    -999.25    -999.25 -146.03220 -117.15290  128.01900
 13300.00000    -999.25    9.64070    -999.25    8.69930    9.64070    0.00000    2.15070    -999.25    -999.25    -999.25    -999.25  464.95440    -999.25   46.36640   46.36640    -999.25    -999.25    8.29820    8.29820  632.51140    -999.25  183.35080    -999.25    -999.25    -999.25    -999.25 -119.68120  -91.61430  183.35080
 13350.00000    -999.25    9.17810    -999.25    9.36860    9.17810    0.00000    0.92090    -999.25    -999.25    -999.25    -999.25 1085.88470    -999.25   49.07900   49.07900    -999.25    -999.25    8.87660    8.87660  668.67990    -999.25  329.66220    -999.25    -999.25    -999.25    -999.25 -112.44040  -85.19120  329.66220
 13400.00000    -999.25   10.26080    -999.25    9.27150   10.26080   12.71880   12.71880    -999.25    -999.25    -999.25    -999.25   78.62380    -999.25   53.13070   53.13070    -999.25    -999.25   10.21450   10.21450  238.69690    -999.25   73.30140    -999.25    -999.25    -999.25    -999.25  -64.68570  -38.24880   73.30140
 13450.00000    -999.25   10.24230    -999.25   10.14180   10.24230    0.00000    1.60330    -999.25    -999.25    -999.25    -999.25  623.70030    -999.25   51.09220   51.09220    -999.25    -999.25    8.83290    8.83290  320.16750    -999.25  100.52480    -999.25    -999.25    -999.25    -999.25  -75.04180  -49.42260  100.52480
 13500.00000    -999.25   10.22210    -999.25    9.31040   10.22210    0.00000    1.44760    -999.25    -999.25    -999.25    -999.25  690.79630    -999.25   51.50880   51.50880    -999.25    -999.25   10.15450   10.15450  670.34780    -999.25  115.21800    -999.25    -999.25    -999.25    -999.25 -115.12290  -90.31610  115.21800
 13550.00000    -999.25    9.92100    -999.25    9.45120    9.92100    1.93980    1.93980    -999.25    -999.25    -999.25    -999.25  515.51710    -999.25   59.52060   59.52060    -999.25    -999.25   10.00700   10.00700  574.75620    -999.25  272.26730    -999.25    -999.25    -999.25    -999.25  -43.45710  -19.46270  272.26730
 13600.00000    -999.25    9.13470    -999.25    8.05080    9.13470    0.00000    1.76140    -999.25    -999.25    -999.25    -999.25  567.72550    -999.25   47.22990   47.22990    -999.25    -999.25    8.98450    8.98450  392.16730    -999.25  652.34440    -999.25    -999.25    -999.25    -999.25  -57.39380  -34.21710  652.34440
 13650.00000    -999.25    9.37450    -999.25    9.14330    9.37450    0.00000    1.07650    -999.25    -999.25    -999.25    -999.25  928.93080    -999.25   49.49470   49.49470    -999.25    -999.25    5.15400    5.15400  451.32280    -999.25  652.54550    -999.25    -999.25    -999.25    -999.25  -88.14710  -65.78270  652.54550
 13700.00000    -999.25    8.51100    -999.25    7.89250    8.51100    1.08210    1.08210    -999.25    -999.25    -999.25    -999.25  924.12900    -999.25   50.73710   50.73710    -999.25    -999.25    7.63230    7.63230  618.37210    -999.25  651.93240    -999.25    -999.25    -999.25    -999.25  -50.34890  -28.64410  651.93240
 13750.00000    -999.25    8.62810    -999.25    8.70260    8.62810    0.00000    0.65410    -999.25    -999.25    -999.25    -999.25 1528.74990    -999.25   47.96040   47.96040    -999.25    -999.25    4.66110    4.66110  545.13510    -999.25  651.98060    -999.25    -999.25    -999.25    -999.25  -89.14560  -67.58570  651.98060
 13800.00000    -999.25    9.16900    -999.25    9.21950    9.16900    0.00000    0.50000    -999.25    -999.25    -999.25    -999.25 2000.00000    -999.25   50.43970   50.43970    -999.25    -999.25   10.90220   10.90220  666.64860    -999.25  651.16390    -999.25    -999.25    -999.25    -999.25  -83.46690  -62.05180  651.16390
 13850.00000    -999.25    8.71620    -999.25    8.85370    8.71620    0.00000    1.26370    -999.25    -999.25    -999.25    -999.25  791.31230    -999.25   48.96340   48.96340    -999.25    -999.25    7.37800    7.37800  669.94290    -999.25  650.43270    -999.25    -999.25    -999.25    -999.25 -137.62290 -116.35360  650.43270
 13900.00000    -999.25   11.19760    -999.25    9.15610   11.19760    0.73930    0.73930    -999.25    -999.25    -999.25    -999.25 1352.63090    -999.25   55.41130   55.41130   22.03990    -999.25   11.51770   11.51770  584.65950    -999.25  651.07820    -999.25    -999.25    -999.25    -999.25  -78.58790  -57.46350  651.07820
 13950.00000    -999.25   11.07570    -999.25    9.35710   11.07570    0.00000    0.96390    -999.25    -999.25    -999.25    -999.25 1037.44830    -999.25   49.21150   49.21150   25.44700    -999.25   26.65760   26.65760  669.46060    -999.25  651.00850    -999.25    -999.25    -999.25    -999.25 -130.93000 -109.95140  651.00850
 14000.00000    -999.25    8.80320    -999.25    9.12750    8.80320    0.00000    0.72440    -999.25    -999.25    -999.25    -999.25 1380.53140    -999.25   52.22790   52.22790   26.07480    -999.25   31.57830   31.57830  670.39600    -999.25  650.79370    -999.25    -999.25    -999.25    -999.25 -145.42290 -124.58920  650.79370
