~Version ---------------------------------------------------
VERS.      2.0 : CWLS log ASCII Standard -VERSION 2.0
WRAP.       NO : One line per depth step
CREA. 09/19/13 : LAS Creation Date
~Well ------------------------------------------------------
STRT.M                           450.0 : START DEPTH
STOP.M                          3650.0 : STOP DEPTH
STEP.M                        50.00000 : STEP LENGTH
NULL.                          -999.25 : NULL VALUE
COMP. CANADA OCCIDENTAL PETROLEUM LTD. : COMPANY
WELL.     CDNOXY ANTE CREEK 7-13-65-26 : WELL
FLD .                                  : FIELD
LOC .                                  : LOCATION
CTRY.                           CANADA : COUNTRY
SRVC.                          Unknown : SERVICE COMPANY
DATE.                      02-Feb-1981 : LOGDATE
PROV.                          Alberta : PROVINCE
UWI .                 100071306526W500 : UNIQUE WELL ID
SLAT.WGS84                    54.62402 : SURFACE LATITUDE
SLON.WGS84                   -117.7905 : SURFACE LONGITUDE
~Curve Information -----------------------------------------
DEPT    .M      : DEPTH METERS
CALDED  .MM     : CALIPER FROM DENSITY LOG [DEP ADJ TO GRSED]
CALSED  .MM     : CALIPER FROM SONIC LOG
CALWS   .MM     : CALIPER [CALDED]
CONDWS  .MMHO   : CONDUCTIVITY [1000/DRESWS]
CORRED  .KG/M3  : DENSITY CORRECTION FROM DENSITY LOG [DEP ADJ TO GRSED]
DCORWS  .KG/M3  : DENSITY CORRECTION [CORRED]
DENWS   .KG/M3  : BULK DENSITY [M=2710 F=1000] [RHOBED]
DPHILSED.V/V    : DENSITY POROSITY [M=2710 F=1000] FROM DENSITY LOG [DEP ADJ TO GRSED]
DPHISSED.V/V    : DENSITY POROSITY [M=2650 F=1000] FROM DENSITY LOG [DEP ADJ TO GRSED]
DPOLSWS .V/V    : DENSITY POROSITY [M=2710 F=1000] [CAL FR DENWS]
DRESWS  .OHMM   : DEEP RESISTIVITY [ILDED] [FILLED GAPS BY 2000 OHMM]
DTED    .US/M   : DELTA TIME FROM SONIC LOG
DTWS    .US/M   : DELTA TIME [DTED]
GRDED   .GAPI   : GAMMA RAY FROM DENSITY LOG [DEP ADJ TO GRSED]
GRNED   .CPS    : GAMMA RAY FROM NEUTRON LOG [CASEDHOLE][DEP ADJ TO GRSED]
GRSED   .GAPI   : GAMMA RAY FROM SONIC LOG
GRWS    .GAPI   : GAMMA RAY [440 GRSED 460 GRDED]
ILDED   .OHMM   : INDUCTION LOG DEEP RESISTIVITY
ILMED   .OHMM   : INDUCTION LOG MEDIUM RESISTIVITY
MRESWS  .OHMM   : MEDIUM RESISTIVITY [ILMED][FILLED GAPS BY 2000 OHMM]
NEUTED  .NAPI   : NEUTRON FROM NEUTRON LOG [UNIT IS ASSUMED][CASEDHOLE][DEP ADJ TO GRSED]
NEUTWS  .NAPI   : NEUTRON [NEUTED]
NPHILSED.V/V    : NEUTRON POROSITY LIMESTONE FROM DENSITY LOG [DEP ADJ TO GRSED]
NPHISSED.V/V    : NEUTRON POROSITY SANDSTONE FROM DENSITY LOG [DEP ADJ TO GRSED]
NPOLSWS .V/V    : NEUTRON POROSITY LIMESTONE [445 NPOLSCAL [BY CONVERTING NPHISSED] 2198 NPHILSED]
RHOBED  .KG/M3  : BULK DENSITY FROM DENSITY LOG [DEP ADJ TO GRSED]
SFLED   .OHMM   : SPHERICALLY FOCUSED LOG RESISTIVITY
SPRED   .MV     : SPONTANEOUS POTENTIAL FROM RESISTIVITY LOG
SPWS    .MV     : SPONTANEOUS POTENTIAL [BASELINE 0 MV] [SPRED]
SRESWS  .OHMM   : SHALLOW RESISTIVITY [SFLED][FILLED GAPS BY 2000 OHMM]
~Params ----------------------------------------------------
PD  .                         GL : PERMANENT DATUM
EPD .M                     803.9 : ELEVATION PERMANENT DATUM
LMF .                         KB : LOG MEASURED FROM
DAPD.M                       7.1 : FEET ABOVE PERMANENT DATUM
DMF .                         KB : DRILLING MEASURED FROM
EKB .M                       811 : KELLY BUSHING
EGL .M                     803.9 : GROUND LEVEL
DATE.                   02/02/81 : RUN DATE
RUN .                          1 : RUN NUMBER
DD  .M                      3655 : DEPTH DRILLER
DL  .M                      3653 : DEPTH LOGGER
BLI .M                    3652.1 : BOTTOM LOG INTERVAL
TLI .M                     459.2 : TOP LOG INTERVAL
CS  .MM                    244.5 : CASING SIZE
CBD .M                       459 : CASING BOTTOM DRILLER
CBL .M                     459.2 : CASING BOTTOM LOGGER
BS  .MM                      216 : BIT SIZE
BSD .M                      3655 : BIT SIZE AT DEPTH
DFT .                   GEL CHEM : DRILLING FLUID TYPE
DFD .                       1070 : DRILLING FLUID DENSITY
DFV .                        120 : DRILLING FLUID VISCOSITY
DFPH.                        9.5 : DRILLING FLUID PH
DFL .                        9.4 : DRILLING FLUID LOSS
MSS .                CIRCULATION : MUD SAMPLE SOURCE
RMS .OHMM                   1.17 : RESISTIVITY MUD SAMPLE
MST .DEGC                     15 : MUD SAMPLE TEMPERATURE
RMF .OHMM                   0.94 : RESISTIVITY MUD FILTRATE SAMPLE
MFST.DEGC                     15 : MUD FILTRATE SAMPLE TEMPERATURE
MFSS.                      PRESS : MUD FILTRATE SAMPLE SOURCE
RMB .OHMM                    0.5 : RESISTIVITY MUD AT BHT
TCS .HRS                    1000 : TIME CIRCULATED STOPPED
TLAB.HRS                    1630 : TIME LOGGER AT BOTTOM
LUN .                       8108 : LOGGING UNIT NUMBER
LUL .                      EDSON : LOGGING UNIT LOCATION
ENGI.                  CROCKFORD : RECORDING ENGINEER
WITN.                      SKOKO : WITNESSED BY
CLNT.                    A2DTECH : CLIENT CODE
ORIG. 6.5"/100M 16.5"/100M PRINT : ORIGIN OF DATA
UWI .           100071306526W500 : UNIQUE WELL ID
DICO.     A2D Technologies, Inc. : DIGITIZING COMPANY
~Other -----------------------------------------------------
~ASCII -----------------------------------------------------
  450.00000    -999.25    -999.25    -999.25    -999.25    -999.25    -999.25    -999.25    -999.25    -999.25    -999.25    -999.25    -999.25    -999.25   36.55830    -999.25   36.75560   36.75560    -999.25    -999.25    -999.25    -999.25    -999.25    -999.25    0.65460    0.62450    -999.25    -999.25    -999.25    -999.25    -999.25
  500.00000  262.57660  271.15200  262.57660  274.80830    7.05610    7.05610 2239.68260    -999.25    0.24880    0.27500    3.63890  366.02150  366.02150   82.83140    -999.25   87.67620   82.83140    3.63890    3.41210    3.41210    -999.25    -999.25    -999.25    0.43910    0.39710 2239.68260    3.05460  -94.86920   -6.46990    3.05460
  550.00000  236.59950  228.28080  236.59950  385.10420   49.37530   49.37530 1678.23220    -999.25    0.59530    0.60340    2.59670  474.51530  474.51530   81.00680    -999.25   77.67680   81.00680    2.59670    2.29260    2.29260    -999.25    -999.25    -999.25    0.60400    0.57030 1678.23220    2.32240  -92.85310   -5.15150    2.32240
  600.00000  243.24820  248.26840  243.24820  226.83970  131.67060  131.67060 2072.52000    -999.25    0.34860    0.37280    4.40840  377.94680  377.94680   68.86040    -999.25   72.59760   68.86040    4.40840    3.73690    3.73690    -999.25    -999.25    -999.25    0.47570    0.43490 2072.52000    3.51880  -92.90460   -6.02060    3.51880
  650.00000  225.95470  236.00590  225.95470  260.81060  189.04900  189.04900 2202.30620    -999.25    0.27250    0.29690    3.83420  355.43060  355.43060   76.53280    -999.25   79.18640   76.53280    3.83420    3.42420    3.42420    -999.25    -999.25    -999.25    0.47220    0.43120 2202.30620    3.54840  -96.48160   -9.42960    3.54840
  700.00000  225.66050  220.02500  225.66050   82.55730   77.31430   77.31430 2340.49630    -999.25    0.18700    0.21610   12.11280  313.26890  313.26890   52.43700    -999.25   47.89480   52.43700   12.11280   10.83670   10.83670    -999.25    -999.25    -999.25    0.32240    0.27850 2340.49630   10.10540  -99.22260  -10.76160   10.10540
  750.00000  266.99720  261.18120  266.99720  225.35210  137.20390  137.20390 2107.40410    -999.25    0.32810    0.35240    4.43750  363.91310  363.91310   66.06340    -999.25   72.80390   66.06340    4.43750    3.84690    3.84690    -999.25    -999.25    -999.25    0.46930    0.42820 2107.40410    3.47120  -96.90700   -7.03700    3.47120
  800.00000  272.81490  287.49140  272.81490  216.23960    2.35580    2.35580 1505.68970    -999.25    0.68950    0.70430    4.62450  413.34380  413.34380   62.32410    -999.25   63.51580   62.32410    4.62450    3.92800    3.92800    -999.25    -999.25    -999.25    0.52360    0.48500 1505.68970    3.19160  -94.00750   -2.72850    3.19160
  850.00000  242.38100  249.84610  242.38100  269.09930  128.83750  128.83750 1922.22220    -999.25    0.43650    0.46070    3.71610  383.13930  383.13930   60.81360    -999.25   61.88340   60.81360    3.71610    3.42230    3.42230    -999.25    -999.25    -999.25    0.48170    0.44110 1922.22220    3.17800  -96.96640   -5.97740    3.17800
  900.00000  319.43410  250.89420  319.43410  155.57660   92.53140   92.53140 2274.32420    -999.25    0.23510    0.25480    6.42770  325.68370  325.68370   71.07660    -999.25   65.04490   71.07660    6.42770    5.61280    5.61280    -999.25    -999.25    -999.25    0.39050    0.34740 2274.32420    5.34760  -94.81460   -4.35170    5.34760
  950.00000  263.35560  233.81550  263.35560  125.50520  200.99220  200.99220 2427.86820    -999.25    0.13210    0.16500    7.96780  272.05970  272.05970   54.51250    -999.25   55.67500   54.51250    7.96780    7.40800    7.40800    -999.25    -999.25    -999.25    0.27850    0.23450 2427.86820    7.58730  -96.06270   -6.12590    7.58730
 1000.00000  325.88690  253.94240  325.88690  101.61980   67.05890   67.05890 2389.96140    -999.25    0.15700    0.18720    9.84060  284.91240  284.91240   89.62660    -999.25   88.73420   89.62660    9.84060    8.42810    8.42810    -999.25    -999.25    -999.25    0.34400    0.30030 2389.96140    8.06890  -94.17780   -4.76700    8.06890
 1050.00000  342.01630  259.49680  342.01630   90.37750   39.44680   39.44680 2542.53710    -999.25    0.06490    0.09790   11.06470  308.32910  308.32910  111.01310    -999.25  117.25330  111.01310   11.06470    9.93390    9.93390    -999.25    -999.25    -999.25    0.34950    0.30590 2542.53710   10.67130  -94.27550   -5.39080   10.67130
 1100.00000  348.99300  231.82950  348.99300  112.29270   41.36640   41.36640 2502.31540    -999.25    0.08960    0.12150    8.90530  276.87950  276.87950  103.13770    -999.25  103.86010  103.13770    8.90530    7.59020    7.59020    -999.25    -999.25    -999.25    0.34010    0.29640 2502.31540    8.04090  -97.06950   -8.41630    8.04090
 1150.00000  342.39830  297.59020  342.39830   94.42340  169.05900  169.05900 2000.37700    -999.25    0.38230    0.41500   10.59060  310.88040  310.88040   93.83200    -999.25   93.68930   93.83200   10.59060    9.02910    9.02910    -999.25    -999.25    -999.25    0.43200    0.38980 2000.37700    7.90670 -100.24200  -11.58880    7.90670
 1200.00000  301.47410  239.48320  301.47410   56.90770  137.97660  137.97660 1809.57570    -999.25    0.50590    0.52660   17.57230  262.00200  262.00200   84.81930    -999.25   93.40260   84.81930   17.57230   15.74670   15.74670    -999.25    -999.25    -999.25    0.28690    0.24290 1809.57570   15.09510  -98.63540   -9.98220   15.09510
 1250.00000  282.26050  269.82890  282.26050   89.75130  102.85960  102.85960 1840.00810    -999.25    0.48810    0.50880   11.14190  290.31480  290.31480   91.89210    -999.25   89.68270   91.89210   11.14190    8.87450    8.87450    -999.25    -999.25    -999.25    0.44890    0.40720 1840.00810    9.24340  -90.48940   -1.84230    9.24340
 1300.00000  333.80000  252.59370  333.80000  109.75260  108.90390  108.90390 2366.65040    -999.25    0.17080    0.20080    9.11140  301.02260  301.02260  108.47140    -999.25  114.61850  108.47140    9.11140    8.33260    8.33260    -999.25    -999.25    -999.25    0.35310    0.30950 2366.65040    8.65570  -95.27110   -7.64790    8.65570
 1350.00000  298.09980  238.07550  298.09980   65.99480  251.86520  251.86520 2453.02420    -999.25    0.12640    0.15030   15.15270  284.34360  284.34360  112.89190    -999.25  110.49940  112.89190   15.15270   13.01920   13.01920    -999.25    -999.25    -999.25    0.28370    0.23970 2453.02420   16.97280  -94.52760   -7.92820   16.97280
 1400.00000  258.79060  237.16210  258.79060   82.08500   17.11820   17.11820 2435.16820    -999.25    0.12930    0.16070   12.18250  319.98100  319.98100  124.30320    -999.25  127.47180  124.30320   12.18250   11.79050   11.79050    -999.25    -999.25    -999.25    0.40060    0.35770 2435.16820   13.73860  -93.11560   -7.54010   13.73860
 1450.00000  235.21280  250.31310  235.21280   97.02140  136.99370  136.99370 2577.12330    -999.25    0.05470    0.07770   10.30700  280.98550  280.98550   99.04550    -999.25   97.80300   99.04550   10.30700    9.11680    9.11680    -999.25    -999.25    -999.25    0.38670    0.34360 2577.12330    8.88280  -91.82580   -7.27410    8.88280
 1500.00000  241.33470  229.93760  241.33470   86.93540   42.18720   42.18720 2465.73170    -999.25    0.11360    0.14280   11.50280  262.08200  262.08200   68.56770   26.18020   70.07610   68.56770   11.50280   11.34720   11.34720  593.80870  593.80870    -999.25    0.24820    0.20430 2465.73170   11.30660 -105.78280  -22.25500   11.30660
 1550.00000  274.76790  250.30290  274.76790  116.92490   35.94670   35.94670 2574.66360    -999.25    0.04680    0.07910    8.55250  238.93550  238.93550   86.82470   24.50740   88.22710   86.82470    8.55250    9.51640    9.51640  548.78340  548.78340    -999.25    0.21890    0.17520 2574.66360   10.48730  -88.59510   -6.09110   10.48730
 1600.00000  380.51430  239.33790  380.51430  118.73520   97.97670   97.97670 2496.22190    -999.25    0.08640    0.12500    8.42210  271.22890  271.22890   95.10250   51.39000  104.98650   95.10250    8.42210    7.76640    7.76640  296.04140  296.04140    -999.25    0.32730    0.28350 2496.22190    7.98400  -84.71930   -3.11870    7.98400
