~Version ---------------------------------------------------
VERS.      2.0 : CWLS log ASCII Standard -VERSION 2.0
WRAP.       NO : One line per depth step
CREA. 10/01/14 : LAS Creation Date
~Well ------------------------------------------------------
STRT.FT                                  935.9 : START DEPTH
STOP.FT                                 9375.9 : STOP DEPTH
STEP.FT                                0.50000 : STEP LENGTH
NULL.                                  -999.25 : NULL VALUE
COMP. THE BRITISH AMERICAN OIL COMPANY LIMITED : COMPANY
WELL.        B.A. EAST GOOSE RIVER 10-22-66-15 : WELL
FLD .                                          : FIELD
LOC .                                          : LOCATION
CTRY.                                   CANADA : COUNTRY
SRVC.                   Schlumberger of Canada : SERVICE COMPANY
DATE.                              16-Mar-1960 : LOGDATE
PROV.                                  Alberta : PROVINCE
UWI .                         100102206615W500 : UNIQUE WELL ID
SLAT.WGS84                            54.72873 : SURFACE LATITUDE
SLON.WGS84                           -116.1771 : SURFACE LONGITUDE
~Curve Information -----------------------------------------
DEPT.FT      : DEPTH FEET
CILD.MMHO    : CONDUCTIVITY FROM RESISTIVITY LOG
DT  .US/F    : DELTA-T FROM SONIC LOG
GRS .MG/TON  : GAMMA RAY FROM SONIC LOG
ILD .OHMM    : DEEP INDUCTION FROM RESISTIVITY LOG
MCAL.IN      : MLT CALIPER FROM MICRO LOG
SN  .OHMM    : SHORT NORMAL FROM RESISTIVITY LOG
SPR .MV      : SPONTANEOUS POTENTIAL FROM RESISTIVITY LOG
~Params ----------------------------------------------------
LMF .                     KB : LOG MEASURED FROM
DMF .                     KB : DRILLING MEASURED FROM
EKB .FT                 3222 : KELLY BUSHING
EGL .FT                 3205 : GROUND LEVEL
DATE.               03/16/60 : RUN DATE
RUN .                      2 : RUN NUMBER
DD  .FT                 9370 : DEPTH DRILLER
DL  .FT                 9378 : DEPTH LOGGER
BLI .FT                 9373 : BOTTOM LOG INTERVAL
TLI .FT                 5000 : TOP LOG INTERVAL
CBD .FT                  975 : CASING BOTTOM DRILLER
BS  .IN                    9 : BIT SIZE
BSD .FT                 9370 : BIT SIZE AT DEPTH
DFT .                    GEL : DRILLING FLUID TYPE
DFD .                     10 : DRILLING FLUID DENSITY
DFV .                    120 : DRILLING FLUID VISCOSITY
DFPH.                     10 : DRILLING FLUID PH
DFL .                    6.2 : DRILLING FLUID LOSS
RMS .OHMM                2.8 : RESISTIVITY MUD SAMPLE
MST .DEGF                 59 : MUD SAMPLE TEMPERATURE
RMF .OHMM               1.41 : RESISTIVITY MUD FILTRATE SAMPLE
MFST.DEGF                 68 : MUD FILTRATE SAMPLE TEMPERATURE
RMC .OHMM               2.56 : RESISTIVITY MUD CAKE
MCST.DEGF                 67 : MUD CAKE SAMPLE TEMPERATURE
RMB .OHMM               0.94 : RESISTIVITY MUD AT BHT
TCS .HRS                 4.5 : TIME CIRCULATED STOPPED
LUN .                  1573C : LOGGING UNIT NUMBER
LUL .                     WC : LOGGING UNIT LOCATION
ENGI.              HAUSEGGER : RECORDING ENGINEER
WITN.                   COTE : WITNESSED BY
CLNT.                A2DTECH : CLIENT CODE
ORIG.            2" 5" PRINT : ORIGIN OF DATA
UWI .       100102206615W500 : UNIQUE WELL ID
DICO. A2D Technologies, Inc. : DIGITIZING COMPANY
~Other -----------------------------------------------------
~ASCII -----------------------------------------------------
# ...
 6560.90000   12.92610   56.77440    1.21170  183.38560    9.86610   77.34710  -56.77890
 6561.40000   13.39360   56.91150    1.21150  183.40060    9.90780   74.73240  -56.39000
 6561.90000   13.34280   56.92920    1.24230  183.41570    9.93580   71.61060  -56.23650
 6562.40000   13.39480   56.92710    1.30350  174.08850    9.92900   68.67680  -56.07040
 6562.90000   14.20010   56.86240    1.36440  163.49580    9.86850   64.98060  -55.96900
 6563.40000   15.07140   56.87770    1.37970  153.14890    9.86910   62.89860  -55.99660
 6563.90000   16.69010   57.02210    1.34570  124.81080   10.05650   56.30940  -56.29520
 6564.40000   17.82430   57.06970    1.38940  114.58540   10.01120   52.68400  -56.35570
 6564.90000   22.39030   57.68800    1.47950   81.62200   10.14010   45.18100  -56.56110
 6565.40000   24.26260   58.15250    1.53410   72.62420   10.11570   42.71500  -56.50070
 6565.90000   30.50160   59.16800    1.78410   45.27330   10.07440   35.90970  -56.57900
 6566.40000   33.47770   59.48500    1.90090   42.34830   10.17580   33.84390  -56.69110
 6566.90000   43.09140   60.54990    2.29500   32.72220   10.21780   27.84360  -56.79430
 6567.40000   46.92240   61.18700    2.42210   30.45890   10.22710   26.28680  -56.78980
 6567.90000   56.64410   62.84620    2.70110   24.26360   10.32010   21.71330  -56.76170
 6568.40000   60.80560   63.03090    2.80830   22.53010   10.34050   20.96300  -56.77060
 6568.90000   72.81600   63.90270    3.23180   18.60260   10.38310   18.46470  -56.84530
 6569.40000   76.48290   64.35990    3.34800   17.50560   10.38510   17.55130  -57.06450
 6569.90000   88.05070   65.39570    3.54180   14.21480   10.40760   15.45060  -57.67340
 6570.40000   94.65940   65.61200    3.61520   13.45600   10.42870   14.69250  -57.92420
 6570.90000  100.12690   65.94300    3.64220   12.66180   10.44500   13.91100  -58.64130
 6571.40000  104.69440   66.32870    3.69380   12.06600   10.43180   13.29280  -59.28590
 6571.90000  109.20810   66.66040    3.79600   11.60280   10.43590   12.93570  -59.77700
 6572.40000  112.38820   66.67990    3.98470   11.23020   10.43760   12.66910  -59.97770
 6572.90000  114.35200   66.63070    4.00240   11.16580   10.43630   12.60670  -59.96040
 6573.40000  115.24620   66.35010    4.02260   11.06530   10.43790   12.46400  -59.75950
 6573.90000  114.60130   66.31690    4.03560   11.08890   10.43940   12.40660  -59.74530
 6574.40000  113.10690   66.18890    4.15220   11.26810   10.44360   12.30530  -59.64710
 6574.90000  112.24740   66.12950    4.11820   11.34660   10.44510   12.27880  -59.47280
 6575.40000  110.39910   66.04720    4.01070   11.58200   10.44930   12.14490  -58.88460
 6575.90000  109.81170   66.14930    3.97790   11.65620   10.45080   12.08970  -58.75360
 6576.40000  109.22440   66.54980    4.10500   11.83600   10.45510   11.93220  -58.59990
 6576.90000  109.00010   66.54510    4.15360   11.88880   10.45650   11.95730  -58.64180
 6577.40000  108.05940   66.50030    4.38560   12.04710   10.46830   11.96990  -58.90650
 6577.90000  107.92190   66.47430    4.47190   12.09990   10.47180   11.98650  -59.12130
 6578.40000  107.48540   66.40260    4.62980   12.25180   10.47590   12.03690  -59.77560
 6578.90000  107.34790   66.36730    4.62110   12.25310   10.47630   12.04580  -59.89590
 6579.40000  107.03690   66.17090    4.55390   12.25690   10.47720   12.03080  -60.41300
 6579.90000  106.86860   66.13000    4.49790   12.25820   10.47710   12.01660  -60.62380
 6580.40000  106.54540   66.01920    4.39240   12.26200   10.46970   11.95640  -61.24330
 6580.90000  107.09730   65.96620    4.36760   12.17260   10.46880   11.92140  -61.63340
 6581.40000  107.62730   65.95660    4.34310   12.06400   10.47770   11.86450  -61.91540
 6581.90000  107.64400   66.08090    4.26900   11.95550   10.49200   11.82400  -62.01090
 6582.40000  107.86710   66.33870    4.21500   11.92840   10.50440   11.78010  -61.97390
 6582.90000  107.78490   66.39550    4.27730   11.92700   10.50560   11.77230  -61.86750
 6583.40000  107.28390   66.42070    4.29420   11.94450   10.51040   11.80450  -61.78970
 6583.90000  106.50430   66.58840    4.17890   12.09380   10.52380   11.93130  -61.50440
 6584.40000  105.15990   66.62970    4.19930   12.15970   10.52380   11.99320  -61.40170
 6584.90000  103.12020   66.58800    4.31960   12.46160   10.52330   12.21720  -60.73110
 6585.40000  101.99680   66.51810    4.35900   12.59410   10.52830   12.29520  -60.45980
 6585.90000   98.25610   66.30400    4.26760   12.99190   10.54040   12.52920  -59.18180
 6586.40000   97.33480   66.21720    4.20500   13.20670   10.54230   12.60720  -58.61790
 6586.90000   93.99480   65.96880    4.21480   13.89140   10.54150   12.84730  -56.89960
 6587.40000   93.04410   65.89840    4.24690   14.03780   10.54120   12.95210  -56.37090
 6587.90000   90.08390   65.75270    4.17510   14.51410   10.53400   13.19840  -54.59120
 6588.40000   89.11900   65.72680    4.13890   14.67910   10.52940   13.26680  -53.75080
 6588.90000   86.87540   65.69470    4.23210   15.13590   10.51730   13.40130  -51.59590
 6589.40000   86.82440   65.70190    4.29490   15.15500   10.53500   13.40990  -51.07520
 6589.90000   87.31520   65.74390    4.28960   15.08600   10.56590   13.32630  -48.93140
 6590.40000   87.85080   65.75940    4.32700   14.93570   10.56020   13.26830  -48.29550
 6590.90000   89.64770   65.85210    4.35790   14.48490   10.52410   13.02180  -46.16130
 6591.40000   91.06980   66.31120    4.25400   14.18430   10.51060   12.76660  -44.51190
 6591.90000   92.50800   66.96950    4.22930   13.88370   10.50320   12.47460  -43.12930
 6592.40000   93.86230   67.40650    4.36340   13.58310   10.49600   12.41190  -41.72270
 6592.90000   95.21670   67.68750    4.45000   13.28290   10.48740   12.37140  -40.42810
 6593.40000   96.57090   68.05160    4.63800   13.18510   10.48920   12.43660  -39.59450
 6593.90000   96.80590   68.21280    4.77850   13.20800   10.48900   12.47770  -39.24600
 6594.40000   97.02640   68.48420    4.76670   13.35560   10.47270   12.53730  -38.18730
 6594.90000   97.24690   68.15020    4.63650   13.41790   10.47040   12.52390  -37.72890
 6595.40000   97.46740   67.71240    4.32090   13.41410   10.45440   12.31630  -36.42210
 6595.90000   97.57780   68.06240    4.30300   13.30250   10.44340   12.18040  -35.82400
 6596.40000   99.24180   70.60980    4.28960   12.93400   10.41470   11.66590  -34.52100
 6596.90000   99.98270   72.89460    4.32690   12.86480   10.41240   11.47780  -34.20870
 6597.40000  102.19700   83.59510    4.57840   12.70580   10.41890   11.09970  -33.54310
 6597.90000  103.49100   87.80820    5.04550   12.39480   10.77550   10.98160  -33.30780
 6598.40000  110.28940   97.69120    6.95700   10.77550   12.37760   10.62730  -32.52740
 6598.90000  114.70670  100.78470    7.99350   10.40940   12.79040   10.50920  -32.32500
 6599.40000  129.90820  108.01150   10.14580    9.45490   13.32220   10.15480  -31.71760
 6599.90000  135.27100  107.51470   10.16870    9.16080   13.69450   10.08400  -31.51520
 6600.40000  147.77480  104.05330    9.54210    8.53490   14.41530    9.95310  -30.90780
 6600.90000  147.30620  101.85540    8.85370    8.49760   14.30150   10.03940  -30.47210
 6601.40000  145.98540   99.13900    8.39060    8.79090   14.61970   10.21240  -29.96850
 6601.90000  141.94060   96.08300    8.00940    9.08220   15.06370   10.66690  -29.91280
 6602.40000  137.89570   94.05220    7.45730    9.38800   14.21340   11.21250  -29.93920
 6602.90000  132.49260   91.18010    7.17760    9.79460   13.54020   11.76400  -29.96320
 6603.40000  125.29080   90.34710    7.03090   10.45730   12.59290   12.49550  -29.94970
 6603.90000  117.82330   88.91790    7.15760   11.21640   11.74730   13.48010  -29.94320
 6604.40000  110.64920   88.17570    7.51640   11.53300   11.75150   13.89420  -29.98430
 6604.90000  103.70180   86.79950    8.89030   12.80340   11.05960   14.89370  -30.44430
 6605.40000   97.48730   87.12580    9.67060   13.20050   10.79370   15.24810  -30.72480
