~Version ---------------------------------------------------
VERS.      2.0 : CWLS log ASCII Standard -VERSION 2.0
WRAP.       NO : One line per depth step
CREA. 09/22/17 : LAS Creation Date
~Well ------------------------------------------------------
STRT.FT                            1200.0 : START DEPTH
STOP.FT                           11700.0 : STOP DEPTH
STEP.FT                          50.00000 : STEP LENGTH
NULL.                             -999.25 : NULL VALUE
COMP.        PAN AMERICAN PETROLEUM CORP. : COMPANY
WELL. PAN AM FINA G-1 KAYBOBS 10-19-58-18 : WELL
FLD .                                  WC : FIELD
LOC .                                     : LOCATION
CTRY.                              CANADA : COUNTRY
SRVC.                        Schlumberger : SERVICE COMPANY
DATE.                         16-Apr-1969 : LOGDATE
PROV.                             Alberta : PROVINCE
UWI .                    100101905818W500 : UNIQUE WELL ID
SLAT.WGS84                       54.03118 : SURFACE LATITUDE
SLON.WGS84                      -116.6587 : SURFACE LONGITUDE
~Curve Information -----------------------------------------
DEPT    .FT    : Depth Curve
CALDED  .IN    : CALIPER FROM DENSITY LOG [DEP. ADJ. TO RESIS. LOG]
CALNED  .IN    : CALIPER FROM SNP LOG [DEP. ADJ. TO RESIS. LOG]
CALSED  .IN    : CALIPER FROM SONIC LOG
CALWS   .IN    : CALIPER [1200' CALSED 10727' CALDED]
CONDWS  .MMHO  : CONDUCTIVITY [1000/DRESWS]
DCORED  .G/C3  : DENSITY CORRECTION FROM DENSITY LOG [DEP. ADJ. TO RESIS. LOG]
DCORWS  .G/C3  : DENSITY CORRECTION [DCORED]
DENWS   .G/C3  : BULK DENSITY [M=2.71, F=1.00] [RHOBED]
DPHILSED.V/V   : DENSITY POROSITY [M=2.71, F=1.00] FROM DENSITY LOG [DEP. ADJ. TO RESIS. LOG]
DPOLSWS .V/V   : DENSITY POROSITY [M=2.71, F=1.00] [DPHILSED]
DRESWS  .OHMM  : DEEP RESISTIVITY [ILDED]
DTED    .US/F  : DELTA TIME FROM SONIC LOG
DTWS    .US/F  : DELTA TIME [DTED]
GRNED   .GAPI  : GAMMA RAY FROM SNP LOG [DEP. ADJ. TO RESIS. LOG]
GRSED   .GAPI  : GAMMA RAY FROM SONIC LOG
GRWS    .GAPI  : GAMMA RAY [1178' GRSED 11700' GRNED]
ILDED   .OHMM  : INDUCTION LOG DEEP RESISTIVITY
ILMED   .OHMM  : INDUCTION LOG MEDIUM RESISTIVITY
LL8ED   .OHMM  : 8 INCH LATEROLOG RESISTIVITY
MRESWS  .OHMM  : MEDIUM RESISTIVITY [ILMED]
NPOLSWS .V/V   : NEUTRON POROSITY LIMESTONE [SNPLSED]
RHOBED  .G/C3  : BULK DENSITY FROM DENSITY LOG [DEP. ADJ. TO RESIS. LOG]
SNPLSED .V/V   : SIDEWALL NEUTRON POROSITY [LIMESTONE] [DEP. ADJ. TO RESIS. LOG]
SPRED   .MV    : SPONTANEOUS POTENTIAL FROM RESISTIVITY LOG
SPWS    .MV    : SPONTANEOUS POTENTIAL [BASELINE 0 MV] [SPRED]
SRESWS  .OHMM  : SHALLOW RESISTIVITY [LL8ED]
~Params ----------------------------------------------------
PD  .                     GL : PERMANENT DATUM
EPD .FT                 3475 : ELEVATION PERMANENT DATUM
LMF .                     KB : LOG MEASURED FROM
DAPD.FT                   12 : FEET ABOVE PERMANENT DATUM
EKB .FT                 3487 : KELLY BUSHING
EGL .FT                 3475 : GROUND LEVEL
DATE.               04/16/69 : RUN DATE
RUN .                      1 : RUN NUMBER
DD  .FT                11735 : DEPTH DRILLER
DL  .FT                11734 : DEPTH LOGGER
BLI .FT                11729 : BOTTOM LOG INTERVAL
TLI .FT                 1202 : TOP LOG INTERVAL
CBD .FT                 1202 : CASING BOTTOM DRILLER
CBL .FT                 1202 : CASING BOTTOM LOGGER
BS  .IN                 8.75 : BIT SIZE
BSD .FT                11735 : BIT SIZE AT DEPTH
DFT .              GEL BENEX : DRILLING FLUID TYPE
DFD .                    9.3 : DRILLING FLUID DENSITY
DFV .                     90 : DRILLING FLUID VISCOSITY
DFPH.                    8.0 : DRILLING FLUID PH
DFL .                   11.2 : DRILLING FLUID LOSS
RMS .OHMM               2.37 : RESISTIVITY MUD SAMPLE
MST .DEGF                 67 : MUD SAMPLE TEMPERATURE
RMF .OHMM               1.81 : RESISTIVITY MUD FILTRATE SAMPLE
MFST.DEGF                 66 : MUD FILTRATE SAMPLE TEMPERATURE
RMC .OHMM               2.83 : RESISTIVITY MUD CAKE
MCST.DEGF                 68 : MUD CAKE SAMPLE TEMPERATURE
RMB .OHMM               0.62 : RESISTIVITY MUD AT BHT
TCS .HRS                   2 : TIME CIRCULATED STOPPED
LUN .                   7502 : LOGGING UNIT NUMBER
LUL .                    EDM : LOGGING UNIT LOCATION
ENGI.               ARMENTAN : RECORDING ENGINEER
WITN.                   CHUK : WITNESSED BY
CLNT.                A2DTECH : CLIENT CODE
ORIG.            2" 5" PRINT : ORIGIN OF DATA
UWI .       100101905818W500 : UNIQUE WELL ID
DICO. A2D Technologies, Inc. : DIGITIZING COMPANY
~Other -----------------------------------------------------
~ASCII -----------------------------------------------------
# ...
 3900.00000    -999.25    -999.25   11.95140   11.95140  226.12890    -999.25    -999.25    -999.25    -999.25    -999.25    4.42570   83.34300   83.34300    -999.25   59.85260   59.85260    4.42570    4.48950    4.57460    4.48950    -999.25    -999.25    -999.25   84.60050  -19.06920    4.57460
 3950.00000    -999.25    -999.25   11.85400   11.85400   66.47830    -999.25    -999.25    -999.25    -999.25    -999.25   15.04250   82.98960   82.98960    -999.25   38.28720   38.28720   15.04250   16.50640   15.11000   16.50640    -999.25    -999.25    -999.25   76.77390  -27.70460   15.11000
 4000.00000    -999.25    -999.25   11.92530   11.92530  179.83990    -999.25    -999.25    -999.25    -999.25    -999.25    5.56050   84.99530   84.99530    -999.25   57.90340   57.90340    5.56050    5.78380    5.41950    5.78380    -999.25    -999.25    -999.25   86.87020  -18.41190    5.41950
 4050.00000    -999.25    -999.25   11.98380   11.98380   60.48260    -999.25    -999.25    -999.25    -999.25    -999.25   16.53370   82.88870   82.88870    -999.25   40.00740   40.00740   16.53370   19.60980   19.03210   19.60980    -999.25    -999.25    -999.25   83.47360  -22.61200   19.03210
 4100.00000    -999.25    -999.25   12.29050   12.29050  225.91210    -999.25    -999.25    -999.25    -999.25    -999.25    4.42650  107.81460  107.81460    -999.25   59.57960   59.57960    4.42650    4.53620    4.43150    4.53620    -999.25    -999.25    -999.25   99.71370   -7.18080    4.43150
 4150.00000    -999.25    -999.25   11.57820   11.57820  158.97960    -999.25    -999.25    -999.25    -999.25    -999.25    6.31120   81.89850   81.89850    -999.25   46.57310   46.57310    6.31120    6.66060    6.45050    6.66060    -999.25    -999.25    -999.25  102.02980   -5.66820    6.45050
 4200.00000    -999.25    -999.25   11.89220   11.89220  179.29820    -999.25    -999.25    -999.25    -999.25    -999.25    5.57730  102.22860  102.22860    -999.25   53.66050   53.66050    5.57730    5.89830    5.86080    5.89830    -999.25    -999.25    -999.25  102.88330   -5.46860    5.86080
 4250.00000    -999.25    -999.25   11.47700   11.47700  184.62450    -999.25    -999.25    -999.25    -999.25    -999.25    5.41640   83.36250   83.36250    -999.25   55.32690   55.32690    5.41640    5.61160    5.54770    5.61160    -999.25    -999.25    -999.25  103.10840   -5.61070    5.54770
 4300.00000    -999.25    -999.25   11.66000   11.66000  202.87450    -999.25    -999.25    -999.25    -999.25    -999.25    4.92970   90.89380   90.89380    -999.25   51.40540   51.40540    4.92970    5.01090    4.92150    5.01090    -999.25    -999.25    -999.25  101.13580   -7.95050    4.92150
 4350.00000    -999.25    -999.25   12.62030   12.62030  188.41620    -999.25    -999.25    -999.25    -999.25    -999.25    5.30740  105.24870  105.24870    -999.25   52.06820   52.06820    5.30740    5.85660    7.69420    5.85660    -999.25    -999.25    -999.25   98.85800  -10.59800    7.69420
 4400.00000    -999.25    -999.25   11.33090   11.33090   54.33940    -999.25    -999.25    -999.25    -999.25    -999.25   18.46020   72.65150   72.65150    -999.25   51.22030   51.22030   18.46020   28.72570   45.50180   28.72570    -999.25    -999.25    -999.25   90.89680  -18.92640   45.50180
 4450.00000    -999.25    -999.25   11.65280   11.65280   87.10570    -999.25    -999.25    -999.25    -999.25    -999.25   11.48030   80.15600   80.15600    -999.25   50.31900   50.31900   11.48030   14.05580   18.68010   14.05580    -999.25    -999.25    -999.25   92.73370  -17.45920   18.68010
 4500.00000    -999.25    -999.25   11.68150   11.68150  193.50590    -999.25    -999.25    -999.25    -999.25    -999.25    5.16780  107.03060  107.03060    -999.25   65.79160   65.79160    5.16780    5.79030    6.81970    5.79030    -999.25    -999.25    -999.25  100.57660   -9.98350    6.81970
 4550.00000    -999.25    -999.25   11.18580   11.18580  151.83490    -999.25    -999.25    -999.25    -999.25    -999.25    6.58610   88.74930   88.74930    -999.25   60.19650   60.19650    6.58610    6.78930    6.42270    6.78930    -999.25    -999.25    -999.25  100.87570  -10.05160    6.42270
 4600.00000    -999.25    -999.25   10.78320   10.78320   61.82300    -999.25    -999.25    -999.25    -999.25    -999.25   16.17520   71.17210   71.17210    -999.25   50.75840   50.75840   16.17520   25.03580   40.65250   25.03580    -999.25    -999.25    -999.25   97.10880  -14.18820   40.65250
 4650.00000    -999.25    -999.25   11.95200   11.95200  123.25400    -999.25    -999.25    -999.25    -999.25    -999.25    8.11360   78.56270   78.56270    -999.25   53.25460   53.25460    8.11360    8.57360    8.14770    8.57360    -999.25    -999.25    -999.25  100.24040  -11.42380    8.14770
 4700.00000    -999.25    -999.25   11.70700   11.70700  144.90230    -999.25    -999.25    -999.25    -999.25    -999.25    6.90120   70.92810   70.92810    -999.25   68.19410   68.19410    6.90120    7.13490    7.15240    7.13490    -999.25    -999.25    -999.25  103.30590   -8.72790    7.15240
 4750.00000    -999.25    -999.25   11.97660   11.97660   95.91590    -999.25    -999.25    -999.25    -999.25    -999.25   10.42580   70.95220   70.95220    -999.25   55.84310   55.84310   10.42580   11.36440   14.57900   11.36440    -999.25    -999.25    -999.25  101.18490  -11.21620   14.57900
 4800.00000    -999.25    -999.25   12.38290   12.38290  123.99550    -999.25    -999.25    -999.25    -999.25    -999.25    8.06480   81.38780   81.38780    -999.25   79.29080   79.29080    8.06480    8.56320    8.85620    8.56320    -999.25    -999.25    -999.25  104.72890   -8.03940    8.85620
 4850.00000    -999.25    -999.25   11.93610   11.93610  144.54840    -999.25    -999.25    -999.25    -999.25    -999.25    6.91810   84.39860   84.39860    -999.25   84.68600   84.68600    6.91810    7.44640    7.86460    7.44640    -999.25    -999.25    -999.25  105.41340   -7.72450    7.86460
 4900.00000    -999.25    -999.25   11.55990   11.55990  133.12080    -999.25    -999.25    -999.25    -999.25    -999.25    7.51210   82.72670   82.72670    -999.25   87.49600   87.49600    7.51210    7.89100    8.78810    7.89100    -999.25    -999.25    -999.25  107.54860   -5.95660    8.78810
 4950.00000    -999.25    -999.25   11.84280   11.84280  133.06900    -999.25    -999.25    -999.25    -999.25    -999.25    7.51490   84.47640   84.47640    -999.25   88.94230   88.94230    7.51490    8.04230    8.95250    8.04230    -999.25    -999.25    -999.25  108.94660   -4.92820    8.95250
 5000.00000    -999.25    -999.25   11.65420   11.65420  138.91980    -999.25    -999.25    -999.25    -999.25    -999.25    7.19840   88.86370   88.86370    -999.25   96.15200   96.15200    7.19840    7.99590    9.92310    7.99590    -999.25    -999.25    -999.25  111.80810   -2.12420    9.92310
 5050.00000    -999.25    -999.25   11.85170   11.85170   77.81360    -999.25    -999.25    -999.25    -999.25    -999.25   12.85130   77.12420   77.12420    -999.25   84.76520   84.76520   12.85130   14.86640   19.69620   14.86640    -999.25    -999.25    -999.25  107.67460   -6.20080   19.69620
 5100.00000    -999.25    -999.25   12.30300   12.30300  109.64550    -999.25    -999.25    -999.25    -999.25    -999.25    9.12030   82.45510   82.45510    -999.25   84.83080   84.83080    9.12030    9.91630   11.35530    9.91630    -999.25    -999.25    -999.25  108.25510   -5.56300   11.35530
 5150.00000    -999.25    -999.25   12.63850   12.63850  131.06180    -999.25    -999.25    -999.25    -999.25    -999.25    7.63000   85.88190   85.88190    -999.25   93.72080   93.72080    7.63000    8.01880    9.12600    8.01880    -999.25    -999.25    -999.25  110.75320   -3.00800    9.12600
 5200.00000    -999.25    -999.25   12.83060   12.83060  148.61710    -999.25    -999.25    -999.25    -999.25    -999.25    6.72870   83.17760   83.17760    -999.25   91.84620   91.84620    6.72870    6.57020    7.45210    6.57020    -999.25    -999.25    -999.25  111.71520   -1.98870    7.45210
