~Version ---------------------------------------------------
VERS.      2.0 : CWLS log ASCII Standard -VERSION 2.0
WRAP.       NO : One line per depth step
CREA. 12/15/17 : LAS Creation Date
~Well ------------------------------------------------------
STRT.FT                          950.0 : START DEPTH
STOP.FT                         9600.0 : STOP DEPTH
STEP.FT                       50.00000 : STEP LENGTH
NULL.                          -999.25 : NULL VALUE
COMP.             QUASAR PETROLEUM LTD : COMPANY
WELL. QUASAR SIEBENS SUNSET 1-29-69-18 : WELL
FLD .                                  : FIELD
LOC .                                  : LOCATION
CTRY.                           CANADA : COUNTRY
SRVC.                     Schlumberger : SERVICE COMPANY
DATE.                      27-Dec-1974 : LOGDATE
PROV.                          Alberta : PROVINCE
UWI .                 100012906918W500 : UNIQUE WELL ID
SLAT.WGS84                    54.99883 : SURFACE LATITUDE
SLON.WGS84                   -116.6996 : SURFACE LONGITUDE
~Curve Information -----------------------------------------
DEPT  .FT    : Depth Curve
CALSED.IN    : CALIPER FROM SONIC LOG
CALWS .IN    : CALIPER [CALSED]
CILDED.MMHO  : CONDUCTIVITY FROM RESISTIVITY LOG
CONDWS.MMHO  : CONDUCTIVITY [1000/DRESWS]
DRESWS.OHMM  : DEEP RESISTIVITY [1000/CILDED IF ILDED <=5, ILDED & SPL. TO ILDED @ 3490']
DTED  .US/F  : DELTA-T FROM SONIC LOG
DTWS  .US/F  : COMPRESSIONAL SONIC [DTED]
GRSED .GAPI  : GAMMA RAY FROM SONIC LOG
GRWS  .GAPI  : GAMMA RAY [GRSED]
ILDED .OHMM  : DEEP INDUCTION RESISTIVITY FROM RESISTIVITY LOG
ILMED .OHMM  : MEDIUM INDUCTION RESISTIVITY FROM RESISTIVITY LOG
LL8ED .OHMM  : LATEROLOG 8 RESISTIVITY FROM RESISTIVITY LOG
MRESWS.OHMM  : MEDIUM RESISTIVITY [ILMED]
SPRED .MV    : SPONTANEOUS POTENTIAL FROM RESISTIVITY LOG SHIFTED
SPWS  .MV    : SPONTANEOUS POTENTIAL [BASELINE 0 MV, SPRED]
SRESWS.OHMM  : SHALLOW RESISTIVITY [LL8ED]
~Params ----------------------------------------------------
PD  .                     GL : PERMANENT DATUM
EPD .FT               3066.1 : ELEVATION PERMANENT DATUM
LMF .                     KB : LOG MEASURED FROM
DAPD.FT                 14.8 : FEET ABOVE PERMANENT DATUM
EKB .FT               3080.9 : KELLY BUSHING
EGL .FT               3066.1 : GROUND LEVEL
DATE.               12/27/74 : RUN DATE
RUN .                      1 : RUN NUMBER
DD  .FT                 9631 : DEPTH DRILLER
DL  .FT                 9629 : DEPTH LOGGER
BLI .FT                 9623 : BOTTOM LOG INTERVAL
TLI .FT                  968 : TOP LOG INTERVAL
CBD .FT                  966 : CASING BOTTOM DRILLER
CBL .FT                  968 : CASING BOTTOM LOGGER
BS  .IN                7.875 : BIT SIZE
BSD .FT                 9631 : BIT SIZE AT DEPTH
DFT .                    GEL : DRILLING FLUID TYPE
DFD .                    9.1 : DRILLING FLUID DENSITY
DFV .                     75 : DRILLING FLUID VISCOSITY
DFPH.                    9.6 : DRILLING FLUID PH
DFL .                      9 : DRILLING FLUID LOSS
MSS .               FLOWLINE : MUD SAMPLE SOURCE
RMS .OHMM                  2 : RESISTIVITY MUD SAMPLE
MST .DEGF                 62 : MUD SAMPLE TEMPERATURE
RMF .OHMM               1.86 : RESISTIVITY MUD FILTRATE SAMPLE
MFST.DEGF                 70 : MUD FILTRATE SAMPLE TEMPERATURE
MCST.DEGF                 67 : MUD CAKE SAMPLE TEMPERATURE
RMB .OHMM               2.21 : RESISTIVITY MUD AT BHT
TCS .HRS                 3.5 : TIME CIRCULATED STOPPED
LUN .                   7691 : LOGGING UNIT NUMBER
LUL .                    EDM : LOGGING UNIT LOCATION
ENGI.             LAVERDIERE : RECORDING ENGINEER
WITN.          WETTER SAYERS : WITNESSED BY
CLNT.                A2DTECH : CLIENT CODE
ORIG.            2" 5" PRINT : ORIGIN OF DATA
UWI .       100012906918W500 : UNIQUE WELL ID
DICO. A2D Technologies, Inc. : DIGITIZING COMPANY
~Other -----------------------------------------------------
DIL-BHC TOOLS RUN
ALL DIL-BHC TOOL CURVES FROM TOP TO 3490' FROM 2" SCALE SECTION
SP AFFECTED BY TELLURIC CURRENTS
LOG NOT TAPED
~ASCII -----------------------------------------------------
# ...
 7400.00000    8.33970    8.33970    -999.25    3.72710  268.30570   48.81000   48.81000   14.07590   14.07590  268.30570  244.02250  726.15590  244.02250  -51.28000 -104.13570  726.15590
 7450.00000    8.17670    8.17670    -999.25    5.39490  185.36100   49.63270   49.63270   13.15180   13.15180  185.36100  185.33370  326.63940  185.33370  -36.36000  -89.74630  326.63940
 7500.00000    8.31100    8.31100    -999.25    4.56850  218.89200   49.66120   49.66120   15.82330   15.82330  218.89200  183.24410  455.64850  183.24410  -31.78000  -85.69340  455.64850
 7550.00000    8.18780    8.18780    -999.25    5.84210  171.17090   50.05890   50.05890   16.31660   16.31660  171.17090  163.31650  471.00980  163.31650  -50.40000 -104.84060  471.00980
 7600.00000    8.20190    8.20190    -999.25   38.43860   26.01550   51.42060   51.42060   12.41980   12.41980   26.01550   30.83490  138.05220   30.83490 -145.05000 -200.02120  138.05220
 7650.00000    8.21980    8.21980    -999.25   27.73130   36.06040   51.47690   51.47690   14.23010   14.23010   36.06040   47.14440  258.12490   47.14440 -139.78000 -195.27830  258.12490
 7700.00000    8.04580    8.04580    -999.25   68.25100   14.65180   52.88610   52.88610   29.43040   29.43040   14.65180   12.59930   46.77490   12.59930  -70.11000 -126.13890   46.77490
 7750.00000    7.74070    7.74070    -999.25  309.14770    3.23470   57.73600   57.73600   27.00930   27.00930    3.23470    4.80210   30.18770    4.80210 -152.18000 -208.73610   30.18770
 7800.00000    7.96680    7.96680    -999.25   48.99700   20.40940   50.69550   50.69550   31.35690   31.35690   20.40940   19.88980   52.21920   19.88980 -136.42000 -193.50320   52.21920
 7850.00000    8.07460    8.07460    -999.25   73.37620   13.62840   53.16800   53.16800   35.77270   35.77270   13.62840   14.61040   20.51550   14.61040 -134.84000 -192.45380   20.51550
 7900.00000    7.91520    7.91520    -999.25   15.38050   65.01750   51.48050   51.48050   32.25130   32.25130   65.01750   66.34830  103.23570   66.34830  -82.36000 -140.50100  103.23570
 7950.00000    8.51120    8.51120    -999.25  164.70120    6.07160   69.12600   69.12600   80.39560   80.39560    6.07160    6.68240   10.49290    6.68240  -21.03000  -79.70160   10.49290
 8000.00000    7.99880    7.99880    -999.25    7.36160  135.84070   50.26090   50.26090   15.76320   15.76320  135.84070  172.27800  513.13300  172.27800  -18.32000  -77.51870  513.13300
 8050.00000    8.06370    8.06370    -999.25   47.96990   20.84640   56.30420   56.30420   42.10580   42.10580   20.84640   25.76500   44.77440   25.76500   17.84000  -41.88590   44.77440
 8100.00000    8.04380    8.04380    -999.25   84.96750   11.76920   61.39930   61.39930   54.75980   54.75980   11.76920   13.37530   35.52330   13.37530   30.63000  -29.62650   35.52330
 8150.00000    8.79550    8.79550    -999.25  202.19580    4.94570   75.96810   75.96810   90.48940   90.48940    4.94570    5.11250    7.32200    5.11250   49.60000  -11.18360    7.32200
 8200.00000    9.82080    9.82080    -999.25  288.25090    3.46920   83.01920   83.01920  113.31230  113.31230    3.46920    3.50780    4.60720    3.50780   47.48000  -13.83420    4.60720
 8250.00000   10.37300   10.37300    -999.25  260.47770    3.83910   80.42230   80.42230   99.91690   99.91690    3.83910    3.69680    5.28970    3.69680   56.94000   -4.90140    5.28970
 8300.00000   10.79480   10.79480    -999.25  312.01250    3.20500   82.87920   82.87920  103.40730  103.40730    3.20500    3.44690    4.91390    3.44690   49.76000  -12.60850    4.91390
 8350.00000   10.15850   10.15850    -999.25  269.23700    3.71420   81.34370   81.34370   97.54110   97.54110    3.71420    3.99810    5.48580    3.99810   36.91000  -25.97350    5.48580
 8400.00000    9.75270    9.75270    -999.25  317.22870    3.15230   84.94100   84.94100  109.29010  109.29010    3.15230    3.21980    4.79320    3.21980  -42.32000 -105.70010    4.79320
 8450.00000    9.97430    9.97430    -999.25  276.80890    3.61260   81.20500   81.20500  100.77250  100.77250    3.61260    3.62100    5.43290    3.62100 -118.50000 -182.38000    5.43290
 8500.00000   10.02640   10.02640    -999.25  296.59510    3.37160   83.10970   83.10970   98.49890   98.49890    3.37160    3.65620    5.11720    3.65620 -112.98000 -177.35660    5.11720
 8550.00000    7.98460    7.98460    -999.25   99.48760   10.05150   63.95320   63.95320   75.95160   75.95160   10.05150    9.55500   15.81360    9.55500  -73.66000 -138.53330   15.81360
 8600.00000    8.04990    8.04990    -999.25  110.80330    9.02500   65.29500   65.29500   72.75880   72.75880    9.02500   10.05250   13.36380   10.05250  -48.59000 -113.96320   13.36380
 8650.00000    8.06910    8.06910    -999.25  172.57150    5.79470   72.16040   72.16040   95.06920   95.06920    5.79470    5.99000   10.44790    5.99000  -64.98000 -130.84980   10.44790
 8700.00000    8.07080    8.07080    -999.25  120.82840    8.27620   68.37410   68.37410   90.95330   90.95330    8.27620    8.87630   15.29790    8.87630  -67.70000 -134.06970   15.29790
 8750.00000    8.07810    8.07810    -999.25  140.14240    7.13560   67.73230   67.73230   78.70740   78.70740    7.13560    7.63890   11.58320    7.63890  -44.94000 -111.80630   11.58320
 8800.00000    8.01010    8.01010    -999.25  148.92480    6.71480   68.61080   68.61080   79.49390   79.49390    6.71480    6.87120   11.56190    6.87120  -15.24000  -82.60300   11.56190
 8850.00000    8.46750    8.46750    -999.25  176.05940    5.67990   76.11250   76.11250  105.81520  105.81520    5.67990    5.95560    7.99860    5.95560   14.43000  -53.43290    7.99860
 8900.00000    8.00380    8.00380    -999.25  136.57470    7.32200   63.96720   63.96720   64.70070   64.70070    7.32200    9.04960   15.43940    9.04960   54.04000  -14.31950   15.43940
 8950.00000    8.44420    8.44420    -999.25  234.18110    4.27020   78.03340   78.03340  118.97460  118.97460    4.27020    4.44460    6.61650    4.44460   61.10000   -7.75940    6.61650
 9000.00000    8.54650    8.54650    -999.25  236.46810    4.22890   78.48390   78.48390  102.62280  102.62280    4.22890    4.45280    7.12250    4.45280   68.92000   -0.43600    7.12250
 9050.00000    8.00270    8.00270    -999.25  144.86670    6.90290   65.95050   65.95050   71.85450   71.85450    6.90290    7.26830   14.34270    7.26830   72.50000    2.64730   14.34270
 9100.00000   10.92210   10.92210    -999.25  180.43380    5.54220   87.27710   87.27710  129.11580  129.11580    5.54220    6.11610    8.91490    6.11610   56.06000  -14.29260    8.91490
 9150.00000    8.09420    8.09420    -999.25   79.97760   12.50350   59.81840   59.81840   70.81700   70.81700   12.50350   14.01620   23.84680   14.01620   67.42000   -3.42920   23.84680
 9200.00000    8.04790    8.04790    -999.25   55.09730   18.14970   57.73950   57.73950   45.18820   45.18820   18.14970   18.49470   22.73090   18.49470   63.81000   -7.53910   22.73090
 9250.00000    7.83150    7.83150    -999.25   41.74160   23.95690   52.73700   52.73700   35.34650   35.34650   23.95690   25.03980   74.65000   25.03980   42.56000  -29.25430   74.65000
 9300.00000    7.75430    7.75430    -999.25   13.79650   72.48200   49.83380   49.83380   22.38100   22.38100   72.48200   65.49830  612.39260   65.49830  -40.64000 -112.88730  612.39260
 9350.00000    7.70950    7.70950    -999.25   46.02080   21.72930   51.33830   51.33830   10.42930   10.42930   21.72930   25.15610  139.64650   25.15610  -95.59000 -168.27300  139.64650
 9400.00000    7.63730    7.63730    -999.25    7.22050  138.49370   50.33460   50.33460   18.15320   18.15320  138.49370  286.96570  865.02750  286.96570  -74.44000 -147.55600  865.02750
 9450.00000    7.68920    7.68920    -999.25    3.60960  277.04080   49.61100   49.61100   13.05570   13.05570  277.04080  625.85990 1596.01350  625.85990  -24.82000  -98.37180 1596.01350
 9500.00000    7.72110    7.72110    -999.25    2.66300  375.51730   50.84480   50.84480   16.78020   16.78020  375.51730  331.91730  706.36620  331.91730   34.28000  -39.70470  706.36620
