~Version ---------------------------------------------------
VERS.      2.0 : CWLS log ASCII Standard -VERSION 2.0
WRAP.       NO : One line per depth step
CREA. 08/04/17 : LAS Creation Date
~Well ------------------------------------------------------
STRT.FT                             1100.0 : START DEPTH
STOP.FT                            11250.0 : STOP DEPTH
STEP.FT                           50.00000 : STEP LENGTH
NULL.                              -999.25 : NULL VALUE
COMP.                 PETROFINA CANADA LTD : COMPANY
WELL. FINA AMOCO HB SAKWATAMAU 10-21-62-15 : WELL
FLD .                                   WC : FIELD
LOC .                                      : LOCATION
CTRY.                               CANADA : COUNTRY
SRVC.                         Schlumberger : SERVICE COMPANY
DATE.                          21-Aug-1976 : LOGDATE
PROV.                              Alberta : PROVINCE
UWI .                     100102106215W500 : UNIQUE WELL ID
SLAT.WGS84                        54.37886 : SURFACE LATITUDE
SLON.WGS84                       -116.1857 : SURFACE LONGITUDE
~Curve Information -----------------------------------------
DEPT    .FT    : Depth Curve
CALDED  .IN    : CALIPER FROM CND LOG [ADJ. TO ILDED]
CALSED  .IN    : CALIPER FROM BCS LOG [ADJ. TO GRDED]
CALWS   .IN    : CALIPER [CALSED]
CILDED  .MMHO  : DEEP INDUCTION CONDUCTIVITY FROM DIL-LAT LOG
CONDWS  .MMHO  : CONDUCTIVITY [CILDED]
DCORWS  .G/C3  : DENSITY CORRECTION [DRHOED]
DENWS   .G/C3  : FROMATION BILK DENSITY [RHOBED]
DPHILSED.V/V   : DENSITY POROSITY LIMESTONE [M=2.71, F=1000] FROM CND LOG [ADJ. TO RHOBED]
DPHISSED.V/V   : DENSITY POROSITY SANDSTONE [M=2.65, F=1.00] FROM CND LOG [ADJ. TO RHOBED]
DPOLSWS .V/V   : DENSITY POROSITY LIMESTONE [CALCULATED FROM DENWS, M=2.71, F=1.00]
DRESWS  .OHMM  : DEEP RESISTIVITY [spl. 1000/CONDWS, IF ILDED <=1, ILDED/ILDED at 4490']
DRHOED  .G/C3  : BULK DENSITY CORRECTION FROM CND LOG [ADJ. TO ILDED]
DTED    .US/F  : DELTA-T (INTERVAL TRANSIT TIME) FROM BCS LOG  [ADJ. TO GRDED]
DTWS    .US/F  : COMPRESSIONA L SONIC [DTED]
GRDED   .GAPI  : GAMMA RAY FROM CND LOG [ADJ. TO ILDED]
GRSED   .GAPI  : GAMMA RAY FROM BCS LOG  [ADJ. TO GRDED]
GRWS    .GAPI  : GAMMA RAY [GRSED SPL. TO GRDED @ 11233.5']
ILDED   .OHMM  : DEEP INDUCTION RESISTIVITY FROM DIL-LAT LOG
ILMED   .OHMM  : MEDIUM INDUCTION  RESISTIVITY FROM DIL-LAT LOG
LL8ED   .OHMM  : LATEROLOG 8 FROM DIL-LAT LOG
MRESWS  .OHMM  : MEDIUM RESISTIVITY [ILMED]
NPHILSED.V/V   : NEUTRON POROSITY LIMESTONE FROM CND LOG [ADJ. TO RHOBED]
NPHISSED.V/V   : NEUTRON POROSITY SANDSTONE FROM CND LOG [ADJ. TO RHOBED]
NPOLSWS .V/V   : NEUTRON POROSITY LIMESTONE [NPHISSED MATRIX CONVERSION FRO LIMESTONE,SPL TO NPHILSED @ 6345']
RHOBED  .G/C3  : BULK DENSITY FROM CND LOG [ADJ. TO ILDED]
SPRED   .MV    : SPONTANEOUS POTENTIAL FROM DIL-LAT LOG
SPWS    .MV    : SPONTANEOUS POTENTIAL [BASELINE 0 MV, SPRED]
SRESWS  .OHMM  : SHALLOW RESISTIVITY [LL8ED]
~Params ----------------------------------------------------
PD  .                     GL : PERMANENT DATUM
EPD .FT               3315.9 : ELEVATION PERMANENT DATUM
LMF .                     KB : LOG MEASURED FROM
DAPD.FT                 15.1 : FEET ABOVE PERMANENT DATUM
EKB .FT                 3331 : KELLY BUSHING
EGL .FT               3315.9 : GROUND LEVEL
DATE.               08/21/76 : RUN DATE
RUN .                      1 : RUN NUMBER
DD  .FT                11275 : DEPTH DRILLER
DL  .FT                11270 : DEPTH LOGGER
BLI .FT                11267 : BOTTOM LOG INTERVAL
TLI .FT                 1134 : TOP LOG INTERVAL
CBD .FT                 1134 : CASING BOTTOM DRILLER
CBL .FT                 1134 : CASING BOTTOM LOGGER
BS  .IN                 8.75 : BIT SIZE
BSD .FT                11275 : BIT SIZE AT DEPTH
DFT .               GEL CHEM : DRILLING FLUID TYPE
DFD .                    9.5 : DRILLING FLUID DENSITY
DFV .                     95 : DRILLING FLUID VISCOSITY
DFPH.                   10.5 : DRILLING FLUID PH
DFL .                      7 : DRILLING FLUID LOSS
MSS .               FLOWLINE : MUD SAMPLE SOURCE
RMS .OHMM                2.7 : RESISTIVITY MUD SAMPLE
MST .DEGF                 55 : MUD SAMPLE TEMPERATURE
RMF .OHMM               2.65 : RESISTIVITY MUD FILTRATE SAMPLE
MFST.DEGF                 56 : MUD FILTRATE SAMPLE TEMPERATURE
RMB .OHMM               0.56 : RESISTIVITY MUD AT BHT
TCS .HRS                 3.5 : TIME CIRCULATED STOPPED
LUN .                   7691 : LOGGING UNIT NUMBER
LUL .                    WCT : LOGGING UNIT LOCATION
ENGI.                GOODMAN : RECORDING ENGINEER
WITN.                 TIFFIN : WITNESSED BY
CLNT.                A2DTECH : CLIENT CODE
ORIG.            2" 5" PRINT : ORIGIN OF DATA
UWI .       100102106215W500 : UNIQUE WELL ID
DICO. A2D Technologies, Inc. : DIGITIZING COMPANY
~Other -----------------------------------------------------
~ASCII -----------------------------------------------------
# ...
 4850.00000   11.25230    9.91240    9.91240    -999.25  188.24950    0.09540    2.47900    -999.25    0.10550    0.13510    5.31210    0.09540   87.85140   87.85140  117.99160  106.48510  106.48510    5.31210    5.63070    6.11920    5.63070    -999.25    0.33280    0.28900    2.47900  -14.16140   -8.00020    6.11920
 4900.00000   10.91580    9.67250    9.67250    -999.25  136.39400    0.09000    2.47540    -999.25    0.10790    0.13720    7.33170    0.09000   82.36760   82.36760  102.84140   89.89060   89.89060    7.33170    7.70380    9.49380    7.70380    -999.25    0.28510    0.24110    2.47540  -10.64670   -4.85520    9.49380
 4950.00000   11.98830   10.23240   10.23240    -999.25  206.53480    0.08470    2.47910    -999.25    0.10850    0.13510    4.84180    0.08470   87.88300   87.88300  121.76270  110.77050  110.77050    4.84180    5.19790    6.15750    5.19790    -999.25    0.34820    0.30450    2.47910   -8.77530   -3.35590    6.15750
 5000.00000   12.76090   10.23960   10.23960    -999.25  271.99780    0.09120    2.48950    -999.25    0.09740    0.12890    3.67650    0.09120   95.10670   95.10670  107.10310  105.31620  105.31620    3.67650    3.93910    4.70240    3.93910    -999.25    0.34950    0.30590    2.48950   -9.81390   -5.27320    4.70240
 5050.00000   13.61490   10.24020   10.24020    -999.25  256.46290    0.11590    2.48690    -999.25    0.09810    0.13050    3.89920    0.11590   94.43480   94.43480  121.76220  111.44860  111.44860    3.89920    4.22810    5.03830    4.22810    -999.25    0.34640    0.30270    2.48690  -14.57130   -9.74610    5.03830
 5100.00000   13.83460   10.47070   10.47070    -999.25  357.01540    0.12090    2.38440    -999.25    0.15910    0.19040    2.80100    0.12090  105.22310  105.22310  135.91830  116.86570  116.86570    2.80100    2.90700    3.80560    2.90700    -999.25    0.38730    0.34420    2.38440  -18.07050  -11.32990    3.80560
 5150.00000   12.71740    9.60730    9.60730    -999.25  500.47550    0.12650    2.37280    -999.25    0.17630    0.19720    1.99810    0.12650  109.41560  109.41560  120.08910  115.46080  115.46080    1.99810    2.25150    2.90140    2.25150    -999.25    0.43080    0.38860    2.37280  -16.24660   -7.61190    2.90140
 5200.00000   12.07340   10.87710   10.87710    -999.25  249.88130    0.07920    2.45430    -999.25    0.12070    0.14950    4.00190    0.07920   93.40650   93.40650  107.27490  112.21410  112.21410    4.00190    4.10990    5.18510    4.10990    -999.25    0.35120    0.30760    2.45430  -16.52420   -6.01770    5.18510
 5250.00000   11.19740    9.99880    9.99880    -999.25  388.47020    0.06250    2.44420    -999.25    0.12470    0.15540    2.57420    0.06250   96.72520   96.72520  111.92430  109.22540  109.22540    2.57420    2.96260    3.59350    2.96260    -999.25    0.35370    0.31010    2.44420  -18.48930   -6.12330    3.59350
 5300.00000    8.93890    8.71130    8.71130    -999.25   96.79890    0.08140    2.50850    -999.25    0.12430    0.11780   10.33070    0.08140   77.45490   77.45490   62.76940   65.18660   65.18660   10.33070   11.63860   12.79440   11.63860    -999.25    0.26250    0.21850    2.50850  -29.21530  -16.00780   12.79440
 5350.00000   11.71950   11.64000   11.64000    -999.25  585.06900    0.16070    2.21180    -999.25    0.27120    0.29130    1.70920    0.16070  122.01590  122.01590   94.77840   98.67360   98.67360    1.70920    1.95610    2.56420    1.95610    -999.25    0.48150    0.44090    2.21180  -13.98200   -2.90450    2.56420
 5400.00000   13.01160   12.91080   12.91080    -999.25  128.67200    0.08200    2.02400    -999.25    0.32710    0.40120    7.77170    0.08200  113.48640  113.48640   82.50840   71.07550   71.07550    7.77170    8.33310   12.49620    8.33310    -999.25    0.48810    0.44780    2.02400  -23.29600  -11.74400   12.49620
 5450.00000   12.54360   12.24410   12.24410    -999.25  128.47690    0.15440    2.08690    -999.25    0.38160    0.36440    7.78350    0.15440  109.45610  109.45610   85.30690   75.65570   75.65570    7.78350    7.99550   13.47710    7.99550    -999.25    0.48230    0.44170    2.08690  -18.46210   -6.36310   13.47710
 5500.00000   10.95350   10.34010   10.34010    -999.25  131.10630    0.06250    2.56960    -999.25    0.04030    0.08210    7.62740    0.06250   76.87650   76.87650   88.02970   78.90420   78.90420    7.62740    7.88630    7.92380    7.88630    -999.25    0.24320    0.19930    2.56960  -17.73960   -6.32670    7.92380
 5550.00000   10.52730   10.17080   10.17080    -999.25   97.79090    0.18220    2.39710    -999.25    0.16470    0.18300   10.22590    0.18220   79.76970   79.76970   55.69120   55.66300   55.66300   10.22590   12.05460   15.87420   12.05460    -999.25    0.29930    0.25530    2.39710  -61.11720  -51.38930   15.87420
 5600.00000   10.93180   10.34170   10.34170    -999.25  106.42940    0.04900    2.62720    -999.25    0.01390    0.04840    9.39590    0.04900   76.11960   76.11960   84.60980   75.80880   75.80880    9.39590   10.04130   11.27980   10.04130    -999.25    0.27330    0.22930    2.62720  -13.53250   -5.50060   11.27980
 5650.00000   11.02660   10.27000   10.27000    -999.25   84.86440    0.04350    2.59240    -999.25    0.02590    0.06880   11.78350    0.04350   77.42630   77.42630   92.59130   86.19930   86.19930   11.78350   13.13850   15.88310   13.13850    -999.25    0.29990    0.25590    2.59240  -13.79780   -7.45090   15.88310
 5700.00000   11.05950   10.32540   10.32540    -999.25   83.21540    0.12500    2.54330    -999.25    0.06550    0.09750   12.01700    0.12500   77.40870   77.40870   63.62830   65.03140   65.03140   12.01700   13.64640   20.32260   13.64640    -999.25    0.24740    0.20350    2.54330  -45.80940  -41.38770   20.32260
 5750.00000   11.79710   11.16790   11.16790    -999.25  131.82530    0.06690    2.49860    -999.25    0.09860    0.12360    7.58580    0.06690   75.58590   75.58590   65.26010   59.25720   59.25720    7.58580    8.11270   10.35470    8.11270    -999.25    0.22220    0.17850    2.49860  -28.12830  -25.74720   10.35470
 5800.00000   11.78560   10.90620   10.90620    -999.25  131.99750    0.05550    2.45000    -999.25    0.12670    0.15200    7.57590    0.05550   75.22800   75.22800   64.64720   60.70690   60.70690    7.57590    8.39260   14.28480    8.39260    -999.25    0.21340    0.16980    2.45000  -28.96720  -28.62670   14.28480
 5850.00000   10.76280   10.16960   10.16960    -999.25   94.42600    0.08860    2.54120    -999.25    0.07440    0.09870   10.59030    0.08860   80.13270   80.13270   71.78820   71.50410   71.50410   10.59030    9.05100   15.12640    9.05100    -999.25    0.28310    0.23910    2.54120  -16.98970  -18.70330   15.12640
 5900.00000   10.25950   10.17990   10.17990    -999.25  119.17670    0.01300    2.61080    -999.25    0.00370    0.05800    8.39090    0.01300   75.01210   75.01210   87.97030   85.48900   85.48900    8.39090    8.71130   10.28350    8.71130    -999.25    0.26720    0.22320    2.61080   -2.96030   -6.71450   10.28350
 5950.00000   12.42150   10.97760   10.97760    -999.25  157.00070    0.24660    2.28240    -999.25    0.22780    0.25010    6.36940    0.24660   79.33320   79.33320   78.13640   74.12030   74.12030    6.36940    6.64890    7.14040    6.64890    -999.25    0.32070    0.27680    2.28240   -1.70950   -7.93990    7.14040
 6000.00000   11.14910   11.42960   11.42960    -999.25  147.00260    0.22180    2.44020    -999.25    0.17220    0.15780    6.80260    0.22180   79.46260   79.46260   78.74130   98.98120   98.98120    6.80260    7.11520    7.44920    7.11520    -999.25    0.31210    0.26820    2.44020   -0.30910   -9.10910    7.44920
 6050.00000   10.96470   10.59510   10.59510    -999.25   77.36580    0.04250    2.58630    -999.25    0.05430    0.07230   12.92560    0.04250   68.97150   68.97150   58.39390   53.39160   53.39160   12.92560   13.49570   16.81060   13.49570    -999.25    0.17050    0.12750    2.58630    0.91560  -10.45400   16.81060
