~Version ---------------------------------------------------
VERS. 2.0 : CWLS log ASCII Standard -VERSION 2.0
WRAP.  NO : ONE LINE PER DEPTH STEP
~Well ------------------------------------------------------
STRT.F                          1450.0 : START DEPTH
STOP.F                         11100.0 : STOP DEPTH
STEP.F                        50.00000 : STEP LENGTH
NULL.                          -999.25 : NULL VALUE
COMP. AMOCO CANADA PETROLEUM CO., LTD. : COMPANY
WELL.       AMOCO PEX TONY 10-16-64-22 : WELL
FLD .                                  : FIELD
LOC .                                  : LOCATION
CTRY.                           CANADA : COUNTRY
SRVC.           Schlumberger of Canada : SERVICE COMPANY
DATE.                      08-Apr-1978 : LOGDATE
PROV.                          Alberta : PROVINCE
UWI .                 100101606422W500 : UNIQUE WELL ID
SLAT.WGS84                    54.53914 : SURFACE LATITUDE
SLON.WGS84                   -117.2632 : SURFACE LONGITUDE
~Curve Information -----------------------------------------
DEPT   .F                 : 
GRD    .GAPI 45 310 01 00 : GAMMA RAY FROM DENSITY LOG
CALD   .IN   45 280 60 00 : CALIPER FROM DENSITY LOG
RHOB   .G/C3 45 350 01 00 : BULK DENSITY
DRHO   .G/C3 45 356 01 00 : BULK DENSITY CORRECTION
DPHI_SS.DEC  45 890 03 00 : DENSITY POROSITY SANDSTONE
NPHI_SS.DEC  42 890 03 00 : NEUTRON POROSITY SANDSTONE
GRS    .GAPI 60 310 01 00 : GAMMA RAY FROM SONIC LOG
DT     .US/F 60 500 00 00 : DELTA-T (INTERVAL TRANSIT TIME)
CALS   .IN   60 280 50 00 : CALIPER FROM SONIC LOG
NPHI_LS.DEC  42 890 01 00 : NEUTRON POROSITY LIMESTONE
DPHI_LS.DEC  45 890 10 00 : DENSITY POROSITY LIMESTONE
ILD    .OHMM 07 120 46 00 : INDUCTION DEEP RESISTIVITY
ILM    .OHMM 07 120 44 00 : INDUCTION MEDIUM RESISTIVITY
LL8    .OHMM 07 220 08 00 : LATEROLOG 8
SPR    .MV   07 010 01 00 : SPONTANEOUS POTENTIAL FROM RESISTIVITY LOG
GR     .GAPI 81 310 01 00 : GAMMA RAY
NEUT   .NAPI 35 330 01 00 : NEUTRON
~Params ----------------------------------------------------
PD  .                     GL : PERMANENT DATUM
EPD .FT               2639.4 : ELEVATION PERMANENT DATUM
LMF .                     KB : LOG MEASURED FROM
DAPD.FT                 21.4 : FEET ABOVE PERMANENT DATUM
EKB .FT               2660.8 : KELLY BUSHING
EGL .FT               2639.4 : GROUND LEVEL
DATE.               04/08/78 : RUN DATE
RUN .                      2 : RUN NUMBER
DD  .FT                11105 : DEPTH DRILLER
DL  .FT                11103 : DEPTH LOGGER
BLI .FT                11099 : BOTTOM LOG INTERVAL
TLI .FT                 6000 : TOP LOG INTERVAL
CBD .FT                 1528 : CASING BOTTOM DRILLER
CBL .FT                 1528 : CASING BOTTOM LOGGER
BS  .IN                 8.75 : BIT SIZE
BSD .FT                11105 : BIT SIZE AT DEPTH
DFT .              GEL GELEX : DRILLING FLUID TYPE
DFD .                      9 : DRILLING FLUID DENSITY
DFV .                     92 : DRILLING FLUID VISCOSITY
DFPH.                      9 : DRILLING FLUID PH
DFL .                    9.8 : DRILLING FLUID LOSS
MSS .               FLOWLINE : MUD SAMPLE SOURCE
RMS .OHMM               1.91 : RESISTIVITY MUD SAMPLE
MST .DEGF                 52 : MUD SAMPLE TEMPERATURE
RMF .OHMM               1.45 : RESISTIVITY MUD FILTRATE SAMPLE
MFST.DEGF                 60 : MUD FILTRATE SAMPLE TEMPERATURE
TCS .HRS                 2.5 : TIME CIRCULATED STOPPED
LUN .              OSU C 244 : LOGGING UNIT NUMBER
LUL .                    EDM : LOGGING UNIT LOCATION
ENGI.                   GUNN : RECORDING ENGINEER
WITN.                   WALL : WITNESSED BY
CLNT.                A2DTECH : CLIENT CODE
ORIG.            2" 5" PRINT : ORIGIN OF DATA
UWI .       100101606422W500 : UNIQUE WELL ID
DICO. A2D Technologies, Inc. : DIGITIZING COMPANY
~Other -----------------------------------------------------
~ASCII -----------------------------------------------------
 1450.00000    -999.25    -999.25    -999.25    -999.25    -999.25    -999.25    -999.25    -999.25    -999.25    -999.25    -999.25    -999.25    -999.25    -999.25    -999.25   36.93560    -999.25
 1500.00000   54.19550    -999.25    -999.25    -999.25    -999.25    -999.25    -999.25    -999.25    -999.25    -999.25    -999.25    -999.25    -999.25    -999.25    -999.25   38.30140    -999.25
 1550.00000   87.75630   11.24970    2.10000    0.09210    0.33570    0.41500  110.50770  106.81760    9.14210    -999.25    -999.25    4.48650    4.75660    6.15200  -68.71980   59.49410    -999.25
 1600.00000   77.90160   11.03190    2.19960    0.12770    0.26230    0.36770  100.39480  105.07710    9.25970    -999.25    -999.25    4.65480    4.90430    5.64660  -58.07220   62.54910    -999.25
 1650.00000   89.85080   13.07190    2.16940    0.12630    0.30420    0.38640  106.25090   99.03590    9.32640    -999.25    -999.25    5.03560    5.27130    5.81590  -57.42490    -999.25    -999.25
 1700.00000   88.82510   11.17090    2.21530    0.06210    0.28190    0.33290   95.75910   93.38240    9.29940    -999.25    -999.25    6.18770    6.46280    6.68300  -57.60820    -999.25    -999.25
 1750.00000   87.50640   11.21070    2.26750    0.11630    0.23720    0.45860  108.83270  106.51610    9.44790    -999.25    -999.25    4.15670    4.36770    4.81190  -60.87300    -999.25    -999.25
 1800.00000   82.27600   11.20020    2.37220    0.00760    0.17620    0.38800  117.87630  101.00440    9.51770    -999.25    -999.25    4.10700    4.26480    4.84320  -60.84330    -999.25    -999.25
 1850.00000   77.33410   11.85310    2.37490    0.01120    0.19250    0.42670  114.89790  101.99130    9.83540    -999.25    -999.25    5.52380    5.74070    7.95780  -62.60340    -999.25    -999.25
 1900.00000   82.33490   11.58250    1.99690    0.06820    0.36200    0.40830   98.66560  105.22450    9.88170    -999.25    -999.25    3.96420    4.18420    4.20630  -60.61630    -999.25    -999.25
 1950.00000   82.58010   12.98580    2.03470    0.07910    0.36740    0.43780  104.30470  105.20550    9.80220    -999.25    -999.25    3.52890    3.67420    4.25520  -61.29440    -999.25    -999.25
 2000.00000   76.94500   12.40740    2.10510    0.08030    0.30430    0.38640   87.63420  101.94490    9.99250    -999.25    -999.25    3.65230    3.84070    4.03600  -59.09520    -999.25    -999.25
 2050.00000   63.37410   11.27810    2.26750    0.08340    0.23960    0.38420   83.17980   95.81790   10.01070    -999.25    -999.25    8.17600    8.64740   10.78250  -62.16040    -999.25    -999.25
 2100.00000   45.68200   10.78120    2.25420    0.02600    0.23600    0.29420   56.56220   79.52300    8.99840    -999.25    -999.25   14.62450   15.25230   16.80890  -68.22750    -999.25    -999.25
 2150.00000  105.45790   11.72530    2.18910    0.02780    0.27530    0.45050  126.94220  119.79670    9.64810    -999.25    -999.25    2.74590    2.95860    3.29840  -56.56600    -999.25    -999.25
 2200.00000   52.99100   10.45200    2.25640    0.04630    0.23610    0.33180   61.98680   95.37530    9.08290    -999.25    -999.25   13.89790   14.12200   14.43350  -75.50550    -999.25    -999.25
 2250.00000   68.32200   12.34850    2.27420    0.01420    0.22700    0.35130   70.14130   94.67970    9.66250    -999.25    -999.25    5.77480    6.02000    6.44790  -66.22930    -999.25    -999.25
 2300.00000   49.97570    9.94580    2.20890    0.03020    0.27430    0.34300   56.12430   96.62860    8.76630    -999.25    -999.25   17.21280   17.86680   18.55840  -65.07240    -999.25    -999.25
 2350.00000   60.25270   12.75800    2.16360    0.12090    0.34000    0.45230   77.74450  107.02110   10.99010    -999.25    -999.25    4.72170    4.91860    5.56050  -59.71920    -999.25    -999.25
 2400.00000   74.83640   10.39300    2.35570    0.03000    0.27790    0.44210   99.89880  104.81620   10.80400    -999.25    -999.25    4.17030    4.37730    5.14440  -57.97580    -999.25    -999.25
 2450.00000   55.64630   10.30640    2.32740    0.02320    0.20820    0.34240   75.53970   89.27480    9.06020    -999.25    -999.25    9.78040   11.30660   10.63790  -58.86350    -999.25    -999.25
 2500.00000   50.12990   11.27800    2.45150   -0.00260    0.12470    0.27850   65.37300   84.10880    9.34000    -999.25    -999.25   13.44300   14.74100   16.16820  -56.17830    -999.25    -999.25
 2550.00000   51.23280   10.21850    2.35870    0.04560    0.16230    0.34590   67.84760   89.69830    9.03030    -999.25    -999.25   14.18380   15.03710   17.31880  -64.18420    -999.25    -999.25
 2600.00000   59.74960   10.99710    2.06990    0.09230    0.31030    0.35550   72.93490   91.09720    9.35860    -999.25    -999.25    4.66640    4.85930    5.03840  -57.36670    -999.25    -999.25
 2650.00000   57.11380   12.65750    2.32700    0.00420    0.23240    0.43450   81.83070  104.88920   10.07650    -999.25    -999.25    5.33360    5.73880    6.45970  -58.59850    -999.25    -999.25
 2700.00000   53.33220   10.87760    2.33410   -0.00400    0.18660    0.28700   66.78210   88.95530    9.14480    -999.25    -999.25   12.37940   13.10750   15.48410  -61.51810    -999.25    -999.25
 2750.00000   64.97360    9.85630    2.34270    0.05430    0.22130    0.35020   56.05880   82.06900    8.73250    -999.25    -999.25    8.31340    9.45210   10.88940  -61.87830    -999.25    -999.25
 2800.00000   52.84420    9.93580    2.30340    0.02640    0.19970    0.32600   71.22480   88.14830    8.94530    -999.25    -999.25   12.00740   12.08110   13.23560  -60.83260    -999.25    -999.25
 2850.00000   50.19830    9.79530    2.32850    0.02450    0.19150    0.28690   53.82520   85.49720    8.77500    -999.25    -999.25   14.44140   16.20870   19.82980  -63.40540    -999.25    -999.25
 2900.00000   63.85790   11.17640    2.03010    0.03920    0.43330    0.45140   80.58360  102.52280   10.17920    -999.25    -999.25    5.89390    6.43310    7.67030  -54.62750    -999.25    -999.25
 2950.00000   64.22390   10.81550    2.19920    0.08280    0.30290    0.37040   83.37600   89.94540    9.22620    -999.25    -999.25    6.99570    7.38450    8.43610  -55.45500    -999.25    -999.25
 3000.00000   47.43230   10.99060    1.70660    0.01080    -999.25    0.45000   72.94010  101.37210    9.41170    -999.25    -999.25    6.04530    6.89350   12.39310  -57.92020    -999.25    -999.25
 3050.00000   68.81750   12.17680    2.02120    0.12530    0.33910    0.36820   83.03590   92.12260    9.00080    -999.25    -999.25    5.32060    5.49020    6.30920  -55.72810    -999.25    -999.25
 3100.00000   63.46200   10.18370    2.39130    0.01990    0.12510    0.33720   82.16720   88.17390    8.91550    -999.25    -999.25    6.39680    6.71560    8.18950  -53.76830    -999.25    -999.25
 3150.00000   66.68340   10.38470    2.32120    0.09930    0.20640    0.36450   89.26210   90.70740    9.05350    -999.25    -999.25    5.31180    5.52850    6.59910  -56.91380    -999.25    -999.25
 3200.00000   73.94440   10.89220    2.10780    0.05110    0.39870    0.37560   90.59770   94.43500    9.12310    -999.25    -999.25    5.22010    5.44440    7.19690  -55.88880    -999.25    -999.25
 3250.00000   92.79120   14.57590    1.98160    0.02120    -999.25    0.40400  108.53820   89.76280    9.08790    -999.25    -999.25    7.01250    7.33010    8.79700  -59.53010    -999.25    -999.25
 3300.00000   90.84710   14.82950    -999.25    0.09180    -999.25    0.44520  118.57280   89.62640   10.70650    -999.25    -999.25    7.36700    7.72000    8.74040  -56.26190    -999.25    -999.25
 3350.00000  120.66970   10.29410    2.40570    0.06340    0.16030    0.41490  141.50230   95.39650    9.95260    -999.25    -999.25    6.90840    7.18650    9.34540  -54.96040    -999.25    -999.25
 3400.00000  112.47880   10.17890    2.49980    0.04010    0.09160    0.33920  134.52360   89.71630    9.36450    -999.25    -999.25    9.25870    9.86150   13.09590  -53.31910    -999.25    -999.25
 3450.00000  110.70300   10.32630    2.49290    0.07540    0.10510    0.34440  130.73850   92.06620    9.54880    -999.25    -999.25    7.74190    8.39910   10.78720  -51.36860    -999.25    -999.25
