~Version ---------------------------------------------------
VERS.      2.0 : CWLS log ASCII Standard -VERSION 2.0
WRAP.       NO : One line per depth step
CREA. 01/05/18 : LAS Creation Date
~Well ------------------------------------------------------
STRT.FT                              300.0 : START DEPTH
STOP.FT                            15450.0 : STOP DEPTH
STEP.FT                           50.00000 : STEP LENGTH
NULL.                              -999.25 : NULL VALUE
COMP.                        BANFF OIL LTD : COMPANY
WELL. BANFF AQUIT CHIEFCO WAWA 11-20-42-13 : WELL
FLD .                                      : FIELD
LOC .                                      : LOCATION
CTRY.                               CANADA : COUNTRY
SRVC.               Schlumberger of Canada : SERVICE COMPANY
DATE.                          07-Apr-1970 : LOGDATE
PROV.                              Alberta : PROVINCE
UWI .                     100112004213W500 : UNIQUE WELL ID
SLAT.WGS84                        52.63304 : SURFACE LATITUDE
SLON.WGS84                       -115.8375 : SURFACE LONGITUDE
~Curve Information -----------------------------------------
DEPT    .FT    : Depth Curve
CALDED  .IN    : CALIPER FROM DENSITY LOG [ADJ. TO RESISTIVITY LOG]
CALNED  .IN    : CALIPER FROM SNP LOG [ADJ. TO RESISTIVITY LOG]
CALSED  .IN    : CALIPER FROM SONIC LOG [ADJ. TO RESISTIVITY LOG]
CALWS   .IN    : CALIPER [CALSED]
CONDWS  .MMHO  : CONDUCTIVITY [1000/DRESWS]
CORRED  .G/C3  : DENSITY CORRECTION FROM DENSITY LOG [ADJ. TO RESISTIVITY LOG]
DCORWS  .G/C3  : DENSITY CORRECTION [CORRED]
DENWS   .G/C3  : FORMATION BULK DENSITY [RHOBED]
DPHILSED.V/V   : DENSITY POROSITY LIMESTONE FROM DENSITY LOG [ADJ. TO RESISTIVITY LOG]
DPOLSWS .V/V   : DENSITY POROSITY LIMESTONE [CALC. FROM DENWS, M=2.71 F=1.00]
DRESWS  .OHMM  : DEEP RESISTIVITY [ILDED]
DTED    .US/F  : DELTA T FROM SONIC LOG [ADJ. TO RESISTIVITY LOG]
DTWS    .US/F  : COMPRESSIONAL SONIC [DTED]
GRDED   .GAPI  : GAMMA RAY FROM DENSITY LOG [ADJ. TO RESISTIVITY LOG]
GRDRED  .GAPI  : GAMMA RAY (REPEAT) FROM DENSITY LOG
GRNED   .GAPI  : GAMMA RAY FROM SNP LOG [ADJ. TO RESISTIVITY LOG]
GRSED   .GAPI  : GAMMA RAY FROM SONIC LOG [ADJ. TO RESISTIVITY LOG]
GRWS    .GAPI  : GAMMA RAY [GRSED]
ILDED   .OHMM  : DEEP INDUCTION RESISTIVITY FROM RESISTIVITY LOG
ILMED   .OHMM  : MEDIUM INDUCTION RESISTIVITY FROM RESISTIVITY LOG
ILMRED  .OHMM  : MEDIUM INDUCTION RESISTIVITY(REPEAT) FROM RESISTIVITY LOG [ADJ. TO ILDED]
LL8ED   .OHMM  : LATEROLOG 8 RESISTIVITY FROM RESISTIVITY LOG
MRESWS  .OHMM  : MEDIUM RESISTIVITY [ILMED SPL. TO ILMRED @ 15233']
NPOLSWS .V/V   : NEUTRON POROSITY LIMESTONE [SNPLSED]
RHOBED  .G/C3  : BULK DENSITY FROM DENSITY LOG [ADJ. TO RESISTIVITY LOG]
SNPLSED .V/V   : SIDEWALL NEUTRON POROSITY LIMESTONE FROM SNP LOG [ADJ. TO RESISTIVITY LOG]
SPRED   .MV    : SPONTANEOUS POTENTIAL FROM RESISTIVITY LOG
SPRRED  .MV    : SPONTANEOUS POTENTIAL(REPEAT) FROM RESISTIVITY LOG [ADJ. TO ILDED]
SPWS    .MV    : SPONTANEOUS POTENTIAL [BASELINE 0 MV, SPRED SPL. TO SPRRED @ 15223']
SRESWS  .OHMM  : SHALLOW RESISTIVITY [LL8ED]
~Params ----------------------------------------------------
PD  .                     GL : PERMANENT DATUM
EPD .FT                 4345 : ELEVATION PERMANENT DATUM
LMF .                     KB : LOG MEASURED FROM
DAPD.FT                   14 : FEET ABOVE PERMANENT DATUM
EKB .FT                 4359 : KELLY BUSHING
EGL .FT                 4345 : GROUND LEVEL
DATE.               06/04/70 : RUN DATE
RUN .                      3 : RUN NUMBER
DD  .FT                15476 : DEPTH DRILLER
DL  .FT                15473 : DEPTH LOGGER
BLI .FT                15471 : BOTTOM LOG INTERVAL
TLI .FT                14327 : TOP LOG INTERVAL
CBD .FT                12360 : CASING BOTTOM DRILLER
CBL .FT                12355 : CASING BOTTOM LOGGER
BS  .IN                    6 : BIT SIZE
BSD .FT                15476 : BIT SIZE AT DEPTH
DFT .               GEL CHEM : DRILLING FLUID TYPE
DFD .                    8.9 : DRILLING FLUID DENSITY
DFV .                     47 : DRILLING FLUID VISCOSITY
DFPH.                     11 : DRILLING FLUID PH
DFL .                   12.4 : DRILLING FLUID LOSS
MSS .               FLOWLINE : MUD SAMPLE SOURCE
RMS .OHMM               2.62 : RESISTIVITY MUD SAMPLE
TCS .HRS                   4 : TIME CIRCULATED STOPPED
LUN .                  CSU C : LOGGING UNIT NUMBER
LUL .                 364 RD : LOGGING UNIT LOCATION
ENGI.                 MEGSON : RECORDING ENGINEER
WITN.                BRINKER : WITNESSED BY
CLNT.                A2DTECH : CLIENT CODE
ORIG.        2" 5" 10" PRINT : ORIGIN OF DATA
UWI .       100112004213W500 : UNIQUE WELL ID
DICO. A2D Technologies, Inc. : DIGITIZING COMPANY
~Other -----------------------------------------------------
~ASCII -----------------------------------------------------
# ...
 6300.00000    -999.25    -999.25    9.51870    9.51870   64.09970    -999.25    -999.25    -999.25    -999.25    -999.25   15.65460   71.82830   71.82830    -999.25    -999.25    -999.25   50.78610   50.78610   15.65460   13.55080    -999.25   15.16200   13.55080    -999.25    -999.25    -999.25 -735.34560    -999.25  -12.21600   15.16200
 6350.00000    -999.25    -999.25    9.55710    9.55710   90.87930    -999.25    -999.25    -999.25    -999.25    -999.25   11.00360   77.19600   77.19600    -999.25    -999.25    -999.25   62.64950   62.64950   11.00360   10.12560    -999.25    9.69200   10.12560    -999.25    -999.25    -999.25 -735.24920    -999.25  -12.18350    9.69200
 6400.00000    -999.25    -999.25    9.21170    9.21170  109.70810    -999.25    -999.25    -999.25    -999.25    -999.25    9.11510   79.91200   79.91200    -999.25    -999.25    -999.25   75.94190   75.94190    9.11510    7.52270    -999.25    9.23070    7.52270    -999.25    -999.25    -999.25 -736.72050    -999.25  -13.71850    9.23070
 6450.00000    -999.25    -999.25    9.29090    9.29090  103.26950    -999.25    -999.25    -999.25    -999.25    -999.25    9.68340   79.44100   79.44100    -999.25    -999.25    -999.25   75.21040   75.21040    9.68340    8.49870    -999.25   10.03800    8.49870    -999.25    -999.25    -999.25 -736.32020    -999.25  -13.38150   10.03800
 6500.00000    -999.25    -999.25    9.74500    9.74500  102.65570    -999.25    -999.25    -999.25    -999.25    -999.25    9.74130   81.50510   81.50510    -999.25    -999.25    -999.25   89.25290   89.25290    9.74130    9.21080    -999.25   10.70940    9.21080    -999.25    -999.25    -999.25 -731.92330    -999.25   -9.04840   10.70940
 6550.00000    -999.25    -999.25    9.12450    9.12450  119.52960    -999.25    -999.25    -999.25    -999.25    -999.25    8.37080   80.36580   80.36580    -999.25    -999.25    -999.25   74.82650   74.82650    8.37080    7.73550    -999.25    9.20080    7.73550    -999.25    -999.25    -999.25 -736.06170    -999.25  -13.24970    9.20080
 6600.00000    -999.25    -999.25    9.48000    9.48000  164.04740    -999.25    -999.25    -999.25    -999.25    -999.25    6.09580   84.57600   84.57600    -999.25    -999.25    -999.25   89.12400   89.12400    6.09580    3.93140    -999.25    4.82820    3.93140    -999.25    -999.25    -999.25 -730.64900    -999.25   -7.90100    4.82820
 6650.00000    -999.25    -999.25    9.21200    9.21200   79.93410    -999.25    -999.25    -999.25    -999.25    -999.25   12.51030   77.60690   77.60690    -999.25    -999.25    -999.25   75.49190   75.49190   12.51030   13.70320    -999.25   13.06720   13.70320    -999.25    -999.25    -999.25 -733.94400    -999.25  -11.25970   13.06720
 6700.00000    -999.25    -999.25    9.91710    9.91710   90.74740    -999.25    -999.25    -999.25    -999.25    -999.25   11.01960   83.72680   83.72680    -999.25    -999.25    -999.25   67.21690   67.21690   11.01960   10.41090    -999.25    8.44010   10.41090    -999.25    -999.25    -999.25 -731.93790    -999.25   -9.31690    8.44010
 6750.00000    -999.25    -999.25    9.72300    9.72300  125.25520    -999.25    -999.25    -999.25    -999.25    -999.25    7.98370   82.99460   82.99460    -999.25    -999.25    -999.25   79.19940   79.19940    7.98370    7.45560    -999.25    6.75870    7.45560    -999.25    -999.25    -999.25 -729.46020    -999.25   -6.90300    6.75870
 6800.00000    -999.25    -999.25    9.57020    9.57020   92.68590    -999.25    -999.25    -999.25    -999.25    -999.25   10.80560   82.26040   82.26040    -999.25    -999.25    -999.25   74.58510   74.58510   10.80560    9.98070    -999.25   11.03160    9.98070    -999.25    -999.25    -999.25 -731.39450    -999.25   -8.90030   11.03160
 6850.00000    -999.25    -999.25    9.25970    9.25970  138.25900    -999.25    -999.25    -999.25    -999.25    -999.25    7.23280   84.41910   84.41910    -999.25    -999.25    -999.25   83.95760   83.95760    7.23280    6.90380    -999.25    6.60410    6.90380    -999.25    -999.25    -999.25 -729.92990    -999.25   -7.49970    6.60410
 6900.00000    -999.25    -999.25    9.56400    9.56400  108.50110    -999.25    -999.25    -999.25    -999.25    -999.25    9.21650   79.31590   79.31590    -999.25    -999.25    -999.25   66.19850   66.19850    9.21650    8.32280    -999.25    8.04110    8.32280    -999.25    -999.25    -999.25 -731.85320    -999.25   -9.48670    8.04110
 6950.00000    -999.25    -999.25    9.71240    9.71240  151.01180    -999.25    -999.25    -999.25    -999.25    -999.25    6.62200  115.02210  115.02210    -999.25    -999.25    -999.25   87.29490   87.29490    6.62200    6.31680    -999.25    4.57920    6.31680    -999.25    -999.25    -999.25 -731.24460    -999.25  -10.26190    4.57920
 7000.00000    -999.25    -999.25    9.36090    9.36090  141.81380    -999.25    -999.25    -999.25    -999.25    -999.25    7.05150   71.93930   71.93930    -999.25    -999.25    -999.25   80.73620   80.73620    7.05150    7.76750    -999.25    7.98860    7.76750    -999.25    -999.25    -999.25 -725.75310    -999.25   -6.48480    7.98860
 7050.00000    -999.25    -999.25    8.69450    8.69450   26.41800    -999.25    -999.25    -999.25    -999.25    -999.25   37.86100   69.14180   69.14180    -999.25    -999.25    -999.25   54.84180   54.84180   37.86100   43.07470    -999.25   34.33700   43.07470    -999.25    -999.25    -999.25 -742.51800    -999.25  -24.95510   34.33700
 7100.00000    -999.25    -999.25    9.32550    9.32550   64.00700    -999.25    -999.25    -999.25    -999.25    -999.25   15.62330   72.48170   72.48170    -999.25    -999.25    -999.25   41.43200   41.43200   15.62330   17.26180    -999.25   17.88860   17.26180    -999.25    -999.25    -999.25 -729.16260    -999.25  -13.32250   17.88860
 7150.00000    -999.25    -999.25    8.93730    8.93730  106.50870    -999.25    -999.25    -999.25    -999.25    -999.25    9.38890   66.69650   66.69650    -999.25    -999.25    -999.25   79.26540   79.26540    9.38890    8.99950    -999.25    7.34150    8.99950    -999.25    -999.25    -999.25 -723.11300    -999.25   -9.03810    7.34150
 7200.00000    -999.25    -999.25    8.96930    8.96930   36.43500    -999.25    -999.25    -999.25    -999.25    -999.25   27.44610   67.86570   67.86570    -999.25    -999.25    -999.25   31.41770   31.41770   27.44610   31.89780    -999.25   34.05950   31.89780    -999.25    -999.25    -999.25 -734.12740    -999.25  -21.87600   34.05950
 7250.00000    -999.25    -999.25    9.23020    9.23020   92.98260    -999.25    -999.25    -999.25    -999.25    -999.25   10.75470   75.90880   75.90880    -999.25    -999.25    -999.25   61.35530   61.35530   10.75470   11.41030    -999.25    9.93990   11.41030    -999.25    -999.25    -999.25 -716.49830    -999.25   -6.07020    9.93990
 7300.00000    -999.25    -999.25    8.92480    8.92480   36.70970    -999.25    -999.25    -999.25    -999.25    -999.25   27.25630   65.61680   65.61680    -999.25    -999.25    -999.25   52.28740   52.28740   27.25630   25.98940    -999.25   31.15370   25.98940    -999.25    -999.25    -999.25 -717.82960    -999.25   -9.21580   31.15370
 7350.00000    -999.25    -999.25    9.27500    9.27500  101.23200    -999.25    -999.25    -999.25    -999.25    -999.25    9.87830   80.29910   80.29910    -999.25    -999.25    -999.25   46.68900   46.68900    9.87830    8.65090    -999.25    7.59300    8.65090    -999.25    -999.25    -999.25 -718.35230    -999.25  -11.57100    7.59300
 7400.00000    -999.25    -999.25    9.09960    9.09960   70.30960    -999.25    -999.25    -999.25    -999.25    -999.25   14.22280   71.91520   71.91520    -999.25    -999.25    -999.25   45.38920   45.38920   14.22280   15.25870    -999.25   21.18560   15.25870    -999.25    -999.25    -999.25 -719.16400    -999.25  -14.20590   21.18560
 7450.00000    -999.25    -999.25    8.86410    8.86410   52.29960    -999.25    -999.25    -999.25    -999.25    -999.25   19.12060   66.97030   66.97030    -999.25    -999.25    -999.25   51.10700   51.10700   19.12060   20.93460    -999.25   19.40740   20.93460    -999.25    -999.25    -999.25 -720.74270    -999.25  -17.60810   19.40740
