~Version ---------------------------------------------------
VERS.      2.0 : CWLS log ASCII Standard -VERSION 2.0
WRAP.       NO : One line per depth step
CREA. 12/19/17 : LAS Creation Date
~Well ------------------------------------------------------
STRT.FT                            1200.0 : START DEPTH
STOP.FT                           10150.0 : STOP DEPTH
STEP.FT                          50.00000 : STEP LENGTH
NULL.                             -999.25 : NULL VALUE
COMP.               CANADIAN FINA OIL LTD : COMPANY
WELL. FINA PAN AM HB HEAVYSOUND 2-6-62-16 : WELL
FLD .                                     : FIELD
LOC .                                     : LOCATION
CTRY.                              CANADA : COUNTRY
SRVC.              Schlumberger of Canada : SERVICE COMPANY
DATE.                         03-Mar-1959 : LOGDATE
PROV.                             Alberta : PROVINCE
UWI .                    100020606216W500 : UNIQUE WELL ID
SLAT.WGS84                       54.32879 : SURFACE LATITUDE
SLON.WGS84                       -116.385 : SURFACE LONGITUDE
~Curve Information -----------------------------------------
DEPT  .FT         : Depth Curve
CALMED.IN         : CALIPER FROM ML LOG
CALWS .IN         : CALIPER [CALMED]
CILDED.MMHO       : CONDUCTIVITY FROM RESISTIVITY LOG
CONDWS.MMHO       : CONDUCTIVITY [1000/DRESWS]
DRESWS.OHMM       : DEEP RESISTIVITY [1000/CILDED IF ILDED < 4, ILDED]
DTED  .US/F       : SONIC FROM SONIC LOG
DTWS  .US/F       : COMPRESSIONAL SONIC [DTED]
GRSED .UgRa-Eq/T  : GAMMA RAY FROM SONIC LOG
GRWS  .GAPI       : GAMMA RAY [GRSED*16.5, Converting to API Unit]
ILDED .OHMM       : INDUCTION DEEP FROM RESISTIVITY LOG
LL7ED .OHMM       : LATEROLOG 7 FT FROM RESISTIVITY LOG
MLLED .OHMM       : LATEROLOG MICRO FROM ML LOG
SNED  .OHMM       : SHORT NORMAL FROM RESISTIVITY LOG
SPRED .MV         : SPONTANEOUS POTENTIAL FROM RESISTIVITY LOG
SPWS  .MV         : SPONTANEOUS POTENTIAL [BASELINE 0 MV, SPRED]
SRESWS.OHMM       : SHALLOW RESISTIVITY [SNED]
~Params ----------------------------------------------------
~Other -----------------------------------------------------
IEL-LL-ML-BCS LOG RUN
~ASCII -----------------------------------------------------
 1200.00000    -999.25    -999.25    -999.25    -999.25    -999.25    -999.25    -999.25    2.40030   39.60500    -999.25    -999.25    -999.25    -999.25    -999.25    -999.25    -999.25
 1250.00000    -999.25    -999.25  381.67550  381.67550    2.62000  121.76730  121.76730    5.66780   93.51870    1.52310    -999.25    -999.25    4.14450  -79.51880   -1.53350    4.14450
 1300.00000    -999.25    -999.25  119.26350  120.83720    8.27560  100.29840  100.29840    3.56650   58.84730    8.27560    -999.25    -999.25    9.10450  -81.55480   -1.75550    9.10450
 1350.00000    -999.25    -999.25  313.63320  313.63320    3.18840  113.96840  113.96840    5.09520   84.07080    2.10990    -999.25    -999.25    4.29210  -80.77520   -1.93000    4.29210
 1400.00000    -999.25    -999.25  289.74370  289.74370    3.45130  101.43420  101.43420    4.81950   79.52170    2.61880    -999.25    -999.25    5.24550  -79.58980   -2.15070    5.24550
 1450.00000    -999.25    -999.25  371.92940  371.92940    2.68870  135.07390  135.07390    6.03140   99.51810    1.64770    -999.25    -999.25    3.50860  -79.05460   -1.20410    3.50860
 1500.00000    -999.25    -999.25  317.81800  317.81800    3.14650  120.39320  120.39320    6.93250  114.38630    2.14060    -999.25    -999.25    3.97210  -78.92070   -1.44020    3.97210
 1550.00000    -999.25    -999.25  143.56960  140.81330    7.10160  164.32190  164.32190    3.91460   64.59090    7.10160    -999.25    -999.25    8.82250  -86.44640   -9.07460    8.82250
 1600.00000    -999.25    -999.25  318.93750  318.93750    3.13540  110.28620  110.28620    5.53720   91.36380    2.19370    -999.25    -999.25    3.69130  -78.96190   -1.43050    3.69130
 1650.00000    -999.25    -999.25  131.50940  132.85680    7.52690  112.23530  112.23530    3.50960   57.90840    7.52690    -999.25    -999.25    8.29510  -86.36180   -8.67170    8.29510
 1700.00000    -999.25    -999.25  338.08850  338.08850    2.95780  103.32720  103.32720    4.77970   78.86500    1.86110    -999.25    -999.25    3.81290  -78.89880   -1.04910    3.81290
 1750.00000    -999.25    -999.25  313.74240  313.74240    3.18730  106.95330  106.95330    4.84200   79.89300    2.27260    -999.25    -999.25    4.06500  -78.90920   -0.90090    4.06500
 1800.00000    -999.25    -999.25  175.01920  193.65580    5.16380  125.77900  125.77900    5.60090   92.41490    5.16380    -999.25    -999.25    7.07140  -80.01840   -2.81560    7.07140
 1850.00000    -999.25    -999.25  176.13050  194.38240    5.14450   89.46360   89.46360    3.95890   65.32180    5.14450    -999.25    -999.25    7.15420  -78.49160   -2.21900    7.15420
 1900.00000    -999.25    -999.25  278.95130  278.95130    3.58490  107.24950  107.24950    5.29870   87.42860    2.75670    -999.25    -999.25    4.55410  -77.88930   -2.05950    4.55410
 1950.00000    -999.25    -999.25  332.51460  332.51460    3.00740  142.07010  142.07010    7.15520  118.06080    2.11560    -999.25    -999.25    4.90140  -78.65940   -2.82960    4.90140
 2000.00000    -999.25    -999.25  143.35050  149.96550    6.66820   97.79000   97.79000    3.93950   65.00180    6.66820    -999.25    -999.25    8.07630  -79.16790   -3.33810    8.07630
 2050.00000    -999.25    -999.25  432.72980  432.72980    2.31090  114.63870  114.63870    6.93960  114.50340    1.27440    -999.25    -999.25    3.50840  -77.93210   -2.10230    3.50840
 2100.00000    -999.25    -999.25  207.95180  245.05600    4.08070  113.68870  113.68870    5.44160   89.78640    4.08070    -999.25    -999.25    5.35510  -77.51280   -1.68300    5.35510
 2150.00000    -999.25    -999.25   78.55010   67.94400   14.71800   80.57750   80.57750    5.27010   86.95670   14.71800    -999.25    -999.25   14.63390  -79.12400   -3.29420   14.63390
 2200.00000    -999.25    -999.25  277.31910  277.31910    3.60600   91.24230   91.24230    4.56950   75.39670    2.75840    -999.25    -999.25    4.67390  -77.22130   -0.74110    4.67390
 2250.00000    -999.25    -999.25  199.68860  230.48910    4.33860   99.35920   99.35920    4.17450   68.87920    4.33860    -999.25    -999.25    6.05370  -78.68120   -1.38760    6.05370
 2300.00000    -999.25    -999.25  521.32840  521.32840    1.91820  106.65640  106.65640    4.94080   81.52320    0.93730    -999.25    -999.25    2.65420  -77.44010   -0.34560    2.65420
 2350.00000    -999.25    -999.25  127.08940  128.08360    7.80740   94.73900   94.73900    3.64460   60.13590    7.80740    -999.25    -999.25   10.20220  -84.27410   -7.38020   10.20220
 2400.00000    -999.25    -999.25  152.34290  165.69180    6.03530  102.38420  102.38420    4.61690   76.17880    6.03530    -999.25    -999.25    7.54270  -83.30930   -6.61490    7.54270
 2450.00000    -999.25    -999.25  309.04230  309.04230    3.23580  123.74390  123.74390    4.78020   78.87330    2.34360    -999.25    -999.25    3.83840  -79.79380   -3.30010    3.83840
 2500.00000    -999.25    -999.25  208.18040  236.79850    4.22300   90.55160   90.55160    4.61660   76.17390    4.22300    -999.25    -999.25    6.27760  -77.35960   -1.06530    6.27760
 2550.00000    -999.25    -999.25  105.07000   98.03150   10.20080   91.56440   91.56440    3.36360   55.49940   10.20080    -999.25    -999.25   12.89930  -86.31770  -10.22250   12.89930
 2600.00000    -999.25    -999.25   35.10300   22.87490   43.71600   76.72750   76.72750    2.13250   35.18620   43.71600    -999.25    -999.25   39.44410  -91.26840  -15.37380   39.44410
 2650.00000    -999.25    -999.25  262.24360  262.24360    3.81320  110.01920  110.01920    4.08170   67.34810    3.15100    -999.25    -999.25    4.45270  -77.74160   -2.15030    4.45270
 2700.00000    -999.25    -999.25  252.52660  252.52660    3.96000  105.38500  105.38500    4.05520   66.91080    3.24990    -999.25    -999.25    5.33650  -78.56000   -3.32410    5.33650
 2750.00000    -999.25    -999.25   85.97770   79.87540   12.51950   87.30290   87.30290    3.39390   55.99940   12.51950    -999.25    -999.25   13.01330  -79.05960   -4.17690   13.01330
 2800.00000    -999.25    -999.25  332.82040  332.82040    3.00460  103.85170  103.85170    4.69700   77.50050    1.97700    -999.25    -999.25    3.72600  -76.63830   -2.10810    3.72600
 2850.00000    -999.25    -999.25  128.20360  120.42530    8.30390   90.06140   90.06140    3.09140   51.00810    8.30390    -999.25    -999.25   12.89730  -77.58170   -3.40690   12.89730
 2900.00000    -999.25    -999.25  259.64420  259.64420    3.85140  115.64960  115.64960    4.10200   67.68300    3.09310    -999.25    -999.25    4.47360  -75.56630   -1.74470    4.47360
 2950.00000    -999.25    -999.25  112.45540  110.19160    9.07510  105.53900  105.53900    3.71360   61.27440    9.07510    -999.25    -999.25    9.60660  -86.31680  -12.68280    9.60660
 3000.00000    -999.25    -999.25  190.13580  213.82140    4.67680  108.37450  108.37450    3.97100   65.52150    4.67680    7.62120    -999.25    5.97050  -76.02220   -2.38820    5.97050
 3050.00000    -999.25    -999.25  249.10740  249.10740    4.01430  108.37940  108.37940    4.20550   69.39070    3.38190    7.00560    -999.25    4.86570  -75.84470   -2.21070    4.86570
 3100.00000    -999.25    -999.25  223.67130  223.67130    4.47080  101.91560  101.91560    4.70590   77.64730    3.68240    6.60930    -999.25    5.06380  -75.67310   -2.03910    5.06380
 3150.00000    -999.25    -999.25  105.58090   99.21620   10.07900   90.63120   90.63120    3.49290   57.63290   10.07900   18.26280    -999.25   14.25760  -85.30560  -11.53650   14.25760
 3200.00000    -999.25    -999.25   72.97980   62.79430   15.92500   87.21130   87.21130    2.63150   43.41980   15.92500   31.40470    -999.25   18.09280  -93.97320  -19.71610   18.09280
 3250.00000    -999.25    -999.25  101.77380   89.78110   11.13820   85.81170   85.81170    2.81730   46.48550   11.13820   25.57470    -999.25   15.90750  -88.02430  -13.28220   15.90750
 3300.00000    -999.25    -999.25  199.16780  227.05080    4.40430   99.71330   99.71330    3.96920   65.49180    4.40430    7.61680    -999.25    6.09740  -75.72770   -1.12910    6.09740
