~Version ---------------------------------------------------
VERS.      2.0 : CWLS log ASCII Standard -VERSION 2.0
WRAP.       NO : One line per depth step
CREA. 12/18/17 : LAS Creation Date
~Well ------------------------------------------------------
STRT.FT                           850.0 : START DEPTH
STOP.FT                          9400.0 : STOP DEPTH
STEP.FT                        50.00000 : STEP LENGTH
NULL.                           -999.25 : NULL VALUE
COMP.  THE BRITISH-AMERICAN OIL PROD CO : COMPANY
WELL. B.A. SWEATHOUSE CREEK 14-16-68-18 : WELL
FLD .                                   : FIELD
LOC .                                   : LOCATION
CTRY.                            CANADA : COUNTRY
SRVC.                      Schlumberger : SERVICE COMPANY
DATE.                       21-Mar-1962 : LOGDATE
PROV.                           Alberta : PROVINCE
UWI .                  100141606818W500 : UNIQUE WELL ID
SLAT.WGS84                     54.89228 : SURFACE LATITUDE
SLON.WGS84                    -116.6852 : SURFACE LONGITUDE
~Curve Information -----------------------------------------
DEPT  .FT      : Depth Curve
CILDED.MMHO    : DEEP INDUCTION CONDUCTIVITY FROM RESISTIVITY LOG
CONDWS.MMHO    : CONDUCTIVITY [1000/DRESWS]
DRESWS.OHMM    : DEEP RESISTIVITY [1000/CILDED,IF ILDED<5,ILDED]
DTED  .US/F    : DELTA-T FROM SONIC LOG
DTWS  .US/F    : COMPRESSIONAL SONIC [DTED]
GRNED .MG/TON  : GAMMA RAY FROM GRN LOG [ADJ. TO RESISTIVITY LOG]
GRSED .GAPI    : GAMMA RAY FROM SONIC LOG
GRWS  .GAPI    : GAMMA RAY [GRSED SPL. TO GRNED*16.5 (GAPI) @ 9414']
ILDED .OHMM    : DEEP INDUCTION RESISTIVITY FROM RESISTIVITY LOG
NEUTED.CPS     : NEUTRON FROM GRN LOG [ADJ. TO RESISTIVITY LOG]
NEUTWS.CPS     : NEUTRON [NEUTED]
SNED  .OHMM    : 16 INCH  SHORT NORMAL FROM RESISTIVITY LOG
SPRED .MV      : SPONTANEOUS POTENTIAL FROM RESISTIVITY LOG
SPWS  .MV      : SPONTANEOUS POTENTIAL [BASELINE 0 MV,SPRED]
SRESWS.OHMM    : SHALLOW RESISTIVITY [SNED]
~Params ----------------------------------------------------
PD  .                     GL : PERMANENT DATUM
EPD .FT               2692.3 : ELEVATION PERMANENT DATUM
LMF .                     KB : LOG MEASURED FROM
DAPD.FT                 14.7 : FEET ABOVE PERMANENT DATUM
DMF .                     KB : DRILLING MEASURED FROM
EKB .FT                 2707 : KELLY BUSHING
EGL .FT               2692.3 : GROUND LEVEL
DATE.             03/21/1962 : RUN DATE
RUN .                      1 : RUN NUMBER
DD  .FT                 9428 : DEPTH DRILLER
DL  .FT                 9434 : DEPTH LOGGER
BLI .FT                 9430 : BOTTOM LOG INTERVAL
TLI .FT                  944 : TOP LOG INTERVAL
CBD .FT                  944 : CASING BOTTOM DRILLER
CBL .FT                  944 : CASING BOTTOM LOGGER
BS  .IN                 6.25 : BIT SIZE
BSD .FT                 9428 : BIT SIZE AT DEPTH
DFT .                    GEL : DRILLING FLUID TYPE
DFD .                    9.7 : DRILLING FLUID DENSITY
DFV .                     92 : DRILLING FLUID VISCOSITY
DFPH.                    9.5 : DRILLING FLUID PH
DFL .                    6.7 : DRILLING FLUID LOSS
MSS .                    2.3 : MUD SAMPLE SOURCE
RMS .OHMM                 70 : RESISTIVITY MUD SAMPLE
MST .DEGF                1.8 : MUD SAMPLE TEMPERATURE
RMF .OHMM                 70 : RESISTIVITY MUD FILTRATE SAMPLE
MFST.DEGF                2.5 : MUD FILTRATE SAMPLE TEMPERATURE
RMC .OHMM                 68 : RESISTIVITY MUD CAKE
RMB .OHMM                0.7 : RESISTIVITY MUD AT BHT
TCS .HRS                   9 : TIME CIRCULATED STOPPED
LUN .                   1574 : LOGGING UNIT NUMBER
LUL .                    EDM : LOGGING UNIT LOCATION
ENGI.                 BENNER : RECORDING ENGINEER
WITN.           DAAE TKACHUK : WITNESSED BY
CLNT.                A2DTECH : CLIENT CODE
ORIG.            2" 5" PRINT : ORIGIN OF DATA
UWI .       100141606818W500 : UNIQUE WELL ID
DICO. A2D Technologies, Inc. : DIGITIZING COMPANY
~Other -----------------------------------------------------
IEL-BCS-GRN LOG RUN
~ASCII -----------------------------------------------------
# ...
 3150.00000  143.62050  147.24720    6.79130  120.39250  120.39250    -999.25   98.39470   98.39470    6.79130    -999.25    -999.25    8.87990 -124.31800   -4.01640    8.87990
 3200.00000  105.78060  114.24130    8.75340  107.47960  107.47960    -999.25   97.99050   97.99050    8.75340    -999.25    -999.25   11.87320 -121.33480   -1.37250   11.87320
 3250.00000  175.70670  174.45310    5.73220   99.52060   99.52060    -999.25   79.72350   79.72350    5.73220    -999.25    -999.25    5.96890 -123.70520   -2.93370    5.96890
 3300.00000  112.58130  123.61250    8.08980   91.98240   91.98240    -999.25   77.78060   77.78060    8.08980    -999.25    -999.25    8.60130 -123.75680   -4.36660    8.60130
 3350.00000  180.96920  174.21600    5.74000   98.06520   98.06520    -999.25   80.32990   80.32990    5.74000    -999.25    -999.25    6.28420 -121.20860   -3.19970    6.28420
 3400.00000  141.53580  142.33250    7.02580   87.06470   87.06470    -999.25   80.08010   80.08010    7.02580    -999.25    -999.25    7.20760 -121.68860   -5.06100    7.20760
 3450.00000  178.96550  174.03710    5.74590  101.95600  101.95600    -999.25   75.50570   75.50570    5.74590    -999.25    -999.25    6.40870 -121.17480   -5.92850    6.40870
 3500.00000  258.19530  227.89430    4.38800  101.19340  101.19340    -999.25   87.25810   87.25810    4.38800    -999.25    -999.25    4.94010 -117.95980   -3.71510    4.94010
 3550.00000  217.77380  196.30550    5.09410  102.22010  102.22010    -999.25   77.00440   77.00440    5.09410    -999.25    -999.25    5.40110 -117.95330   -4.59550    5.40110
 3600.00000  220.33790  201.05760    4.97370   97.98260   97.98260    -999.25   86.00170   86.00170    4.97370    -999.25    -999.25    5.46340 -117.57700   -5.10610    5.46340
 3650.00000  415.88400  415.88400    2.40450  115.39360  115.39360    -999.25   94.68380   94.68380    3.37700    -999.25    -999.25    3.54590 -112.73750   -1.15200    3.54590
 3700.00000  441.70680  441.70680    2.26390  107.92110  107.92110    -999.25   69.28100   69.28100    2.92390    -999.25    -999.25    3.22520 -113.21580   -2.50300    3.22520
 3750.00000  324.83580  324.83580    3.07850  107.91860  107.91860    -999.25   66.72140   66.72140    3.86850    -999.25    -999.25    3.71470 -113.09830   -3.25820    3.71470
 3800.00000  307.92930  307.92930    3.24750  110.20590  110.20590    -999.25   70.89100   70.89100    4.04250    -999.25    -999.25    4.25880 -111.37490   -2.40750    4.25880
 3850.00000  234.28080  234.28080    4.26840   89.05580   89.05580    -999.25   75.75060   75.75060    4.79440    -999.25    -999.25    5.08260 -113.30570   -4.89630    5.08260
 3900.00000  129.54060  135.21000    7.39590   89.28490   89.28490    -999.25   66.37860   66.37860    7.39590    -999.25    -999.25    8.73150 -113.98780   -5.54140    8.73150
 3950.00000  218.70400  197.76530    5.05650   94.30680   94.30680    -999.25   59.74300   59.74300    5.05650    -999.25    -999.25    7.67640 -139.05070  -30.46730    7.67640
 4000.00000  196.76500  194.45040    5.14270  100.12230  100.12230    -999.25   63.17700   63.17700    5.14270    -999.25    -999.25    6.79110 -115.74480   -6.77930    6.79110
 4050.00000  312.78600  312.78600    3.19710  148.63880  148.63880    -999.25   46.67690   46.67690    3.88810    -999.25    -999.25    5.70390 -128.06980  -18.72230    5.70390
 4100.00000  111.11170  111.99840    8.92870   76.95510   76.95510    -999.25   62.01980   62.01980    8.92870    -999.25    -999.25    8.79560 -112.65300   -2.92340    8.79560
 4150.00000  146.95040  151.02550    6.62140  131.99060  131.99060    -999.25   82.02840   82.02840    6.62140    -999.25    -999.25    6.92450 -111.87070   -1.75910    6.92450
 4200.00000  102.46850  110.40700    9.05740   86.12500   86.12500    -999.25   44.48600   44.48600    9.05740    -999.25    -999.25   19.40010 -173.40990  -64.45040   19.40010
 4250.00000  172.16080  167.18770    5.98130   84.64820   84.64820    -999.25   63.25960   63.25960    5.98130    -999.25    -999.25    6.82640 -110.30730   -2.90770    6.82640
 4300.00000  203.09590  195.92860    5.10390   89.18210   89.18210    -999.25   69.72160   69.72160    5.10390    -999.25    -999.25    6.54860 -111.11700   -5.27730    6.54860
 4350.00000  110.40680  114.01210    8.77100  141.34030  141.34030    -999.25   44.47420   44.47420    8.77100    -999.25    -999.25   13.35030 -140.77710  -34.94910   13.35030
 4400.00000  141.01930  143.07380    6.98940   81.83710   81.83710    -999.25   41.32040   41.32040    6.98940    -999.25    -999.25   24.31680 -173.98650  -68.16840   24.31680
 4450.00000  188.80900  183.91820    5.43720  112.07690  112.07690    -999.25   61.48740   61.48740    5.43720    -999.25    -999.25    8.67840 -123.95340  -18.14510    8.67840
 4500.00000  271.67090  232.98620    4.29210   89.54770   89.54770    -999.25   56.57760   56.57760    4.29210    -999.25    -999.25   10.81980 -169.40760  -63.60910   10.81980
 4550.00000  202.04960  188.68990    5.29970   88.67970   88.67970    -999.25   71.15860   71.15860    5.29970    -999.25    -999.25    6.75610 -113.31180   -7.52320    6.75610
 4600.00000  160.22520  160.23330    6.24090   75.83160   75.83160    -999.25   52.15460   52.15460    6.24090    -999.25    -999.25   19.64310 -188.03020  -83.38820   19.64310
 4650.00000  163.26070  162.41940    6.15690   79.81720   79.81720    -999.25   46.04990   46.04990    6.15690    -999.25    -999.25   18.61590 -159.11690  -55.64470   18.61590
 4700.00000  215.19390  199.89210    5.00270   89.69780   89.69780    -999.25   69.76730   69.76730    5.00270    -999.25    -999.25    6.07510 -110.18960   -7.88730    6.07510
 4750.00000  162.62560  163.89680    6.10140   85.96150   85.96150    -999.25   87.68860   87.68860    6.10140    -999.25    -999.25    7.64970 -107.80880   -6.67630    7.64970
 4800.00000  180.57040  173.84350    5.75230   85.74200   85.74200    -999.25   57.73020   57.73020    5.75230    -999.25    -999.25    6.50270 -107.88640   -9.19830    6.50270
 4850.00000  100.58990  104.86470    9.53610   86.80060   86.80060    -999.25   41.26440   41.26440    9.53610    -999.25    -999.25   17.68870 -166.51530  -70.12450   17.68870
 4900.00000   53.98650   61.62760   16.22650   72.22490   72.22490    -999.25   64.30630   64.30630   16.22650    -999.25    -999.25   18.41130 -105.90320  -11.70660   18.41130
 4950.00000  114.19260  115.99180    8.62130   77.65640   77.65640    -999.25   77.64940   77.64940    8.62130    -999.25    -999.25   12.05120 -101.40320   -9.40070   12.05120
 5000.00000  145.09850  147.02420    6.80160   86.33610   86.33610    -999.25   46.29790   46.29790    6.80160    -999.25    -999.25   15.19080 -152.13710  -62.32870   15.19080
 5050.00000   25.48410   30.23920   33.06970  112.33080  112.33080    -999.25  115.37090  115.37090   33.06970    -999.25    -999.25   26.84950  -95.46210   -7.84780   26.84950
 5100.00000   45.98780   51.45250   19.43540  115.97270  115.97270    5.54050   84.96480   84.96480   19.43540  203.20240  203.20240   33.26870  -94.11530  -14.18390   33.26870
 5150.00000    5.08240    7.32270  136.56250   83.88030   83.88030   12.00750  239.96840  239.96840  136.56250  220.40190  220.40190  149.91080  -91.07740  -34.65860  149.91080
 5200.00000    6.27110   10.83870   92.26240  114.84310  114.84310   11.98310  187.27390  187.27390   92.26240  180.45810  180.45810   76.63020  -52.04940  -16.77520   76.63020
 5250.00000  344.05050  264.59930    3.77930   77.78160   77.78160    4.01280   62.93140   62.93140    3.77930  212.98920  212.98920    7.99220  -89.42810  -56.14000    7.99220
 5300.00000  269.01260  230.92550    4.33040   75.95240   75.95240    3.49700   68.58340   68.58340    4.33040  220.73010  220.73010   11.40150 -126.26690  -94.96490   11.40150
 5350.00000  171.98960  161.81490    6.17990   58.41430   58.41430    1.44890   26.83360   26.83360    6.17990  253.99890  253.99890   36.46640 -206.66190 -177.34590   36.46640
 5400.00000   83.90990   89.56880   11.16460   53.12280   53.12280    1.27000   21.07020   21.07020   11.16460  313.45440  313.45440   27.37520 -113.26130  -85.93140   27.37520
