~Version ---------------------------------------------------
VERS.      2.0 : CWLS log ASCII Standard -VERSION 2.0
WRAP.       NO : One line per depth step
CREA. 12/19/17 : LAS Creation Date
~Well ------------------------------------------------------
STRT.FT                    950.0 : START DEPTH
STOP.FT                   9500.0 : STOP DEPTH
STEP.FT                 50.00000 : STEP LENGTH
NULL.                    -999.25 : NULL VALUE
COMP. WESTCOAST PETROLEUM CO LTD : COMPANY
WELL.  WESTCOAST HOPE 2-35-62-13 : WELL
FLD .                            : FIELD
LOC .                            : LOCATION
CTRY.                     CANADA : COUNTRY
SRVC.                    Unknown : SERVICE COMPANY
DATE.                02-Oct-1972 : LOGDATE
PROV.                    Alberta : PROVINCE
UWI .           100023506213W500 : UNIQUE WELL ID
SLAT.WGS84              54.40188 : SURFACE LATITUDE
SLON.WGS84             -115.8339 : SURFACE LONGITUDE
~Curve Information -----------------------------------------
DEPT  .FT    : Depth Curve
CALSED.IN    : CALIPER FROM SONIC LOG [ADJ TO ILDED]
CALWS .IN    : CALIPER [CALSED]
CILDED.MMHO  : CONDUCTIVITY FROM RESISTIVITY LOG
CONDWS.MMHO  : CONDUCTIVITY [1000/DRESWS]
DRESWS.OHMM  : DEEP RESISTIVITY [ILDED] IF ILDED<2;1000/CILDED;ELSE ILDED
DTED  .US/F  : DELTA TIME FROM SONIC LOG [ADJ TO ILDED]
DTWS  .US/F  : DELTA TIME [DTED]
GRSED .GAPI  : GAMMA RAY FROM SONIC LOG [ADJ TO ILDED]
GRWS  .GAPI  : GAMMA RAY [GRSED]
ILDED .OHMM  : INDUCTION LOG DEEP RESISTIVITY
ILMED .OHMM  : INDUCTION LOG MEDIUM RESISTIVITY
LL8ED .OHMM  : 8 INCH LATEROLOG RESISTIVITY
MRESWS.OHMM  : MEDIUM RESISTIVITY [ILMED]
SPRED .MV    : SPONTANEOUS POTENTIAL FROM RESISTIVITY LOG
SPWS  .MV    : SPONTANEOUS POTENTIAL [BASELINE 0 MV] [SPRED]
SRESWS.OHMM  : SHALLOW RESISTIVITY [LL8ED]
~Params ----------------------------------------------------
PD  .                     GL : PERMANENT DATUM
EPD .FT                 3287 : ELEVATION PERMANENT DATUM
LMF .                     KB : LOG MEASURED FROM
DAPD.FT                   14 : FEET ABOVE PERMANENT DATUM
EKB .FT                 3301 : KELLY BUSHING
EGL .FT                 3287 : GROUND LEVEL
DATE.               10/02/72 : RUN DATE
RUN .                      1 : RUN NUMBER
DD  .FT                 9540 : DEPTH DRILLER
DL  .FT                 9542 : DEPTH LOGGER
BLI .FT                 9536 : BOTTOM LOG INTERVAL
TLI .FT                  962 : TOP LOG INTERVAL
CBD .FT                  961 : CASING BOTTOM DRILLER
CBL .FT                  962 : CASING BOTTOM LOGGER
BS  .IN                 8.75 : BIT SIZE
BSD .FT                 9540 : BIT SIZE AT DEPTH
DFT .               GEL CHEM : DRILLING FLUID TYPE
DFD .                    9.5 : DRILLING FLUID DENSITY
DFV .                    140 : DRILLING FLUID VISCOSITY
DFPH.                    9.5 : DRILLING FLUID PH
DFL .                      7 : DRILLING FLUID LOSS
MSS .             CIRCULATED : MUD SAMPLE SOURCE
RMS .OHMM               2.13 : RESISTIVITY MUD SAMPLE
MST .DEGF                 64 : MUD SAMPLE TEMPERATURE
RMF .OHMM               2.04 : RESISTIVITY MUD FILTRATE SAMPLE
MFST.DEGF                 70 : MUD FILTRATE SAMPLE TEMPERATURE
RMB .OHMM              0.812 : RESISTIVITY MUD AT BHT
TCS .HRS                  10 : TIME CIRCULATED STOPPED
LUN .                   5628 : LOGGING UNIT NUMBER
LUL .                    EDM : LOGGING UNIT LOCATION
ENGI.                  IBSEN : RECORDING ENGINEER
WITN.       GRUMBLY CHAUDHRY : WITNESSED BY
CLNT.                A2DTECH : CLIENT CODE
ORIG.            2" 5" PRINT : ORIGIN OF DATA
UWI .       100023506213W500 : UNIQUE WELL ID
DICO. A2D Technologies, Inc. : DIGITIZING COMPANY
~Other -----------------------------------------------------
DIL-SONIC LOGS RUN
DIL DATA ALL CURVES TOP-4590' FROM 2" SCALE
SONIC DATA ALL CURVES TOP-4600' FROM 2" SCALE
~ASCII -----------------------------------------------------
# ...
 3100.00000    9.13400    9.13400  304.67350  328.83920    3.04100  102.53480  102.53480   53.65500   53.65500    3.04100    -999.25    3.51030    -999.25  -80.36560   -2.01270    3.51030
 3150.00000    9.97740    9.97740  261.33330  282.87740    3.53510  105.45120  105.45120   60.50580   60.50580    3.53510    -999.25    4.10510    -999.25  -80.11220   -1.58820    4.10510
 3200.00000    8.89200    8.89200  269.76850  285.27160    3.50540  101.99500  101.99500   67.58470   67.58470    3.50540    -999.25    3.95620    -999.25  -80.56780   -1.87190    3.95620
 3250.00000    9.16140    9.16140  177.44360  188.06890    5.31720   96.23750   96.23750   79.63530   79.63530    5.31720    -999.25    5.78280    -999.25  -82.54010   -3.67390    5.78280
 3300.00000    9.56480    9.56480  203.31030  214.14650    4.66970   96.69890   96.69890   75.50370   75.50370    4.66970    -999.25    5.20460    -999.25  -81.28430   -2.24710    5.20460
 3350.00000    9.65680    9.65680  202.42850  214.67060    4.65830  104.50290  104.50290   87.18990   87.18990    4.65830    -999.25    5.11290    -999.25  -82.35130   -3.14300    5.11290
 3400.00000    9.94280    9.94280  201.87970  201.80820    4.95520  107.72810  107.72810  106.63760  106.63760    4.95520    -999.25    5.84290    -999.25  -81.21120   -1.83180    5.84290
 3450.00000    9.94650    9.94650  123.01740  120.93790    8.27030   89.28020   89.28020   94.03340   94.03340    8.27030    -999.25    9.21810    -999.25  -81.39600   -1.85060    9.21810
 3500.00000   12.67990   12.67990  167.86970  167.89230    5.95620  101.94940  101.94940   87.69600   87.69600    5.95620    -999.25    6.40060    -999.25  -82.95660   -3.24740    6.40060
 3550.00000   10.95470   10.95470  164.88190  167.36680    5.97490   94.90170   94.90170   83.28180   83.28180    5.97490    -999.25    6.34390    -999.25  -83.18540   -3.31170    6.34390
 3600.00000   10.36630   10.36630  183.81670  197.80830    5.05540  100.47270  100.47270   78.23960   78.23960    5.05540    -999.25    5.50900    -999.25  -83.03080   -2.99250    5.50900
 3650.00000   11.10540   11.10540  171.90450  183.26430    5.45660   97.03480   97.03480   85.86430   85.86430    5.45660    -999.25    6.11170    -999.25  -82.03010   -1.82730    6.11170
 3700.00000   13.11240   13.11240  172.08790  174.38600    5.73540   96.08510   96.08510   83.74960   83.74960    5.73540    -999.25    6.27100    -999.25  -83.50810   -3.13990    6.27100
 3750.00000   12.39480   12.39480  161.62110  165.77420    6.03230   96.91330   96.91330   82.19730   82.19730    6.03230    -999.25    6.43620    -999.25  -84.24770   -3.71570    6.43620
 3800.00000   11.44790   11.44790  150.72110  162.89300    6.13900   96.34360   96.34360   81.11380   81.11380    6.13900    -999.25    6.59410    -999.25  -83.78740   -3.09090    6.59410
 3850.00000   10.57450   10.57450  188.96300  190.39640    5.25220  102.77600  102.77600   85.08910   85.08910    5.25220    -999.25    5.75270    -999.25  -83.09360   -2.23250    5.75270
 3900.00000   10.43730   10.43730  143.28470  150.19980    6.65780   92.12250   92.12250   87.27100   87.27100    6.65780    -999.25    7.42910    -999.25  -85.45990   -4.79150    7.42910
 3950.00000   10.31310   10.31310  132.25910  144.20170    6.93590   84.72640   84.72640   81.74840   81.74840    6.93590    -999.25    7.67770    -999.25  -86.01950   -5.94960    7.67770
 4000.00000    9.52540    9.52540  168.19260  171.64440    5.82600   91.12320   91.12320   95.47660   95.47660    5.82600    -999.25    6.27460    -999.25  -85.61210   -6.13470    6.27460
 4050.00000    9.59010    9.59010  170.79520  170.75340    5.85640   97.18350   97.18350   93.86850   93.86850    5.85640    -999.25    6.33000    -999.25  -85.27790   -6.39600    6.33000
 4100.00000    9.99260    9.99260  212.14910  211.28690    4.73290   97.11740   97.11740   95.51300   95.51300    4.73290    -999.25    5.11710    -999.25  -82.22140   -3.93510    5.11710
 4150.00000   10.25110   10.25110  169.37710  169.39680    5.90330  101.47080  101.47080  104.88360  104.88360    5.90330    -999.25    7.03830    -999.25  -81.17610   -3.48530    7.03830
 4200.00000   10.13910   10.13910  175.01330  175.21580    5.70720  101.00610  101.00610  103.50570  103.50570    5.70720    -999.25    6.94410    -999.25  -78.85350   -1.76120    6.94410
 4250.00000    9.71580    9.71580  158.41410  154.34960    6.47880   99.16550   99.16550  118.79060  118.79060    6.47880    -999.25    8.28100    -999.25  -77.07030   -0.57050    8.28100
 4300.00000    9.18210    9.18210  176.25750  172.37220    5.80140  102.66460  102.66460  108.34010  108.34010    5.80140    -999.25    7.31190    -999.25  -77.19210   -1.28780    7.31190
 4350.00000    9.56030    9.56030  141.31110  139.83280    7.15140   79.30040   79.30040   69.71230   69.71230    7.15140    -999.25    7.91070    -999.25  -80.61260   -5.30940    7.91070
 4400.00000    9.64230    9.64230  170.62390  171.00450    5.84780   88.69410   88.69410   84.54140   84.54140    5.84780    -999.25    6.94700    -999.25  -78.39290   -3.70120    6.94700
 4450.00000    9.98720    9.98720  177.48690  177.45030    5.63540   87.28210   87.28210   93.29160   93.29160    5.63540    -999.25    6.17880    -999.25  -78.23320   -4.15610    6.17880
 4500.00000   10.16480   10.16480  208.90780  208.80310    4.78920   89.52950   89.52950   95.91850   95.91850    4.78920    -999.25    5.33120    -999.25  -76.51920   -3.05060    5.33120
 4550.00000   11.25650   11.25650  250.76980  250.78370    3.98750   97.14850   97.14850  101.46450  101.46450    3.98750    -999.25    4.44520    -999.25  -75.64680   -2.78970    4.44520
 4600.00000   11.33790   11.33790    -999.25  242.49480    4.12380   96.87510   96.87510  102.55970  102.55970    4.12380    3.75450    4.73700    3.75450  -75.54700   -3.30140    4.73700
 4650.00000   11.17460   11.17460    -999.25  198.00020    5.05050   95.01830   95.01830  100.92210  100.92210    5.05050    4.75530    5.83580    4.75530  -73.79650   -2.16240    5.83580
 4700.00000   10.16690   10.16690    -999.25  296.00920    3.38180  109.63250  109.63250  268.28150  268.28150    3.38180    3.13370    4.71140    3.13370  -72.24990   -1.23050    4.71140
 4750.00000   10.47600   10.47600    -999.25  429.83020    2.32650  101.84920  101.84920   89.14140   89.14140    2.32650    2.09540    3.01640    2.09540  -70.22620    0.18480    3.01640
 4800.00000   10.18630   10.18630    -999.25  289.91390    3.44930   96.15290   96.15290   89.22960   89.22960    3.44930    3.24340    4.11770    3.24340  -70.62390   -0.82440    4.11770
 4850.00000    9.65610    9.65610    -999.25  261.28760    3.82720   98.74050   98.74050   95.80030   95.80030    3.82720    3.55760    4.32740    3.55760  -70.92060   -1.68870    4.32740
 4900.00000    7.85990    7.85990    -999.25   90.26900   11.07800   78.57250   78.57250   33.15450   33.15450   11.07800    8.60680   15.62140    8.60680 -118.45710  -49.61730   15.62140
 4950.00000    7.94730    7.94730    -999.25   84.73440   11.83050   83.16260   83.16260   46.14740   46.14740   11.83050   10.67230   12.50000   10.67230  -96.32710  -27.88130   12.50000
 5000.00000    9.47960    9.47960    -999.25  191.47550    5.22260   89.58820   89.58820   61.62840   61.62840    5.22260    4.69230    6.12110    4.69230  -80.57690  -12.52110    6.12110
 5050.00000    9.36610    9.36610    -999.25  183.06300    5.46260   88.42240   88.42240   78.62900   78.62900    5.46260    4.66720    6.77050    4.66720  -71.30280   -3.63910    6.77050
 5100.00000   15.02780   15.02780    -999.25  372.23150    2.68650  169.18850  169.18850   61.33740   61.33740    2.68650    2.32740    3.85310    2.32740  -74.49250   -7.22080    3.85310
 5150.00000   10.74750   10.74750    -999.25  139.25440    7.18110  112.73550  112.73550   78.34380   78.34380    7.18110    6.45160   10.86200    6.45160  -71.15650   -4.27690   10.86200
 5200.00000   10.22090   10.22090    -999.25  139.30730    7.17880   79.23420   79.23420   67.98340   67.98340    7.17880    6.74440    9.85030    6.74440  -73.79180   -7.30620    9.85030
