~Version ---------------------------------------------------
VERS.      2.0 : CWLS log ASCII Standard -VERSION 2.0
WRAP.       NO : One line per depth step
CREA. 12/01/17 : LAS Creation Date
~Well ------------------------------------------------------
STRT.FT                       1000.0 : START DEPTH
STOP.FT                       9450.0 : STOP DEPTH
STEP.FT                     50.00000 : STEP LENGTH
NULL.                        -999.25 : NULL VALUE
COMP.          TEXACO CANADA LIMITED : COMPANY
WELL. TEXCAN FINA SUNSET 10-13-69-20 : WELL
FLD .                                : FIELD
LOC .                                : LOCATION
CTRY.                         CANADA : COUNTRY
SRVC.                  Dresser Atlas : SERVICE COMPANY
DATE.                    24-Dec-1969 : LOGDATE
PROV.                        Alberta : PROVINCE
UWI .               100101306920W500 : UNIQUE WELL ID
SLAT.WGS84                  54.97681 : SURFACE LATITUDE
SLON.WGS84                 -116.9067 : SURFACE LONGITUDE
~Curve Information -----------------------------------------
DEPT  .FT    : Depth Curve
ACED  .US/F  : DELTA TIME (ACOUSTIC) FROM SONIC LOG [ADJ. TO RESISTIVITY LOG]
CALSED.IN    : CALIPER FROM SONIC LOG [ADJ. TO RESISTIVITY LOG]
CALWS .IN    : CALIPER [CALSED]
CONDWS.MMHO  : CONDUCTIVITY [1000/DRESWS]
DRESWS.OHMM  : DEEP RESISTIVITY [ILDED]
DTWS  .US/F  : COMPRESIONAL SONIC [ACED]
GRSED .GAPI  : GAMMA RAY FROM SONIC LOG [ADJ. TO RESISTIVITY LOG]
GRWS  .GAPI  : GAMMA RAY [GRSED]
ILDED .OHMM  : DEEP INDUCTION RESISTIVITY FROM RESISTIVITY LOG
ILMED .OHMM  : MEDIUM INDUCTION RESISTIVITY FROM RESISTIVITY LOG
MRESWS.OHMM  : MEDIUM RESISTIVITY [ILMED]
SFLED .OHMM  : SPHERICALLY FOCUSED RESISTIVITY FROM RESISTIVITY LOG
SPRED .MV    : SPONTANEOUS POTENTIAL FROM RESISTIVITY LOG
SPWS  .MV    : SPONTANEOUS POTENTIAL [BASELINE 0 MV, SPRED]
SRESWS.OHMM  : SHALLOW RESISTIVITY [SFLED]
~Params ----------------------------------------------------
PD  .                     GL : PERMANENT DATUM
EPD .FT                 2371 : ELEVATION PERMANENT DATUM
LMF .                     KB : LOG MEASURED FROM
DAPD.FT                   14 : FEET ABOVE PERMANENT DATUM
DMF .                     KB : DRILLING MEASURED FROM
EKB .FT                 2385 : KELLY BUSHING
EGL .FT                 2371 : GROUND LEVEL
DATE.               12/24/69 : RUN DATE
RUN .                      1 : RUN NUMBER
DD  .FT                 9457 : DEPTH DRILLER
DL  .FT                 9460 : DEPTH LOGGER
BLI .FT                 9458 : BOTTOM LOG INTERVAL
TLI .FT                  982 : TOP LOG INTERVAL
CS  .IN                8.625 : CASING SIZE
CBD .FT                  982 : CASING BOTTOM DRILLER
CBL .FT                  982 : CASING BOTTOM LOGGER
BS  .IN                7.875 : BIT SIZE
BSD .FT                 9457 : BIT SIZE AT DEPTH
DFT .                MUD GEL : DRILLING FLUID TYPE
DFD .                    9.5 : DRILLING FLUID DENSITY
DFV .                     90 : DRILLING FLUID VISCOSITY
DFPH.                    9.5 : DRILLING FLUID PH
DFL .                    8.3 : DRILLING FLUID LOSS
MSS .                   CIRC : MUD SAMPLE SOURCE
RMS .OHMM               1.85 : RESISTIVITY MUD SAMPLE
MST .DEGF                 68 : MUD SAMPLE TEMPERATURE
RMF .OHMM                1.5 : RESISTIVITY MUD FILTRATE SAMPLE
MFST.DEGF                 68 : MUD FILTRATE SAMPLE TEMPERATURE
RMC .OHMM                2.2 : RESISTIVITY MUD CAKE
MCST.DEGF                 68 : MUD CAKE SAMPLE TEMPERATURE
MFSS.                   MEAS : MUD FILTRATE SAMPLE SOURCE
MCSS.                   MEAS : MUD CAKE SAMPLE SOURCE
RMB .OHMM               0.62 : RESISTIVITY MUD AT BHT
TCS .HRS                   3 : TIME CIRCULATED STOPPED
LUN .                   6002 : LOGGING UNIT NUMBER
LUL .                     VV : LOGGING UNIT LOCATION
ENGI.       OFFORD KOWALCHUK : RECORDING ENGINEER
WITN.                BEATTIE : WITNESSED BY
CLNT.                A2DTECH : CLIENT CODE
ORIG.            2" 5" PRINT : ORIGIN OF DATA
UWI .       100101306920W500 : UNIQUE WELL ID
DICO. A2D Technologies, Inc. : DIGITIZING COMPANY
~Other -----------------------------------------------------
DIL-SFL-BHC LOG RUN
~ASCII -----------------------------------------------------
# ...
 7900.00000   75.21750   13.77220   13.77220  152.98940    6.53640   75.21750   90.82500   90.98770    6.53640    7.11680    7.11680    7.54140  -38.64030  -19.26680    7.54140
 7950.00000   83.39990   13.30650   13.30650  221.08830    4.52330   83.39990  117.39900  111.41050    4.52330    4.09160    4.09160    5.17160  -21.95360   -5.88550    5.17160
 8000.00000   83.89330   13.77520   13.77520  207.84400    4.81130   83.89330  106.31960  102.18530    4.81130    4.50470    4.50470    5.19450  -44.82360  -29.38580    5.19450
 8050.00000   76.92450   12.92280   12.92280  186.36900    5.36570   76.92450   96.57780   99.38380    5.36570    4.97350    4.97350    5.82000  -60.83560  -45.82120    5.82000
 8100.00000   76.22510   12.98150   12.98150  181.18900    5.51910   76.22510   89.10730   94.25990    5.51910    5.15840    5.15840    6.00940  -68.15750  -53.56930    6.00940
 8150.00000   79.43330   14.49740   14.49740  212.13410    4.71400   79.43330   98.11090   97.61680    4.71400    4.47050    4.47050    5.72960  -71.80060  -57.63580    5.72960
 8200.00000   81.58680   14.13480   14.13480  234.25680    4.26910   81.58680  101.13190  107.04850    4.26910    4.04810    4.04810    5.32060  -73.84040  -60.10170    5.32060
 8250.00000   75.35560   10.22430   10.22430  108.08820    9.25170   75.35560  106.60140  111.21230    9.25170   11.59420   11.59420   11.85570  -76.25860  -62.94330   11.85570
 8300.00000   66.06770   10.21330   10.21330   96.75390   10.33550   66.06770   75.23910   80.01210   10.33550   11.24960   11.24960   14.82900  -67.10390  -54.21200   14.82900
 8350.00000   65.11240    9.60350    9.60350   76.41460   13.08650   65.11240   85.21650   85.63670   13.08650   14.34510   14.34510   17.77390  -56.99780  -44.53210   17.77390
 8400.00000   70.43740    9.85940    9.85940  109.50260    9.13220   70.43740  101.84400   98.95690    9.13220   10.81870   10.81870   12.99690  -34.03710  -21.99480   12.99690
 8450.00000   69.11370    9.98260    9.98260  103.40310    9.67090   69.11370   99.41420   95.13180    9.67090   10.75510   10.75510   13.78690  -15.70450   -4.08830   13.78690
 8500.00000   69.33680    9.64490    9.64490  107.75750    9.28010   69.33680   98.49580   90.07210    9.28010    9.82860    9.82860   13.04240  -18.38700   -7.19420   13.04240
 8550.00000   70.07210    8.74250    8.74250  125.38080    7.97570   70.07210   90.38650   87.13730    7.97570    9.32980    9.32980   12.68540  -20.28610   -8.59770   12.68540
 8600.00000   77.78910   11.32050   11.32050  189.46210    5.27810   77.78910  104.33470  111.53440    5.27810    5.81980    5.81980    7.83960  -43.95440  -31.52040    7.83960
 8650.00000   72.70150    9.52720    9.52720  152.43670    6.56010   72.70150   98.34150   91.56260    6.56010    7.39480    7.39480   10.26400  -41.67530  -28.50060   10.26400
 8700.00000   82.88300   11.29440   11.29440  172.88640    5.78440   82.88300  115.05490  131.94180    5.78440    6.24460    6.24460    9.57550  -53.08420  -39.16390    9.57550
 8750.00000   67.93820    8.64340    8.64340   23.18860   43.12470   67.93820   72.63100   96.85400   43.12470   45.93420   45.93420   69.10450  -28.66610  -14.00500   69.10450
 8800.00000   87.32360   11.50810   11.50810  109.52900    9.13000   87.32360  128.05020  120.97370    9.13000    9.94220    9.94220   17.03750  -27.52580  -12.12400   17.03750
 8850.00000   52.40770    7.52480    7.52480    3.26460  306.31270   52.40770   17.99740   16.16930  306.31270  130.09910  130.09910  136.79520  -72.99170  -57.76290  136.79520
 8900.00000   52.97200    8.41390    8.41390   35.77650   27.95130   52.97200   22.57440   21.57870   27.95130   30.97820   30.97820   51.29640 -113.25610  -99.43460   51.29640
 8950.00000   50.92080    8.50300    8.50300   13.38720   75.39210   50.92080   27.23400   22.27480   75.39210   64.52740   64.52740   55.15330  -48.64380  -36.23880   55.15330
 9000.00000   53.57520    7.72150    7.72150   98.28010   10.17500   53.57520   19.65340   19.70540   10.17500   17.55170   17.55170   85.36400 -148.56720 -137.56950   85.36400
 9050.00000   53.01540    7.90570    7.90570   94.27650   10.60710   53.01540   22.51620   18.32410   10.60710   11.42370   11.42370   58.88650 -140.10180 -130.51140   58.88650
 9100.00000   53.80290    8.16240    8.16240   70.56620   14.17110   53.80290   12.35270   15.05880   14.17110   15.72000   15.72000   46.99460 -124.68170 -116.50790   46.99460
 9150.00000   50.99400    7.70540    7.70540    0.33330 3000.00000   50.99400   21.73950   19.73540 3000.00000  414.25580  414.25580 3092.57130  -89.75160  -82.98510 3092.57130
 9200.00000   56.23470    8.03780    8.03780   18.71560   53.47990   56.23470   43.00060   59.07720   53.47990   79.87910   79.87910  160.38510  -49.59950  -44.24950  160.38510
 9250.00000   74.93440    8.58800    8.58800 1785.07680    0.56020   74.93440  163.73470  110.32390    0.56020    0.94290    0.94290    6.51210 -143.73260 -139.78990    6.51210
 9300.00000   72.75590    8.36380    8.36380  113.71650    8.79380   72.75590  115.55480  144.11460    8.79380    9.48790    9.48790   13.13300  -19.08560  -15.11830   13.13300
 9350.00000   69.61740    8.49410    8.49410  186.20930    5.37030   69.61740  156.37180  122.83210    5.37030    6.22940    6.22940    6.47040  -52.97240  -43.57560    6.47040
 9400.00000   49.51920    8.25330    8.25330   41.41820   24.14400   49.51920   22.52630   27.66380   24.14400   28.05640   28.05640   26.67160  -88.38940  -73.74060   26.67160
 9450.00000    -999.25    8.13100    8.13100 3060.91220    0.32670    -999.25    -999.25    -999.25    0.32670    0.46090    0.46090    3.11500    -999.25    -999.25    3.11500
