~Version ---------------------------------------------------
VERS.      2.0 : CWLS log ASCII Standard -VERSION 2.0
WRAP.       NO : One line per depth step
CREA. 07/27/17 : LAS Creation Date
~Well ------------------------------------------------------
STRT.FT                        1000.0 : START DEPTH
STOP.FT                       10600.0 : STOP DEPTH
STEP.FT                      50.00000 : STEP LENGTH
NULL.                         -999.25 : NULL VALUE
COMP.      THE CALIFORNIA STANDARD CO : COMPANY
WELL. CALSTAN EAST MEEKWAP 10-1-65-18 : WELL
FLD .                                 : FIELD
LOC .                                 : LOCATION
CTRY.                          CANADA : COUNTRY
SRVC.          Schlumberger of Canada : SERVICE COMPANY
DATE.                     17-Feb-1961 : LOGDATE
PROV.                         Alberta : PROVINCE
UWI .                100100106518W500 : UNIQUE WELL ID
SLAT.WGS84                   54.59797 : SURFACE LATITUDE
SLON.WGS84                  -116.5799 : SURFACE LONGITUDE
~Curve Information -----------------------------------------
DEPT  .FT         : Depth Curve
CALWS .IN         : CALIPER [MCALED]
CILDED.MMHO       : CONDUCTIVITY FROM RESISTIVITY LOG
CONDWS.MMHO       : CONDUCTIVITY [1000/DRESWS]
DRESWS.OHMM       : DEEP RESISTIVITY [1000/CILDED IF ILDED <1, ILDED]
DTED  .US/F       : DELTA-T FROM SONIC LOG
DTWS  .US/F       : COMPRESSIONAL SONIC [DTED]
GRSED .UgRa-Eq/T  : GAMMA RAY FROM SONIC LOG
GRWS  .GAPI       : GAMMA RAY [GRSED*16.5, CONVERTED TO GAPI]
ILDED .OHMM       : DEEP INDUCTION FROM RESISTIVITY LOG
MCALED.IN         : CALIPER FROM MICROLOG
SNED  .OHMM       : SHORT NORMAL FROM RESISTIVITY LOG
SPRED .MV         : SPONTANEOUS POTENTIAL FROM RESISTIVITY LOG
SPWS  .MV         : SPONTANEOUS POTENTIAL [BASELINE 0 MV, SPRED]
SRESWS.OHMM       : SHALLOW RESISTIVITY [SNED]
~Params ----------------------------------------------------
LMF .                     KB : LOG MEASURED FROM
DMF .                     KB : DRILLING MEASURED FROM
EKB .FT                 2634 : KELLY BUSHING
EGL .FT                 2620 : GROUND LEVEL
DATE.               02/17/61 : RUN DATE
RUN .                      2 : RUN NUMBER
DD  .FT                10617 : DEPTH DRILLER
DL  .FT                10607 : DEPTH LOGGER
BLI .FT                10606 : BOTTOM LOG INTERVAL
TLI .FT                 5200 : TOP LOG INTERVAL
CBD .FT                 1008 : CASING BOTTOM DRILLER
CBL .FT                 1009 : CASING BOTTOM LOGGER
BS  .IN                    9 : BIT SIZE
BSD .FT                10617 : BIT SIZE AT DEPTH
DFT .                    GEL : DRILLING FLUID TYPE
DFD .                   10.6 : DRILLING FLUID DENSITY
DFV .                     90 : DRILLING FLUID VISCOSITY
DFPH.                    9.5 : DRILLING FLUID PH
DFL .                    8.8 : DRILLING FLUID LOSS
RMS .OHMM               4.45 : RESISTIVITY MUD SAMPLE
MST .DEGF                 66 : MUD SAMPLE TEMPERATURE
RMF .OHMM                3.6 : RESISTIVITY MUD FILTRATE SAMPLE
MFST.DEGF                 67 : MUD FILTRATE SAMPLE TEMPERATURE
RMC .OHMM                2.3 : RESISTIVITY MUD CAKE
MCST.DEGF                 81 : MUD CAKE SAMPLE TEMPERATURE
RMB .OHMM               2.13 : RESISTIVITY MUD AT BHT
TCS .HRS                 5.5 : TIME CIRCULATED STOPPED
LUN .                   2549 : LOGGING UNIT NUMBER
LUL .                     SH : LOGGING UNIT LOCATION
ENGI.             ARMBRUSTER : RECORDING ENGINEER
WITN.                 MCDADE : WITNESSED BY
CLNT.                A2DTECH : CLIENT CODE
ORIG.            2" 5" PRINT : ORIGIN OF DATA
UWI .       100100106518W500 : UNIQUE WELL ID
DICO. A2D Technologies, Inc. : DIGITIZING COMPANY
~Other -----------------------------------------------------
~ASCII -----------------------------------------------------
# ...
 3450.00000   11.91680  122.38670  128.36640    7.79020   94.52310   94.52310    6.38290  105.31790    7.79020   11.91680    8.93050 -403.81400   -6.53010    8.93050
 3500.00000   12.03180  110.88010  118.97680    8.40500   91.03460   91.03460    6.56520  108.32580    8.40500   12.03180    9.96360 -401.35360   -5.35740    9.96360
 3550.00000   12.20400  138.17380  150.18550    6.65870   93.98220   93.98220    7.12450  117.55430    6.65870   12.20400    8.12480 -400.00280   -5.29430    8.12480
 3600.00000   11.44760  147.08120  161.08510    6.20790  104.31930  104.31930    6.79450  112.10930    6.20790   11.44760    7.73400 -397.46060   -4.04820    7.73400
 3650.00000    9.63740   74.48900   73.67300   13.58480   98.97790   98.97790    7.01960  115.82340   13.58480    9.63740   28.74850 -395.70790   -3.58320   28.74850
 3700.00000   10.37500  114.80680  119.77200    8.34920  101.54090  101.54090    6.44860  106.40190    8.34920   10.37500   10.97910 -395.01700   -4.18840   10.97910
 3750.00000    9.95110  107.31700  112.66210    8.87610  108.25760  108.25760    7.16780  118.26870    8.87610    9.95110   12.48650 -392.15160   -2.61070   12.48650
 3800.00000    9.73850   83.13930   85.92510   11.63810   98.03930   98.03930    7.72090  127.39490   11.63810    9.73850   17.41240 -391.38220   -3.12900   17.41240
 3850.00000   10.25300  123.27540  130.13550    7.68430   96.42580   96.42580    6.37680  105.21720    7.68430   10.25300   10.09210 -394.11940   -7.08030   10.09210
 3900.00000   10.19440  115.08010  121.46460    8.23550   96.28600   96.28600    5.82250   96.07120    8.23550   10.19440    9.89850 -399.27010  -12.58500    9.89850
 3950.00000   10.23560  154.72970  164.43310    6.08150   82.66050   82.66050    6.00170   99.02800    6.08150   10.23560    7.84070 -397.97210  -11.60260    7.84070
 4000.00000   10.00440  157.43540  167.80210    5.95940   88.38990   88.38990    6.21560  102.55740    5.95940   10.00440    7.66820 -397.34990  -11.29400    7.66820
 4050.00000   10.61570  197.49310  209.72930    4.76820   91.39020   91.39020    6.01800   99.29700    4.76820   10.61570    6.36860 -395.77550  -10.03320    6.36860
 4100.00000    9.97800  125.87070  129.74040    7.70770   90.28610   90.28610    5.83190   96.22630    7.70770    9.97800    9.00570 -394.31090   -8.88420    9.00570
 4150.00000   11.26760  217.88740  234.04810    4.27280   98.23130   98.23130    6.48970  107.08010    4.27280   11.26760    5.81110 -394.22380   -9.11060    5.81110
 4200.00000   10.88430  179.34590  188.71490    5.29900   98.97580   98.97580    6.60080  108.91320    5.29900   10.88430    6.88010 -393.82590   -9.02840    6.88010
 4250.00000   10.43590  323.43450  336.91590    2.96810  101.91970  101.91970    7.11510  117.39920    2.96810   10.43590    4.12940 -391.07470   -6.59070    4.12940
 4300.00000   10.26130  547.09000  603.52810    1.65940  111.52210  111.52210    6.47090  106.76990    1.65940   10.26130    2.70680 -385.20440   -1.03400    2.70680
 4350.00000   10.02220  216.06800  241.63930    4.13840  100.13320  100.13320    5.85080   96.53820    4.13840   10.02220    5.63490 -391.25360   -7.64640    5.63490
 4400.00000   11.06970  254.38290  275.19120    3.63390   88.80960   88.80960    6.15770  101.60210    3.63390   11.06970    4.93700 -390.90860   -8.03940    4.93700
 4450.00000   10.68480  224.09460  243.45710    4.10750   93.63190   93.63190    6.86090  113.20480    4.10750   10.68480    5.88900 -390.12040   -8.00020    5.88900
 4500.00000    9.41890   90.94030   92.22710   10.84280   82.54810   82.54810    5.05390   83.38930   10.84280    9.41890   12.96290 -395.69230  -14.31620   12.96290
 4550.00000   10.60400  241.41630  243.52090    4.13770   76.25860   76.25860    2.84560   46.95240    4.13770   10.60400    5.57300 -399.52950  -18.89750    5.57300
 4600.00000    8.52100  115.15900  113.30800    8.82550   91.99050   91.99050    5.56530   91.82740    8.82550    8.52100   12.31270 -397.11060  -17.22760   12.31270
 4650.00000    8.90220   72.40170   73.92690   13.54110   77.53650   77.53650    4.03630   66.59900   13.54110    8.90220   15.25200 -397.81990  -18.68100   15.25200
 4700.00000    9.66660   92.92090   96.90670   10.31920   80.06610   80.06610    5.70890   94.19680   10.31920    9.66660   15.37950 -394.28400  -15.89410   15.37950
 4750.00000    9.50520   77.43250   78.82950   12.68560   74.07130   74.07130    4.65600   76.82400   12.68560    9.50520   16.97030 -391.36140  -13.71550   16.97030
 4800.00000    9.11770  131.63060  140.34200    7.12700   77.37950   77.37950    5.51190   90.94630    7.12700    9.11770   11.16790 -384.35380   -7.45200   11.16790
 4850.00000    9.99440  102.85180  102.74640    9.73270   80.47320   80.47320    5.08670   83.93060    9.73270    9.99440   16.01730 -389.13470  -12.98190   16.01730
 4900.00000   10.09040   98.86100  100.74430    9.92620  124.97420  124.97420    3.43500   56.67750    9.92620   10.09040   13.43210 -383.34270   -7.93400   13.43210
 4950.00000    9.71620  100.65200  101.02740    9.89830   78.05660   78.05660    5.74590   94.80740    9.89830    9.71620   15.67250 -386.71040  -13.20770   15.67250
 5000.00000    7.48670  135.18510  145.58370    6.86890   75.88060   75.88060    4.88520   80.60580    6.86890    7.48670   18.05370 -420.99030  -53.25030   18.05370
 5050.00000    7.43980  177.41550  189.27030    5.28340   72.07640   72.07640    3.94840   65.14860    5.28340    7.43980   28.67610 -443.43800  -81.46070   28.67610
 5100.00000    8.87400  219.07020  237.10170    4.21760   72.88630   72.88630    3.88120   64.03980    4.21760    8.87400   14.32880 -401.67740  -45.50070   14.32880
 5150.00000    8.76540   79.30250   82.14810   12.21740   80.24230   80.24230    4.58540   75.65910   12.21740    8.76540   15.92870 -371.24500  -20.83100   15.92870
 5200.00000    8.99450   79.40560   78.90670   12.67320   77.86840   77.86840    5.07600   83.75400   12.67320    8.99450   16.19290 -356.68710  -10.11040   16.19290
 5250.00000    8.64030  175.46030  171.61200    5.82710   78.91610   78.91610    5.65950   93.38180    5.82710    8.64030    7.89510 -359.23710  -15.70770    7.89510
 5300.00000    8.60460   64.41270   62.88630   15.95060   77.99820   77.99820    4.33450   71.51930   15.95060    8.60460   24.01480 -387.19980  -45.92370   24.01480
 5350.00000    8.61490   69.25620   69.46660   14.39540   66.66280   66.66280    4.12030   67.98490   14.39540    8.61490   21.06910 -374.20340  -35.19540   21.06910
 5400.00000    9.06130   71.48880   70.27320   14.23410   72.93970   72.93970    3.82280   63.07620   14.23410    9.06130   36.26610 -405.33650  -68.58180   36.26610
 5450.00000   10.31120   85.96860   85.41530   11.70750  102.05770  102.05770    5.59950   92.39180   11.70750   10.31120   20.17040 -359.10220  -24.61560   20.17040
 5500.00000    9.79450  245.06450  258.57830    3.86730  103.61210  103.61210    5.49400   90.65100    3.86730    9.79450    5.87820 -351.57040  -19.33710    5.87820
 5550.00000    9.68940   75.70250   78.05780   12.81490   95.22330   95.22330    7.59220  125.27130   12.81490    9.68940   22.01880 -343.06280  -13.08280   22.01880
 5600.00000   10.59530  142.42650  152.57620    6.55410   92.56160   92.56160    5.98260   98.71290    6.55410   10.59530   13.57110 -340.44770  -12.73590   13.57110
 5650.00000    8.13710    4.46080    1.99600  501.00450   69.22240   69.22240    3.24920   53.61180  501.00450    8.13710  253.14980 -338.99700  -13.53850  253.14980
 5700.00000    8.57940    4.16630    1.99880  500.29820   88.50740   88.50740   11.94390  197.07430  500.29820    8.57940  324.10150 -335.77440  -12.58400  324.10150
 5750.00000    9.14150  189.41690  197.00550    5.07600   70.07140   70.07140    4.76910   78.69020    5.07600    9.14150    7.31250 -352.50810  -32.47320    7.31250
 5800.00000    8.07400  112.55280  113.38170    8.82000   51.43670   51.43670    1.99870   32.97850    8.82000    8.07400   47.61420 -474.66750 -159.92070   47.61420
 5850.00000    7.63400  157.91400  157.66160    6.34270   58.38230   58.38230    3.11770   51.44210    6.34270    7.63400   32.98690 -462.29290 -152.86900   32.98690
