~Version ---------------------------------------------------
VERS.      2.0 : CWLS log ASCII Standard -VERSION 2.0
WRAP.       NO : One line per depth step
CREA. 12/07/17 : LAS Creation Date
~Well ------------------------------------------------------
STRT.FT                                  350.0 : START DEPTH
STOP.FT                                 9450.0 : STOP DEPTH
STEP.FT                               50.00000 : STEP LENGTH
NULL.                                  -999.25 : NULL VALUE
COMP. THE BRITISH AMERICAN OIL COMPANY LIMITED : COMPANY
WELL.              B.A. GOOSE RIVER 4-32-66-18 : WELL
FLD .                                          : FIELD
LOC .                                          : LOCATION
CTRY.                                   CANADA : COUNTRY
SRVC.                             Schlumberger : SERVICE COMPANY
DATE.                              02-Dec-1964 : LOGDATE
PROV.                                  Alberta : PROVINCE
UWI .                         100043206618W500 : UNIQUE WELL ID
SLAT.WGS84                            54.75185 : SURFACE LATITUDE
SLON.WGS84                           -116.6939 : SURFACE LONGITUDE
~Curve Information -----------------------------------------
DEPT  .FT    : Depth Curve
CALSED.IN    : CALIPER FROM SONIC LOG  [ADJ. TO RESISTIVITY LOG]
CALWS .IN    : CALIPER [CALSED]
CILDED.MMHO  : DEEP INDUCTION CONDUCTIVITY FROM RESISTIVITY LOG
CONDWS.MMHO  : CONDUCTIVITY [1000/DRESWS]
DRESWS.OHMM  : DEEP RESISTIVITY [1000/CILDED IF ILDED <1, ILDED]
DT1ED .US/F  : DELTA-T (INTERVAL TRANSIT TIME) (SPAN 1') FROM SONIC LOG  [ADJ. TO RESISTIVITY LOG]
DTED  .US/F  : DELTA-T (INTERVAL TRANSIT TIME) (SPAN 3') FROM SONIC LOG [ADJ. TO RESISTIVITY LOG]
DTWS  .US/F  : COMPRESSIONAL SONIC [DTED]
GRED  .GAPI  : GAMMA RAY FROM CBL LOG
GRNED .GAPI  : GAMMA RAY FROM GRN LOG  [ADJ. TO RESISTIVITY LOG]
GRSED .GAPI  : GAMMA RAY FROM SONIC LOG  [ADJ. TO RESISTIVITY LOG]
GRWS  .GAPI  : GAMMA RAY [GRED SPL. TO GRSED @ 717']
ILDED .OHMM  : DEEP INDUCTION RESISTIVITY FROM RESISTIVITY LOG
NEUTED.NAPI  : NEUTRON  FROM GRN LOG  [ADJ. TO RESISTIVITY LOG]
NEUTWS.NAPI  : NEUTRON [NEUTED]
SNED  .OHMM  : SHORT NORMAL RESISTIVITY FROM RESISTIVITY LOG
SPRED .MV    : SPONTANEOUS POTENTIAL FROM RESISTIVITY LOG
SPWS  .MV    : SPONTANEOUS POTENTIAL [BASELINE 0 MV,SPRED]
SRESWS.OHMM  : SHALLOW RESISTIVITY [SNED]
~Params ----------------------------------------------------
PD  .                     GL : PERMANENT DATUM
EPD .FT                 2485 : ELEVATION PERMANENT DATUM
LMF .                     KB : LOG MEASURED FROM
DAPD.FT                   15 : FEET ABOVE PERMANENT DATUM
EKB .FT                 2500 : KELLY BUSHING
EGL .FT                 2485 : GROUND LEVEL
DATE.               12/02/64 : RUN DATE
RUN .                      1 : RUN NUMBER
DD  .FT                 9461 : DEPTH DRILLER
DL  .FT                 9460 : DEPTH LOGGER
BLI .FT                 9459 : BOTTOM LOG INTERVAL
TLI .FT                  781 : TOP LOG INTERVAL
CBD .FT                  784 : CASING BOTTOM DRILLER
CBL .FT                  781 : CASING BOTTOM LOGGER
BS  .IN                7.625 : BIT SIZE
BSD .FT                 9461 : BIT SIZE AT DEPTH
DFT .               GEL CHEM : DRILLING FLUID TYPE
DFD .                    9.8 : DRILLING FLUID DENSITY
DFV .                     95 : DRILLING FLUID VISCOSITY
DFPH.                    9.5 : DRILLING FLUID PH
DFL .                    7.4 : DRILLING FLUID LOSS
RMS .OHMM               2.38 : RESISTIVITY MUD SAMPLE
MST .DEGF                 64 : MUD SAMPLE TEMPERATURE
RMF .OHMM                2.1 : RESISTIVITY MUD FILTRATE SAMPLE
MFST.DEGF                 66 : MUD FILTRATE SAMPLE TEMPERATURE
RMC .OHMM               2.32 : RESISTIVITY MUD CAKE
MCST.DEGF                 66 : MUD CAKE SAMPLE TEMPERATURE
RMB .OHMM               0.84 : RESISTIVITY MUD AT BHT
TCS .HRS                   6 : TIME CIRCULATED STOPPED
LUN .                   3534 : LOGGING UNIT NUMBER
LUL .                    V V : LOGGING UNIT LOCATION
ENGI.               CHENOSKY : RECORDING ENGINEER
WITN.                  WEISS : WITNESSED BY
CLNT.                A2DTECH : CLIENT CODE
ORIG.            2" 5" PRINT : ORIGIN OF DATA
UWI .       100043206618W500 : UNIQUE WELL ID
DICO. A2D Technologies, Inc. : DIGITIZING COMPANY
~Other -----------------------------------------------------
IEL-BHC-GRN CBL LOG RUN
~ASCII -----------------------------------------------------
# ...
 5900.00000    9.66590    9.66590  191.60290  205.52890    4.86570    -999.25   63.55090   63.55090    -999.25    -999.25   42.42500   42.42500    4.86570    -999.25    -999.25   12.96980  -93.58470  -67.77510   12.96980
 5950.00000    8.75580    8.75580   28.01570   28.00050   35.71360    -999.25   52.15570   52.15570    -999.25    -999.25   20.84230   20.84230   35.71360    -999.25    -999.25   85.40650 -155.00700 -129.71430   85.40650
 6000.00000    8.52540    8.52540   21.79900   20.80430   48.10990    -999.25   52.62140   52.62140    -999.25    -999.25   22.49920   22.49920   48.10990    -999.25    -999.25   95.43250 -171.82440 -147.04520   95.43250
 6050.00000    8.19110    8.19110   23.17200   21.77200   46.04090    -999.25   53.45260   53.45260    -999.25    -999.25   22.01390   22.01390   46.04090    -999.25    -999.25  125.26230 -155.07910 -130.81340  125.26230
 6100.00000    9.25730    9.25730  155.32820  166.97280    5.98900    -999.25   67.73890   67.73890    -999.25    -999.25   82.56530   82.56530    5.98900    -999.25    -999.25    9.99770  -41.16910  -17.42020    9.99770
 6150.00000    8.86630    8.86630  210.51060  228.98220    4.38780    -999.25   62.90420   62.90420    -999.25    -999.25   56.34040   56.34040    4.38780    -999.25    -999.25   13.83940  -64.27000  -41.03460   13.83940
 6200.00000    9.19400    9.19400  220.62050  227.24690    4.40050    -999.25   66.19890   66.19890    -999.25    -999.25   60.22870   60.22870    4.40050    -999.25    -999.25    7.22800  -40.01180  -17.29330    7.22800
 6250.00000    8.45130    8.45130   43.90220   43.27730   23.13350    -999.25   58.13290   58.13290    -999.25    -999.25   45.60510   45.60510   23.13350    -999.25    -999.25   37.31770  -26.32190   -4.11690   37.31770
 6300.00000    8.73630    8.73630   44.81610   43.53570   23.06880    -999.25   61.38390   61.38390    -999.25    -999.25   61.70590   61.70590   23.06880    -999.25    -999.25   42.26520  -24.71060   -3.01910   42.26520
 6350.00000    8.04650    8.04650   32.13890   30.71520   32.55720    -999.25   58.32590   58.32590    -999.25    -999.25   42.11920   42.11920   32.55720    -999.25    -999.25   41.19570  -24.49570   -3.19770   41.19570
 6400.00000    8.33610    8.33610   11.07180    8.44470  124.44070    -999.25   52.13420   52.13420    -999.25    -999.25   17.42090   17.42090  124.44070    -999.25    -999.25   97.48950  -54.86930  -33.73100   97.48950
 6450.00000    7.95690    7.95690   12.57000   10.58560   94.46840    -999.25   55.12130   55.12130    -999.25    -999.25   41.78310   41.78310   94.46840    -999.25    -999.25   79.15770  -29.99180   -9.01430   79.15770
 6500.00000    8.12940    8.12940   14.93440   13.24100   75.52380    -999.25   56.70860   56.70860    -999.25    -999.25   47.25890   47.25890   75.52380    -999.25    -999.25   65.84040  -25.39050   -4.57270   65.84040
 6550.00000    8.05280    8.05280    7.92610    6.13200  163.13370    -999.25   55.13590   55.13590    -999.25    -999.25   39.82990   39.82990  163.13370    -999.25    -999.25   95.25620  -34.60400  -13.94590   95.25620
 6600.00000    8.17480    8.17480   11.33920    9.88830  101.12950    -999.25   55.09630   55.09630    -999.25    -999.25   43.90550   43.90550  101.12950    -999.25    -999.25   75.99610  -37.38550  -16.88820   75.99610
 6650.00000    8.28220    8.28220   10.57160    8.77550  113.96710    -999.25   55.69580   55.69580    -999.25    -999.25   43.45720   43.45720  113.96710    -999.25    -999.25   79.55540  -36.51260  -16.17500   79.55540
 6700.00000    8.27610    8.27610    2.98280    1.75620  569.39780    -999.25   50.10570   50.10570    -999.25    -999.25   25.36040   25.36040  569.39780    -999.25    -999.25  189.59330  -53.81070  -33.63390  189.59330
 6750.00000    8.31190    8.31190   41.66340   39.98670   25.03160    -999.25   65.49120   65.49120    -999.25    -999.25   96.56940   96.56940   25.03160    -999.25    -999.25   29.35220  -31.01920  -11.00210   29.35220
 6800.00000    8.21210    8.21210    2.42300    1.76100  567.87250    -999.25   51.61250   51.61250    -999.25    -999.25   22.17160   22.17160  567.87250    -999.25    -999.25  232.29970  -75.28270  -55.42530  232.29970
 6850.00000    7.94660    7.94660    0.00000    1.76030  568.07090    -999.25   49.58900   49.58900    -999.25    -999.25   18.83660   18.83660  568.07090    -999.25    -999.25  375.78660  -96.77590  -77.07930  375.78660
 6900.00000    7.96750    7.96750    0.00000    1.75580  569.52480    -999.25   48.71010   48.71010    -999.25    -999.25   19.24640   19.24640  569.52480    -999.25    -999.25  349.02110  -83.70110  -64.16420  349.02110
 6950.00000    8.02700    8.02700    0.00000    1.76190  567.55570    -999.25   49.01950   49.01950    -999.25    -999.25   14.59640   14.59640  567.55570    -999.25    -999.25  256.89980 -125.12830 -105.75220  256.89980
 7000.00000    7.87260    7.87260    0.00000    1.76000  568.19580    -999.25   49.14380   49.14380    -999.25    -999.25   17.53350   17.53350  568.19580    -999.25    -999.25  226.70090  -91.90460  -72.68820  226.70090
 7050.00000    8.04370    8.04370    7.20870    4.94190  202.83340    -999.25   50.14830   50.14830    -999.25    -999.25   16.26010   16.26010  202.83340    -999.25    -999.25  116.19210 -140.30520 -121.24850  116.19210
 7100.00000    8.22080    8.22080    4.51320    2.09970  476.26110    -999.25   49.59510   49.59510    -999.25    -999.25   18.09170   18.09170  476.26110    -999.25    -999.25  163.07650 -158.50730 -139.61140  163.07650
 7150.00000    8.10710    8.10710   11.91250    9.84560  101.56840    -999.25   51.06640   51.06640    -999.25    -999.25   30.13050   30.13050  101.56840    -999.25    -999.25  124.78170 -150.45470 -131.71850  124.78170
 7200.00000    8.16340    8.16340    0.00000    1.75560  569.60120    -999.25   49.46140   49.46140    -999.25    -999.25   20.18330   20.18330  569.60120    -999.25    -999.25  288.64970 -137.05350 -118.47810  288.64970
 7250.00000    8.06150    8.06150   13.60070   12.88440   77.61880    -999.25   51.02220   51.02220    -999.25    -999.25   16.41210   16.41210   77.61880    -999.25    -999.25   85.09660 -138.07740 -119.66170   85.09660
 7300.00000    8.14590    8.14590    2.15010    1.75850  568.67100    -999.25   49.61980   49.61980    -999.25    -999.25   22.59980   22.59980  568.67100    -999.25    -999.25  208.87780 -125.99890 -107.74290  208.87780
 7350.00000    8.31400    8.31400   22.09530   21.12720   47.33240    -999.25   52.42100   52.42100    -999.25    -999.25   17.31370   17.31370   47.33240    -999.25    -999.25   85.69130 -142.98300 -124.88780   85.69130
 7400.00000    7.34580    7.34580   59.09100   59.93360   16.68580    -999.25   54.92600   54.92600    -999.25    -999.25   17.91910   17.91910   16.68580    -999.25    -999.25  104.10210 -189.15170 -171.21620  104.10210
 7450.00000    7.95490    7.95490   24.36720   23.77170   42.06690    -999.25   51.19130   51.19130    -999.25    -999.25   17.07400   17.07400   42.06690    -999.25    -999.25  134.21580 -189.81710 -172.04240  134.21580
 7500.00000    7.81710    7.81710   42.65960   43.39320   23.06070    -999.25   54.19740   54.19740    -999.25    -999.25   13.60860   13.60860   23.06070    -999.25    -999.25   82.03230 -200.00000 -182.38500   82.03230
 7550.00000    8.54400    8.54400  459.13210  494.55310    2.03580    -999.25   60.89110   60.89110    -999.25    -999.25   31.50230   31.50230    2.03580    -999.25    -999.25    9.87420 -126.96510 -109.50980    9.87420
 7600.00000    8.12320    8.12320    2.54110    1.75630  569.36980    -999.25   50.27010   50.27010    -999.25    -999.25   24.85230   24.85230  569.36980    -999.25    -999.25  187.80170 -118.83460 -101.54010  187.80170
 7650.00000    8.20720    8.20720    1.67020    1.76400  566.88350    -999.25   47.97340   47.97340    -999.25    -999.25   27.08180   27.08180  566.88350    -999.25    -999.25  220.47120 -125.65690 -108.52210  220.47120
 7700.00000    8.47220    8.47220   89.24370   95.46360   10.47520    -999.25   52.67210   52.67210    -999.25    -999.25   31.94860   31.94860   10.47520    -999.25    -999.25   27.03350 -111.98920  -95.01520   27.03350
