~Version ---------------------------------------------------
VERS.      2.0 : CWLS log ASCII Standard -VERSION 2.0
WRAP.       NO : One line per depth step
CREA. 11/15/17 : LAS Creation Date
~Well ------------------------------------------------------
STRT.FT                            1100.0 : START DEPTH
STOP.FT                           11050.0 : STOP DEPTH
STEP.FT                          50.00000 : STEP LENGTH
NULL.                             -999.25 : NULL VALUE
COMP.        CANADIAN HOMESTEAD OILS LTD. : COMPANY
WELL. HOMESTEAD ET AL ROSEVEAR 9-34-53-15 : WELL
FLD .                                     : FIELD
LOC .                                     : LOCATION
CTRY.                              CANADA : COUNTRY
SRVC.              Schlumberger of Canada : SERVICE COMPANY
DATE.                         06-May-1975 : LOGDATE
PROV.                             Alberta : PROVINCE
UWI .                    100093405315W500 : UNIQUE WELL ID
SLAT.WGS84                       53.62182 : SURFACE LATITUDE
SLON.WGS84                      -116.1151 : SURFACE LONGITUDE
~Curve Information -----------------------------------------
DEPT    .FT    : Depth Curve
CALDED  .IN    : CALIPER FROM CND LOG[DSH TO GRSED/ILDED]
CALSED  .IN    : CALIPER FROM SONIC LOG
CALWS   .IN    : CALIPER [CALSED]
CONDWS  .MMHO  : CONDUCTIVITY [1000/DRESWS]
DCORED  .G/C3  : DENSITY CORRECTION FROM CND LOG[DSH TO GRSED/ILDED]
DCORWS  .G/C3  : DENSITY CORRECTION DCORED]
DENWS   .G/C3  : BULK FORMATION DENSITY[RHOBED]
DPHILSED.V/V   : DENSITY POROSITY LIMESTONE[M=2.71, F=1.00]FROM CND LOG[DSH TO GRSED/ILDED]
DPHISSED.V/V   : DENSITY POROSITY SANDSTONE[M=2.65, F=1.00]FROM CND LOG[DSH TO GRSED/ILDED]
DPOLSWS .V/V   : DENSITY POROSITY LIMESTONE[M=2.71, F=1.00][CALCULATED FROM DENWS]
DRESWS  .OHMM  : DEEP RESISTIVITY [ILDED]
DTED    .US/F  : ACOUSTIC TRANSIT TIME SLOWNESS, DELTA T
DTWS    .US/F  : ACOUSTIC TRANSIT TIME SLOWNESS[DTED]
GRDED   .GAPI  : GAMMA RAY FROM DENSITY LOG[DSH TO GRSED/ILDED]
GRSED   .GAPI  : GAMMA RAY FROM SONIC LOG
GRWS    .GAPI  : GAMMA RAY [GRSED]
ILDED   .OHMM  : INDUCTION LOG DEEP RESISTIVITY
ILMED   .OHMM  : INDUCTION LOG MEDIUM RESISTIVITY
LL8ED   .OHMM  : 8 INCH LATEROLOG RESISTIVITY
MRESWS  .OHMM  : MEDIUM RESISTIVITY [ILMED]
NPHILSED.V/V   : NEUTRON POROSITY LIMESTONE FROM CND LOG[DSH TO GRSED/ILDED]
NPHISSED.V/V   : NEUTRON POROSITY SANDSTONE FROM CND LOG[DSH TO GRSED/ILDED]
NPOLSWS .V/V   : NEUTRON POROSITY LIMESTONE[ NPHSSED CONVERTED TO LIMESTONE AND SPLICED TO NPHILSED AT 7521']
RHOBED  .G/C3  : BULK FORMATION DENSITY FROM CND LOG[DSH TO GRSED/ILDED]
SPHIED  .V/V   : SONIC POROSITY [DTM=55.6, DF=189<7520' and 47.6 DF=189>7520']FROM SONIC LOG
SPOWS   .V/V   : SONIC POROSITY [SPHIED]
SPRED   .MV    : SPONTANEOUS POTENTIAL FROM RESISTIVITY LOG
SPWS    .MV    : SPONTANEOUS POTENTIAL [BASELINE 0 MV] [SPRED]
SRESWS  .OHMM  : SHALLOW RESISTIVITY [LL8ED]
~Params ----------------------------------------------------
PD  .                     GL : PERMANENT DATUM
EPD .FT               2932.7 : ELEVATION PERMANENT DATUM
LMF .                     KB : LOG MEASURED FROM
DAPD.FT                 18.3 : FEET ABOVE PERMANENT DATUM
EKB .FT                 2951 : KELLY BUSHING
EGL .FT               2932.7 : GROUND LEVEL
DATE.               05/06/75 : RUN DATE
RUN .                      1 : RUN NUMBER
DD  .FT                11081 : DEPTH DRILLER
DL  .FT                11087 : DEPTH LOGGER
BLI .FT                11081 : BOTTOM LOG INTERVAL
TLI .FT                 1136 : TOP LOG INTERVAL
CBD .FT                 1136 : CASING BOTTOM DRILLER
CBL .FT                 1134 : CASING BOTTOM LOGGER
BS  .IN                 8.75 : BIT SIZE
BSD .FT                11081 : BIT SIZE AT DEPTH
DFT .               CHEM GEL : DRILLING FLUID TYPE
DFD .                    9.2 : DRILLING FLUID DENSITY
DFV .                     90 : DRILLING FLUID VISCOSITY
DFPH.                     11 : DRILLING FLUID PH
DFL .                    8.4 : DRILLING FLUID LOSS
MSS .              CIRULATED : MUD SAMPLE SOURCE
RMS .OHMM               1.22 : RESISTIVITY MUD SAMPLE
MST .DEGF                 72 : MUD SAMPLE TEMPERATURE
RMF .OHMM               0.98 : RESISTIVITY MUD FILTRATE SAMPLE
MFST.DEGF                 70 : MUD FILTRATE SAMPLE TEMPERATURE
LUN .                   7690 : LOGGING UNIT NUMBER
LUL .                    EDM : LOGGING UNIT LOCATION
ENGI.                  BORLE : RECORDING ENGINEER
WITN.                   KING : WITNESSED BY
CLNT.                A2DTECH : CLIENT CODE
ORIG.            2" 5" PRINT : ORIGIN OF DATA
UWI .       100093405315W500 : UNIQUE WELL ID
DICO. A2D Technologies, Inc. : DIGITIZING COMPANY
~Other -----------------------------------------------------
~ASCII -----------------------------------------------------
# ...
 7350.00000   12.30400   10.44770   10.44770   30.24700    0.25620    0.25620    2.31030    -999.25    0.21190    0.23370   33.06110   71.71490   71.71490   72.88350   71.89240   71.89240   33.06110   29.29300   45.51880   29.29300    -999.25    0.20530    0.16180    2.31030    0.12510    0.12510  -76.23160  -13.70900   45.51880
 7400.00000   11.04250   10.28140   10.28140   86.17720    0.22650    0.22650    2.23650    -999.25    0.25670    0.27690   11.60400   78.73070   78.73070  106.20410  106.69310  106.69310   11.60400   12.76830   16.66600   12.76830    -999.25    0.30570    0.26170    2.23650    0.18810    0.18810  -80.10000  -19.73950   16.66600
 7450.00000   11.88390    9.98140    9.98140   26.57690    0.22090    0.22090    2.02230    -999.25    0.37210    0.40220   37.62660   66.14620   66.14620   41.70480   37.21130   37.21130   37.62660   75.94840   96.08340   75.94840    -999.25    0.11250    0.07050    2.02230    0.08480    0.08480  -88.21080  -30.01240   96.08340
 7500.00000    9.63330   10.15100   10.15100   52.91650    0.22280    0.22280    2.37610    -999.25    0.18820    0.19530   18.89770   63.70240   63.70240   70.72470   71.33960   71.33960   18.89770   22.35380   23.47230   22.35380    -999.25    0.12620    0.08390    2.37610    0.06890    0.06890  -91.17120  -35.13490   23.47230
 7550.00000   10.70800   13.09310   13.09310  138.10440    0.21940    0.21940    2.02040    0.27440    -999.25    0.40330    7.24090   86.61140   86.61140   78.30630   86.37430   86.37430    7.24090    5.64870   10.18080    5.64870    0.43830    -999.25    0.43830    2.02040    0.29330    0.29330  -82.80760  -28.93340   10.18080
 7600.00000    8.64900    9.34250    9.34250   60.74820    0.02920    0.02920    2.51630    0.12180    -999.25    0.11330   16.46140   56.68800   56.68800   20.77840   25.76280   25.76280   16.46140   35.12420  148.50800   35.12420    0.04510    -999.25    0.04510    2.51630    0.07550    0.07550 -154.29090 -102.57880  148.50800
 7650.00000    8.77120    9.39140    9.39140    4.48350    0.02070    0.02070    2.57030    0.08460    -999.25    0.08170  223.04250   55.82950   55.82950   10.81360   13.53440   13.53440  223.04250 1226.46660 1094.01770 1226.46660    0.01850    -999.25    0.01850    2.57030    0.07190    0.07190 -132.70320  -83.15320 1094.01770
 7700.00000    9.21040    9.46290    9.46290   10.87410   -0.00200   -0.00200    2.50130    0.12550    -999.25    0.12200   91.96160   60.83550   60.83550   89.60700   89.15080   89.15080   91.96160 1989.44120 1199.72910 1989.44120    0.10470    -999.25    0.10470    2.50130    0.13200    0.13200  -79.43030  -32.04240 1199.72910
 7750.00000   12.28820    9.62970    9.62970   29.60020    0.21450    0.21450    2.45630    0.14290    -999.25    0.14840   33.78350   52.89690   52.89690   46.64810   41.22720   41.22720   33.78350   36.14210   65.96870   36.14210    0.07420    -999.25    0.07420    2.45630    0.04260    0.04260  -93.04470  -47.81890   65.96870
 7800.00000   10.11750   10.07900   10.07900   33.62550    0.22760    0.22760    2.63870    0.01450    -999.25    0.04170   29.73930   57.71530   57.71530   47.07830   51.47160   51.47160   29.73930   30.66740   54.12920   30.66740    0.07930    -999.25    0.07930    2.63870    0.07800    0.07800 -101.86290  -58.79920   54.12920
 7850.00000   10.08530   10.57140   10.57140    8.26650    0.03050    0.03050    2.85100   -0.09650    -999.25   -0.08250  120.96950   53.33470   53.33470   31.83700   39.79350   39.79350  120.96950  128.26840  130.76290  128.26840    0.01970    -999.25    0.01970    2.85100    0.04400    0.04400  -90.53620  -49.63460  130.76290
 7900.00000    9.98180   10.16640   10.16640    0.64380    0.02280    0.02280    2.84890   -0.09030    -999.25   -0.08120 1553.26160   52.02960   52.02960    6.67320    9.81530    9.81530 1553.26160 1401.32230 1472.56050 1401.32230   -0.00160    -999.25   -0.00160    2.84890    0.03600    0.03600 -131.06060  -92.32110 1472.56050
 7950.00000   12.06160   10.19840   10.19840   17.70460    0.21970    0.21970    2.15470    0.30440    -999.25    0.32470   56.48240   51.84030   51.84030   11.23970   11.74620   11.74620   56.48240   92.52160  646.87990   92.52160    0.07040    -999.25    0.07040    2.15470    0.03810    0.03810 -165.76890 -129.19150  646.87990
 8000.00000    9.57770    9.73650    9.73650   31.54300    0.08840    0.08840    2.72650   -0.02800    -999.25   -0.00960   31.70280   52.75310   52.75310   65.51130   61.34170   61.34170   31.70280   29.81470   51.49400   29.81470    0.05240    -999.25    0.05240    2.72650    0.04200    0.04200  -47.10460  -12.68930   51.49400
 8050.00000    9.61440    9.73560    9.73560   32.16820    0.07840    0.07840    2.71050    -999.25    -999.25   -0.00030   31.08660   52.65170   52.65170    -999.25   48.84420   48.84420   31.08660   34.47690   44.53950   34.47690    -999.25    -999.25    -999.25    2.71050    0.03930    0.03930  -72.04320  -39.26350   44.53950
 8100.00000    -999.25   10.36880   10.36880   94.81820    -999.25    -999.25    -999.25    -999.25    -999.25    -999.25   10.54650   63.08090   63.08090    -999.25   61.89290   61.89290   10.54650    8.76640   13.51680    8.76640    -999.25    -999.25    -999.25    -999.25    0.13740    0.13740  -63.41680  -31.96330   13.51680
 8150.00000    -999.25   10.27950   10.27950   93.52520    -999.25    -999.25    -999.25    -999.25    -999.25    -999.25   10.69230   61.28650   61.28650    -999.25   64.68030   64.68030   10.69230   11.28570   16.38960   11.28570    -999.25    -999.25    -999.25    -999.25    0.10230    0.10230  -48.96400  -18.83680   16.38960
 8200.00000    -999.25   10.59890   10.59890   10.36110    -999.25    -999.25    -999.25    -999.25    -999.25    -999.25   96.51450   50.42680   50.42680    -999.25   15.51330   15.51330   96.51450  109.14680  142.92880  109.14680    -999.25    -999.25    -999.25    -999.25    0.02690    0.02690  -66.70720  -37.90630  142.92880
 8250.00000    -999.25    9.82810    9.82810   17.31320    -999.25    -999.25    -999.25    -999.25    -999.25    -999.25   57.75950   52.60440   52.60440    -999.25   30.97120   30.97120   57.75950   64.03460   65.91700   64.03460    -999.25    -999.25    -999.25    -999.25    0.04250    0.04250  -36.31490   -8.84030   65.91700
 8300.00000    -999.25    9.54060    9.54060    5.93650    -999.25    -999.25    -999.25    -999.25    -999.25    -999.25  168.45040   53.62730   53.62730    -999.25   28.71610   28.71610  168.45040  293.72980  245.86430  293.72980    -999.25    -999.25    -999.25    -999.25    0.04900    0.04900  -78.97220  -52.82390  245.86430
 8350.00000    -999.25    9.62890    9.62890   19.08590    -999.25    -999.25    -999.25    -999.25    -999.25    -999.25   52.39460   56.03100   56.03100    -999.25   45.50940   45.50940   52.39460   60.76510   75.75450   60.76510    -999.25    -999.25    -999.25    -999.25    0.06720    0.06720  -69.56390  -44.74190   75.75450
 8400.00000    -999.25    9.94390    9.94390   44.64310    -999.25    -999.25    -999.25    -999.25    -999.25    -999.25   22.39990   58.10490   58.10490    -999.25   45.16730   45.16730   22.39990   24.32750   31.31490   24.32750    -999.25    -999.25    -999.25    -999.25    0.08650    0.08650  -65.34040  -41.84460   31.31490
 8450.00000    -999.25    9.68510    9.68510   16.34610    -999.25    -999.25    -999.25    -999.25    -999.25    -999.25   61.17670   57.94050   57.94050    -999.25   52.66650   52.66650   61.17670   66.71250   81.85210   66.71250    -999.25    -999.25    -999.25    -999.25    0.08280    0.08280  -57.45440  -35.28490   81.85210
 8500.00000    -999.25    9.51160    9.51160    3.81610    -999.25    -999.25    -999.25    -999.25    -999.25    -999.25  262.04560   51.43970   51.43970    -999.25   14.32600   14.32600  262.04560  349.26660 1288.19840  349.26660    -999.25    -999.25    -999.25    -999.25    0.03320    0.03320  -65.18290  -44.33970 1288.19840
 8550.00000    -999.25    9.51790    9.51790    1.42320    -999.25    -999.25    -999.25    -999.25    -999.25    -999.25  702.62880   50.41850   50.41850    -999.25   30.65860   30.65860  702.62880  278.55810  236.98850  278.55810    -999.25    -999.25    -999.25    -999.25    0.02760    0.02760  -76.44980  -56.93290  236.98850
