~Version ---------------------------------------------------
VERS.      2.0 : CWLS log ASCII Standard -VERSION 2.0
WRAP.       NO : One line per depth step
CREA. 08/01/17 : LAS Creation Date
~Well ------------------------------------------------------
STRT.FT                          300.0 : START DEPTH
STOP.FT                         9600.0 : STOP DEPTH
STEP.FT                       50.00000 : STEP LENGTH
NULL.                          -999.25 : NULL VALUE
COMP.             IMPERIAL OIL LIMITED : COMPANY
WELL. IMP GOOSE RIVER EAST 10-15-67-18 : WELL
FLD .                                  : FIELD
LOC .                                  : LOCATION
CTRY.                           CANADA : COUNTRY
SRVC.           Schlumberger of Canada : SERVICE COMPANY
DATE.                      29-Jan-1963 : LOGDATE
PROV.                          Alberta : PROVINCE
UWI .                 100101506718W500 : UNIQUE WELL ID
SLAT.WGS84                    54.80149 : SURFACE LATITUDE
SLON.WGS84                   -116.6536 : SURFACE LONGITUDE
~Curve Information -----------------------------------------
DEPT  .FT    : Depth Curve
CALSED.IN    : CALIPER FROM SONIC LOG  [ADJ. TO RESISTIVITY LOG]
CALWS .IN    : CALIPER [CALSED]
CILDED.MMHO  : DEEP  INDUCTION CONDUCTIVITY FROM RESISTIVITY LOG
CONDWS.MMHO  : CONDUCTIVITY [1000/DRESWS]
DRESWS.OHMM  : DEEP RESISTIVITY [ILDED] IF ILDED<2;1000/CILDED;ELSE ILDED
DT1ED .US/F  : DELTA-T [(3' SPACING & 1' PICKUP SPAN) FROM SONIC LOG [ADJ. TO RESISTIVITY LOG]
DTED  .US/F  : DELTA-T [(3' SPACING & 3' PICKUP SPAN) FROM SONIC LOG [ADJ. TO RESISTIVITY LOG]
DTWS  .US/F  : COMPRESSIONAL SONIC [DTED]
GRSED .GAPI  : GAMMA RAY FROM SONIC LOG [ADJ. TO RESISTIVITY LOG]
GRWS  .GAPI  : GAMMA RAY [GRSED]
ILDED .OHMM  : DEEP INDUCTION RESISTIVITY FROM RESISTIVITY LOG
SNED  .OHMM  : 16 INCH SHORT NORMAL RESISTIVITY FROM RESISTIVITY LOG
SPRED .MV    : SPONTANEOUS POTENTIAL FROM RESISTIVITY LOG
SPWS  .MV    : SPONTANEOUS POTENTIAL [BASELINE 0 MV,SPRED]
SRESWS.OHMM  : SHALLOW RESISTIVITY [SNED]
~Params ----------------------------------------------------
PD  .                     GL : PERMANENT DATUM
EPD .FT                 2657 : ELEVATION PERMANENT DATUM
LMF .                     KB : LOG MEASURED FROM
DAPD.FT                   12 : FEET ABOVE PERMANENT DATUM
EKB .FT                 2669 : KELLY BUSHING
EGL .FT                 2657 : GROUND LEVEL
DATE.               01/29/63 : RUN DATE
RUN .                      1 : RUN NUMBER
DD  .FT                 9637 : DEPTH DRILLER
DL  .FT                 9633 : DEPTH LOGGER
BLI .FT                 9632 : BOTTOM LOG INTERVAL
TLI .FT                  957 : TOP LOG INTERVAL
CBD .FT                  957 : CASING BOTTOM DRILLER
CBL .FT                  957 : CASING BOTTOM LOGGER
BS  .IN                7.875 : BIT SIZE
BSD .FT                 9637 : BIT SIZE AT DEPTH
DFT .                    GEL : DRILLING FLUID TYPE
DFD .                   10.1 : DRILLING FLUID DENSITY
DFV .                    283 : DRILLING FLUID VISCOSITY
DFPH.                      9 : DRILLING FLUID PH
DFL .                    8.2 : DRILLING FLUID LOSS
RMS .OHMM               2.21 : RESISTIVITY MUD SAMPLE
MST .DEGF                 60 : MUD SAMPLE TEMPERATURE
RMF .OHMM               1.61 : RESISTIVITY MUD FILTRATE SAMPLE
MFST.DEGF                 64 : MUD FILTRATE SAMPLE TEMPERATURE
RMC .OHMM               2.47 : RESISTIVITY MUD CAKE
MCST.DEGF                 64 : MUD CAKE SAMPLE TEMPERATURE
RMB .OHMM               0.74 : RESISTIVITY MUD AT BHT
TCS .HRS                   3 : TIME CIRCULATED STOPPED
LUN .                   1534 : LOGGING UNIT NUMBER
LUL .                     VV : LOGGING UNIT LOCATION
ENGI.                  KEOWN : RECORDING ENGINEER
WITN.               INGLESON : WITNESSED BY
CLNT.                A2DTECH : CLIENT CODE
ORIG.            2" 5" PRINT : ORIGIN OF DATA
UWI .       100101506718W500 : UNIQUE WELL ID
DICO. A2D Technologies, Inc. : DIGITIZING COMPANY
~Other -----------------------------------------------------
IEL-BCS LOG RUN
ALL IEL DATA FROM TOP TO 3786' FROM SMALL SECTION
~ASCII -----------------------------------------------------
# ...
 2600.00000    7.58130    7.58130  164.13410  178.17690    5.61240    -999.25   99.44920   99.44920   87.53670   87.53670    5.61240    5.82650  -84.26580   -6.95390    5.82650
 2650.00000    7.80710    7.80710  138.30790  153.45660    6.51650    -999.25   91.96330   91.96330   79.51630   79.51630    6.51650    6.62350  -85.72050   -7.82660    6.62350
 2700.00000    7.75860    7.75860  107.53080  119.45290    8.37150    -999.25   92.55020   92.55020   83.90360   83.90360    8.37150    8.27570  -82.87560   -4.59730    8.27570
 2750.00000    7.56340    7.56340  142.72870  158.44850    6.31120    -999.25  101.46770  101.46770   84.85840   84.85840    6.31120    6.12260  -84.39690   -7.58040    6.12260
 2800.00000    8.61000    8.61000  162.97310  166.28700    6.01370    -999.25  103.57000  103.57000   90.80880   90.80880    6.01370    5.70050  -83.63810   -8.28350    5.70050
 2850.00000   10.89350   10.89350  143.51450  153.71840    6.50540    -999.25  113.07050  113.07050   89.34820   89.34820    6.50540    6.27130  -83.52310   -9.95530    6.27130
 2900.00000   10.29190   10.29190  183.22700  189.34370    5.28140    -999.25  139.09320  139.09320   82.77650   82.77650    5.28140    5.74800  -81.08910   -8.45020    5.74800
 2950.00000    9.71160    9.71160  123.86400  129.75890    7.70660    -999.25  110.64350  110.64350   72.42260   72.42260    7.70660    7.64110  -77.10880   -4.80380    7.64110
 3000.00000    8.69230    8.69230  149.27180  158.11280    6.32460    -999.25  113.28700  113.28700   79.83000   79.83000    6.32460    6.47640  -80.24080   -8.26810    6.47640
 3050.00000    8.58700    8.58700  141.15360  150.88190    6.62770    -999.25   99.23100   99.23100   85.41100   85.41100    6.62770    6.87720  -78.90080   -8.76550    6.87720
 3100.00000    9.24710    9.24710  160.78020  172.88480    5.78420    -999.25  106.98950  106.98950   94.48630   94.48630    5.78420    6.34670  -76.88430  -10.54490    6.34670
 3150.00000    9.86760    9.86760  140.58850  150.26520    6.65490    -999.25  106.11070  106.11070   86.84070   86.84070    6.65490    7.97120  -62.72330   -2.20620    7.97120
 3200.00000   10.03440   10.03440  150.67120  164.93760    6.06290    -999.25  103.81500  103.81500   97.81350   97.81350    6.06290    7.26620  -71.93130   -8.78330    7.26620
 3250.00000   10.16610   10.16610  157.72270  168.49480    5.93490    -999.25  117.22000  117.22000   96.04780   96.04780    5.93490    8.12550  -66.00890   -7.22100    8.12550
 3300.00000    9.75980    9.75980  143.03860  156.59750    6.38580    -999.25  101.18600  101.18600  104.48540  104.48540    6.38580    8.31670  -54.48500   -3.59370    8.31670
 3350.00000    8.70870    8.70870  104.26050  115.83590    8.63290    -999.25  103.15820  103.15820  112.55740  112.55740    8.63290   11.98650  -48.88250   -3.56410   11.98650
 3400.00000    9.50350    9.50350  118.70790  131.67770    7.59430    -999.25   97.11030   97.11030   81.57710   81.57710    7.59430    9.14700  -54.42490  -11.46360    9.14700
 3450.00000    9.79040    9.79040  167.03410  179.54610    5.56960    -999.25   94.68750   94.68750   79.70940   79.70940    5.56960    5.97000  -51.74320  -10.89310    5.97000
 3500.00000    8.85220    8.85220  114.61100  124.90790    8.00590    -999.25   94.85650   94.85650   86.43960   86.43960    8.00590    9.16000  -52.63290  -16.53450    9.16000
 3550.00000    9.96970    9.96970  177.37900  189.25770    5.28380    -999.25  102.20920  102.20920   90.60720   90.60720    5.28380    6.12290  -38.53240   -4.68820    6.12290
 3600.00000    9.86970    9.86970  194.65780  206.61160    4.84000    -999.25   83.98980   83.98980   92.98820   92.98820    4.84000    5.76230  -42.98860   -5.85140    5.76230
 3650.00000    9.93220    9.93220  172.06780  184.36920    5.42390    -999.25   92.31880   92.31880   93.29800   93.29800    5.42390    6.61020  -55.69580   -5.68160    6.61020
 3700.00000   10.92710   10.92710  232.13970  240.80140    4.15280    -999.25  103.03250  103.03250   84.92410   84.92410    4.15280    5.22430  -69.25650   -4.41690    5.22430
 3750.00000   11.16540   11.16540  219.81190  228.43050    4.37770    -999.25   95.85150   95.85150   89.53210   89.53210    4.37770    5.25590  -66.56420   -2.93090    5.25590
 3800.00000   11.54860   11.54860  247.18370  248.39780    4.02580    -999.25   99.53130   99.53130   94.56340   94.56340    4.02580    5.09070  -67.38490   -5.09150    5.09070
 3850.00000   10.97200   10.97200  456.86680  391.89560    2.55170    -999.25  118.69000  118.69000  101.34510  101.34510    2.55170    3.20590  -67.27060   -4.34830    3.20590
 3900.00000   10.62670   10.62670  531.34360  438.86600    2.27860    -999.25  121.43000  121.43000   89.21850   89.21850    2.27860    2.74470  -65.20130   -2.77870    2.74470
 3950.00000   11.26160   11.26160  274.08240  265.66070    3.76420    -999.25   95.84800   95.84800   84.01450   84.01450    3.76420    4.30550  -69.23540   -6.84190    4.30550
 4000.00000   11.21240   11.21240  285.84140  271.59890    3.68190    -999.25  101.12670  101.12670   95.47930   95.47930    3.68190    4.44260  -67.74650   -4.44640    4.44260
 4050.00000   11.22470   11.22470  182.82370  188.86810    5.29470    -999.25   86.87250   86.87250   85.59300   85.59300    5.29470    6.29240  -62.89880   -3.11080    6.29240
 4100.00000   11.08280   11.08280  473.25050  387.29670    2.58200    -999.25  113.11230  113.11230   77.23480   77.23480    2.58200    3.51310  -62.54840   -5.91100    3.51310
 4150.00000   10.58780   10.58780  166.77230  175.20810    5.70750    -999.25   85.04000   85.04000   74.48510   74.48510    5.70750    7.05650  -63.21780   -8.89190    7.05650
 4200.00000    9.46650    9.46650  130.31340  139.63560    7.16150    -999.25   96.87680   96.87680   55.71390   55.71390    7.16150    8.75030  -72.65060  -15.83980    8.75030
 4250.00000    8.03340    8.03340  105.23580  107.34340    9.31590    -999.25   83.74820   83.74820   41.02690   41.02690    9.31590   14.59030 -107.29810  -47.49620   14.59030
 4300.00000    9.01770    9.01770   46.30280   57.72370   17.32390    -999.25  120.91650  120.91650   70.07920   70.07920   17.32390   18.04920  -74.44420  -11.65100   18.04920
 4350.00000    7.79520    7.79520   92.02520   96.86540   10.32360    -999.25   78.77300   78.77300   48.71010   48.71010   10.32360   20.00000 -130.77490  -66.51540   20.00000
 4400.00000    9.97320    9.97320  116.74500  120.84010    8.27540    -999.25   73.24100   73.24100   52.02150   52.02150    8.27540   12.57950  -82.73880  -18.83610   12.57950
 4450.00000   10.38990   10.38990  126.41860  132.23490    7.56230    -999.25   85.77950   85.77950   72.69270   72.69270    7.56230   10.46550  -66.10620   -2.56550   10.46550
 4500.00000   10.34670   10.34670   72.63510   77.19560   12.95410    -999.25  133.58180  133.58180   55.42440   55.42440   12.95410   14.35080  -70.15370   -6.96970   14.35080
 4550.00000    8.25910    8.25910  188.81390  193.76840    5.16080    -999.25   77.99180   77.99180   58.38440   58.38440    5.16080    8.79950  -87.23370  -23.97120    8.79950
 4600.00000   10.60810   10.60810  119.99490  125.94140    7.94020    -999.25   88.56100   88.56100   70.81730   70.81730    7.94020    9.98880  -70.13700   -6.78620    9.98880
 4650.00000    9.08060    9.08060  200.73720  203.61210    4.91130    -999.25   76.84780   76.84780   58.66330   58.66330    4.91130    8.93970  -99.17740  -38.52500    8.93970
 4700.00000    9.77540    9.77540  217.56670  218.14060    4.58420    -999.25   79.71150   79.71150   64.09330   64.09330    4.58420    8.47800  -84.48500  -24.47520    8.47800
 4750.00000    8.18510    8.18510  196.35550  200.50130    4.98750    -999.25   79.07680   79.07680   52.67450   52.67450    4.98750   13.83970 -138.64000  -77.32830   13.83970
 4800.00000   11.34600   11.34600  182.77700  184.53250    5.41910    -999.25   80.60280   80.60280   74.21810   74.21810    5.41910    6.50280  -68.25130   -6.36020    6.50280
 4850.00000   11.71900   11.71900  176.05500  181.61680    5.50610    -999.25   86.24950   86.24950   86.16570   86.16570    5.50610    6.84480  -63.54500   -2.59030    6.84480
