~Version ---------------------------------------------------
VERS.      2.0 : CWLS log ASCII Standard -VERSION 2.0
WRAP.       NO : One line per depth step
CREA. 10/01/14 : LAS Creation Date
~Well ------------------------------------------------------
STRT.FT                                  935.9 : START DEPTH
STOP.FT                                 9375.9 : STOP DEPTH
STEP.FT                                0.50000 : STEP LENGTH
NULL.                                  -999.25 : NULL VALUE
COMP. THE BRITISH AMERICAN OIL COMPANY LIMITED : COMPANY
WELL.        B.A. EAST GOOSE RIVER 10-22-66-15 : WELL
FLD .                                          : FIELD
LOC .                                          : LOCATION
CTRY.                                   CANADA : COUNTRY
SRVC.                   Schlumberger of Canada : SERVICE COMPANY
DATE.                              16-Mar-1960 : LOGDATE
PROV.                                  Alberta : PROVINCE
UWI .                         100102206615W500 : UNIQUE WELL ID
SLAT.WGS84                            54.72873 : SURFACE LATITUDE
SLON.WGS84                           -116.1771 : SURFACE LONGITUDE
~Curve Information -----------------------------------------
DEPT.FT      : DEPTH FEET
CILD.MMHO    : CONDUCTIVITY FROM RESISTIVITY LOG
DT  .US/F    : DELTA-T FROM SONIC LOG
GRS .MG/TON  : GAMMA RAY FROM SONIC LOG
ILD .OHMM    : DEEP INDUCTION FROM RESISTIVITY LOG
MCAL.IN      : MLT CALIPER FROM MICRO LOG
SN  .OHMM    : SHORT NORMAL FROM RESISTIVITY LOG
SPR .MV      : SPONTANEOUS POTENTIAL FROM RESISTIVITY LOG
~Params ----------------------------------------------------
LMF .                     KB : LOG MEASURED FROM
DMF .                     KB : DRILLING MEASURED FROM
EKB .FT                 3222 : KELLY BUSHING
EGL .FT                 3205 : GROUND LEVEL
DATE.               03/16/60 : RUN DATE
RUN .                      2 : RUN NUMBER
DD  .FT                 9370 : DEPTH DRILLER
DL  .FT                 9378 : DEPTH LOGGER
BLI .FT                 9373 : BOTTOM LOG INTERVAL
TLI .FT                 5000 : TOP LOG INTERVAL
CBD .FT                  975 : CASING BOTTOM DRILLER
BS  .IN                    9 : BIT SIZE
BSD .FT                 9370 : BIT SIZE AT DEPTH
DFT .                    GEL : DRILLING FLUID TYPE
DFD .                     10 : DRILLING FLUID DENSITY
DFV .                    120 : DRILLING FLUID VISCOSITY
DFPH.                     10 : DRILLING FLUID PH
DFL .                    6.2 : DRILLING FLUID LOSS
RMS .OHMM                2.8 : RESISTIVITY MUD SAMPLE
MST .DEGF                 59 : MUD SAMPLE TEMPERATURE
RMF .OHMM               1.41 : RESISTIVITY MUD FILTRATE SAMPLE
MFST.DEGF                 68 : MUD FILTRATE SAMPLE TEMPERATURE
RMC .OHMM               2.56 : RESISTIVITY MUD CAKE
MCST.DEGF                 67 : MUD CAKE SAMPLE TEMPERATURE
RMB .OHMM               0.94 : RESISTIVITY MUD AT BHT
TCS .HRS                 4.5 : TIME CIRCULATED STOPPED
LUN .                  1573C : LOGGING UNIT NUMBER
LUL .                     WC : LOGGING UNIT LOCATION
ENGI.              HAUSEGGER : RECORDING ENGINEER
WITN.                   COTE : WITNESSED BY
CLNT.                A2DTECH : CLIENT CODE
ORIG.            2" 5" PRINT : ORIGIN OF DATA
UWI .       100102206615W500 : UNIQUE WELL ID
DICO. A2D Technologies, Inc. : DIGITIZING COMPANY
~Other -----------------------------------------------------
~ASCII -----------------------------------------------------
# ...
 8225.90000  216.58690   81.66270    3.90900    5.48110   15.80120    5.83880  -26.49900
 8226.40000  220.91360   80.76150    3.94940    5.35380   15.81320    5.79100  -27.39300
 8226.90000  221.87780   81.41710    3.92760    5.21920   15.82520    5.74310  -27.95140
 8227.40000  223.09720   82.86270    3.92460    5.08470   15.80370    5.69530  -27.95640
 8227.90000  225.09800   83.44660    4.17790    4.95010   15.72800    5.64750  -27.32020
 8228.40000  230.05080   83.24120    4.27830    4.89020   15.46290    5.59960  -26.85060
 8228.90000  233.70980   81.76510    4.35750    4.83130   15.48730    5.55180  -26.72550
 8229.40000  236.04420   83.25750    4.29800    4.80180   15.39270    5.53730  -26.58890
 8229.90000  236.59980   87.68880    4.18740    4.71340   14.86660    5.49600  -25.89750
 8230.40000  235.82410   87.68550    4.33640    4.68390   14.99950    5.48260  -25.79530
 8230.90000  236.25480   83.40740    4.56900    4.59560   15.62770    5.49520  -25.67300
 8231.40000  236.62690   83.93010    4.53600    4.59910   15.55560    5.51160  -25.88710
 8231.90000  236.46140   85.62490    4.58350    4.68420   15.42660    5.64270  -27.08910
 8232.40000  235.26630   84.68200    4.51340    4.72940   15.55400    5.75360  -27.73000
 8232.90000  227.29820   78.57250    4.38330    4.98480   15.54910    6.08620  -29.75170
 8233.40000  223.03240   76.72040    4.51470    5.08990   15.54390    6.19700  -30.60340
 8233.90000  210.27240   73.63120    4.64860    5.40520   15.26850    6.53530  -32.50640
 8234.40000  207.77570   74.26000    4.61470    5.52330   14.38300    6.65000  -32.91700
 8234.90000  201.63770   75.66640    4.53860    5.85900   11.47820    6.85320  -34.32700
 8235.40000  197.99830   71.54600    4.44060    6.00980   11.59050    6.89370  -34.90050
 8235.90000  183.81210   74.32400    4.05850    6.46230   12.61500    7.03620  -36.17650
 8236.40000  175.89800   80.09540    3.92410    6.76390   11.51770    7.13830  -36.18130
 8236.90000  173.20060   83.92290    4.11100    7.04330   11.00440    7.36590  -35.82830
 8237.40000  173.74480   80.40880    4.60210    6.99980   12.00770    7.14840  -35.45110
 8237.90000  174.03730   77.25700    4.84560    6.95200   12.29870    7.16350  -35.94280
 8238.40000  175.37280   83.22270    4.69070    6.90080   12.67520    7.37710  -36.16840
 8238.90000  175.87070   81.61460    4.38010    6.84970   13.06390    7.54330  -35.99490
 8239.40000  177.34100   81.85940    4.13800    6.79860   13.03880    7.50230  -35.37470
 8239.90000  180.01170   82.03960    4.17110    6.77300   12.68070    7.45610  -35.09810
 8240.40000  180.81180   82.71960    4.42600    6.70150   12.14260    7.30160  -34.78090
 8240.90000  178.88230   82.59450    4.47850    6.68140   12.22870    7.29710  -35.17790
 8241.40000  176.97230   80.35940    4.63850    6.71550   12.35950    7.41580  -36.17470
 8241.90000  176.48690   81.84310    4.66270    6.75310   12.28600    7.50120  -36.23280
 8242.40000  174.99520   78.85680    4.59000    6.86610   12.09060    7.69060  -36.81250
 8242.90000  174.37230   77.98200    4.41770    6.90380   12.25700    7.72720  -37.11460
 8243.40000  172.14100   79.49340    4.11020    7.01670   11.16650    7.83440  -38.37880
 8243.90000  171.22730   79.66500    4.16110    7.05440   11.11320    7.83310  -38.90180
 8244.40000  169.32590   80.63820    4.28210    7.13320   11.18270    7.78050  -40.12570
 8244.90000  168.67430   80.50520    4.26110    7.14550   10.90570    7.80170  -40.23580
 8245.40000  166.82710   80.93880    4.03040    7.18240   10.39910    7.87540  -40.51100
 8245.90000  166.02120   79.43120    3.97300    7.19470   10.95030    7.90940  -40.58670
 8246.40000  164.19410   80.84390    3.99320    7.23160   11.28730    8.01730  -40.78240
 8246.90000  165.55870   80.14560    4.15460    7.25320   10.03530    8.14310  -40.67830
 8247.40000  166.03900   77.48430    4.47450    7.25430   10.69300    8.05920  -40.66660
 8247.90000  165.63920   73.06010    4.98630    7.25530   10.17040    7.99620  -41.07980
 8248.40000  165.75060   80.66700    5.15610    7.25640    9.76260    8.34020  -41.62440
 8248.90000  166.76360   86.41740    5.15040    7.25740    9.58960    8.35180  -41.70290
 8249.40000  166.53560   83.23880    5.24200    7.25850    9.90750    8.01630  -42.02970
 8249.90000  165.53290   84.65840    5.26380    7.23940   10.10700    7.86640  -42.76760
 8250.40000  165.25160   86.01390    5.13150    7.21670   10.52970    7.83950  -43.18800
 8250.90000  167.22820   90.88910    4.61840    7.14880   11.53950    7.75880  -43.88440
 8251.40000  173.66700   88.26980    4.64180    7.07430   11.25930    7.64030  -44.04420
 8251.90000  181.82230   80.49380    5.04960    6.71220   11.27260    7.37490  -44.86320
 8252.40000  184.54970   78.52030    5.26030    6.56840   11.09890    7.38770  -45.25460
 8252.90000  191.36180   79.25240    5.58230    6.17510   10.15790    7.55220  -45.97410
 8253.40000  191.78260   81.17010    5.45740    6.16330    9.98720    7.62050  -45.80800
 8253.90000  187.76170   81.40660    5.06150    6.30040   10.47160    7.79990  -45.43040
 8254.40000  183.70530   81.66730    5.03360    6.52680   10.80330    7.89320  -45.37740
 8254.90000  167.57490   84.04490    5.21630    7.36650   11.26800    8.27930  -45.13870
 8255.40000  163.23740   83.92070    5.34500    7.55520   11.03300    8.47800  -44.99860
 8255.90000  154.39100   75.47040    5.56360    7.99580   10.17360    9.04710  -44.38840
 8256.40000  153.69220   72.43840    5.48790    8.01700   10.15470    9.36310  -44.35840
 8256.90000  148.82830   66.36590    5.17300    8.26480    9.47000   10.56060  -44.04900
 8257.40000  141.73120   67.41100    5.11170    8.87110    9.43220   11.46650  -43.08880
 8257.90000  129.45790   65.31270    4.82620    9.99780    9.51170   12.46640  -41.61870
 8258.40000  112.09530   65.34070    4.11650   11.75580    9.53090   13.46960  -39.79890
 8258.90000   98.78090   67.89850    3.80880   13.22850    9.51560   14.16570  -38.94520
 8259.40000   89.61990   67.95240    3.95410   14.25510    9.48700   14.85350  -38.62650
 8259.90000   85.04860   67.45780    4.01750   15.25980    9.46120   15.26630  -38.30750
 8260.40000   85.10140   66.60430    4.00070   15.23530    9.44500   15.67920  -37.92430
 8260.90000   86.13190   66.24210    3.97900   15.13630    9.44440   15.88560  -37.74990
 8261.40000   86.40120   66.08990    3.72670   14.96790    9.44440   16.44030  -37.40660
 8261.90000   85.94780   66.65910    3.73440   15.03480    9.45040   16.47250  -37.52040
 8262.40000   85.01400   68.25840    3.82430   15.32110    9.48300   16.19310  -37.91170
 8262.90000   84.81390   68.35890    3.81820   15.42350    9.49160   16.01050  -38.26430
 8263.40000   84.54840   68.87310    3.72110   15.52540    9.50110   15.46280  -39.31580
 8263.90000   84.86340   68.68330    3.68260   15.40210    9.50170   15.40650  -39.67760
 8264.40000   86.82380   68.10010    3.66030   14.93780    9.49780   15.37060  -40.90390
 8264.90000   87.47710   67.38290    3.68220   14.76730    9.49930   15.42590  -41.00520
 8265.40000   88.89170   65.72600    3.64500   14.35240    9.51140   15.59160  -41.37520
 8265.90000   88.89090   65.32240    3.54380   14.37640    9.51140   15.63710  -41.62910
 8266.40000   88.80130   64.88820    3.63120   14.60360    9.50130   15.68260  -42.31930
 8266.90000   88.41940   65.75790    3.73260   14.70520    9.49720   15.68260  -42.49020
 8267.40000   87.29010   65.65390    3.63490   14.80850    9.49120   15.45830  -43.04540
 8267.90000   87.54310   65.25700    3.29270   14.75940    9.59190   15.04370  -43.43700
 8268.40000   88.49330   66.42710    3.22780   14.46050    9.58650   14.65570  -44.03230
 8268.90000   90.31040   66.51500    3.27470   13.88000    9.54950   14.27410  -44.55410
 8269.40000   94.16470   68.30070    3.22870   13.29950    9.59970   13.89270  -44.77550
 8269.90000   98.32360   67.33560    3.23000   12.71900    9.65400   13.53920  -45.11560
 8270.40000  102.58270   68.12530    3.30670   12.19260    9.75840   13.26290  -45.33180
