~Version ---------------------------------------------------
VERS.      2.0 : CWLS log ASCII Standard -VERSION 2.0
WRAP.       NO : One line per depth step
CREA. 08/31/17 : LAS Creation Date
~Well ------------------------------------------------------
STRT.FT                       1300.0 : START DEPTH
STOP.FT                      12650.0 : STOP DEPTH
STEP.FT                     50.00000 : STEP LENGTH
NULL.                        -999.25 : NULL VALUE
COMP.           PETROFINA CANADA LTD : COMPANY
WELL. FINA AMOCO HB MAYBERNE 10-11-5 : WELL
FLD .                                : FIELD
LOC .                                : LOCATION
CTRY.                         CANADA : COUNTRY
SRVC.                   Schlumberger : SERVICE COMPANY
DATE.                    03-Apr-1977 : LOGDATE
PROV.                        Alberta : PROVINCE
UWI .               100101105718W500 : UNIQUE WELL ID
SLAT.WGS84                  53.91479 : SURFACE LATITUDE
SLON.WGS84                 -116.5629 : SURFACE LONGITUDE
~Curve Information -----------------------------------------
DEPT    .FT    : Depth Curve
CALDED  .IN    : DIFFERENTIAL CALIPER FROM DENSITY LOG
CALSED  .IN    : CALIPER FROM SONIC LOG [ADJ. TO GRED]
CALWS   .IN    : CALIPER [CALSED]
CONDWS  .MMHO  : CONDCUTIVITY [1000/DRESWS]
DCORED  .G/C3  : DENSITY CORRECTION FROM DENSITY LOG
DCORWS  .G/C3  : DENSITY CORRECTION [DRHOED]
DENWS   .G/C3  : FORMATION BULK DENSITY [RHOBED]
DPHILSED.V/V   : DENSITY POROSITY LIME [M=2.71, F=1.0] FROM DENSITY LOG [ADJ. TO RHOBED]
DPHISSED.V/V   : DENSITY POROSITY SAND [M=2.65, F=1.0] FROM DENSITY LOG [ADJ, TO RHOBED]
DPOLSWS .V/V   : DENSITY POROSITY LIME [CALC FROM DENWS, M=2.71, F=1.0]
DRESWS  .OHMM  : DEEP RESISTIVITY [ILDED]
DTED    .US/F  : DELTA-T FROM SONIC LOG [ADJ. TO GRDED]
DTWS    .US/F  : COMPRESSIONAL SONIC [DTED]
GRDED   .GAPI  : GAMMA RAY FROM DENSITY LOG
GRSED   .GAPI  : GAMMA RAY FROM SONIC LOG
GRWS    .GAPI  : GAMMA RAY [GRSED]
ILDED   .OHMM  : DEEP INDUCTION RESISTIVITY FROM RESISTIVITY LOG
ILMED   .OHMM  : MEDIUM INDUCTION RESISTIVITY FROM RESISTIVITY LOG
LL8ED   .OHMM  : LATEROLOG-8 RESISTIVITY FROM RESISTIVITY LOG
MRESWS  .OHMM  : MEDIUM RESISTIVITY [ILMED]
NPHILSED.V/V   : NEUTRON POROSITY LIME FROM DENSITY LOG [ADJ. TO RHOBED]
NPOLSWS .V/V   : NEUTRON POROSITY LIME [SS CONVERTS TO LS. SPL. TO LS @ 8849']
NPORSSED.V/V   : NEUTRON POROSITY SAND FROM DENSITY LOG [ADJ. TO RHOBED]
RHOBED  .G/C3  : DENSITY FORMATION DENSITY FROM DENSITY LOG
SPHIED  .V/V   : SONIC POROSITY [DTM=189, DTF=55.6] FROM SONIC LOG [ADJ. TO GRDED]
SPRED   .MV    : SPONTANEOUS POTENTIAL FROM RESISTIVITY LOG
SPWS    .MV    : SPONTANEOUS POTENTIAL [BASELINE 0 MV, SPRED]
SRESWS  .OHMM  : SHALLOW RESISTIVITY [LL8ED]
~Params ----------------------------------------------------
PD  .                     GL : PERMANENT DATUM
EPD .FT                 4315 : ELEVATION PERMANENT DATUM
LMF .                     KB : LOG MEASURED FROM
DAPD.FT                   17 : FEET ABOVE PERMANENT DATUM
EKB .FT                 4322 : KELLY BUSHING
EGL .FT                 4315 : GROUND LEVEL
DATE.               04/03/77 : RUN DATE
RUN .                      1 : RUN NUMBER
DD  .FT                12670 : DEPTH DRILLER
DL  .FT                12672 : DEPTH LOGGER
BLI .FT                12669 : BOTTOM LOG INTERVAL
TLI .FT                 1324 : TOP LOG INTERVAL
CBD .FT                 1327 : CASING BOTTOM DRILLER
CBL .FT                 1324 : CASING BOTTOM LOGGER
BS  .IN                 8.75 : BIT SIZE
BSD .FT                12670 : BIT SIZE AT DEPTH
DFT .               GEL CHEM : DRILLING FLUID TYPE
DFD .                      9 : DRILLING FLUID DENSITY
DFV .                    130 : DRILLING FLUID VISCOSITY
DFPH.                     10 : DRILLING FLUID PH
MSS .               FLOWLINE : MUD SAMPLE SOURCE
RMS .OHMM                3.2 : RESISTIVITY MUD SAMPLE
MST .DEGF                 56 : MUD SAMPLE TEMPERATURE
RMF .OHMM               2.94 : RESISTIVITY MUD FILTRATE SAMPLE
MFST.DEGF                 62 : MUD FILTRATE SAMPLE TEMPERATURE
RMB .OHMM               0.88 : RESISTIVITY MUD AT BHT
TCS .HRS                   4 : TIME CIRCULATED STOPPED
LUN .                   7667 : LOGGING UNIT NUMBER
LUL .                    EDM : LOGGING UNIT LOCATION
ENGI.          CAMPBELL BIGG : RECORDING ENGINEER
WITN.         SANDERS DAVIES : WITNESSED BY
CLNT.                A2DTECH : CLIENT CODE
ORIG.            2" 5" PRINT : ORIGIN OF DATA
UWI .       100101105718W500 : UNIQUE WELL ID
DICO. A2D Technologies, Inc. : DIGITIZING COMPANY
~Other -----------------------------------------------------
~ASCII -----------------------------------------------------
# ...
 3800.00000    -999.25    9.82770    9.82770  310.57610    -999.25    -999.25    -999.25    -999.25    -999.25    -999.25    3.22160   94.46460   94.46460    -999.25   98.39850   98.39850    3.22160    3.47250    3.67200    3.47250    -999.25    -999.25    -999.25    -999.25    0.27010  -26.68270   -3.82160    3.67200
 3850.00000    -999.25    9.81560    9.81560  108.10080    -999.25    -999.25    -999.25    -999.25    -999.25    -999.25    9.25070   82.30790   82.30790    -999.25   61.60770   61.60770    9.25070   10.22750   10.60750   10.22750    -999.25    -999.25    -999.25    -999.25    0.19990  -30.01860   -7.55240   10.60750
 3900.00000    -999.25    9.81660    9.81660  281.25540    -999.25    -999.25    -999.25    -999.25    -999.25    -999.25    3.55780   91.79600   91.79600    -999.25  101.94570  101.94570    3.55780    3.76530    4.75120    3.76530    -999.25    -999.25    -999.25    -999.25    0.29240  -24.64040   -2.56720    4.75120
 3950.00000   10.87190    9.98410    9.98410  125.33360    0.17610    0.17610    2.21500    -999.25    0.25980    0.28950    7.97880   83.56100   83.56100   94.18270  101.95740  101.95740    7.97880    8.45770    9.10560    8.45770    -999.25    0.28990    0.33370    2.21500    0.23330  -23.17760   -1.49940    9.10560
 4000.00000   11.13050    9.82460    9.82460  266.63050    0.14910    0.14910    1.86680    -999.25    0.45040    0.49300    3.75210   94.91770   94.91770   90.91130   86.62150   86.62150    3.75210    4.14280    3.97330    4.14280    -999.25    0.34540    0.38840    1.86680    0.28840  -23.35280   -2.06560    3.97330
 4050.00000   11.04660    9.92180    9.92180  257.22440    0.13320    0.13320    2.06120    -999.25    0.35370    0.37940    3.88790   94.01450   94.01450   88.98040   95.67410   95.67410    3.88790    4.29550    4.63070    4.29550    -999.25    0.34790    0.39100    2.06120    0.28800  -24.05210   -3.15590    4.63070
 4100.00000   11.18140   10.04940   10.04940  270.86930    0.13370    0.13370    2.09800    -999.25    0.32940    0.35790    3.69200   96.05920   96.05920   92.37570   92.08610   92.08610    3.69200    3.96860    4.30670    3.96860    -999.25    0.37560    0.41800    2.09800    0.30060  -25.35160   -4.85040    4.30670
 4150.00000   11.48900   10.01230   10.01230  158.48870    0.18040    0.18040    2.03210    -999.25    0.36880    0.39640    6.31030   84.91570   84.91570   92.15800   93.54670   93.54670    6.31030    7.04960    7.59750    7.04960    -999.25    0.25700    0.30100    2.03210    0.21310  -26.01030   -5.90210    7.59750
 4200.00000   10.41590    9.82130    9.82130  229.22080    0.18950    0.18950    2.05170    -999.25    0.36340    0.38500    4.36440   95.14930   95.14930  103.27000   93.73650   93.73650    4.36440    5.18870    4.99590    5.18870    -999.25    0.36410    0.40680    2.05170    0.26900  -24.28460   -4.44630    4.99590
 4250.00000   11.12930   10.01450   10.01450  198.66410    0.11410    0.11410    2.19420    -999.25    0.27650    0.30160    5.04680   81.69480   81.69480   79.05170   83.80630   83.80630    5.04680    6.26060   13.20490    6.26060    -999.25    0.24860    0.29250    2.19420    0.16470  -25.85110   -6.01280   13.20490
 4300.00000   10.57290    9.90760    9.90760  242.38660    0.17330    0.17330    1.95260    -999.25    0.41330    0.44290    4.12560   90.23620   90.23620   95.78600  110.25350  110.25350    4.12560    4.28920    4.59710    4.28920    -999.25    0.35090    0.39390    1.95260    0.24750  -26.89460   -7.05630    4.59710
 4350.00000   10.30720    9.79620    9.79620  167.12440    0.18100    0.18100    1.94630    -999.25    0.41800    0.44670    5.98490   91.60360   91.60360   87.04870  100.64770  100.64770    5.98490    6.39690    6.91260    6.39690    -999.25    0.34620    0.38930    1.94630    0.23060  -26.45470   -6.61640    6.91260
 4400.00000   11.09470    9.40490    9.40490  203.86200    0.15700    0.15700    1.80810    -999.25    0.46310    0.52750    4.90930   89.79760   89.79760   84.10420   83.61920   83.61920    4.90930    5.15070    4.79990    5.15070    -999.25    0.35030    0.39330    1.80810    0.21470  -24.39780   -4.55950    4.79990
 4450.00000   11.73950    9.40120    9.40120  377.14090    0.09530    0.09530    1.57220    -999.25    0.44730    0.66540    2.65170  107.08900  107.08900  103.87530  104.29500  104.29500    2.65170    2.82380    2.77510    2.82380    -999.25    0.45840    0.50010    1.57220    0.37020  -22.97860   -3.14030    2.77510
 4500.00000   10.27580    9.49720    9.49720  311.06860    0.12030    0.12030    1.95080    -999.25    0.41840    0.44390    3.21500   98.21050   98.21050   96.44570  100.62310  100.62310    3.21500    3.34120    3.40610    3.34120    -999.25    0.41270    0.45440    1.95080    0.31120  -23.55440   -3.71610    3.40610
 4550.00000   10.27860    9.88250    9.88250   82.10380    0.13440    0.13440    2.27810    -999.25    0.22490    0.25260   12.18690   79.50430   79.50430   59.31830   58.21690   58.21690   12.18690   15.07860   17.08690   15.07860    -999.25    0.22290    0.26680    2.27810    0.14990  -29.57320   -9.73490   17.08690
 4600.00000   10.07200    9.21900    9.21900  359.07000    0.17960    0.17960    1.95720    -999.25    0.40690    0.44020    2.78520  108.14980  108.14980  119.59330  123.72020  123.72020    2.78520    2.87350    2.95540    2.87350    -999.25    0.41390    0.45560    1.95720    0.37180  -24.17550   -4.33720    2.95540
 4650.00000    8.48880    8.95110    8.95110  120.49930    0.13190    0.13190    2.14800    -999.25    0.29570    0.32860    8.32380   82.15290   82.15290   70.29510   74.10230   74.10230    8.32380    9.76510    8.37990    9.76510    -999.25    0.30580    0.34940    2.14800    0.19530  -26.36260   -7.10040    8.37990
 4700.00000    8.98260    9.21350    9.21350  277.74180    0.00300    0.00300    2.06620    -999.25    0.35030    0.37650    3.60500   95.63790   95.63790   87.99990   87.44550   87.44550    3.60500    4.21140    4.48560    4.21140    -999.25    0.35590    0.39880    2.06620    0.27080  -22.83530   -4.32220    4.48560
 4750.00000    9.09760    8.91640    8.91640   54.63720    0.03210    0.03210    2.39140    -999.25    0.15760    0.18620   18.37820   78.64870   78.64870   57.73170   61.70090   61.70090   18.37820   22.30440   20.65320   22.30440    -999.25    0.25250    0.29650    2.39140    0.16980  -37.31520  -19.54370   20.65320
 4800.00000    9.75890    9.67700    9.67700   76.27210    0.02110    0.02110    2.33690    -999.25    0.18530    0.21820   13.11460   82.22730   82.22730   56.83940   54.03060   54.03060   13.11460   14.52260   13.67320   14.52260    -999.25    0.28210    0.32590    2.33690    0.18610  -34.26860  -17.23860   13.67320
 4850.00000   10.03230    9.59550    9.59550   49.89660    0.00440    0.00440    2.44110    -999.25    0.13800    0.15720   20.04190   71.48350   71.48350   43.99370   45.15890   45.15890   20.04190   23.01310   23.45080   23.01310    -999.25    0.16480    0.20830    2.44110    0.15910  -28.21620  -11.93530   23.45080
 4900.00000   11.25530   10.44750   10.44750  169.26340    0.02400    0.02400    2.25560    -999.25    0.24550    0.26570    5.93230   90.09870   90.09870   82.86200   80.83280   80.83280    5.93230    7.09990    6.54760    7.09990    -999.25    0.32210    0.36550    2.25560    0.27270  -21.51610   -5.98050    6.54760
 4950.00000   11.53220    9.62930    9.62930  217.61990    0.10240    0.10240    2.15350    -999.25    0.28290    0.32540    4.59520   90.58600   90.58600   74.44220   84.05970   84.05970    4.59520    5.27190    4.97850    5.27190    -999.25    0.37490    0.41740    2.15350    0.27110  -19.72410   -4.93760    4.97850
 5000.00000   10.23390    9.98720    9.98720   73.03950    0.09040    0.09040    2.39760    -999.25    0.15430    0.18280   13.70590   79.31740   79.31740   54.75160   55.65190   55.65190   13.70590   16.55870   15.97750   16.55870    -999.25    0.22680    0.27070    2.39760    0.17590  -23.57200   -8.15640   15.97750
