~Version ---------------------------------------------------
VERS.      2.0 : CWLS log ASCII Standard -VERSION 2.0
WRAP.       NO : One line per depth step
CREA. 08/02/17 : LAS Creation Date
~Well ------------------------------------------------------
STRT.FT                        650.0 : START DEPTH
STOP.FT                      10150.0 : STOP DEPTH
STEP.FT                     50.00000 : STEP LENGTH
NULL.                        -999.25 : NULL VALUE
COMP.     THE CALIFORNIA STANDARD CO : COMPANY
WELL. CALSTAN B A IOSEGUN 7-33-63-19 : WELL
FLD .                         KAYBOB : FIELD
LOC .                                : LOCATION
CTRY.                         CANADA : COUNTRY
SRVC.         Schlumberger of Canada : SERVICE COMPANY
DATE.                    08-Oct-1957 : LOGDATE
PROV.                        Alberta : PROVINCE
UWI .               100073306319W500 : UNIQUE WELL ID
SLAT.WGS84                  54.49249 : SURFACE LATITUDE
SLON.WGS84                 -116.8075 : SURFACE LONGITUDE
~Curve Information -----------------------------------------
DEPT  .FT    : Depth Curve
CALWS .IN    : CALIPER [MCALED]
CILDED.MMHO  : CONDUCTIVITY FROM RESISTIVITY LOG
CONDWS.MMHO  : CONDUCTIVITY [1000/DRESWS]
DRESWS.OHMM  : DEEP RESISTIVITY [ILDED] IF ILDED<1;1000/CILDED; ELSE ILDED
GRNED .CU    : GAMMA RAY FROM NEUTRON LOG [ADJ TO ILDED]
GRWS  .CU    : GAMMA RAY [GRNED, CASED HOLE DATA]
ILDED .OHMM  : INDUCTION LOG DEEP RESISTIVITY
LATED .OHMM  : 18 FOOT 8 INCH LATERAL RESISTIVITY FROM IEL
LNED  .OHMM  : 64 INCH LONG NORMAL RESISTIVITY FROM IEL
MCALED.IN    : CALIPER MICROLOG
MLLED .OHMM  : MICROLATEROLOG RESISTIVITY [ADJ TO ILDED]
NEUTED.CU    : NEUTRON FROM NEUTRON LOG [ADJ TO ILDED]
NEUTWS.CU    : NEUTRON [NEUTED]
SNED  .OHMM  : 16 INCH SHORT NORMAL RESISTIVITY FROM IEL
SPRED .MV    : SPONTANEOUS POTENTIAL FROM RESISTIVITY LOG
SPWS  .MV    : SPONTANEOUS POTENTIAL [BASELINE 0 MV] [SPRED]
SRESWS.OHMM  : SHALLOW RESISTIVITY [SNED]
~Params ----------------------------------------------------
LMF .                     KB : LOG MEASURED FROM
DMF .                     KB : DRILLING MEASURED FROM
EKB .FT                 2601 : KELLY BUSHING
EGL .FT                 2588 : GROUND LEVEL
DATE.               10/08/57 : RUN DATE
RUN .                      1 : RUN NUMBER
DD  .FT                10194 : DEPTH DRILLER
DL  .FT                10189 : DEPTH LOGGER
BLI .FT                10188 : BOTTOM LOG INTERVAL
TLI .FT                  825 : TOP LOG INTERVAL
CBD .FT                  825 : CASING BOTTOM DRILLER
CBL .FT                  825 : CASING BOTTOM LOGGER
BS  .IN                    9 : BIT SIZE
BSD .FT                10194 : BIT SIZE AT DEPTH
DFT .                    GEL : DRILLING FLUID TYPE
DFD .                   10.6 : DRILLING FLUID DENSITY
DFV .                    177 : DRILLING FLUID VISCOSITY
DFPH.                    9.5 : DRILLING FLUID PH
DFL .                    5.4 : DRILLING FLUID LOSS
RMS .OHMM                8.0 : RESISTIVITY MUD SAMPLE
RMF .OHMM                1.6 : RESISTIVITY MUD FILTRATE SAMPLE
MFST.DEGF                 62 : MUD FILTRATE SAMPLE TEMPERATURE
RMC .OHMM                2.1 : RESISTIVITY MUD CAKE
MCST.DEGF                 62 : MUD CAKE SAMPLE TEMPERATURE
RMB .OHMM                1.0 : RESISTIVITY MUD AT BHT
TCS .HRS                   2 : TIME CIRCULATED STOPPED
LUN .                   1534 : LOGGING UNIT NUMBER
LUL .                     VV : LOGGING UNIT LOCATION
ENGI.               THOMPSON : RECORDING ENGINEER
WITN.                JOHNSON : WITNESSED BY
CLNT.                A2DTECH : CLIENT CODE
ORIG.            2" 5" PRINT : ORIGIN OF DATA
UWI .       100073306319W500 : UNIQUE WELL ID
DICO. A2D Technologies, Inc. : DIGITIZING COMPANY
~Other -----------------------------------------------------
~ASCII -----------------------------------------------------
# ...
 2700.00000   13.05800  262.88520  283.88120    3.52260   21.51660   21.51660    3.52260    5.17530    6.45250   13.05800    2.05420  927.45320  927.45320    4.67500 -133.69050   -4.51990    4.67500
 2750.00000    9.94600   70.71680   70.58530   14.29460   16.43730   16.43730   14.29460   25.88980   18.98340    9.94600   13.65380 1206.89920 1206.89920   15.51110 -152.05780  -22.74460   15.51110
 2800.00000    -999.25  110.52130  108.72520    9.19750   20.97220   20.97220    9.19750   10.03200   10.46900    -999.25    8.76120  983.03190  983.03190    9.15520 -134.58630   -5.13050    9.15520
 2850.00000    -999.25  301.88020  338.17330    2.95710   21.25860   21.25860    2.95710    6.41160    5.80670    -999.25    -999.25  847.68630  847.68630    4.32280 -132.27500   -2.67520    4.32280
 2900.00000    -999.25  235.91550  259.59530    3.85230   21.09990   21.09990    3.85230    6.14630    6.32900    -999.25    -999.25  845.78500  845.78500    4.93660 -132.62990   -2.88680    4.93660
 2950.00000    -999.25  189.10050  201.83670    4.95450   21.87410   21.87410    4.95450    7.33810    7.56030    -999.25    -999.25  917.55580  917.55580    6.37160 -133.86320   -4.08550    6.37160
 3000.00000    -999.25  162.04390  168.42220    5.93750   26.11780   26.11780    5.93750    9.90670    9.75580    -999.25    -999.25  909.72120  909.72120    7.21080 -137.07250   -7.26570    7.21080
 3050.00000    -999.25  163.72790  173.68950    5.75740   26.96950   26.96950    5.75740    9.87430    8.97900    -999.25    -999.25  901.22810  901.22810    7.11570 -137.96290   -8.12700    7.11570
 3100.00000    -999.25  180.21590  198.64240    5.03420   32.54890   32.54890    5.03420    8.64530    8.76260    -999.25    -999.25  876.72890  876.72890    7.11970 -136.74190   -6.87670    7.11970
 3150.00000    -999.25  121.17180  119.39450    8.37780   29.76870   29.76870    8.37780    9.60190   15.08520    -999.25    -999.25  931.42470  931.42470   11.23180 -138.33540   -8.44080   11.23180
 3200.00000    -999.25  143.32080  147.49920    6.77970   31.10370   31.10370    6.77970   14.22210   11.05310    -999.25    -999.25  928.18330  928.18330    8.35110 -136.88430   -6.96040    8.35110
 3250.00000    -999.25  130.04460  133.75960    7.47610   29.44260   29.44260    7.47610   11.18300   11.06960    -999.25    -999.25  896.53180  896.53180    8.57770 -138.57500   -8.62200    8.57770
 3300.00000    -999.25  182.72820  196.85040    5.08000   31.44430   31.44430    5.08000    9.04590    7.96930    -999.25    -999.25  949.48290  949.48290    6.50990 -139.83460   -9.85250    6.50990
 3350.00000    -999.25  145.74730  152.14530    6.57270   30.47610   30.47610    6.57270    8.69280    9.88870    -999.25    -999.25  927.99350  927.99350    7.93040 -139.96260   -9.95110    7.93040
 3400.00000    -999.25   78.86070   77.31450   12.93720   21.95570   21.95570   12.93720   13.02680   14.71780    -999.25    -999.25 1317.43770 1317.43770   13.85860 -145.41840  -15.37760   13.85860
 3450.00000    -999.25  156.83450  162.38510    6.15820   31.88650   31.88650    6.15820    9.26230    8.90490    -999.25    -999.25  949.70500  949.70500    8.05260 -140.10820  -10.03800    8.05260
 3500.00000   11.62390  166.60420  173.41700    5.76660   34.10870   34.10870    5.76660    9.19050    8.44450   11.62390    -999.25  989.89000  989.89000    7.64180 -140.57930  -10.48000    7.64180
 3550.00000   12.01070  176.48890  189.31150    5.28230   36.32250   36.32250    5.28230    9.37640    7.88610   12.01070    -999.25  939.33260  939.33260    6.68930 -141.03680  -10.90850    6.68930
 3600.00000   11.93150  130.90330  129.42380    7.72660   30.15130   30.15130    7.72660   10.00600   10.72240   11.93150    -999.25  979.42300  979.42300    8.65000 -140.93500  -10.77730    8.65000
 3650.00000   12.37390  178.10000  184.78190    5.41190   33.33000   33.33000    5.41190    9.65210    8.22650   12.37390    3.49240  867.05300  867.05300    7.01630 -140.11340   -9.92640    7.01630
 3700.00000   12.74870  123.00610  120.50230    8.29860   29.43910   29.43910    8.29860   11.25860   12.01920   12.74870    2.90970  916.02750  916.02750    9.24070 -140.67270  -10.45630    9.24070
 3750.00000   14.08920  131.30090  129.73120    7.70880   31.28690   31.28690    7.70880   10.82350   10.99210   14.08920    5.71320  945.76220  945.76220    8.70500 -140.31070  -10.06520    8.70500
 3800.00000   14.73600  159.02210  159.45150    6.27150   32.33650   32.33650    6.27150   10.01270    9.96740   14.73600    8.06290  963.05220  963.05220    7.58060 -139.68140   -9.40680    7.58060
 3850.00000    -999.25  123.70250  124.31300    8.04430   28.27480   28.27480    8.04430   10.37570   10.35770    -999.25    -999.25 1073.31690 1073.31690    8.90150 -139.34840   -9.04440    8.90150
 3900.00000    -999.25  167.29750  174.25940    5.73870   34.07160   34.07160    5.73870    8.72750    8.61730    -999.25    -999.25  985.25340  985.25340    7.01820 -138.92070   -8.58750    7.01820
 3950.00000    -999.25  160.44990  169.12170    5.91290   32.91530   32.91530    5.91290    8.99370    9.63170    -999.25    -999.25  981.40090  981.40090    7.83860 -137.69780   -7.33520    7.83860
 4000.00000    -999.25  139.01170  141.06390    7.08900   34.86240   34.86240    7.08900    8.48630   11.05500    -999.25    -999.25 1026.58470 1026.58470    8.84580 -136.51770   -6.12600    8.84580
 4050.00000    -999.25  139.07730  140.41390    7.12180   31.43210   31.43210    7.12180   10.42080   11.17110    -999.25    -999.25  941.92360  941.92360    9.31580 -135.94180   -5.52100    9.31580
 4100.00000    -999.25  126.31810  126.10620    7.93000   35.07410   35.07410    7.93000    9.84440   12.40950    -999.25    -999.25  915.93680  915.93680   10.28590 -134.11160   -3.66140   10.28590
 4150.00000    -999.25  141.10240  143.99880    6.94470   32.78920   32.78920    6.94470    9.55840   11.86620    -999.25    -999.25  913.98660  913.98660    9.77590 -135.23880   -4.75940    9.77590
 4200.00000    -999.25   71.94910   74.72280   13.38280   40.44470   40.44470   13.38280   19.61270   16.20600    -999.25    -999.25 1084.68410 1084.68410   21.43600 -132.65450   -2.16850   21.43600
 4250.00000    -999.25  156.45250  161.95520    6.17460   34.78320   34.78320    6.17460    9.24860    9.80940    -999.25    -999.25  901.03200  901.03200    8.64670 -134.67140   -4.18540    8.64670
 4300.00000    -999.25  164.32120  165.99710    6.02420   30.02980   30.02980    6.02420   10.90340    7.98510    -999.25    -999.25  990.42030  990.42030    6.82550 -135.72080   -5.23480    6.82550
 4350.00000    -999.25  182.54110  192.49470    5.19500   29.30090   29.30090    5.19500    8.35730    7.08790    -999.25    -999.25  899.09190  899.09190    6.48750 -135.31570   -4.82970    6.48750
 4400.00000    -999.25  157.61680  160.24780    6.24210   27.44020   27.44020    6.24210    7.61770    8.16860    -999.25    -999.25  989.63610  989.63610    7.44510 -134.77540   -4.28930    7.44510
 4450.00000    -999.25  179.44580  186.42460    5.36410   32.33830   32.33830    5.36410    7.89370    7.07950    -999.25    -999.25  973.77170  973.77170    6.65440 -133.49460   -3.00860    6.65440
 4500.00000    -999.25  128.96910  130.10590    7.68640   30.37600   30.37600    7.68640    7.04850   10.27360    -999.25    -999.25 1022.19210 1022.19210    9.50280 -135.16800   -4.68200    9.50280
 4550.00000    -999.25  189.88350  204.61610    4.88720   31.63570   31.63570    4.88720    7.41500    7.16730    -999.25    -999.25  995.96770  995.96770    6.76570 -133.56260   -3.07660    6.76570
 4600.00000    -999.25  199.57960  213.12450    4.69220   30.17150   30.17150    4.69220    5.36560    6.00300    -999.25    -999.25 1049.69290 1049.69290    6.41010 -133.53460   -3.04860    6.41010
 4650.00000    -999.25  200.61510  213.07230    4.69320   29.96860   29.96860    4.69320    6.50740    6.78140    -999.25    -999.25  988.98010  988.98010    6.49200 -133.55200   -3.06600    6.49200
 4700.00000    -999.25  287.67410  306.58860    3.26170   34.85680   34.85680    3.26170    5.01810    4.43860    -999.25    -999.25  929.64880  929.64880    4.67460 -132.24690   -1.76090    4.67460
