~Version ---------------------------------------------------
VERS. 2.0 : CWLS log ASCII Standard -VERSION 2.0
WRAP.  NO : ONE LINE PER DEPTH STEP
~Well ------------------------------------------------------
STRT.F                       550.0 : START DEPTH
STOP.F                     12450.0 : STOP DEPTH
STEP.F                    50.00000 : STEP LENGTH
NULL.                      -999.25 : NULL VALUE
COMP.       CALIFORNIA STANDARD CO : COMPANY
WELL. STANDARD CYNTHIA 16-21-49-13 : WELL
FLD .                           WC : FIELD
LOC .                              : LOCATION
CTRY.                       CANADA : COUNTRY
SRVC.                 Schlumberger : SERVICE COMPANY
DATE.                  28-Dec-1957 : LOGDATE
PROV.                      Alberta : PROVINCE
UWI .             100162104913W500 : UNIQUE WELL ID
SLAT.WGS84                53.24881 : SURFACE LATITUDE
SLON.WGS84               -115.8321 : SURFACE LONGITUDE
~Curve Information -----------------------------------------
DEPT.F                   : 
MCAL.IN     15 280 01 00 : MLT (MICROLOG) CALIPER
GRN .MG/TON 35 310 00 00 : GAMMA RAY FROM GRN LOG
NEUT.CPS    35 330 30 00 : NEUTRON
CALM.IN     20 280 01 00 : CALIPER FROM MICROLATEROLOG
TENM.LB     20 635 00 00 : TENSION FROM MICROLOG/MICROLOG FOCUSED
MLL .OHMM   20 270 04 00 : MICRO FOCUSED LATEROLOG RESISTIVITY
ILD .OHMM   06 120 46 00 : INDUCTION DEEP RESISTIVITY
SPR1.MV                  : SPONTANEOUS POTENTIAL
CILD.MMHO   06 110 46 00 : INDUCTION DEEP CONDUCTIVITY
SPR2.MV                  : SPONTANEOUS POTENTIAL
LL7 .OHMM   01 220 07 00 : LATEROLOG 7
SPR .MV     01 010 01 00 : SPONTANEOUS POTENTIAL FROM RESISTIVITY LOG
SN  .OHMM   01 040 16 00 : SHORT NORMAL RESISTIVITY
LN  .OHMM   01 060 64 00 : LONG NORMAL RESISTIVITY
LT18.OHMM   01 070 18 00 : LATERAL 18'
~Params ----------------------------------------------------
PD  .                        : PERMANENT DATUM
EPD .FT                    0 : ELEVATION PERMANENT DATUM
LMF .                     KB : LOG MEASURED FROM
DAPD.FT                    0 : FEET ABOVE PERMANENT DATUM
DMF .                     KB : DRILLING MEASURED FROM
EKB .FT                 3297 : KELLY BUSHING
EDF .FT                    0 : DRILLING FLOOR
EGL .FT                    0 : GROUND LEVEL
DATE.               12/28/57 : RUN DATE
RUN .                      4 : RUN NUMBER
DD  .FT                12492 : DEPTH DRILLER
DL  .FT                12492 : DEPTH LOGGER
BLI .FT                12491 : BOTTOM LOG INTERVAL
TLI .FT                 8904 : TOP LOG INTERVAL
CS  .IN                    0 : CASING SIZE
CBD .FT                  616 : CASING BOTTOM DRILLER
CBL .FT                  616 : CASING BOTTOM LOGGER
BS  .IN                    9 : BIT SIZE
BSD .FT                12492 : BIT SIZE AT DEPTH
DFT .               OIL EMUL : DRILLING FLUID TYPE
DFD .                   10.7 : DRILLING FLUID DENSITY
DFV .                    140 : DRILLING FLUID VISCOSITY
DFPH.                     13 : DRILLING FLUID PH
DFL .                    3.6 : DRILLING FLUID LOSS
MSS .                        : MUD SAMPLE SOURCE
RMS .OHMM                1.1 : RESISTIVITY MUD SAMPLE
MST .DEGF                 50 : MUD SAMPLE TEMPERATURE
RMF .OHMM                  0 : RESISTIVITY MUD FILTRATE SAMPLE
MFST.DEGF                  0 : MUD FILTRATE SAMPLE TEMPERATURE
RMC .OHMM                  0 : RESISTIVITY MUD CAKE
MCST.DEGF                  0 : MUD CAKE SAMPLE TEMPERATURE
MFSS.                        : MUD FILTRATE SAMPLE SOURCE
MCSS.                        : MUD CAKE SAMPLE SOURCE
RMB .OHMM               0.28 : RESISTIVITY MUD AT BHT
TCS .HRS                   3 : TIME CIRCULATED STOPPED
TLAB.HRS                   0 : TIME LOGGER AT BOTTOM
LUN .                   1749 : LOGGING UNIT NUMBER
LUL .                     DV : LOGGING UNIT LOCATION
ENGI.                  GOETZ : RECORDING ENGINEER
WITN.             CHARLESTON : WITNESSED BY
CLNT.                A2DTECH : CLIENT CODE
ORIG.            2" 5" PRINT : ORIGIN OF DATA
UWI .       100162104913W500 : UNIQUE WELL ID
DICO. A2D Technologies, Inc. : DIGITIZING COMPANY
OS  .                        : OTHER SERVICES
PWI .                        : PRIMARY WELL IDENTIFIER
R1  .                        : REMARKS 1
R2  .                        : REMARKS 2
LSRV.                        : LOG MNEMONIC
~Other -----------------------------------------------------
~ASCII -----------------------------------------------------
# ...
 7450.00000   14.70780    5.93970  188.38670   10.16540 1026.81910    1.96590    3.01250    -999.25  314.41630    -999.25    -999.25  -63.22880    3.80030    4.19240    4.02930
 7500.00000   14.77530    5.23780  179.77890    9.87220 1002.97960    1.55170    4.98330    -999.25  210.41800    -999.25    -999.25  -62.92850    6.45430    7.44900    6.21980
 7550.00000    9.66620    5.81820  245.61110    8.40460 1033.67850    8.52080   15.94660    -999.25  100.76210    -999.25    -999.25  -63.72510   18.53110   16.10680   19.89520
 7600.00000   14.83580    6.59870  181.51460    9.80940 1016.64900    1.34350    1.95640    -999.25  475.20540    -999.25    -999.25  -61.08530    3.48320    3.16280    3.22480
 7650.00000    9.49140    4.01520  265.69790    7.97590 1062.43480   26.66880   19.23300    -999.25   92.68830    -999.25    -999.25  -96.46950   26.36190   26.09600   17.65550
 7700.00000   13.73560    5.95870  187.46830    9.42740 1050.43520    3.11280   12.55310    -999.25  114.64210    -999.25    -999.25  -59.98520   35.14470   49.49450   25.13760
 7750.00000   12.38410    5.29640  215.23460    8.60340 1006.12740    5.51770    9.74430    -999.25  136.53390    -999.25    -999.25  -60.99930   12.97830   16.96410   20.74800
 7800.00000   12.73680    6.48360  194.38050    9.25410  995.76570    1.83710    9.82210    -999.25  135.37250    -999.25    -999.25  -61.58240   14.64700   17.37710   10.81610
 7850.00000   12.95390    3.43870  178.70950    9.29090 1051.91200   37.00080   42.75920    -999.25   60.86970    -999.25    -999.25  -59.96480   47.55130   43.91650   92.25710
 7900.00000   13.57320    2.50810  179.10840    9.26440 1046.52970    9.41650   77.67410    -999.25   52.52890    -999.25    -999.25  -59.34070   50.03470   57.59330   54.71400
 7950.00000   10.39120    4.91890  209.71830    8.49170 1033.05410    7.29890   11.04250    -999.25  130.96510    -999.25    -999.25  -58.74540   16.84590   22.79210   73.25710
 8000.00000    9.78860    4.91510  240.16220    8.35000 1064.42460   18.24890   16.21660    -999.25  100.92470    -999.25    -999.25  -56.86680   18.91010   21.53260   24.10960
 8050.00000    9.65390    4.49800  237.92980    8.05650 1079.64700  106.78930   19.18850    -999.25   92.36900    -999.25    -999.25  -66.77270   20.23910   19.89920   17.15180
 8100.00000    9.52030    4.47320  229.92240    8.36660 1001.93600   27.13000   22.53660    -999.25   83.06250    -999.25    -999.25  -63.88250   24.81390   25.18210   27.65650
 8150.00000   13.13590    6.00950  188.18010    9.50900 1060.74160    1.89670    6.35220    -999.25  173.60780    -999.25    -999.25  -58.62270    9.52120   16.46730   45.92100
 8200.00000   14.56290    5.40060  204.66790    9.18350 1084.32540    5.92540   32.53550    -999.25   67.73020    -999.25    -999.25  -51.22110   44.66720   74.94600   49.68860
 8250.00000   11.83010    3.28290  257.86400    8.89650 1007.63800   17.67340   68.93460    -999.25   55.41850    -999.25    -999.25  -70.88590   50.03960   93.06530   75.71040
 8300.00000    9.90610    4.80250  240.89830    8.39440 1125.32410   47.73490   89.51100    -999.25   51.46510    -999.25    -999.25  -57.10290   81.65440  149.55970  204.77130
 8350.00000   10.19350    5.95100  240.95490    8.33400 1063.70610   25.76050   57.00450    -999.25   57.62980    -999.25    -999.25  -53.68540   57.90440   84.66360  119.68540
 8400.00000   11.27280    6.71820  205.23640    8.64880 1034.73220    4.59180   15.77200    -999.25  102.96840    -999.25    -999.25  -51.98670   19.38700   15.45410    8.97670
 8450.00000    9.61160    3.25340  308.93260    8.37440  999.10630   16.96110  106.90200    -999.25   49.84050    -999.25    -999.25  -78.05300   95.00320  228.55490  281.37340
 8500.00000   10.91040    7.15680  195.39880    8.79770 1004.24380    5.32480   10.71810    -999.25  131.56160    -999.25    -999.25  -47.03980   16.83760   17.78240   40.59240
 8550.00000    9.04600    3.44920  337.71770    7.85670 1743.66210  285.57310  139.96600    -999.25   47.12920    -999.25    -999.25  -91.80640  171.05930  366.41950   47.89300
 8600.00000    8.54860    1.84880  299.23800    7.67650 1102.88500   42.50630  200.06990    -999.25   41.05860    -999.25    -999.25 -131.81890  209.10530   61.30690  612.84140
 8650.00000    8.98300    2.18380  317.28570    7.78570 2838.15280  383.07460  191.36750    -999.25   38.72850    -999.25    -999.25  -98.38240  309.07980  194.16480 4355.98290
 8700.00000    8.97160    1.81120  257.51450    -999.25 1088.74770    -999.25    -999.25    -999.25    -999.25  -59.84680  109.03610  -65.85010   59.21650    9.86200  234.46540
 8750.00000    8.34050    7.60620  332.97840    -999.25    -999.25    -999.25    -999.25    -999.25    -999.25  -60.97000  322.65740  -32.56040  145.17400  317.07200  286.99570
 8800.00000   11.65120    2.72320  405.16740    -999.25    -999.25    -999.25    -999.25    -999.25    -999.25  -80.28980  566.44320  -60.61970  172.58210  429.53690  619.20260
 8850.00000   10.22790    2.43200  438.85120    -999.25    -999.25    -999.25    -999.25    -999.25    -999.25 -113.26220  476.33360 -123.66700  181.87300    -999.25  754.10000
 8900.00000   10.58220    5.45320  305.12780    -999.25    -999.25    -999.25    -999.25    -999.25    -999.25  -74.12120   20.88280 -106.52550   19.36160   29.01670   26.03440
 8950.00000    9.94090    6.63800  278.75500    -999.25    -999.25    -999.25    -999.25    -999.25    -999.25  -63.44220    8.30670  -60.54860    9.52440   16.35330   25.25520
 9000.00000    9.75510    4.76220  320.06200    -999.25    -999.25    -999.25    -999.25    -999.25    -999.25  -85.57610   14.65470  -84.50440   13.28060   19.63670   21.04830
 9050.00000    9.27820    3.98300  379.47270    -999.25    -999.25    -999.25    -999.25    -999.25    -999.25  -49.36120   81.55060  -50.57190   43.45480  135.51980  202.78930
 9100.00000    8.99800    3.31100  391.31580    -999.25    -999.25    -999.25    -999.25    -999.25    -999.25  -58.97980   52.86930  -60.32130   45.40160  144.48160  284.92280
 9150.00000    8.98160    3.31720  371.97710    -999.25    -999.25    -999.25    -999.25    -999.25    -999.25  -43.24190   93.17800  -44.38960   42.66470  115.20750  152.26120
 9200.00000    9.09820    3.43110  365.45780    -999.25    -999.25    -999.25    -999.25    -999.25    -999.25  -44.14600   72.64250  -45.78180   38.53310  114.95290  254.77710
 9250.00000    9.11730    3.75920  365.75840    -999.25    -999.25    -999.25    -999.25    -999.25    -999.25  -40.89300  183.63090  -41.67260   52.19420  197.66770  453.67070
 9300.00000    9.05340    4.44120  343.43560    -999.25    -999.25    -999.25    -999.25    -999.25    -999.25  -31.72880  137.68130  -33.46990   46.04060  148.09990  352.39500
 9350.00000    9.24980    5.01100  360.94760    -999.25    -999.25    -999.25    -999.25    -999.25    -999.25  -25.22420  314.55620  -26.94350   51.18180  210.05110  505.60560
 9400.00000    9.72310   24.04040  293.72400    -999.25    -999.25    -999.25    -999.25    -999.25    -999.25  -32.20340   42.99310  -33.85960   40.16400  104.64480   91.63460
 9450.00000   14.75380    3.48810  383.15980    -999.25    -999.25    -999.25    -999.25    -999.25    -999.25  -61.76440 5668.46830  -62.39000   49.53780  565.82240  597.61940
 9500.00000   12.76820    2.74780  390.12530    -999.25    -999.25    -999.25    -999.25    -999.25    -999.25  -83.61320  663.42540  -82.89330   47.55210  459.77210  481.92780
 9550.00000   10.19370    2.51740  423.84160    -999.25    -999.25    -999.25    -999.25    -999.25    -999.25  -97.74810  208.64640  -99.34100   32.07410  139.07490  503.14410
 9600.00000    8.68740    1.69230  369.84610    -999.25    -999.25    -999.25    -999.25    -999.25    -999.25 -120.91640  116.24870 -120.97620   39.26670  108.79660  213.17870
 9650.00000    9.52330    2.14850  444.47380    -999.25    -999.25    -999.25    -999.25    -999.25    -999.25 -120.24770  192.41040 -119.32720   41.81400  193.82040  787.58300
 9700.00000   10.33750    1.83920  395.18300    -999.25    -999.25    -999.25    -999.25    -999.25    -999.25 -126.13100  601.48070 -127.40110   52.06540  204.14970  155.29060
