~Version ---------------------------------------------------
VERS.      2.0 : CWLS log ASCII Standard -VERSION 2.0
WRAP.       NO : One line per depth step
CREA. 08/31/17 : LAS Creation Date
~Well ------------------------------------------------------
STRT.FT                        1200.0 : START DEPTH
STOP.FT                       12200.0 : STOP DEPTH
STEP.FT                      50.00000 : STEP LENGTH
NULL.                         -999.25 : NULL VALUE
COMP.                SULPETRO LIMITED : COMPANY
WELL. CAN DELHI ET AL WOLF 6-10-52-16 : WELL
FLD .                                 : FIELD
LOC .                                 : LOCATION
CTRY.                          CANADA : COUNTRY
SRVC.                    Schlumberger : SERVICE COMPANY
DATE.                     19-Apr-1969 : LOGDATE
PROV.                         Alberta : PROVINCE
UWI .                100061005216W500 : UNIQUE WELL ID
SLAT.WGS84              53.4730048794 : SURFACE LATITUDE
SLON.WGS84            -116.2792429971 : SURFACE LONGITUDE
~Curve Information -----------------------------------------
DEPT  .FT    : Depth Curve
CALSED.IN    : CALIPER FROM SLC-GR LOG
CALWS .IN    : CALIPER [CALSED]
CONDWS.MMHO  : CONDUCTIVITY [1000/DRESWS]
DRESWS.OHMM  : DEEP RESISTIVITY [ILDED]
DTED  .US/F  : DELTA-T (INTERVAL TRANSIT TIME) FROM SLC-GR LOG
DTWS  .US/F  : COMPRESSIONAL  SONIC [DTED]
GRSED .GAPI  : GAMMA RAY FROM SLC-GR LOG
GRWS  .GAPI  : GAMMA RAY [GRSED]
ILDED .OHMM  : DEEP INDUCTION RESISTIVITY FROM DIL LOG
ILMED .OHMM  : MEDIUM INDUCTION RESISTIVITY FROM DIL LOG
LL8ED .OHMM  : LATEROLOG 8 FROM DIL LOG
MRESWS.OHMM  : MEDIUM RESISTIVITY [ILMED]
SPRED .MV    : SPONTANEOUS POTENTIAL FROM DIL LOG
SPWS  .MV    : SPONTANEOUS POTENTIAL [BASELINE 0 MV, SPRED]
SRESWS.OHMM  : SHALLOW RESISTIVITY [LL8ED]
~Params ----------------------------------------------------
PD  .                     GL : PERMANENT DATUM
EPD .FT                 3113 : ELEVATION PERMANENT DATUM
LMF .                     KB : LOG MEASURED FROM
DAPD.FT                   14 : FEET ABOVE PERMANENT DATUM
EKB .FT                 3127 : KELLY BUSHING
EGL .FT                 3113 : GROUND LEVEL
DATE.               04/19/69 : RUN DATE
RUN .                      1 : RUN NUMBER
DD  .FT                12226 : DEPTH DRILLER
DL  .FT                12210 : DEPTH LOGGER
BLI .FT                12206 : BOTTOM LOG INTERVAL
TLI .FT                 1240 : TOP LOG INTERVAL
CBD .FT                 1240 : CASING BOTTOM DRILLER
CBL .FT                 1240 : CASING BOTTOM LOGGER
BS  .IN                 8.75 : BIT SIZE
BSD .FT                12226 : BIT SIZE AT DEPTH
DFT .                    GEL : DRILLING FLUID TYPE
DFD .                    9.3 : DRILLING FLUID DENSITY
DFV .                    118 : DRILLING FLUID VISCOSITY
DFPH.                     11 : DRILLING FLUID PH
DFL .                    6.2 : DRILLING FLUID LOSS
MSS .    CIRCULATED FLOWLINE : MUD SAMPLE SOURCE
RMS .OHMM               1.35 : RESISTIVITY MUD SAMPLE
MST .DEGF                 59 : MUD SAMPLE TEMPERATURE
RMF .OHMM               0.95 : RESISTIVITY MUD FILTRATE SAMPLE
MFST.DEGF                 61 : MUD FILTRATE SAMPLE TEMPERATURE
RMC .OHMM               1.16 : RESISTIVITY MUD CAKE
MCST.DEGF                 61 : MUD CAKE SAMPLE TEMPERATURE
TCS .HRS                 330 : TIME CIRCULATED STOPPED
LUN .                   7501 : LOGGING UNIT NUMBER
LUL .                    EDM : LOGGING UNIT LOCATION
ENGI.               CHADDOCK : RECORDING ENGINEER
WITN.                   HALL : WITNESSED BY
CLNT.                A2DTECH : CLIENT CODE
ORIG.            2" 5" PRINT : ORIGIN OF DATA
UWI .       100061005216W500 : UNIQUE WELL ID
DICO. A2D Technologies, Inc. : DIGITIZING COMPANY
~Other -----------------------------------------------------
~ASCII -----------------------------------------------------
 1200.00000    -999.25    -999.25    -999.25    -999.25    -999.25    -999.25   42.63720   42.63720    -999.25    -999.25    -999.25    -999.25    -999.25    -999.25    -999.25
 1250.00000   12.05660   12.05660  125.46580    7.97030   94.22430   94.22430   71.73850   71.73850    7.97030    9.26710    7.43250    9.26710  -99.25260   -3.09270    7.43250
 1300.00000   12.87110   12.87110   48.07970   20.80320   78.45880   78.45880   57.78170   57.78170   20.80320   20.33400   17.66670   20.33400 -120.99920  -13.67490   17.66670
 1350.00000   10.10700   10.10700  137.31170    7.28270  123.50460  123.50460   99.65030   99.65030    7.28270    8.04540    9.13290    8.04540 -118.12820   -2.51720    9.13290
 1400.00000   11.98280   11.98280   86.13940   11.61170   93.65300   93.65300   56.84310   56.84310   11.61170   10.93830   10.39430   10.93830 -115.70870   -5.45480   10.39430
 1450.00000   11.49690   11.49690  110.00370    9.09060   94.99530   94.99530   80.77710   80.77710    9.09060    9.79510   12.79410    9.79510 -112.23290   -6.35830   12.79410
 1500.00000   11.74630   11.74630  173.67440    5.75790  130.28720  130.28720   50.87080   50.87080    5.75790    4.94820   11.37970    4.94820 -106.34350   -4.16880   11.37970
 1550.00000   11.56000   11.56000   85.59210   11.68690   86.46250   86.46250   80.65050   80.65050   11.68690   11.08580    9.51170   11.08580 -115.15920  -11.83960    9.51170
 1600.00000   12.56500   12.56500   76.38080   13.09230   91.03420   91.03420   56.50480   56.50480   13.09230   13.81660   12.02580   13.81660 -117.24920  -12.77710   12.02580
 1650.00000   10.99490   10.99490  101.27690    9.98010   99.07010   99.07010   69.63540   69.63540    9.98010    7.62440   10.97100    7.62440 -109.00500   -3.38790   10.97100
 1700.00000   10.67950   10.67950  103.76130    9.63750   85.68190   85.68190   85.30780   85.30780    9.63750   10.10320   10.16420   10.10320 -110.29450   -4.73550   10.16420
 1750.00000   11.27630   11.27630   78.01650   12.81780   78.78460   78.78460   51.41770   51.41770   12.81780   17.58610   27.10550   17.58610 -109.93780   -4.52060   27.10550
 1800.00000   11.22900   11.22900  101.73340    9.83610   84.29340   84.29340   68.13490   68.13490    9.83610   10.28870    8.53780   10.28870 -109.64880   -4.37340    8.53780
 1850.00000   11.79010   11.79010  103.12890    9.69660   88.60730   88.60730   51.45760   51.45760    9.69660    9.07880    8.47270    9.07880 -108.19810   -3.06540    8.47270
 1900.00000   11.13700   11.13700   91.76120   10.90950   84.48410   84.48410   79.47140   79.47140   10.90950   12.17150   11.32390   12.17150 -109.51590   -4.52500   11.32390
 1950.00000   10.96570   10.96570  118.37680    8.44760   87.07510   87.07510   62.46940   62.46940    8.44760    8.82510    7.73670    8.82510 -110.60540   -5.75730    7.73670
 2000.00000   11.15190   11.15190  216.37530    4.62160   99.75830   99.75830   60.93080   60.93080    4.62160    4.93580    4.13020    4.93580 -111.45500   -6.74870    4.13020
 2050.00000   11.00340   11.00340  118.65400    8.43440   87.64820   87.64820   79.77300   79.77300    8.43440    9.13230    9.52640    9.13230 -109.69610   -5.13160    9.52640
 2100.00000   10.86330   10.86330   91.28340   10.95490   82.69840   82.69840   67.03870   67.03870   10.95490   10.13550    7.94060   10.13550 -108.57980   -4.15800    7.94060
 2150.00000   15.19410   15.19410  191.27230    5.22830  133.89900  133.89900   44.94490   44.94490    5.22830    4.37310    4.23460    4.37310 -108.30370   -4.02370    4.23460
 2200.00000   11.24780   11.24780   71.93310   13.90180   80.65310   80.65310   45.04610   45.04610   13.90180   14.90380   13.26550   14.90380 -108.88340   -4.74610   13.26550
 2250.00000   11.37070   11.37070  150.05100    6.66440  105.52530  105.52530   68.40770   68.40770    6.66440    6.29040    5.92560    6.29040 -108.99340   -4.99790    5.92560
 2300.00000   12.03170   12.03170   96.65760   10.34840   82.07870   82.07870   59.16860   59.16860   10.34840   11.75020   11.00130   11.75020 -107.64370   -3.78700   11.00130
 2350.00000   12.13210   12.13210   83.54220   11.97000   90.05170   90.05170   79.30030   79.30030   11.97000   11.64020   12.19950   11.64020 -108.40100   -4.65180   12.19950
 2400.00000   11.37690   11.37690  121.60390    8.22850   83.72540   83.72540   66.02720   66.02720    8.22850    7.79630    8.02560    7.79630 -107.73990   -4.09740    8.02560
 2450.00000   11.46810   11.46810  128.20840    7.79980   81.50660   81.50660   75.06120   75.06120    7.79980    6.36840    6.94590    6.36840 -109.31130   -5.77620    6.94590
 2500.00000   10.85680   10.85680   81.64930   12.24750   78.55240   78.55240   64.13530   64.13530   12.24750   12.94300   10.98750   12.94300 -111.31200   -7.88360   10.98750
 2550.00000   11.40600   11.40600   71.71930   13.95450   80.61730   80.61730   66.94150   66.94150   13.95450   15.14540   13.44050   15.14540 -116.54310  -13.22140   13.44050
 2600.00000   10.87150   10.87150   99.84620   10.01540   77.76040   77.76040   63.03640   63.03640   10.01540   10.63580    9.58560   10.63580 -112.45510   -9.24090    9.58560
 2650.00000   11.54770   11.54770   61.44030   16.27870   80.48200   80.48200   55.06480   55.06480   16.27870   17.69040   15.88560   17.69040 -115.41920  -12.31170   15.88560
 2700.00000   11.38480   11.38480   83.41400   11.98840   79.62160   79.62160   63.18590   63.18590   11.98840   12.90290   13.48560   12.90290 -113.82390  -10.82380   13.48560
 2750.00000   10.02030   10.02030   99.03930   10.09700   75.53240   75.53240   61.72400   61.72400   10.09700   11.87030   11.94530   11.87030 -107.97460   -5.08120   11.94530
 2800.00000   10.19390   10.19390   90.06410   11.10400   86.76640   86.76640   82.53880   82.53880   11.10400   10.73190    9.60400   10.73190 -107.36890   -4.58230    9.60400
 2850.00000    9.02060    9.02060  135.98970    7.35350   92.42030   92.42030   67.74730   67.74730    7.35350    8.30010    7.63100    8.30010 -108.43180   -5.75260    7.63100
 2900.00000   10.09560   10.09560  515.51310    1.94370  141.99560  141.99560  103.42690  103.42690    1.94370    2.04450    2.42220    2.04450 -104.89690   -2.32440    2.42220
 2950.00000   10.45340   10.45340   52.19320   19.15960   74.65340   74.65340   60.45720   60.45720   19.15960   21.75640   22.10200   21.75640 -114.82650  -12.36140   22.10200
 3000.00000   10.45910   10.45910  102.16070    9.78850   84.99840   84.99840   78.16430   78.16430    9.78850    9.48350    7.65950    9.48350 -106.61910   -4.26080    7.65950
 3050.00000   11.09230   11.09230  115.76550    8.65140   80.91040   80.91040   64.45570   64.45570    8.65140    8.30540    8.79080    8.30540 -106.03180   -3.78020    8.79080
 3100.00000   10.93360   10.93360  265.81610    3.76200   95.53290   95.53290  102.01790  102.01790    3.76200    3.42270    5.89050    3.42270 -104.36010   -2.21590    5.89050
 3150.00000   11.06370   11.06370  166.51710    6.01490   88.27190   88.27190   71.40740   71.40740    6.01490    6.66350    5.60530    6.66350 -104.51670   -2.47920    5.60530
 3200.00000   11.35130   11.35130   95.09140   10.51620   73.73140   73.73140   59.15260   59.15260   10.51620   11.12880   16.29050   11.12880 -103.64490   -1.71490   16.29050
 3250.00000    9.82430    9.82430  178.15470    5.61310   88.09910   88.09910   71.81600   71.81600    5.61310    5.82260    5.45220    5.82260 -104.26420   -2.44090    5.45220
 3300.00000    9.96820    9.96820  107.13580    9.34770   75.75570   75.75570   63.68660   63.68660    9.34770   10.35880    9.53160   10.35880 -103.76580   -2.04920    9.53160
 3350.00000   10.36950   10.36950  131.18190    7.62300  101.43070  101.43070   64.86890   64.86890    7.62300    7.06240    7.07410    7.06240 -103.31160   -1.70240    7.07410
 3400.00000   11.52810   11.52810  144.09950    6.94130   93.56480   93.56480   71.82190   71.82190    6.94130    7.99820    8.19910    7.99820 -104.62390   -3.12150    8.19910
 3450.00000   11.76900   11.76900  150.97070    6.62380   84.17010   84.17010   70.54520   70.54520    6.62380    6.97890    7.65390    6.97890 -103.19650   -1.80150    7.65390
