~Version ---------------------------------------------------
VERS. 2.0 : CWLS log ASCII Standard -VERSION 2.0
WRAP.  NO : ONE LINE PER DEPTH STEP
~Well ------------------------------------------------------
STRT.M                       300.0 : START DEPTH
STOP.M                      1700.0 : STOP DEPTH
STEP.M                    50.00000 : STEP LENGTH
NULL.                      -999.25 : NULL VALUE
COMP.           ARC RESOURCES LTD. : COMPANY
WELL. STAR TRICENT NIPISI 2-8-79-7 : WELL
FLD .                              : FIELD
LOC .                              : LOCATION
CTRY.                       CANADA : COUNTRY
SRVC.                 Schlumberger : SERVICE COMPANY
DATE.                  07-Dec-1982 : LOGDATE
PROV.                      Alberta : PROVINCE
UWI .             100020807907W500 : UNIQUE WELL ID
SLAT.WGS84           55.8271806327 : SURFACE LATITUDE
SLON.WGS84          -115.053719169 : SURFACE LONGITUDE
~Curve Information -----------------------------------------
DEPT    .M      : DEPTH METERS
CALDED  .MM     : CALIPER FROM DENSITY LOG
CALWS   .MM     : CALIPER [CALDED]
CONDWS  .MMHO   : CONDUCTIVITY [1000/DRESWS]
DCORWS  .KG/M3  : DENSITY CORRECTION [DRHOED]
DENWS   .KG/M3  : BULK DENSITY [M=2710 F=1000] [CALCULATED FROM DPOLSWS]
DPHILSED.V/V    : DENSITY POROSITY [M=2710 F=1000] FROM DENSITY LOG
DPHISSED.V/V    : DENSITY POROSITY [M=2650 F=1000] FROM DENSITY LOG
DPOLSWS .V/V    : DENSITY POROSITY LIMESTONE [M=2710 F=1000] [DPHILSED]
DRESWS  .OHMM   : DEEP RESISTIVITY [ILDED]
DRHOED  .KG/M3  : DENSITY CORRECTION FROM DENSITY LOG
GRDED   .GAPI   : GAMMA RAY FROM DENSITY LOG
GRWS    .GAPI   : GAMMA RAY [GRDED] CSG @ 192M
ILDED   .OHMM   : INDUCTION LOG DEEP RESISTIVITY
ILMED   .OHMM   : INDUCTION LOG MEDIUM RESISTIVITY
MRESWS  .OHMM   : MEDIUM RESISTIVITY [ILMED]
NPHILSED.V/V    : NEUTRON POROSITY LIMESTONE FROM DENSITY LOG
NPHISSED.V/V    : NEUTRON POROSITY SANDSTONE FROM DENSITY LOG
NPOLSWS .V/V    : NEUTRON POROSITY LIMESTONE
RHOBED  .KG/M3  : BULK DENSITY FROM DENSITY LOG
SFLUED  .OHMM   : SPHERICALLY FOCUSED LOG RESISTIVITY
SPRED   .MV     : SPONTANEOUS POTENTIAL FROM RESISTIVITY LOG
SPWS    .MV     : SPONTANEOUS POTENTIAL [BASELINE 0 MV] [SPRED REVERSED IN SOME AREAS]
SRESWS  .OHMM   : SHALLOW RESISTIVITY [SFLUED]
~Params ----------------------------------------------------
PD  .                         GL : PERMANENT DATUM
EPD .M                     654.5 : ELEVATION PERMANENT DATUM
LMF .                         KB : LOG MEASURED FROM
DAPD.M                       4.9 : FEET ABOVE PERMANENT DATUM
DMF .                         KB : DRILLING MEASURED FROM
EKB .M                     659.4 : KELLY BUSHING
EDF .M                     659.1 : DRILLING FLOOR
EGL .M                     654.5 : GROUND LEVEL
DATE.                    12/7/82 : RUN DATE
RUN .                          1 : RUN NUMBER
DD  .M                      1734 : DEPTH DRILLER
DL  .M                      1735 : DEPTH LOGGER
BLI .M                      1734 : BOTTOM LOG INTERVAL
TLI .M                       192 : TOP LOG INTERVAL
CS  .MM                      244 : CASING SIZE
CBD .M                       192 : CASING BOTTOM DRILLER
CBL .M                       192 : CASING BOTTOM LOGGER
BS  .MM                      222 : BIT SIZE
BSD .M                      1734 : BIT SIZE AT DEPTH
DFT .                   GEL CHEM : DRILLING FLUID TYPE
DFD .                       1080 : DRILLING FLUID DENSITY
DFV .                         80 : DRILLING FLUID VISCOSITY
DFPH.                       10.5 : DRILLING FLUID PH
DFL .                         11 : DRILLING FLUID LOSS
MSS .                   FLOWLINE : MUD SAMPLE SOURCE
RMS .OHMM                   0.98 : RESISTIVITY MUD SAMPLE
MST .DEGC                   12.7 : MUD SAMPLE TEMPERATURE
RMF .OHMM                   0.79 : RESISTIVITY MUD FILTRATE SAMPLE
MFST.DEGC                   15.5 : MUD FILTRATE SAMPLE TEMPERATURE
RMC .OHMM                  0.456 : RESISTIVITY MUD CAKE
MCST.DEGC                   42.8 : MUD CAKE SAMPLE TEMPERATURE
MFSS.                      PRESS : MUD FILTRATE SAMPLE SOURCE
RMB .OHMM                  0.523 : RESISTIVITY MUD AT BHT
TCS .HRS                    1000 : TIME CIRCULATED STOPPED
TLAB.HRS                    1600 : TIME LOGGER AT BOTTOM
LUN .                       8210 : LOGGING UNIT NUMBER
LUL .                        EDM : LOGGING UNIT LOCATION
ENGI.                      KUZIO : RECORDING ENGINEER
WITN.                    WEBSTER : WITNESSED BY
CLNT.                    A2DTECH : CLIENT CODE
ORIG. 6.5"/100M 16.5"/100M PRINT : ORIGIN OF DATA
UWI .           100020807907W500 : UNIQUE WELL ID
DICO.     A2D Technologies, Inc. : DIGITIZING COMPANY
~Other -----------------------------------------------------
~ASCII -----------------------------------------------------
  300.00000  375.18780  375.18780  383.89190   27.03810 2046.52000    0.38800    -999.25    0.38800    2.60490   27.03810   89.92810   89.92810    2.60490    2.34150    2.34150    0.47670    -999.25    0.47670 2066.18820    2.66070   -8.72030    6.24050    2.66070
  350.00000  382.53310  382.53310  484.37880   12.69480 1655.78490    0.61650    -999.25    0.61650    2.06450   12.69480   71.01100   71.01100    2.06450    1.84300    1.84300    0.53760    -999.25    0.53760 1652.60520    2.24150    0.61450   -2.29290    2.24150
  400.00000  253.67600  253.67600  185.85980  -18.97260 2019.50200    0.40380    -999.25    0.40380    5.38040  -18.97260   57.25170   57.25170    5.38040    7.81540    7.81540    0.35330    -999.25    0.35330 2012.01160   11.84520  -39.31580  -39.27730   11.84520
  450.00000  291.98120  291.98120  194.29550   -3.96850 2049.59790    0.38620    -999.25    0.38620    5.14680   -3.96850   65.74170   65.74170    5.14680    6.04720    6.04720    0.36120    -999.25    0.36120 2043.26040    8.19810  -30.96420  -27.97980    8.19810
  500.00000  307.48270  307.48270  131.13890   -0.85050 2331.74800    0.22120    -999.25    0.22120    7.62550   -0.85050   47.31590   47.31590    7.62550    8.60570    8.60570    0.24360    -999.25    0.24360 2321.20610    8.66990  -27.48150  -21.55120    8.66990
  550.00000  378.46320  378.46320  142.67170   49.08540 2074.39310    0.37170    -999.25    0.37170    7.00910   49.08540   66.66400   66.66400    7.00910    6.41220    6.41220    0.34040    -999.25    0.34040 2038.70620    6.23260  -15.29070   -7.25960    6.23260
  600.00000  276.97760  276.97760   38.40440   -5.67310 2563.45310    0.08570    -999.25    0.08570   26.03870   -5.67310   27.20240   27.20240   26.03870   21.14120   21.14120    0.07320    -999.25    0.07320 2570.80660   31.06970  -17.07640  -15.49030   31.06970
  650.00000  282.81950  282.81950   47.45340  -10.36050 2569.43800    0.08220    -999.25    0.08220   21.07330  -10.36050   25.18940   25.18940   21.07330   20.50530   20.50530    0.05260    -999.25    0.05260 2566.16870   25.65640  -19.88030  -22.59530   25.65640
  700.00000  287.28530  287.28530   83.62390   -8.81680 2511.81100    0.11590    -999.25    0.11590   11.95830   -8.81680   19.28240   19.28240   11.95830   11.60830   11.60830    0.11250    -999.25    0.11250 2510.90450   11.86880  -25.30590  -28.60840   11.86880
  750.00000  272.23840  272.23840   64.66130  -17.53590 2540.19700    0.09930    -999.25    0.09930   15.46520  -17.53590   20.13420   20.13420   15.46520   15.05400   15.05400    0.07610    -999.25    0.07610 2540.84450   17.81980  -16.95750  -20.84760   17.81980
  800.00000  285.04900  285.04900   24.75110  -14.31080 2618.00200    0.05380    -999.25    0.05380   40.40220  -14.31080   24.39850   24.39850   40.40220   39.53460   39.53460    0.03520    -999.25    0.03520 2618.97490   43.81280  -15.31000  -12.47710   43.81280
  850.00000  276.58350  276.58350   30.18660   26.34440 2535.75100    0.10190    -999.25    0.10190   33.12730   26.34440   13.58800   13.58800   33.12730   53.92390   53.92390    0.04500    -999.25    0.04500 2539.05150  179.43640  -55.46780  -25.58170  179.43640
  900.00000  317.30600  317.30600   58.35500  100.77240 2413.82810    0.17320    -999.25    0.17320   17.13650  100.77240   15.29530   15.29530   17.13650   28.81190   28.81190    0.12440    -999.25    0.12440 2416.56490  179.06570  -73.35800  -46.89000  179.06570
  950.00000  265.66910  265.66910   13.37480  -10.13960 2617.65990    0.05400    -999.25    0.05400   74.76720  -10.13960    9.57000    9.57000   74.76720   85.40060   85.40060    0.01230    -999.25    0.01230 2619.51420  158.79630  -47.28760  -24.23770  158.79630
 1000.00000  260.38160  260.38160   12.42150   21.02150 2545.32690    0.09630    -999.25    0.09630   80.50540   21.02150   12.86100   12.86100   80.50540  132.93580  132.93580    0.03510    -999.25    0.03510 2559.15970  188.92280  -55.95400  -36.32220  188.92280
 1050.00000  251.64440  251.64440  112.41890   16.41700 2511.98190    0.11580    -999.25    0.11580    8.89530   16.41700   12.05340   12.05340    8.89530   12.93250   12.93250    0.16860    -999.25    0.16860 2509.21340   32.14080  -73.03470  -56.82100   32.14080
 1100.00000  268.21640  268.21640   45.68420   -7.07540 2616.80490    0.05450    -999.25    0.05450   21.88940   -7.07540   26.41550   26.41550   21.88940   26.65770   26.65770    0.12210    -999.25    0.12210 2618.48440   48.52730  -55.44190  -41.27680   48.52730
 1150.00000  250.05160  250.05160   98.98740   -1.64170 2521.55810    0.11020    -999.25    0.11020   10.10230   -1.64170   51.45780   51.45780   10.10230   17.54400   17.54400    0.18330    -999.25    0.18330 2520.83720   58.18930  -80.92320  -68.13830   58.18930
 1200.00000  263.92870  263.92870  132.83390   10.12150 2500.35400    0.12260    -999.25    0.12260    7.52820   10.12150   58.18530   58.18530    7.52820    7.83320    7.83320    0.15910    -999.25    0.15910 2462.35670   10.33460  -16.25990   18.77320   10.33460
 1250.00000  329.07590  329.07590  254.05210  124.60010 2184.34590    0.30740    -999.25    0.30740    3.93620  124.60010   71.38480   71.38480    3.93620    3.61740    3.61740    0.31260    -999.25    0.31260 2187.55080    4.09340  -26.89490    9.79160    4.09340
 1300.00000  256.86640  256.86640   57.75410  -10.73040 2584.82790    0.07320    -999.25    0.07320   17.31480  -10.73040   17.46650   17.46650   17.31480   18.52660   18.52660    0.06730    -999.25    0.06730 2585.91970   20.50580  -36.74280  -24.68240   20.50580
 1350.00000  259.95190  259.95190  102.63880   -7.11380 2551.65410    0.09260    -999.25    0.09260    9.74290   -7.11380   43.81810   43.81810    9.74290    9.99610    9.99610    0.10640    -999.25    0.10640 2554.35550   10.55110   -9.68710   -3.15850   10.55110
 1400.00000  250.35950  250.35950   74.35000   -7.09030 2582.09200    0.07480    -999.25    0.07480   13.44990   -7.09030   39.67400   39.67400   13.44990   14.11750   14.11750    0.08780    -999.25    0.08780 2583.07200   15.44810  -11.27270   -6.91600   15.44810
 1450.00000  272.87770  272.87770  209.42410   57.84200 2513.86300    0.11470    -999.25    0.11470    4.77500   57.84200   74.82880   74.82880    4.77500    4.89800    4.89800    0.27810    -999.25    0.27810 2512.41920    5.57410  -14.80600   18.01760    5.57410
 1500.00000  298.77700  298.77700  308.09990   63.10270 2327.81490    0.22350    -999.25    0.22350    3.24570   63.10270  103.59700  103.59700    3.24570    3.13540    3.13540    0.34860    -999.25    0.34860 2328.13110    3.33120  -19.60700   10.45470    3.33120
 1550.00000  263.26510  263.26510   75.45400  -10.31780 2603.98000    0.06200    -999.25    0.06200   13.25310  -10.31780   31.87380   31.87380   13.25310   17.65610   17.65610    0.08590    -999.25    0.08590 2601.46900   19.27910   -7.94190   15.72310   19.27910
 1600.00000  280.89980  280.89980  143.88490   -5.55170 2616.97610    0.05440    0.01810    0.05440    6.95000   -5.55170   76.93120   76.93120    6.95000    7.20270    7.20270    0.17980    0.22390    0.17980 2615.05400    8.63420   -6.50480   -4.77490    8.63420
 1650.00000  257.12380  257.12380  192.90500   92.43970 2566.01810    0.08420    0.04850    0.08420    5.18390   92.43970   96.37230   96.37230    5.18390    5.37250    5.37250    0.23430    0.27860    0.23430 2573.85420    6.47280   -5.56860   -4.52860    6.47280
 1700.00000  246.55750  246.55750  354.96240   75.51290 2570.29300    0.08170    0.04780    0.08170    2.81720   75.51290  102.51530  102.51530    2.81720    3.03860    3.03860    0.33300    0.38390    0.33300 2571.40380    3.60650  -18.70460  -16.17260    3.60650
