~Version ---------------------------------------------------
VERS.      2.0 : CWLS log ASCII Standard -VERSION 2.0
WRAP.       NO : One line per depth step
CREA. 11/03/17 : LAS Creation Date
~Well ------------------------------------------------------
STRT.FT                         1550.0 : START DEPTH
STOP.FT                        12000.0 : STOP DEPTH
STEP.FT                       50.00000 : STEP LENGTH
NULL.                          -999.25 : NULL VALUE
COMP. AMOCO CANADA PETROLEUM CO., LTD. : COMPANY
WELL.  AMOCO C-2 WASKAHIGAN 7-22-63-24 : WELL
FLD .                       WASKAHIGAN : FIELD
LOC .                                  : LOCATION
CTRY.                           CANADA : COUNTRY
SRVC.                          Unknown : SERVICE COMPANY
DATE.                      14-Dec-1976 : LOGDATE
PROV.                          Alberta : PROVINCE
UWI .                 100072206324W500 : UNIQUE WELL ID
SLAT.WGS84                    54.46349 : SURFACE LATITUDE
SLON.WGS84                   -117.5411 : SURFACE LONGITUDE
~Curve Information -----------------------------------------
DEPT    .FT    : Depth Curve
CALDED  .IN    : CALIPER FROM DENSITY LOG [ADJ. TO RESISTIVITY LOG]
CALSED  .IN    : CALIPER FROM SONIC LOG [ADJ. TO RESISTIVITY LOG]
CALWS   .IN    : CALIPER [CALDED]
CONDWS  .MMHO  : CONDUCTIVITY [1000/DRESWS]
DCORED  .G/C3  : DENSITY CORRECTION FROM DENSITY LOG [ADJ. TO RESISTIVITY LOG]
DCORWS  .G/C3  : DENSITY CORRECTION [DCORED]
DENWS   .G/C3  : FORMATION BULK DENSITY [RHOBED]
DPHILSED.V/V   : DENSITY POROSITY LIMESTONE [M=2.71, F=1.00 ASSUMED] FROM DENSITY LOG [ADJ. TO RESISTIVITY LOG]
DPHISSED.V/V   : DENSITY POROSITY SANDSTONE [M=2.65, F=1.00 ASSUMED] FROM DENSITY LOG [ADJ. TO RESISTIVITY LOG]
DPOLSWS .V/V   : DENSITY POROSITY LIMESTONE [CALC FROM DENWS, M=2710,F=1000 ASSUMED]
DRESWS  .OHMM  : DEEP RESISTIVITY [ILDED]
DTED    .US/F  : DELTA TIME FROM SONIC LOG [ADJ. TO RESISTIVITY LOG]
DTWS    .US/F  : COMPRESSIONAL SONIC [DTED]
GRDED   .GAPI  : GAMMA RAY FROM DENSITY LOG [ADJ. TO RESISTIVITY LOG]
GRSED   .GAPI  : GAMMA RAY FROM SONIC LOG [ADJ. TO RESISTIVITY LOG]
GRSRED  .GAPI  : GAMMA RAY (REPEAT SECTION) FROM SONIC LOG [ADJ. TO RESISTIVITY LOG]
GRWS    .GAPI  : GAMMA RAY [GRDED SPL. TO GRSRED @ 11982']
ILDED   .OHMM  : DEEP INDUCTION LOG RESISTIVITY FROM RESISTIVITY LOG
ILMED   .OHMM  : MEDIUM INDUCTION LOG RESISTIVITY FROM RESISTIVITY LOG
LL8ED   .OHMM  : 8 INCH LATEROLOG RESISTIVITY FROM RESISTIVITY LOG
MRESWS  .OHMM  : MEDIUM RESISTIVITY [ILMED]
NPHILSED.V/V   : NEUTRON POROSITY LIMESTONE FROM DENSITY LOG [ADJ. TO RESISTIVITY LOG]
NPHISSED.V/V   : NEUTRON POROSITY SANDSTONE FROM DENSITY LOG [ADJ. TO RESISTIVITY LOG]
NPOLSWS .V/V   : NEUTRON POROSITY LIMESTONE [SCHL. NPHISSED MATRIX CONVERSION FOR LIMESTONE, SPL. TO NPHILSED @ 7464']
RHOBED  .G/C3  : BULK DENSITY FROM DENSITY LOG [ADJ. TO RESISTIVITY LOG]
SPRED   .MV    : SPONTANEOUS POTENTIAL FROM RESISTIVITY LOG
SPWS    .MV    : SPONTANEOUS POTENTIAL [BASELINE 0 MV, SPRED]
SRESWS  .OHMM  : SHALLOW RESISTIVITY [LL8ED]
~Params ----------------------------------------------------
PD  .                     GL : PERMANENT DATUM
EPD .FT               2789.5 : ELEVATION PERMANENT DATUM
LMF .                     KB : LOG MEASURED FROM
DAPD.FT                 20.5 : FEET ABOVE PERMANENT DATUM
EKB .FT               2810.0 : KELLY BUSHING
EGL .FT               2789.5 : GROUND LEVEL
DATE.               12/14/76 : RUN DATE
RUN .                      1 : RUN NUMBER
DD  .FT                12005 : DEPTH DRILLER
DL  .FT                12008 : DEPTH LOGGER
BLI .FT                12002 : BOTTOM LOG INTERVAL
TLI .FT                 1519 : TOP LOG INTERVAL
CBD .FT                 1519 : CASING BOTTOM DRILLER
CBL .FT                 1519 : CASING BOTTOM LOGGER
BS  .IN                  8.5 : BIT SIZE
BSD .FT                12005 : BIT SIZE AT DEPTH
DFT .                    GEL : DRILLING FLUID TYPE
DFD .                    9.0 : DRILLING FLUID DENSITY
DFV .                     75 : DRILLING FLUID VISCOSITY
DFPH.                    9.5 : DRILLING FLUID PH
DFL .                   12.2 : DRILLING FLUID LOSS
MSS .               FLOWLINE : MUD SAMPLE SOURCE
RMS .OHMM               2.89 : RESISTIVITY MUD SAMPLE
MST .DEGF                 44 : MUD SAMPLE TEMPERATURE
RMF .OHMM               2.32 : RESISTIVITY MUD FILTRATE SAMPLE
MFST.DEGF                 62 : MUD FILTRATE SAMPLE TEMPERATURE
TCS .HRS                   4 : TIME CIRCULATED STOPPED
LUN .                   7635 : LOGGING UNIT NUMBER
LUL .                    EDM : LOGGING UNIT LOCATION
ENGI.                 PAQUIN : RECORDING ENGINEER
WITN.       MACDONALD FARLEY : WITNESSED BY
CLNT.                A2DTECH : CLIENT CODE
ORIG.            2" 5" PRINT : ORIGIN OF DATA
UWI .       100072206324W500 : UNIQUE WELL ID
DICO. A2D Technologies, Inc. : DIGITIZING COMPANY
~Other -----------------------------------------------------
DIL-CNFD-BCS TOOL RUN
GAPS IN DT AS PER IMAGE SPLICED
~ASCII -----------------------------------------------------
# ...
 7800.00000    8.79820    9.23930    8.79820   33.54640   -0.00380   -0.00380    2.68790    0.01670    -999.25    0.01290   29.80950   58.14970   58.14970  137.27140  147.92730    -999.25  137.27140   29.80950   34.97400   35.87780   34.97400    0.13160    -999.25    0.13160    2.68790 -125.88510  -13.67850   35.87780
 7850.00000    8.71190    8.85860    8.71190   12.79630   -0.01680   -0.01680    2.63030    0.04650    -999.25    0.04660   78.14730   58.34500   58.34500  114.41530  118.40980    -999.25  114.41530   78.14730   81.63230   98.15230   81.63230    0.12460    -999.25    0.12460    2.63030 -123.08760  -11.57240   98.15230
 7900.00000    8.73090    8.79060    8.73090   16.43050   -0.01130   -0.01130    2.64600    0.03870    -999.25    0.03740   60.86240   59.40100   59.40100  114.65460  124.57710    -999.25  114.65460   60.86240   64.81300   82.02790   64.81300    0.11740    -999.25    0.11740    2.64600 -120.95830  -10.13440   82.02790
 7950.00000    8.74120    9.00190    8.74120   16.02510   -0.01190   -0.01190    2.65100    0.02150    -999.25    0.03450   62.40200   61.61120   61.61120  141.09640  146.51270    -999.25  141.09640   62.40200   66.69830   89.33050   66.69830    0.17960    -999.25    0.17960    2.65100 -112.05440   -2.14830   89.33050
 8000.00000    7.94710    7.68250    7.94710  268.36270    0.03840    0.03840    2.43840    0.15650    -999.25    0.15880    3.72630   61.28090   61.28090   26.49160   30.70720    -999.25   26.49160    3.72630    6.55090   27.07160    6.55090    0.16220    -999.25    0.16220    2.43840 -236.37400 -128.80430   27.07160
 8050.00000    8.69820    8.80760    8.69820   56.35140    0.02270    0.02270    2.54890    0.09420    -999.25    0.09420   17.74580   56.09150   56.09150   86.29830   89.02550    -999.25   86.29830   17.74580   26.61040   40.14580   26.61040    0.06940    -999.25    0.06940    2.54890 -145.72860  -40.49520   40.14580
 8100.00000    9.62950    9.14820    9.62950   23.90860    0.20360    0.20360    2.58900    0.06500    -999.25    0.07080   41.82590   50.97610   50.97610   32.84410   36.54420    -999.25   32.84410   41.82590   58.92710  110.42200   58.92710    0.12780    -999.25    0.12780    2.58900 -195.56100  -92.66400  110.42200
 8150.00000    8.64340    9.02590    8.64340   18.11280    0.00960    0.00960    2.73880   -0.02560    -999.25   -0.01680   55.20970   56.71570   56.71570   88.98580   81.66580    -999.25   88.98580   55.20970   63.98710   87.12920   63.98710    0.11590    -999.25    0.11590    2.73880 -133.76990  -33.20920   87.12920
 8200.00000    8.75070    8.90950    8.75070    0.76960    0.01860    0.01860    2.76600   -0.02600    -999.25   -0.03270 1299.42980   48.92780   48.92780   30.14120   33.11990    -999.25   30.14120 1299.42980 1353.66140 1544.54160 1353.66140    0.07620    -999.25    0.07620    2.76600 -124.61180  -26.38750 1544.54160
 8250.00000   10.80390    9.23980   10.80390   34.02390    0.24610    0.24610    2.46420    0.14290    -999.25    0.14370   29.39110   57.61360   57.61360   53.23640   53.37220    -999.25   53.23640   29.39110   34.27240   44.22600   34.27240    0.12250    -999.25    0.12250    2.46420 -126.21500  -30.32700   44.22600
 8300.00000    9.83920    9.00430    9.83920   28.35500    0.24670    0.24670    2.65270    0.03000    -999.25    0.03350   35.26710   53.71810   53.71810   32.54990   34.30580    -999.25   32.54990   35.26710   51.25160  380.45140   51.25160    0.09440    -999.25    0.09440    2.65270 -190.30580  -96.75420  380.45140
 8350.00000   10.54720    9.40170   10.54720   14.26430    0.23260    0.23260    2.61090    0.05880    -999.25    0.05800   70.10530   50.21600   50.21600   23.73250   25.23960    -999.25   23.73250   70.10530   99.48000  391.02630   99.48000    0.04350    -999.25    0.04350    2.61090 -141.47600  -50.26070  391.02630
 8400.00000    8.90050    8.93140    8.90050   16.42170    0.01330    0.01330    2.68770    0.01370    -999.25    0.01300   60.89500   53.79400   53.79400   73.30130   74.36520    -999.25   73.30130   60.89500   71.03100  108.44440   71.03100    0.06540    -999.25    0.06540    2.68770 -112.15110  -23.27220  108.44440
 8450.00000    8.92140    8.87160    8.92140  104.78230    0.02180    0.02180    2.62810    0.05600    -999.25    0.04790    9.54360   57.89360   57.89360   69.23310   69.29080    -999.25   69.23310    9.54360   10.68230   20.44090   10.68230    0.17430    -999.25    0.17430    2.62810 -136.45950  -49.91690   20.44090
 8500.00000    8.52930    8.07250    8.52930  101.48370    0.25700    0.25700    2.43750    0.15320    -999.25    0.15940    9.85380   56.76360   56.76360   26.92540   29.41420    -999.25   26.92540    9.85380    6.63960   40.28120    6.63960    0.18860    -999.25    0.18860    2.43750 -208.33230 -124.12610   40.28120
 8550.00000   11.20720    9.43430   11.20720   16.50670    0.24690    0.24690    2.59940    0.05700    -999.25    0.06470   60.58140   50.15600   50.15600   19.55850   22.63870    -999.25   19.55850   60.58140  100.73920 1508.44260  100.73920    0.02900    -999.25    0.02900    2.59940 -165.97590  -84.10600 1508.44260
 8600.00000    8.84310    8.83360    8.84310    8.61980    0.01950    0.01950    2.69440   -0.01000    -999.25    0.00910  116.01200   53.02210   53.02210   56.35950   55.21210    -999.25   56.35950  116.01200  115.61850  152.05220  115.61850    0.05950    -999.25    0.05950    2.69440 -107.17980  -27.64630  152.05220
 8650.00000   10.21470    9.18840   10.21470   10.87310    0.18670    0.18670    2.39380    0.18210    -999.25    0.18490   91.96990   56.69320   56.69320   69.40080   64.25110    -999.25   69.40080   91.96990  102.15160   97.99690  102.15160    0.08140    -999.25    0.08140    2.39380 -144.02280  -66.82560   97.99690
 8700.00000    9.96980    9.17360    9.96980   23.00500    0.19140    0.19140    2.49940    0.13340    -999.25    0.12320   43.46880   49.62710   49.62710   19.38710   24.82010    -999.25   19.38710   43.46880   81.08910 1121.03500   81.08910    0.09020    -999.25    0.09020    2.49940 -179.65420 -104.79340 1121.03500
 8750.00000    9.47650    8.99350    9.47650    7.68410    0.06280    0.06280    2.72220   -0.01280    -999.25   -0.00710  130.13860   49.16120   49.16120   19.57930   18.30550    -999.25   19.57930  130.13860  151.70080  388.47350  151.70080    0.03760    -999.25    0.03760    2.72220 -205.49620 -132.97170  388.47350
 8800.00000   11.55800    9.51560   11.55800    0.75770    0.18330    0.18330    2.55310    0.07730    -999.25    0.09180 1319.77200   49.76590   49.76590   16.34540   15.26610    -999.25   16.34540 1319.77200  290.66720 1530.05460  290.66720    0.02020    -999.25    0.02020    2.55310 -163.93280  -93.74460 1530.05460
 8850.00000    9.00670    9.04280    9.00670  113.51640   -0.00160   -0.00160    2.72710   -0.01210    -999.25   -0.01000    8.80930   56.51210   56.51210   86.84900   87.47220    -999.25   86.84900    8.80930    8.58100   12.57210    8.58100    0.16210    -999.25    0.16210    2.72710 -139.79180  -71.94000   12.57210
 8900.00000    9.12580    9.03750    9.12580   65.46640   -0.00500   -0.00500    2.68810    0.01410    -999.25    0.01280   15.27500   58.18790   58.18790   75.36020   90.81320    -999.25   75.36020   15.27500   16.61700   24.25570   16.61700    0.23280    -999.25    0.23280    2.68810 -137.71330  -72.19780   24.25570
 8950.00000    9.18780    9.00910    9.18780   43.51520   -0.00320   -0.00320    2.70890    0.00330    -999.25    0.00070   22.98050   55.86780   55.86780   76.87860   87.26240    -999.25   76.87860   22.98050   24.70990   39.46050   24.70990    0.15830    -999.25    0.15830    2.70890 -129.97220  -66.79310   39.46050
 9000.00000   10.08540    9.46500   10.08540   57.53080    0.18470    0.18470    2.61410    0.06070    -999.25    0.05610   17.38200   63.75410   63.75410   89.96890   95.90360    -999.25   89.96890   17.38200   18.14450   21.98610   18.14450    0.22250    -999.25    0.22250    2.61410 -110.02040  -49.17760   21.98610
