~Version ---------------------------------------------------
VERS.      2.0 : CWLS log ASCII Standard -VERSION 2.0
WRAP.       NO : One line per depth step
CREA. 11/17/17 : LAS Creation Date
~Well ------------------------------------------------------
STRT.FT                            800.0 : START DEPTH
STOP.FT                           7700.0 : STOP DEPTH
STEP.FT                         50.00000 : STEP LENGTH
NULL.                            -999.25 : NULL VALUE
COMP.       CANADIAN HOMESTEAD OILS LTD. : COMPANY
WELL. HOMESTEAD SHELL ENILDA 11-14-71-14 : WELL
FLD .                                    : FIELD
LOC .                                    : LOCATION
CTRY.                             CANADA : COUNTRY
SRVC.             Schlumberger of Canada : SERVICE COMPANY
DATE.                        20-Mar-1970 : LOGDATE
PROV.                            Alberta : PROVINCE
UWI .                   100111407114W500 : UNIQUE WELL ID
SLAT.WGS84                      55.15191 : SURFACE LATITUDE
SLON.WGS84                     -116.0425 : SURFACE LONGITUDE
~Curve Information -----------------------------------------
DEPT    .FT    : Depth Curve
CALSED  .IN    : CALIPER FROM SONIC LOG [ADJ. TO RESISTIVITY LOG]
CALWS   .IN    : CALIPER [CALSED]
CONDWS  .MMHO  : CONDUCTIVITY [1000/DRESWS]
DRESWS  .OHMM  : DEEP RESISTIVITY [ILDED]
DTED    .US/F  : DELTA-T FROM SONIC LOG [ADJ. TO RESISTIVITY LOG]
DTWS    .US/F  : SPONTANEOUS POTENTIAL [BASELINE 0MV, SPRED]
GRSED   .GAPI  : GAMMA RAY FROM SONIC LOG [ADJ. TO RESISTIVITY LOG]
GRWS    .GAPI  : GAMMA RAY [GRSED]
ILDED   .OHMM  : DEEP INDUCTION RESISTIVITY FROM RESISTIVITY LOG
ILMED   .OHMM  : MEDIUM INDUCTION RESISTIVITY FROM RESISTIVITY LOG
LL8ED   .OHMM  : LATEROLOG 8 FROM RESISTIVITY LOG
MRESWS  .OHMM  : MEDIUM RESISTIVITY [ILMED]
SPHILSED.V/V   : SONIC POROSITY LIMESTONE [DTM=47.6,DTF=189(ASSUMED)] FROM SONIC LOG [ADJ. TO RESISTIVITY LOG]
SPHISSED.V/V   : SONIC POROSITY SANDSTONE [DTM=55.6,DTF=189(ASSUMED)] FROM SONIC LOG [ADJ. TO RESISTIVITY LOG]
SPOWS   .V/V   : SONIC POROSITY [SPHISSED SPL. TO SPHILSED @ 3620']
SPRED   .MV    : SPONTANEOUS POTENTIAL FROM RESISTIVITY LOG
SPWS    .MV    : SPONTANEOUS POTENTIAL [BASELINE 0MV, SPRED]
SRESWS  .OHMM  : SHALLOW RESISTIVITY [LL8ED]
~Params ----------------------------------------------------
PD  .                     GL : PERMANENT DATUM
EPD .FT                 2409 : ELEVATION PERMANENT DATUM
LMF .                     KB : LOG MEASURED FROM
DAPD.FT                   13 : FEET ABOVE PERMANENT DATUM
EKB .FT                 2422 : KELLY BUSHING
EGL .FT                 2409 : GROUND LEVEL
DATE.               03/20/70 : RUN DATE
RUN .                      1 : RUN NUMBER
DD  .FT                 7744 : DEPTH DRILLER
DL  .FT                 7741 : DEPTH LOGGER
BLI .FT                 7739 : BOTTOM LOG INTERVAL
TLI .FT                  792 : TOP LOG INTERVAL
CBD .FT                  791 : CASING BOTTOM DRILLER
CBL .FT                  792 : CASING BOTTOM LOGGER
BS  .IN                 8.75 : BIT SIZE
BSD .FT                 7744 : BIT SIZE AT DEPTH
DFT .               GEL CHEM : DRILLING FLUID TYPE
DFD .                    9.8 : DRILLING FLUID DENSITY
DFV .                    120 : DRILLING FLUID VISCOSITY
DFPH.                     10 : DRILLING FLUID PH
DFL .                     10 : DRILLING FLUID LOSS
MSS .               FLOWLINE : MUD SAMPLE SOURCE
RMS .OHMM               1.55 : RESISTIVITY MUD SAMPLE
MST .DEGF                 67 : MUD SAMPLE TEMPERATURE
RMB .OHMM               2.79 : RESISTIVITY MUD AT BHT
TCS .HRS                   4 : TIME CIRCULATED STOPPED
LUN .                   7014 : LOGGING UNIT NUMBER
LUL .                     RD : LOGGING UNIT LOCATION
ENGI.                 HEGSON : RECORDING ENGINEER
WITN.                  FOOTE : WITNESSED BY
CLNT.                A2DTECH : CLIENT CODE
ORIG.            2" 5" PRINT : ORIGIN OF DATA
UWI .       100111407114W500 : UNIQUE WELL ID
DICO. A2D Technologies, Inc. : DIGITIZING COMPANY
~Other -----------------------------------------------------
DI-LL-BHC LOG RUN
~ASCII -----------------------------------------------------
# ...
 4700.00000   10.03390   10.03390  206.24080    4.84870   74.28460   74.28460   60.85600   60.85600    4.84870    4.51830    5.53600    4.51830    0.18970    -999.25    0.18970  -56.21810   -8.00450    5.53600
 4750.00000   15.41230   15.41230  535.70470    1.86670  128.13770  128.13770   65.66230   65.66230    1.86670    1.78530    2.26370    1.78530    0.30000    -999.25    0.30000  -74.95480  -27.16580    2.26370
 4800.00000    9.67130    9.67130  232.99700    4.29190   67.99330   67.99330   64.20820   64.20820    4.29190    3.91150    4.78290    3.91150    0.14870    -999.25    0.14870  -77.92130  -30.55680    4.78290
 4850.00000   10.24560   10.24560  302.04180    3.31080  104.60950  104.60950   69.69480   69.69480    3.31080    2.72420    2.57460    2.72420    0.29990    -999.25    0.29990  -59.07540  -12.13830    2.57460
 4900.00000    9.30720    9.30720   29.39490   34.01950   52.23970   52.23970   26.41230   26.41230   34.01950   26.33330   42.42240   26.33330    0.03220    -999.25    0.03220  -71.12330  -23.63560   42.42240
 4950.00000    8.84980    8.84980   36.21730   27.61110   59.21150   59.21150   26.78390   26.78390   27.61110   13.38830   70.30330   13.38830    0.08390    -999.25    0.08390 -170.06200 -121.82680   70.30330
 5000.00000    9.25570    9.25570   24.42060   40.94910   51.85550   51.85550   23.24330   23.24330   40.94910   34.34740   39.25010   34.34740    0.03050    -999.25    0.03050 -114.73380  -65.75600   39.25010
 5050.00000    9.53020    9.53020   38.98640   25.65000   52.34480   52.34480   20.64460   20.64460   25.65000   18.80330   48.32660   18.80330    0.03540    -999.25    0.03540 -146.36520  -96.64480   48.32660
 5100.00000    8.78770    8.78770   15.59870   64.10780   50.16970   50.16970   17.63300   17.63300   64.10780   33.88080  171.72510   33.88080    0.01810    -999.25    0.01810 -136.38810  -85.92030  171.72510
 5150.00000    8.87540    8.87540   23.54100   42.47910   53.24090   53.24090   22.69540   22.69540   42.47910   24.07670  125.95740   24.07670    0.04050    -999.25    0.04050 -150.67210  -99.46170  125.95740
 5200.00000    8.75850    8.75850   27.56880   36.27290   57.06210   57.06210   23.50600   23.50600   36.27290   16.20460   92.15720   16.20460    0.06740    -999.25    0.06740 -179.68630 -127.72840   92.15720
 5250.00000    8.61910    8.61910   25.22410   39.64470   54.41380   54.41380   23.49620   23.49620   39.64470   18.95320  124.58740   18.95320    0.04940    -999.25    0.04940 -178.42240 -125.72200  124.58740
 5300.00000    8.66010    8.66010   43.26640   23.11260   57.79310   57.79310   18.28730   18.28730   23.11260   10.77090   61.28480   10.77090    0.07100    -999.25    0.07100 -183.51520 -130.07220   61.28480
 5350.00000    8.69190    8.69190   36.45820   27.42870   55.09310   55.09310   20.98450   20.98450   27.42870   13.91150   88.48100   13.91150    0.05510    -999.25    0.05510 -178.89310 -124.70260   88.48100
 5400.00000    9.28390    9.28390   13.17370   75.90880   49.33170   49.33170   18.68260   18.68260   75.90880   48.67730  140.98520   48.67730    0.01370    -999.25    0.01370 -148.87800  -93.94490  140.98520
 5450.00000    9.68700    9.68700   18.83240   53.10000   51.31450   51.31450   15.49060   15.49060   53.10000   40.86400  111.77770   40.86400    0.02640    -999.25    0.02640 -134.49890  -78.81840  111.77770
 5500.00000    9.61700    9.61700   11.41250   87.62330   49.58790   49.58790   20.73610   20.73610   87.62330   80.42720  138.70570   80.42720    0.01410    -999.25    0.01410 -130.43250  -74.00940  138.70570
 5550.00000    9.58310    9.58310   14.86880   67.25500   51.35980   51.35980   15.79420   15.79420   67.25500   43.84530  163.77300   43.84530    0.02550    -999.25    0.02550 -147.45330  -90.28760  163.77300
 5600.00000    9.53830    9.53830    8.80390  113.58610   48.82230   48.82230   18.84620   18.84620  113.58610   73.96520  173.25760   73.96520    0.00930    -999.25    0.00930 -147.00420  -89.09110  173.25760
 5650.00000    9.54130    9.54130   27.24000   36.71070   50.36880   50.36880   15.30950   15.30950   36.71070   28.70370   94.58810   28.70370    0.02090    -999.25    0.02090 -157.09700  -98.44130   94.58810
 5700.00000    9.37380    9.37380  213.98610    4.67320   63.69330   63.69330   31.41530   31.41530    4.67320    2.38970   11.20800    2.38970    0.11560    -999.25    0.11560 -170.00450 -110.60130   11.20800
 5750.00000    9.72050    9.72050  342.44230    2.92020   68.04930   68.04930   47.91290   47.91290    2.92020    1.81300    8.68240    1.81300    0.14970    -999.25    0.14970 -156.59450  -96.44880    8.68240
 5800.00000    8.83580    8.83580   40.30550   24.81050   54.55310   54.55310   27.79310   27.79310   24.81050   13.93090   42.84140   13.93090    0.05810    -999.25    0.05810 -166.04090 -105.15260   42.84140
 5850.00000    8.86190    8.86190   27.43340   36.45190   56.88870   56.88870   23.94800   23.94800   36.45190   21.50270   76.41950   21.50270    0.06730    -999.25    0.06730 -155.01340  -93.37760   76.41950
 5900.00000    8.96750    8.96750   55.64400   17.97140   55.19660   55.19660   26.37610   26.37610   17.97140   11.09380   38.58400   11.09380    0.05190    -999.25    0.05190 -154.07220  -91.69380   38.58400
 5950.00000    9.52100    9.52100   35.68480   28.02310   53.45040   53.45040   35.80710   35.80710   28.02310   24.22440   37.83160   24.22440    0.04440    -999.25    0.04440  -83.51310  -20.38730   37.83160
 6000.00000    9.35730    9.35730   49.38860   20.24760   52.49400   52.49400   19.61570   19.61570   20.24760   14.56870   31.37930   14.56870    0.03530    -999.25    0.03530 -118.26480  -54.39640   31.37930
 6050.00000    9.36740    9.36740   41.84630   23.89700   57.49400   57.49400   42.75480   42.75480   23.89700   22.89250   23.76380   22.89250    0.07210    -999.25    0.07210  -77.84720  -13.23620   23.76380
 6100.00000    9.73130    9.73130   72.53210   13.78700   56.08410   56.08410   40.84940   40.84940   13.78700   10.69420   23.17220   10.69420    0.06340    -999.25    0.06340  -69.97620   -4.61780   23.17220
 6150.00000   13.93310   13.93310  285.60000    3.50140   79.99970   79.99970   67.54510   67.54510    3.50140    3.11760    4.26480    3.11760    0.23770    -999.25    0.23770  -84.02570  -18.06670    4.26480
 6200.00000   12.54920   12.54920  191.31430    5.22700   75.89480   75.89480   52.84830   52.84830    5.22700    4.36920    6.35950    4.36920    0.20000    -999.25    0.20000  -82.64640  -17.75030    6.35950
 6250.00000   12.07470   12.07470  259.37650    3.85540   76.81450   76.81450   67.56780   67.56780    3.85540    3.61750    5.73000    3.61750    0.21010    -999.25    0.21010  -86.72700  -22.88700    5.73000
 6300.00000   14.98660   14.98660  449.15560    2.22640  127.69160  127.69160   78.52230   78.52230    2.22640    1.70050    2.58730    1.70050    0.30000    -999.25    0.30000  -79.65820  -16.87420    2.58730
 6350.00000   14.45210   14.45210  374.96720    2.66690   89.17840   89.17840   74.84690   74.84690    2.66690    2.23590    3.03310    2.23590    0.29680    -999.25    0.29680  -83.25860  -21.53750    3.03310
 6400.00000   15.16860   15.16860  389.86350    2.56500   93.11770   93.11770   73.07290   73.07290    2.56500    2.10400    2.98290    2.10400    0.29980    -999.25    0.29980  -73.67260  -13.00760    2.98290
 6450.00000   14.99180   14.99180  423.26250    2.36260  100.67810  100.67810   80.16330   80.16330    2.36260    2.03140    2.81240    2.03140    0.30000    -999.25    0.30000  -68.51660   -8.91450    2.81240
 6500.00000   15.15460   15.15460  413.03540    2.42110  101.94040  101.94040   75.36920   75.36920    2.42110    2.08360    2.80040    2.08360    0.30000    -999.25    0.30000  -61.51690   -2.97080    2.80040
 6550.00000   15.12750   15.12750  315.51710    3.16940   83.58600   83.58600   60.73520   60.73520    3.16940    2.78050    3.41620    2.78050    0.25500    -999.25    0.25500  -67.03760   -9.54760    3.41620
 6600.00000   15.10800   15.10800  328.12710    3.04760   97.72540   97.72540   70.48130   70.48130    3.04760    2.77300    3.64720    2.77300    0.29980    -999.25    0.29980  -62.92280   -6.49570    3.64720
