~Version ---------------------------------------------------
VERS.      2.0 : CWLS log ASCII Standard -VERSION 2.0
WRAP.       NO : One line per depth step
CREA. 11/03/17 : LAS Creation Date
~Well ------------------------------------------------------
STRT.FT                            1050.0 : START DEPTH
STOP.FT                            9900.0 : STOP DEPTH
STEP.FT                          50.00000 : STEP LENGTH
NULL.                             -999.25 : NULL VALUE
COMP.       HUDSON'S BAY OIL & GAS CO LTD : COMPANY
WELL. HB QUINTANA GULF EAGLET 16-13-64-17 : WELL
FLD .                                     : FIELD
LOC .                                     : LOCATION
CTRY.                              CANADA : COUNTRY
SRVC.                        Schlumberger : SERVICE COMPANY
DATE.                         24-Mar-1972 : LOGDATE
PROV.                             Alberta : PROVINCE
UWI .                    100161306417W500 : UNIQUE WELL ID
SLAT.WGS84                       54.54267 : SURFACE LATITUDE
SLON.WGS84                      -116.4235 : SURFACE LONGITUDE
~Curve Information -----------------------------------------
DEPT  .FT    : Depth Curve
CALSED.IN    : CALIPER FROM SONIC LOG
CALWS .IN    : CALIPER [CALRED]
CONDWS.MMHO  : CONDUCTIVITY [1000/DRESWS]
DRESWS.OHMM  : DEEP RESISTIVITY [ILDED]
DTED  .US/F  : DELTA-T FROM SONIC LOG
DTWS  .US/F  : COMPRESSIONAL SONIC [DTED]
GRSED .GAPI  : GAMMA RAY FROM SONIC LOG
GRWS  .GAPI  : GAMMA RAY [GRSED]
ILDED .OHMM  : DEEP INDUCTION RESISTIVITY FROM RESISTIVITY LOG
ILMED .OHMM  : MEDIUM INDUCTION RESISTIVITY FROM RESISTIVITY LOG
LL8ED .OHMM  : LATEROLOG 8 FROM RESISTIVITY LOG
MRESWS.OHMM  : MEDIUM RESISTIVITY [ILMED]
SPRED .MV    : SPONTANEOUS POTENTIAL FROM RESISTIVITY LOG
SPWS  .MV    : SPONTANEOUS POTENTIAL [BASELINE 0 MV,SPRED]
SRESWS.OHMM  : SHALLOW RESISTIVITY [LL8ED]
~Params ----------------------------------------------------
PD  .                     GL : PERMANENT DATUM
EPD .FT                 3075 : ELEVATION PERMANENT DATUM
LMF .                     KB : LOG MEASURED FROM
DAPD.FT                 13.5 : FEET ABOVE PERMANENT DATUM
DMF .                     KB : DRILLING MEASURED FROM
EKB .FT               3088.5 : KELLY BUSHING
EGL .FT                 3075 : GROUND LEVEL
DATE.               03/24/72 : RUN DATE
RUN .                      1 : RUN NUMBER
DD  .FT                 9942 : DEPTH DRILLER
DL  .FT                 9942 : DEPTH LOGGER
BLI .FT                 9936 : BOTTOM LOG INTERVAL
TLI .FT                 1030 : TOP LOG INTERVAL
CBD .FT                 1030 : CASING BOTTOM DRILLER
CBL .FT                 1030 : CASING BOTTOM LOGGER
BS  .IN                7.875 : BIT SIZE
BSD .FT                 9942 : BIT SIZE AT DEPTH
DFT .               CHEM GEL : DRILLING FLUID TYPE
DFD .                    9.4 : DRILLING FLUID DENSITY
DFV .                    147 : DRILLING FLUID VISCOSITY
DFPH.                    9.5 : DRILLING FLUID PH
DFL .                    9.4 : DRILLING FLUID LOSS
MSS .             CIRCULATED : MUD SAMPLE SOURCE
RMS .OHMM                2.4 : RESISTIVITY MUD SAMPLE
MST .DEGF                 84 : MUD SAMPLE TEMPERATURE
TCS .HRS                   3 : TIME CIRCULATED STOPPED
LUN .                   5670 : LOGGING UNIT NUMBER
LUL .                    EDM : LOGGING UNIT LOCATION
ENGI.        IBSEN SUNDQUIST : RECORDING ENGINEER
WITN.      POCHE FITZSIMMONS : WITNESSED BY
CLNT.                A2DTECH : CLIENT CODE
ORIG.            2" 5" PRINT : ORIGIN OF DATA
UWI .       100161306417W500 : UNIQUE WELL ID
DICO. A2D Technologies, Inc. : DIGITIZING COMPANY
~Other -----------------------------------------------------
~ASCII -----------------------------------------------------
 1050.00000    9.23000    9.23000  337.95200    2.95900  116.62430  116.62430   73.07610   73.07610    2.95900    3.34350    3.76830    3.34350   11.63300   -8.39170    3.76830
 1100.00000   10.18610   10.18610  273.48210    3.65780  125.84650  125.84650   62.64300   62.64300    3.65780    4.03820    4.93400    4.03820   10.79320   -8.61760    4.93400
 1150.00000   12.16300   12.16300  374.36360    2.67120  140.92530  140.92530   69.39780   69.39780    2.67120    3.18830    3.69650    3.18830   12.37360   -6.42930    3.69650
 1200.00000    9.52670    9.52670  385.63370    2.59340  125.78560  125.78560   78.89470   78.89470    2.59340    3.12630    3.69580    3.12630   11.95750   -6.23150    3.69580
 1250.00000    8.99270    8.99270  266.37540    3.75410  142.06150  142.06150   82.46780   82.46780    3.75410    4.26970    4.76010    4.26970   15.52680   -2.05430    4.76010
 1300.00000    8.50210    8.50210  171.80950    5.82040  100.25730  100.25730   55.65400   55.65400    5.82040    7.28260    9.10250    7.28260   15.48140   -1.48880    9.10250
 1350.00000    8.91290    8.91290  195.65230    5.11140  107.78220  107.78220   57.16710   57.16710    5.11140    5.95230    6.89320    5.95230   15.45930   -1.04230    6.89320
 1400.00000    8.85850    8.85850  330.72060    3.02370  117.71070  117.71070   68.75650   68.75650    3.02370    3.45120    3.70310    3.45120   15.00720   -1.88340    3.70310
 1450.00000   10.45900   10.45900  290.92470    3.43800  137.31710  137.31710   66.47350   66.47350    3.43800    4.23060    4.88280    4.23060   15.51310   -1.77040    4.88280
 1500.00000    9.28830    9.28830  264.63430    3.77880  114.18830  114.18830   67.75230   67.75230    3.77880    4.68610    4.86830    4.68610   15.50970   -2.16270    4.86830
 1550.00000    9.68030    9.68030  305.52080    3.27310  106.69860  106.69860   66.87390   66.87390    3.27310    3.71560    4.48060    3.71560   15.09130   -2.97210    4.48060
 1600.00000    9.26740    9.26740  302.66400    3.30410  124.75060  124.75060   72.36390   72.36390    3.30410    3.72720    4.31620    3.72720   15.77560   -2.68070    4.31620
 1650.00000    9.83350    9.83350  205.76130    4.86000  116.00670  116.00670   78.79570   78.79570    4.86000    5.08200    3.46710    5.08200   16.20560   -2.63970    3.46710
 1700.00000    9.83100    9.83100  291.54370    3.43040  113.46840  113.46840   74.44910   74.44910    3.43040    3.79430    5.06940    3.79430   13.39650   -5.49240    5.06940
 1750.00000    8.71640    8.71640  293.64260    3.40550  112.98360  112.98360   75.27570   75.27570    3.40550    4.09130    5.28220    4.09130   14.05700   -4.11790    5.28220
 1800.00000    8.07100    8.07100  106.44750    9.39430   99.39350   99.39350   87.75250   87.75250    9.39430   10.44620   11.78520   10.44620    5.42120  -12.03610   11.78520
 1850.00000    9.71450    9.71450  381.47020    2.62150  119.90330  119.90330   73.93240   73.93240    2.62150    2.88030    3.50360    2.88030   14.98170   -1.75430    3.50360
 1900.00000    8.35490    8.35490  164.00430    6.09740   91.07500   91.07500   62.26870   62.26870    6.09740    6.82240    8.23100    6.82240   12.49600   -3.83140    8.23100
 1950.00000    9.00870    9.00870  455.57310    2.19880  112.73980  112.73980   77.57680   77.57680    2.19880    2.65830    3.08430    2.65830   14.90080   -1.51010    3.08430
 2000.00000    8.99110    8.99110  353.66930    2.82750  104.60780  104.60780   63.35390   63.35390    2.82750    3.26750    3.73770    3.26750   14.72560   -1.76780    3.73770
 2050.00000    9.98430    9.98430  324.93910    3.07750  134.30720  134.30720   62.81900   62.81900    3.07750    3.51460    4.43760    3.51460   13.66670   -2.90970    4.43760
 2100.00000    8.10990    8.10990  292.56930    3.41800  100.07380  100.07380   76.80410   76.80410    3.41800    3.92310    4.94340    3.92310   14.35380   -2.30600    4.94340
 2150.00000    7.85860    7.85860  153.91010    6.49730   88.98290   88.98290   53.46300   53.46300    6.49730    7.85120    8.56220    7.85120   15.83230   -0.94910    8.56220
 2200.00000    8.19810    8.19810  114.07820    8.76600  103.15030  103.15030   47.66910   47.66910    8.76600    9.74370   11.17200    9.74370   -2.16020  -19.16490   11.17200
 2250.00000    9.17320    9.17320  238.08390    4.20020  112.40420  112.40420   69.23260   69.23260    4.20020    4.87850    5.97820    4.87850   16.03790   -1.18770    5.97820
 2300.00000    8.92730    8.92730  297.02680    3.36670  111.69180  111.69180   60.43290   60.43290    3.36670    4.09330    4.65680    4.09330   16.66450   -0.78320    4.65680
 2350.00000    7.67210    7.67210   78.41630   12.75460   89.75770   89.75770   51.70770   51.70770   12.75460   13.90560   15.09910   13.90560   -1.29930  -18.97020   15.09910
 2400.00000    7.71310    7.71310  109.31950    9.14750  106.02970  106.02970   49.22540   49.22540    9.14750   10.35860   11.71790   10.35860    3.07770  -14.81420   11.71790
 2450.00000    8.72410    8.72410  321.69340    3.10880   96.13260   96.13260   56.48380   56.48380    3.10880    3.39750    4.48370    3.39750   17.54300   -0.57200    4.48370
 2500.00000    8.36320    8.36320  282.01580    3.54590   97.63710   97.63710   55.84850   55.84850    3.54590    4.59420    5.07690    4.59420   17.48120   -0.85490    5.07690
 2550.00000    8.59030    8.59030   82.12340   12.17680   92.53200   92.53200   52.31200   52.31200   12.17680   13.78990   15.18190   13.78990   15.11480   -3.44340   15.18190
 2600.00000   10.46620   10.46620  296.66190    3.37100  102.41870  102.41870   64.61000   64.61000    3.37100    3.78270    4.74930    3.78270   17.40230   -1.37910    4.74930
 2650.00000    8.87410    8.87410  213.72090    4.67900   95.05150   95.05150   58.89960   58.89960    4.67900    5.42530    7.10340    5.42530   17.38830   -1.61410    7.10340
 2700.00000   10.44730   10.44730  288.06610    3.47290  114.23820  114.23820   57.85880   57.85880    3.47290    3.99080    4.52270    3.99080   17.56000   -1.65720    4.52270
 2750.00000    8.00960    8.00960   91.25250   10.95860  104.88870  104.88870   52.13700   52.13700   10.95860   14.04930   19.12040   14.04930    3.23990  -16.15060   19.12040
 2800.00000    7.82130    7.82130   55.26450   18.09480   68.17470   68.17470   31.88680   31.88680   18.09480   23.09530   32.76090   23.09530   -3.15110  -22.71580   32.76090
 2850.00000    9.60250    9.60250  171.38750    5.83640  100.27110  100.27110   54.53200   54.53200    5.83640    6.23240    7.71050    6.23240   19.53450   -0.20530    7.71050
 2900.00000    8.32180    8.32180  150.49140    6.64490   88.72130   88.72130   47.64140   47.64140    6.64490    7.82600    8.42530    7.82600   10.35820   -9.55490    8.42530
 2950.00000    8.58470    8.58470  189.89160    5.26660   95.68520   95.68520   58.52360   58.52360    5.26660    5.49210    8.25160    5.49210   18.71370   -1.37440    8.25160
 3000.00000    8.62130    8.62130  249.81260    4.00300  113.39180  113.39180   56.25160   56.25160    4.00300    4.30010    5.74180    4.30010   18.82250   -1.43900    5.74180
 3050.00000    9.01950    9.01950  249.74400    4.00410   92.95960   92.95960   57.17570   57.17570    4.00410    4.50870    5.13860    4.50870   18.54670   -1.88900    5.13860
 3100.00000    8.86470    8.86470  194.03710    5.15470   93.65740   93.65740   72.77570   72.77570    5.15470    5.51750    7.16990    5.51750   18.10480   -2.50600    7.16990
 3150.00000   10.50240   10.50240  172.96250    5.78160   93.90590   93.90590   75.68240   75.68240    5.78160    7.00510    6.43560    7.00510   10.56430  -10.21980    6.43560
 3200.00000   11.94450   11.94450  180.74130    5.53280   96.73380   96.73380   78.65430   78.65430    5.53280    6.88720    5.97680    6.88720    9.66760  -11.29170    5.97680
 3250.00000   10.15820   10.15820  197.80440    5.05550  104.75190  104.75190  108.26850  108.26850    5.05550    6.63120    5.46030    6.63120   15.27310   -5.85940    5.46030
 3300.00000    8.83410    8.83410  108.26030    9.23700   92.08990   92.08990   85.71810   85.71810    9.23700   11.22440   10.24410   11.22440   13.24670   -8.24920   10.24410
