~Version ---------------------------------------------------
VERS.      2.0 : CWLS log ASCII Standard -VERSION 2.0
WRAP.       NO : One line per depth step
CREA. 08/30/13 : LAS Creation Date
~Well ------------------------------------------------------
STRT.M                    300.0 : START DEPTH
STOP.M                   2700.0 : STOP DEPTH
STEP.M                 50.00000 : STEP LENGTH
NULL.                   -999.25 : NULL VALUE
COMP.      ENRON OIL CANADA LTD : COMPANY
WELL. ENRON ET AL GUY 8-9-73-21 : WELL
FLD .                           : FIELD
LOC .                           : LOCATION
CTRY.                    CANADA : COUNTRY
SRVC.                   Unknown : SERVICE COMPANY
DATE.               07-Apr-1987 : LOGDATE
PROV.                   Alberta : PROVINCE
UWI .          100080907321W500 : UNIQUE WELL ID
SLAT.WGS84               55.309 : SURFACE LATITUDE
SLON.WGS84            -117.1568 : SURFACE LONGITUDE
~Curve Information -----------------------------------------
DEPT    .M      : DEPTH METER
ACED    .US/M   : ACOUSTIC  FROM SONIC LOG
C13DED  .MM     : CALIPER FROM DENSITY LOG [ADJ. TO RESISTIVITY LOG]
C24DED  .MM     : CALIPER FROM DENSITY LOG [ADJ. TO RESISTIVITY LOG]
CALSED  .MM     : CALIPER FROM SONIC LOG
CALWS   .MM     : CALIPER [CALSED SPL. WITH C13DED @ 2722.6M]
CNCLSED .V/V    : NEUTRON PORISITY LIMESTONE FROM DENSITY LOG [ADJ. TO RESISTIVITY LOG]
CNCSSED .V/V    : NEUTRON POROSITY SANDSTONE FROM DENSITY LOG [ADJ. TO RESISTIVITY LOG]
CONDWS  .OHMM   : CONDUCTIVITY [1000/DRESWS]
CORRED  .KG/M3  : DENSITY CORRECTION FROM DENSITY LOG [ADJ. TO RESISTIVITY LOG]
DCORWS  .KG/M3  : DENSITY CORRECTION [CORRED]
DENED   .KG/M3  : COMPENSATED BULK DENSITY FROM DENSITY LOG [ADJ. TO RESISTIVITY LOG]
DENWS   .KG/M3  : FORMATION BULK DENSITY [DENED]
DPOLSWS .V/V    : DENSITY POROSITY LIMESTONE [ PORDSSED CONVERTED TO LIMESTONE MATRIX, M= 2710, F= 1000, SPL. TO PORDLSED 1309M]
DRESWS  .OHMM   : DEEP RESISTIVITY [RILDED]
DTWS    .US/M   : COMPRESSIONAL SONIC [DTED]
GRDED   .GAPI   : GAMMA RAY FROM DENSITY LOG [ADJ. TO RESISTIVITY LOG]
GRED    .GAPI   : GAMMA RAY FROM CBL LOG
GRRED   .GAPI   : GAMMA RAY FROM RESISTIVITY LOG
GRWS    .GAPI   : GAMMA RAY [GRED SPL. TO GRRED @ 361.6M, SPL. TO GRDED @  2726.3M]
MRESWS  .OHMM   : MEDIUM RESISTIVITY [RILMED]
NPOLSWS .V/V    : NEUTRON PORISITY LIMESTONE [CNCSSED MATRIX CONVERSION FOR LIMESTONE, SPL. TO CNCLSED @ 1309M]
PORDLSED.V/V    : DENSITY POROSITY LIMESTONE [M= 2710,F= 1000] FROM DENSITY LOG [ADJ. TO RESISTIVITY LOG]
PORDSSED.V/V    : DENSITY POROSITY SANDSTONE [M= 2650,F= 1000] FROM DENSITY LOG [ADJ. TO RESISTIVITY LOG]
RFOCED  .OHMM   : SHALLOW FOCUSED RESISTIVITY FROM RESISTIVITY LOG
RILDED  .OHMM   : DEEP INDUCTION RESISTIVITY FROM RESISTIVITY LOG
RILMED  .OHMM   : MEDIUM INDUCTION RESISTIVITY FROM RESISTIVITY LOG
SPRED   .MV     : SPONTANEOUS POTENTIAL FROM RESISTIVITY LOG
SPWS    .MV     : SPONTANEOUS POTENTIAL [BASELINE 0 MV, SPRED]
SRESWS  .OHMM   : SHALLOW RESISTIVITY [RFOCED]
TENDED  .N      : TENSION FROM DENSITY LOG [ADJ. TO RESISTIVITY LOG]
TENRED  .N      : TOTAL TENSION FROM RESISTIVITY LOG
TENSED  .N      : TENSION FROM SONIC LOG
~Params ----------------------------------------------------
PD  .                         GL : PERMANENT DATUM
EPD .M                    656.39 : ELEVATION PERMANENT DATUM
LMF .                         KB : LOG MEASURED FROM
DAPD.M                      5.65 : FEET ABOVE PERMANENT DATUM
DMF .                         KB : DRILLING MEASURED FROM
EKB .M                    662.04 : KELLY BUSHING
EGL .M                    656.39 : GROUND LEVEL
DATE.                   04/07/87 : RUN DATE
RUN .                          1 : RUN NUMBER
DD  .M                      2750 : DEPTH DRILLER
DL  .M                      2740 : DEPTH LOGGER
BLI .M                    2739.4 : BOTTOM LOG INTERVAL
TLI .M                     409.8 : TOP LOG INTERVAL
CS  .MM                    244.5 : CASING SIZE
CBD .M                       410 : CASING BOTTOM DRILLER
CBL .M                     409.8 : CASING BOTTOM LOGGER
BS  .MM                    222.2 : BIT SIZE
BSD .M                      2750 : BIT SIZE AT DEPTH
DFT .                   GEL CHEM : DRILLING FLUID TYPE
DFD .                       1130 : DRILLING FLUID DENSITY
DFV .                         67 : DRILLING FLUID VISCOSITY
DFPH.                       10.5 : DRILLING FLUID PH
DFL .                        7.8 : DRILLING FLUID LOSS
MSS .                   FLOWLINE : MUD SAMPLE SOURCE
RMS .OHMM                    2.4 : RESISTIVITY MUD SAMPLE
MST .DEGC                    3.3 : MUD SAMPLE TEMPERATURE
RMF .OHMM                    1.8 : RESISTIVITY MUD FILTRATE SAMPLE
MFST.DEGC                   11.1 : MUD FILTRATE SAMPLE TEMPERATURE
RMC .OHMM                    1.9 : RESISTIVITY MUD CAKE
MCST.DEGC                   14.4 : MUD CAKE SAMPLE TEMPERATURE
MFSS.                   MEASURED : MUD FILTRATE SAMPLE SOURCE
MCSS.                   MEASURED : MUD CAKE SAMPLE SOURCE
RMB .OHMM                    0.6 : RESISTIVITY MUD AT BHT
TCS .HRS                       6 : TIME CIRCULATED STOPPED
LUN .                    HL 6439 : LOGGING UNIT NUMBER
LUL .                    PRAIRIE : LOGGING UNIT LOCATION
ENGI.                      BARSS : RECORDING ENGINEER
WITN.                      BROCK : WITNESSED BY
CLNT.                    A2DTECH : CLIENT CODE
ORIG. 6.5"/100M 16.5"/100M PRINT : ORIGIN OF DATA
UWI .           100080907321W500 : UNIQUE WELL ID
DICO.     A2D Technologies, Inc. : DIGITIZING COMPANY
~Other -----------------------------------------------------
DIL-CNL-LDT-BHC & CBL LOG RAN
NEUTRON MATRIX CONVERSION USING BAKER CHART
~ASCII -----------------------------------------------------
  300.00000    -999.25    -999.25    -999.25    -999.25    -999.25    -999.25    -999.25    -999.25    -999.25    -999.25    -999.25    -999.25    -999.25    -999.25    -999.25    -999.25    7.63870    -999.25    7.63870    -999.25    -999.25    -999.25    -999.25    -999.25    -999.25    -999.25    -999.25    -999.25    -999.25    -999.25    -999.25    -999.25
  350.00000    -999.25    -999.25    -999.25    -999.25    -999.25    -999.25    -999.25    -999.25    -999.25    -999.25    -999.25    -999.25    -999.25    -999.25    -999.25    -999.25   27.64490    -999.25   27.64490    -999.25    -999.25    -999.25    -999.25    -999.25    -999.25    -999.25    -999.25    -999.25    -999.25    -999.25    -999.25    -999.25
  400.00000    -999.25    -999.25    -999.25    -999.25    -999.25    -999.25    -999.25    -999.25    -999.25    -999.25    -999.25    -999.25    -999.25    -999.25    -999.25    -999.25    -999.25   68.69820   68.69820    -999.25    -999.25    -999.25    -999.25    -999.25    -999.25    -999.25    -999.25    -999.25    -999.25    -999.25    -999.25    -999.25
  450.00000  424.16940    -999.25    -999.25  331.82360  331.82360    -999.25    -999.25  141.11740    -999.25    -999.25    -999.25    -999.25    -999.25    7.08630  424.16940    -999.25    -999.25   86.05220   86.05220    6.18330    -999.25    -999.25    -999.25    6.04440    7.08630    6.18330  -64.24060   -3.78920    6.04440    -999.25 -1934.06700 -3595.80440
  500.00000  440.05980    -999.25    -999.25  308.10620  308.10620    -999.25    -999.25  139.39810    -999.25    -999.25    -999.25    -999.25    -999.25    7.17370  440.05980    -999.25    -999.25  102.63040  102.63040    6.72750    -999.25    -999.25    -999.25    6.91050    7.17370    6.72750  -61.33110   -2.97210    6.91050    -999.25 -1258.00260 -2381.28620
  550.00000  363.91160    -999.25    -999.25  218.16490  218.16490    -999.25    -999.25  106.60980    -999.25    -999.25    -999.25    -999.25    -999.25    9.38000  363.91160    -999.25    -999.25   59.63950   59.63950   11.80750    -999.25    -999.25    -999.25   11.35660    9.38000   11.80750  -89.72710  -32.63510   11.35660    -999.25 -1131.02500 -1670.19710
  600.00000  354.83100    -999.25    -999.25  250.04390  250.04390    -999.25    -999.25  178.55870    -999.25    -999.25    -999.25    -999.25    -999.25    5.60040  354.83100    -999.25    -999.25   91.86440   91.86440    5.31100    -999.25    -999.25    -999.25    5.00900    5.60040    5.31100  -68.73800  -12.30000    5.00900    -999.25 -1700.55180 -2092.51290
  650.00000  354.36390    -999.25    -999.25  290.59570  290.59570    -999.25    -999.25  424.37620    -999.25    -999.25    -999.25    -999.25    -999.25    2.35640  354.36390    -999.25    -999.25   77.86570   77.86570    2.24150    -999.25    -999.25    -999.25    3.53060    2.35640    2.24150  -64.22770   -6.50290    3.53060    -999.25 -2045.13990 -2814.95350
  700.00000  388.46760  237.12540  315.09700  258.07500  258.07500    -999.25    0.46430  382.83370  170.90000  170.90000 2183.80000 2183.80000    0.30690    2.61210  388.46760   74.79640    -999.25   85.88080   85.88080    2.52050    0.42450    -999.25    0.28170    3.00490    2.61210    2.52050  -62.35010   -3.33840    3.00490 -2968.93600 -2438.25050 -2828.46940
  750.00000  345.92690  276.38930  332.63400  277.69020  277.69020    -999.25    0.36550  226.44410  156.70000  156.70000 2279.60000 2279.60000    0.25030    4.41610  345.92690   83.56530    -999.25   81.52310   81.52310    4.27150    0.32550    -999.25    0.22300    4.11790    4.41610    4.27150  -66.44810   -6.07840    4.11790 -588.22460 -1570.57460 -2203.66660
  800.00000  397.34050  234.86000  378.17900  281.31120  281.31120    -999.25    0.55060  407.14950  251.30000  251.30000 2109.30000 2109.30000    0.34510    2.45610  397.34050   73.84440    -999.25   82.86060   82.86060    2.23080    0.51370    -999.25    0.32130    3.19830    2.45610    2.23080  -61.46270    0.30870    3.19830 -2166.92670 -1807.10740 -2399.58880
  850.00000  326.22280  225.50810  257.74550  259.13080  259.13080    -999.25    0.42240  248.82430  164.20000  164.20000 2205.40000 2205.40000    0.29570    4.01890  326.22280   67.99550    -999.25   68.95880   68.95880    4.46860    0.38240    -999.25    0.27010    5.45740    4.01890    4.46860  -73.44100  -10.26790    5.45740 -1558.14540 -1359.29550 -2034.21940
  900.00000  272.91230  225.73280  241.78110  239.76120  239.76120    -999.25    0.25840  185.26410  109.00000  109.00000 2388.60000 2388.60000    0.17940    5.39770  272.91230   41.83720    -999.25   42.53760   42.53760    7.44770    0.21840    -999.25    0.14960   16.27290    5.39770    7.44770  -87.50950  -22.93470   16.27290 -2170.64470 -1812.80110 -2611.53250
  950.00000  319.20280  264.97340  254.05800  269.79880  269.79880    -999.25    0.31810  209.96050  194.80000  194.80000 2441.10000 2441.10000    0.15740    4.76280  319.20280   61.74800    -999.25   73.05030   73.05030    5.15220    0.27810    -999.25    0.12680    5.02160    4.76280    5.15220  -76.01500  -10.03850    5.02160 -1841.65600 -1418.21760 -2425.81230
 1000.00000  309.47000  243.40230  260.53820  267.79900  267.79900    -999.25    0.39760  197.79260   99.40000   99.40000 2245.30000 2245.30000    0.27030    5.05580  309.47000   62.94510    -999.25   62.62740   62.62740    6.49560    0.35760    -999.25    0.24380    7.38510    5.05580    6.49560  -99.31190  -31.93370    7.38510 -1160.93060 -1846.94560 -1525.56350
 1050.00000  306.52230  233.74780  242.18910  238.56700  238.56700    -999.25    0.26890  232.99700  103.70000  103.70000 2325.40000 2325.40000    0.22440    4.29190  306.52230   59.75470   20.06810   63.86910   63.86910    5.05470    0.22890    -999.25    0.19620    6.21500    4.29190    5.05470  -95.99540  -28.09710    6.21500 -564.10250 -1321.10970 -1750.96030
 1100.00000  282.54550  228.48210  251.67510  244.93690  244.93690    -999.25    0.28700  112.03730   50.10000   50.10000 2508.40000 2508.40000    0.11160    8.92560  282.54550   75.35540    -999.25   79.80060   79.80060    9.07970    0.24700    -999.25    0.07930    8.03790    8.92560    9.07970  -71.38100   -6.36060    8.03790 -1545.37490 -2199.67020 -2472.84410
 1150.00000  311.61560  332.94020  398.16470  282.08490  282.08490    -999.25    0.43280  108.70160  155.50000  155.50000 1808.60000 1808.60000    0.53170    9.19950  311.61560   79.27260    -999.25   93.34650   93.34650    7.06450    0.39280    -999.25    0.51470    7.95540    9.19950    7.06450  -71.10230   -8.95980    7.95540 -562.82730 -2169.79150 -2392.44920
 1200.00000  386.89160  242.56330  237.64860  241.06530  241.06530    -999.25    0.41230   40.66960   79.00000   79.00000 2409.40000 2409.40000    0.17590   24.58840  386.89160  113.10700   24.18020  114.01350  114.01350   28.25430    0.37230    -999.25    0.14590   32.84330   24.58840   28.25430  -73.15830  -14.70790   32.84330 -1539.61830 3216.81130 2622.68650
 1250.00000  255.13870  273.34590  281.61190  298.77450  298.77450    -999.25    0.26490  536.91280  167.40000  167.40000 2405.30000 2405.30000    0.17830    1.86250  255.13870   52.38050    -999.25   62.05930   62.05930    2.74930    0.22490    -999.25    0.14840   10.99860    1.86250    2.74930 -131.73420  -73.89050   10.99860 -1320.99300 -1799.64440 -2228.61490
 1300.00000  251.02000  263.74350  289.62530  290.03950  290.03950    -999.25    0.21630  243.03700   17.10000   17.10000 2496.60000 2496.60000    0.12630    4.11460  251.02000   84.41970    -999.25   85.16610   85.16610    4.41880    0.17630    -999.25    0.09450    6.47400    4.11460    4.41880  -87.49770  -10.35430    6.47400 -1056.94340 -1344.58520 -2029.81890
 1350.00000  217.81490  258.60550  252.18110  264.00750  264.00750    0.19240    -999.25  285.86130   96.80000   96.80000 2624.00000 2624.00000    0.05080    3.49820  217.81490   52.20200    -999.25   62.85180   62.85180    3.75540    0.19240    0.05080    -999.25    4.26900    3.49820    3.75540 -112.02480  -36.11890    4.26900  130.61480 -2416.32870 -2789.83460
