~Version ---------------------------------------------------
VERS.      2.0 : CWLS log ASCII Standard -VERSION 2.0
WRAP.       NO : One line per depth step
CREA. 08/15/13 : LAS Creation Date
~Well ------------------------------------------------------
STRT.M                 300.0 : START DEPTH
STOP.M                2750.0 : STOP DEPTH
STEP.M              50.00000 : STEP LENGTH
NULL.                -999.25 : NULL VALUE
COMP.   MOBIL OIL CANADA LTD : COMPANY
WELL. MOBIL JUDYS 2-35-62-12 : WELL
FLD .                        : FIELD
LOC .                        : LOCATION
CTRY.                 CANADA : COUNTRY
SRVC.                Unknown : SERVICE COMPANY
DATE.            30-Jun-1982 : LOGDATE
PROV.                Alberta : PROVINCE
UWI .       100023506212W500 : UNIQUE WELL ID
SLAT.WGS84          54.40089 : SURFACE LATITUDE
SLON.WGS84         -115.6841 : SURFACE LONGITUDE
~Curve Information -----------------------------------------
DEPT    .M      : DEPTH METER
ACED    .US/M   : ACOUSTIC FROM SONIC LOG
CALDED  .MM     : CALIPER FROM DENSITY LOG [ADJ. TO RESISTIVITY LOG]
CALSED  .MM     : CALIPER FROM SONIC LOG
CALWS   .MM     : CALIPER [CALDED]
CILDED  .MMHO   : DEEP INDUCTION CONDUCTIVITY FROM RESISTIVITY LOG
CONDWS  .MMHO   : CONDUCTIVITY [1000/DRESWS]
CORRED  .KG/M3  : DENSITY CORRECTION FROM DENSITY LOG [ADJ. TO RESISTIVITY LOG]
DCORWS  .KG/M3  : DENSITY CORRECTION [CORRED]
DENWS   .KG/M3  : FORMATION BULK DENSITY [RHOBED]
DPHILSED.V/V    : DENSITY POROSITY LIMESTONE [M=2710,F=1000] FROM DENSITY LOG [ADJ. TO RESISTIVITY LOG]
DPHISSED.V/V    : DENSITY POROSITY SANDSTONE [M-2650,F=1000] FROM DENSITY LOG [ADJ. TO RESISTIVITY LOG]
DPOLSWS .V/V    : DENSITY POROSITY LIMESTONE [CALC. FROM DENWS M=2710,F=1000]
DRESWS  .OHMM   : DEEP RESISTIVITY [1000/CILDED IF ILDED < 5, SPL. TO ILDED @ 2500M]
DTWS    .US/M   : COMPRESSIONAL SONIC [ACED]
GRDED   .GAPI   : GAMMA RAY FROM DENSITY LOG [ADJ. TO RESISTIVITY LOG]
GRRED   .GAPI   : GAMMA RAY FROM RESISTIVITY LOG
GRWS    .GAPI   : GAMMA RAY [GRRED]
ILDED   .OHMM   : DEEP INDUCTION FROM RESISTIVITY LOG
ILMED   .OHMM   : MEDIUM INDUCTION FROM RESISTIVITY LOG
MRESWS  .OHMM   : MEDIUM RESISTIVITY [ILMED]
NPHILSED.V/V    : NEUTRON POROSITY LIMESTONE FROM DENSITY LOG [ADJ. TO RESISTIVITY LOG]
NPHISSED.V/V    : NEUTRON POROSITY SANDSTONE FROM DENSITY LOG [ADJ. TO RESISTIVITY LOG]
NPOLSWS .V/V    : NEUTRON POROSITY LIMESTONE [NPHISSED MATRIX CONVERSION FOR LIMESTONE FROM BAKER HUGHES (CNL-2420), SPL. TO NPHILSED 1780M]
RHOBED  .KG/M3  : BULK DENSITY FROM DENSITY LOG [ADJ. TO RESISTIVITY LOG]
SFLED   .OHMM   : SHALLOW FOCUSED FROM RESISTIVITY LOG
SPRED   .MV     : SPONTANEOUS POTENTIAL FROM RESISTIVITY LOG
SPWS    .MV     : SPONTANEOUS POTENTIAL [BASELINE 0 MV,SPRED]
SRESWS  .OHMM   : SHALLOW RESISTIVITY [SFLED]
TENDED  .N      : TENSION FROM DENSITY LOG [ADJ. TO RESISTIVITY LOG]
TENSED  .N      : TENSION FROM SONIC LOG
~Params ----------------------------------------------------
PD  .                         GL : PERMANENT DATUM
EPD .M                   1033.93 : ELEVATION PERMANENT DATUM
LMF .                         KB : LOG MEASURED FROM
DAPD.M                      5.49 : FEET ABOVE PERMANENT DATUM
DMF .                         KB : DRILLING MEASURED FROM
EKB .M                   1039.42 : KELLY BUSHING
EGL .M                   1033.93 : GROUND LEVEL
DATE.                   01/30/82 : RUN DATE
RUN .                          1 : RUN NUMBER
DD  .M                      2755 : DEPTH DRILLER
DL  .M                    2753.6 : DEPTH LOGGER
BLI .M                      2753 : BOTTOM LOG INTERVAL
TLI .M                       175 : TOP LOG INTERVAL
CS  .MM                      244 : CASING SIZE
CBD .M                       183 : CASING BOTTOM DRILLER
CBL .M                     183.3 : CASING BOTTOM LOGGER
BS  .MM                      222 : BIT SIZE
BSD .M                      2755 : BIT SIZE AT DEPTH
DFT .               GEL CHEM MUD : DRILLING FLUID TYPE
DFD .                       1150 : DRILLING FLUID DENSITY
DFV .                         76 : DRILLING FLUID VISCOSITY
DFPH.                       10.5 : DRILLING FLUID PH
DFL .                         25 : DRILLING FLUID LOSS
MSS .                   FLOWLINE : MUD SAMPLE SOURCE
RMS .OHMM                    2.6 : RESISTIVITY MUD SAMPLE
MST .DEGC                     19 : MUD SAMPLE TEMPERATURE
RMF .OHMM                    2.4 : RESISTIVITY MUD FILTRATE SAMPLE
MFST.DEGC                     19 : MUD FILTRATE SAMPLE TEMPERATURE
RMC .OHMM                    2.7 : RESISTIVITY MUD CAKE
MCST.DEGC                     18 : MUD CAKE SAMPLE TEMPERATURE
MFSS.                       MEAS : MUD FILTRATE SAMPLE SOURCE
MCSS.                       MEAS : MUD CAKE SAMPLE SOURCE
RMB .OHMM                    1.2 : RESISTIVITY MUD AT BHT
TCS .HRS                    5.75 : TIME CIRCULATED STOPPED
LUN .                    HL 6253 : LOGGING UNIT NUMBER
LUL .                        EDM : LOGGING UNIT LOCATION
ENGI.                     WERNER : RECORDING ENGINEER
WITN.                    STEWART : WITNESSED BY
CLNT.                    A2DTECH : CLIENT CODE
ORIG. 6.5"/100M 16.5"/100M PRINT : ORIGIN OF DATA
UWI .           100023506212W500 : UNIQUE WELL ID
DICO.     A2D Technologies, Inc. : DIGITIZING COMPANY
~Other -----------------------------------------------------
DIL-SFL & BHC-AL LOG RUN IN COMBO & CND LOG RAN
PARTICULAR INTERVALS FROM ABOUT 1160M & UP ,BHC-AL WOULD NOT LOG DUE TO BOREHOLE RUGOSITY AND OTHER CONDITIONS
CNL IS BOREHOLE CORRECTED
NEUTRON MATRIX CONVERSION USING BAKER HUGHES CHART
~ASCII -----------------------------------------------------
# ...
 1500.00000  331.56600  312.52160  281.49600  312.52160  355.22850  355.22850  204.19800  204.19800 2102.02470    -999.25    0.32770    0.35550    2.81510  331.56600  111.27140   82.51090   82.51090    2.88860    -999.25    -999.25    -999.25    0.35280    0.31280 2102.02470    4.85470  -46.21280   -6.27360    4.85470  -49.25500 -116.12570
 1550.00000  256.08960  285.32890  266.87010  285.32890  107.55000  106.87990   72.11470   72.11470 2546.16140    -999.25    0.06400    0.09580    9.35630  256.08960   91.63890   61.73990   61.73990    9.35630    -999.25    -999.25    -999.25    0.21940    0.17940 2546.16140   11.66870  -66.01900  -26.84300   11.66870    4.69740   15.73650
 1600.00000  266.51140  270.94750  274.39910  270.94750  166.60840  162.61750   67.92750   67.92750 2515.42700    -999.25    0.08300    0.11380    6.14940  266.51140   90.49360   63.90710   63.90710    6.14940    -999.25    -999.25    -999.25    0.24370    0.20370 2515.42700    6.87180  -43.09550   -4.68260    6.87180  178.58270   -0.43410
 1650.00000  262.06810  278.80560  263.50350  278.80560  168.51330  164.30880  144.59380  144.59380 2533.65990    -999.25    0.07220    0.10310    6.08610  262.06810   90.31950   68.62230   68.62230    6.08610    -999.25    -999.25    -999.25    0.25420    0.21420 2533.65990    7.91060  -55.20980  -17.56010    7.91060  108.52000   21.32210
 1700.00000  209.46250  274.93450  252.16160  274.93450   23.64790   23.75390   57.02220   57.02220 2602.93380    -999.25    0.02920    0.06260   42.09830  209.46250   77.46410   48.38380   48.38380   42.09830    -999.25    -999.25    -999.25    0.12670    0.08670 2602.93380   74.16290  -50.58380  -13.69720   74.16290 -121.03910  -36.26230
 1750.00000  245.66530  268.89360  264.20500  268.89360  155.65500  156.04760   79.53680   79.53680 2513.57960    0.13010    0.08300    0.11490    6.40830  245.66530  122.46580   92.27690   92.27690    6.40830    -999.25    -999.25    0.17180    0.21160    0.17160 2513.57960    9.98590  -58.94820  -22.29960    9.98590 -284.62540   20.89460
 1800.00000  177.13820  261.41170  247.09020  261.41170   18.36930   15.99840  300.78810  300.78810 2597.83500    0.06650    0.03130    0.06560   62.50620  177.13820   22.64020   17.42630   17.42630   62.50620    -999.25    -999.25    0.09160    0.11610    0.09160 2597.83500 2000.00000 -166.29780 -122.20670 2000.00000   -3.53390   -3.62970
 1850.00000  162.37370  271.88500  261.83920  271.88500   29.70940   33.59290  220.88070  220.88070 2769.03690   -0.03740    -999.25   -0.03450   29.76820  162.37370   30.72420   18.51630   18.51630   29.76820    -999.25    -999.25    0.01640    -999.25    0.01640 2769.03690  202.50390  -71.50310  -27.39580  202.50390   61.79580    8.02460
 1900.00000  186.31190  258.29960  240.20050  258.29960   44.16470   40.17270   22.41320   22.41320 2673.28590    0.02290    -999.25    0.02150   24.89250  186.31190   41.32340   27.07450   27.07450   24.89250    -999.25    -999.25    0.04390    -999.25    0.04390 2673.28590   30.92920  -61.99520  -22.33980   30.92920 -465.49940   -0.21530
 1950.00000  188.51250  261.28310  243.60760  261.28310   45.23340   37.05970   33.66180   33.66180 2690.28030    0.01280    -999.25    0.01150   26.98350  188.51250   42.37560   30.40750   30.40750   26.98350    -999.25    -999.25    0.05180    -999.25    0.05180 2690.28030   41.39740  -43.25200  -11.29120   41.39740 -325.07530   31.13270
 2000.00000  208.88300  268.74570  266.71860  268.74570   81.50140   77.14680   37.20740   37.20740 2630.25170    0.04770    -999.25    0.04660   12.96230  208.88300  101.76930   80.66240   80.66240   12.96230    -999.25    -999.25    0.10040    -999.25    0.10040 2630.25170   12.04780  -40.75080  -12.09120   12.04780 -209.88910  -37.13020
 2050.00000  158.96530  256.52220  247.62320  256.52220    4.23640    0.50000   46.32230   46.32230 2733.68600   -0.01130    -999.25   -0.01390 2000.00000  158.96530   19.01210   13.90160   13.90160 2000.00000    -999.25    -999.25    0.00520    -999.25    0.00520 2733.68600 2000.00000 -117.66550  -85.87940 2000.00000  403.85990  -31.41730
 2100.00000  162.93820  252.74870  249.79830  252.74870    5.09260    3.56800   54.59120   54.59120 2676.28860    0.02090    -999.25    0.01970  280.26920  162.93820   12.23200   12.51250   12.51250  280.26920    -999.25    -999.25    0.01260    -999.25    0.01260 2676.28860  426.33280 -133.49770  -98.58500  426.33280 -112.71880   64.09000
 2150.00000  158.39500  244.04780  246.39280  244.04780    1.79290    0.50000   49.75000   49.75000 2691.77690    0.01270    -999.25    0.01070 2000.00000  158.39500   18.70360   15.67180   15.67180 2000.00000    -999.25    -999.25    0.01090    -999.25    0.01090 2691.77690 2000.00000 -138.09680 -100.05760 2000.00000    7.17270    0.02310
 2200.00000  156.72800  231.35700  247.87340  231.35700    2.62320    0.50000   61.03020   61.03020 2689.69070    0.01460    -999.25    0.01190 2000.00000  156.72800   11.65070   12.71130   12.71130 2000.00000    -999.25    -999.25    0.00870    -999.25    0.00870 2689.69070 2000.00000 -158.45980 -117.29410 2000.00000  223.93570   11.67120
 2250.00000  161.75700  224.46340  225.05680  224.46340   21.14190   17.21620  216.12010  216.12010 2811.77660   -0.05840    -999.25   -0.05950   58.08490  161.75700   21.07210   17.42530   17.42530   58.08490    -999.25    -999.25    0.08890    -999.25    0.08890 2811.77660  500.33610 -150.54400 -114.79250  500.33610   -9.97250   13.74540
 2300.00000  180.20770  253.84190  247.15210  253.84190   17.27780   14.39690   26.65920   26.65920 2675.48410    0.02180    -999.25    0.02020   69.45960  180.20770   41.16620   34.99770   34.99770   69.45960    -999.25    -999.25    0.04670    -999.25    0.04670 2675.48410   76.15670  -22.33270   -7.85680   76.15670  168.13930    7.83290
 2350.00000  196.16360  279.52210  254.81270  279.52210   63.86860   59.28490    3.93940    3.93940 2695.76170    0.01040    -999.25    0.00830   16.86770  196.16360   65.24460   43.76170   43.76170   16.86770    -999.25    -999.25    0.08570    -999.25    0.08570 2695.76170   16.55490  -21.71730  -11.25600   16.55490 -435.19410   36.65510
 2400.00000  271.13870  397.99110  357.08440  397.99110  229.95850  229.95850  351.51840  351.51840 2461.60720    0.14860    -999.25    0.14530    4.34860  271.13870  103.50780   70.28310   70.28310    4.38060    -999.25    -999.25    0.29690    -999.25    0.29690 2461.60720    5.93670  -22.14630  -12.98260    5.93670   48.61780  -42.40130
 2450.00000  259.25160  449.15330  375.24910  449.15330  186.70560  183.51320  338.30540  338.30540 2514.30710    0.11440    -999.25    0.11440    5.44920  259.25160   93.33950   66.95050   66.95050    5.44920    -999.25    -999.25    0.33110    -999.25    0.33110 2514.30710    6.85430  -31.31960  -23.45350    6.85430 -138.05360   14.04300
 2500.00000  233.98160  301.85140  271.39650  301.85140  122.65940  119.42580  399.59060  399.59060 2557.46700    0.08990    -999.25    0.08920    8.37340  233.98160  105.04280   75.85770   75.85770    8.37340    8.60200    8.60200    0.18630    -999.25    0.18630 2557.46700    9.67670  -27.08510  -20.51660    9.67670  436.20720  -16.09680
 2550.00000  242.54880  355.64160  290.77500  355.64160    -999.25  130.47850  402.30970  402.30970 2628.86740    0.04510    -999.25    0.04740    7.66410  242.54880  107.79890   78.79150   78.79150    7.66410    8.06110    8.06110    0.19400    -999.25    0.19400 2628.86740    8.67720  -34.21840  -28.94750    8.67720  251.78540  -54.70510
 2600.00000  240.18390  323.10020  268.38590  323.10020    -999.25  127.84450  328.81660  328.81660 2759.69680   -0.02680    -999.25   -0.02910    7.82200  240.18390  112.59970   77.61050   77.61050    7.82200    8.34320    8.34320    0.15870    -999.25    0.15870 2759.69680    9.11810  -25.84760  -21.87430    9.11810 -294.01220   18.72350
 2650.00000  275.88260  357.10830  320.99890  357.10830    -999.25  179.36250  331.70830  331.70830 2268.75730    0.25960    -999.25    0.25800    5.57530  275.88260  121.56630   92.57820   92.57820    5.57530    5.98010    5.98010    0.33050    -999.25    0.33050 2268.75730    7.47250  -38.25260  -34.31910    7.47250  378.88520  -34.52800
