~Version ---------------------------------------------------
VERS.      2.0 : CWLS log ASCII Standard -VERSION 2.0
WRAP.       NO : One line per depth step
CREA. 12/01/17 : LAS Creation Date
~Well ------------------------------------------------------
STRT.FT                        300.0 : START DEPTH
STOP.FT                      17800.0 : STOP DEPTH
STEP.FT                     50.00000 : STEP LENGTH
NULL.                        -999.25 : NULL VALUE
COMP.           BPOG OPERATIONS LTD. : COMPANY
WELL. BP MOBIL CREE ROUGH 4-21-38-12 : WELL
FLD .                                : FIELD
LOC .                                : LOCATION
CTRY.                         CANADA : COUNTRY
SRVC.                   Schlumberger : SERVICE COMPANY
DATE.                    26-Oct-1973 : LOGDATE
PROV.                        Alberta : PROVINCE
UWI .               100042103812W500 : UNIQUE WELL ID
SLAT.WGS84                  52.27739 : SURFACE LATITUDE
SLON.WGS84                 -115.6641 : SURFACE LONGITUDE
~Curve Information -----------------------------------------
DEPT  .FT    : Depth Curve
CALSED.IN    : CALIPER FROM SONIC LOG [ADJ. TO RESISTIVITY LOG]
CALWS .IN    : CALIPER [CALSED]
CILDED.MMHO  : CONDUCTIVITY FROM RESISTIVITY LOG
CONDWS.MMHO  : CONDUCTIVITY [1000/DRESWS]
DRESWS.OHMM  : DEEP RESISTIVITY [ILDED]
DTED  .US/F  : DELTA-T FROM SONIC LOG [ADJ. TO RESISTIVITY LOG]
DTWS  .US/F  : COMPRESSIONAL SONIC [DTED]
GRNED .CU    : GAMMA RAY FROM GRN LOG [ADJ. TO RESISTIVITY LOG]
GRSED .CU    : GAMMA RAY FROM SONIC LOG [ADJ. TO RESISTIVITY LOG]
GRWS  .GAPI  : GAMMA RAY [GRSED] GRWS IN CSG. @ 13195'-13297' @ 10API ADDED
ILDED .OHMM  : DEEP INDUCTION RESISTIVITY FROM RESISTIVITY LOG
ILMED .OHMM  : MEDIUM INDUCTION RESISTIVITY FROM RESISTIVITY LOG
LL8ED .OHMM  : LATEROLOG 8 FROM RESISTIVITY LOG
MRESWS.OHMM  : MEDIUM RESISTIVITY [ILMED]
NEUTED.CU    : NEUTRON FROM GRN LOG [ADJ. TO RESISTIVITY LOG]
NEUTWS.CU    : NEUTRON [NEUTED]
SNED  .OHMM  : SHORT NORMAL RESISTIVITY 16" FROM RESISTIVITY LOG
SPRED .MV    : SPONTANEOUS POTENTIAL FROM RESISTIVITY LOG
SPWS  .MV    : SPONTANEOUS POTENTIAL [BASELINE 0 MV,SPRED]
SRESWS.OHMM  : SHALLOW RESISTIVITY [LL8ED SPL. TO SNED @ 2008']
~Params ----------------------------------------------------
PD  .                     GL : PERMANENT DATUM
EPD .FT                 5371 : ELEVATION PERMANENT DATUM
LMF .                     KB : LOG MEASURED FROM
DAPD.FT                   24 : FEET ABOVE PERMANENT DATUM
EKB .FT                 5395 : KELLY BUSHING
EGL .FT                 5371 : GROUND LEVEL
DATE.               10/26/73 : RUN DATE
RUN .                      2 : RUN NUMBER
DD  .FT                17815 : DEPTH DRILLER
DL  .FT                17792 : DEPTH LOGGER
BLI .FT                17791 : BOTTOM LOG INTERVAL
TLI .FT                13299 : TOP LOG INTERVAL
CBD .FT                13265 : CASING BOTTOM DRILLER
CBL .FT                13299 : CASING BOTTOM LOGGER
BS  .IN                 8.25 : BIT SIZE
BSD .FT                17815 : BIT SIZE AT DEPTH
DFT .               GEL CHEM : DRILLING FLUID TYPE
DFD .                    8.9 : DRILLING FLUID DENSITY
DFV .                     41 : DRILLING FLUID VISCOSITY
DFPH.                    9.5 : DRILLING FLUID PH
DFL .                   11.9 : DRILLING FLUID LOSS
RMS .OHMM               1.05 : RESISTIVITY MUD SAMPLE
MST .DEGF                 72 : MUD SAMPLE TEMPERATURE
RMF .OHMM               0.76 : RESISTIVITY MUD FILTRATE SAMPLE
MFST.DEGF                 70 : MUD FILTRATE SAMPLE TEMPERATURE
RMB .OHMM               0.31 : RESISTIVITY MUD AT BHT
TCS .HRS                   5 : TIME CIRCULATED STOPPED
LUN .                   7640 : LOGGING UNIT NUMBER
LUL .                     RD : LOGGING UNIT LOCATION
ENGI.           NIXON KOVACS : RECORDING ENGINEER
WITN.      WILLIAMS COSTELLO : WITNESSED BY
CLNT.                A2DTECH : CLIENT CODE
ORIG.            2" 5" PRINT : ORIGIN OF DATA
UWI .       100042103812W500 : UNIQUE WELL ID
DICO. A2D Technologies, Inc. : DIGITIZING COMPANY
~Other -----------------------------------------------------
DIL-IEL-BHC-GRN LOG RUN.
SNED MISSING IN SEVERAL DEPTH AS PER PRINT.
~ASCII -----------------------------------------------------
# ...
 2050.00000   12.52330   12.52330    1.80410    1.58560  630.67500   52.81160   52.81160    -999.25   31.27240   31.27240  630.67500    -999.25    -999.25    -999.25    -999.25    -999.25    -999.25    -999.25    -999.25    -999.25
 2100.00000   12.41710   12.41710    2.26380    2.31190  432.54170   52.66120   52.66120    -999.25   34.83630   34.83630  432.54170    -999.25    -999.25    -999.25    -999.25    -999.25    -999.25    -999.25    -999.25    -999.25
 2150.00000   12.58240   12.58240    2.87470    2.04730  488.44850   53.24690   53.24690    -999.25   29.76220   29.76220  488.44850    -999.25    -999.25    -999.25    -999.25    -999.25    -999.25    -999.25    -999.25    -999.25
 2200.00000   12.45650   12.45650    2.73090    2.42250  412.83570   54.30040   54.30040    -999.25   30.79670   30.79670  412.83570    -999.25    -999.25    -999.25    -999.25    -999.25    -999.25    -999.25    -999.25    -999.25
 2250.00000   12.73290   12.73290    2.26740    2.28690  437.26890   55.21540   55.21540    -999.25   32.16250   32.16250  437.26890    -999.25    -999.25    -999.25    -999.25    -999.25    -999.25    -999.25    -999.25    -999.25
 2300.00000   12.14200   12.14200    3.87140    2.74640  364.11380   55.85810   55.85810    -999.25   40.15440   40.15440  364.11380    -999.25    -999.25    -999.25    -999.25    -999.25    -999.25    -999.25    -999.25    -999.25
 2350.00000   12.28060   12.28060    2.93870    2.18990  456.65210   53.13680   53.13680    -999.25   57.85740   57.85740  456.65210    -999.25    -999.25    -999.25    -999.25    -999.25    -999.25    -999.25    -999.25    -999.25
 2400.00000   12.17980   12.17980    3.41220    2.71880  367.81430   65.27390   65.27390    -999.25  177.69210  177.69210  367.81430    -999.25    -999.25    -999.25    -999.25    -999.25    -999.25    -999.25    -999.25    -999.25
 2450.00000   12.19430   12.19430    0.68380    0.88000 1136.44220   47.75370   47.75370    -999.25   14.01720   14.01720 1136.44220    -999.25    -999.25    -999.25    -999.25    -999.25    -999.25    -999.25    -999.25    -999.25
 2500.00000   12.16170   12.16170    1.69790    2.11690  472.39450   48.71870   48.71870    -999.25   16.59480   16.59480  472.39450    -999.25    -999.25    -999.25    -999.25    -999.25    -999.25    -999.25    -999.25    -999.25
 2550.00000   12.49340   12.49340    3.95830    2.56830  389.35630   50.08400   50.08400    -999.25   15.73330   15.73330  389.35630    -999.25    -999.25    -999.25    -999.25    -999.25    -999.25    -999.25    -999.25    -999.25
 2600.00000   12.38500   12.38500    2.26280    2.60790  383.45640   52.11100   52.11100    -999.25   16.70590   16.70590  383.45640    -999.25    -999.25    -999.25    -999.25    -999.25    -999.25    -999.25    -999.25    -999.25
 2650.00000   12.51600   12.51600    0.98670    0.87510 1142.76670   45.03380   45.03380    -999.25   13.33980   13.33980 1142.76670    -999.25    -999.25    -999.25    -999.25    -999.25    -999.25    -999.25    -999.25    -999.25
 2700.00000   12.51530   12.51530    1.58660    1.12680  891.67770   48.28970   48.28970    -999.25   18.35530   18.35530  891.67770    -999.25    -999.25    -999.25    -999.25    -999.25    -999.25    -999.25    -999.25    -999.25
 2750.00000   12.52780   12.52780    1.41780    1.09200  915.77650   46.30790   46.30790    -999.25   14.01420   14.01420  915.77650    -999.25    -999.25    -999.25    -999.25    -999.25    -999.25    -999.25    -999.25    -999.25
 2800.00000   12.43380   12.43380    1.32240    0.87520 1142.59470   49.42670   49.42670    -999.25   12.63040   12.63040 1142.59470    -999.25    -999.25    -999.25    -999.25    -999.25    -999.25    -999.25    -999.25    -999.25
 2850.00000   12.59910   12.59910    0.58850    1.44050  694.20380   51.79240   51.79240    -999.25   18.86300   18.86300  694.20380    -999.25    -999.25    -999.25    -999.25    -999.25    -999.25    -999.25    -999.25    -999.25
 2900.00000   12.69530   12.69530    0.46870    1.09820  910.61790   49.19270   49.19270    -999.25   14.61570   14.61570  910.61790    -999.25    -999.25    -999.25    -999.25    -999.25    -999.25    -999.25    -999.25    -999.25
 2950.00000   12.38560   12.38560    1.73900    1.21210  825.28330   47.63020   47.63020    -999.25   16.97440   16.97440  825.28330    -999.25    -999.25    -999.25    -999.25    -999.25    -999.25    -999.25    -999.25    -999.25
 3000.00000   12.80270   12.80270    0.20870    1.23110  812.26260   48.29380   48.29380    -999.25   42.19690   42.19690  812.26260    -999.25    -999.25    -999.25    -999.25    -999.25    -999.25    -999.25    -999.25    -999.25
 3050.00000   12.50760   12.50760    1.11410    1.38050  724.38530   47.94710   47.94710    -999.25   15.80120   15.80120  724.38530    -999.25    -999.25    -999.25    -999.25    -999.25    -999.25    -999.25    -999.25    -999.25
 3100.00000   12.41910   12.41910    0.34500    1.10730  903.09770   44.81900   44.81900    -999.25   20.27030   20.27030  903.09770    -999.25    -999.25    -999.25    -999.25    -999.25    -999.25    -999.25    -999.25    -999.25
 3150.00000   12.47650   12.47650    0.85370    0.92860 1076.92330   48.99170   48.99170    -999.25   14.54540   14.54540 1076.92330    -999.25    -999.25    -999.25    -999.25    -999.25    -999.25    -999.25    -999.25    -999.25
 3200.00000   12.37630   12.37630    1.39430    1.00360  996.54900   48.61000   48.61000    -999.25   15.85940   15.85940  996.54900    -999.25    -999.25    -999.25    -999.25    -999.25    -999.25    -999.25    -999.25    -999.25
 3250.00000   12.43140   12.43140    2.06570    1.09780  910.90420   44.49730   44.49730    -999.25   14.12060   14.12060  910.90420    -999.25    -999.25    -999.25    -999.25    -999.25    -999.25    -999.25    -999.25    -999.25
 3300.00000   12.43030   12.43030    1.89800    1.49290  669.82490   46.15460   46.15460    -999.25   15.28950   15.28950  669.82490    -999.25    -999.25    -999.25    -999.25    -999.25    -999.25    -999.25    -999.25    -999.25
 3350.00000   12.55790   12.55790    4.18870    3.68360  271.47680   58.90790   58.90790    -999.25   72.41100   72.41100  271.47680    -999.25    -999.25    -999.25    -999.25    -999.25    -999.25    -999.25    -999.25    -999.25
 3400.00000   12.58770   12.58770    2.55210    2.30910  433.06930   50.62590   50.62590    -999.25   51.58430   51.58430  433.06930    -999.25    -999.25    -999.25    -999.25    -999.25    -999.25    -999.25    -999.25    -999.25
 3450.00000   12.45180   12.45180    1.13800    1.36980  730.05250   48.82060   48.82060    -999.25   36.77760   36.77760  730.05250    -999.25    -999.25    -999.25    -999.25    -999.25    -999.25    -999.25    -999.25    -999.25
 3500.00000   12.28610   12.28610    1.73580    1.17740  849.29310   49.71670   49.71670    -999.25   30.33740   30.33740  849.29310    -999.25    -999.25    -999.25    -999.25    -999.25    -999.25    -999.25    -999.25    -999.25
 3550.00000   12.19900   12.19900    2.18690    1.68890  592.08620   50.05860   50.05860    -999.25   37.64070   37.64070  592.08620    -999.25    -999.25    -999.25    -999.25    -999.25    -999.25    -999.25    -999.25    -999.25
 3600.00000   12.53140   12.53140    1.85160    1.82700  547.33260   47.13020   47.13020    -999.25   17.02570   17.02570  547.33260    -999.25    -999.25    -999.25    -999.25    -999.25    -999.25    -999.25    -999.25    -999.25
 3650.00000   12.27660   12.27660    4.44200    3.72870  268.18690   55.20340   55.20340    -999.25   72.55490   72.55490  268.18690    -999.25    -999.25    -999.25    -999.25    -999.25    -999.25    -999.25    -999.25    -999.25
 3700.00000   12.55800   12.55800    3.08920    2.37870  420.40850   51.72600   51.72600    -999.25   34.51910   34.51910  420.40850    -999.25    -999.25    -999.25    -999.25    -999.25    -999.25    -999.25    -999.25    -999.25
 3750.00000   12.17750   12.17750    3.36710    3.30580  302.49550   50.91030   50.91030    -999.25   46.65390   46.65390  302.49550    -999.25    -999.25    -999.25    -999.25    -999.25    -999.25    -999.25    -999.25    -999.25
