~Version ---------------------------------------------------
VERS.      2.0 : CWLS log ASCII Standard -VERSION 2.0
WRAP.       NO : One line per depth step
CREA. 08/23/13 : LAS Creation Date
~Well ------------------------------------------------------
STRT.m                               400.0 : START DEPTH
STOP.m                              2500.0 : STOP DEPTH
STEP.m                            50.00000 : STEP LENGTH
NULL.                              -999.25 : NULL VALUE
COMP.                DEVON ARL CORPORATION : COMPANY
WELL. DEVON ARL ETAL 7D GVILLEE 7-25-76-23 : WELL
FLD .                                      : FIELD
LOC .                                      : LOCATION
CTRY.                               CANADA : COUNTRY
SRVC.                         Schlumberger : SERVICE COMPANY
DATE.                          06-Mar-2003 : LOGDATE
PROV.                              Alberta : PROVINCE
UWI .                     100072507623W500 : UNIQUE WELL ID
SLAT.WGS84                        55.61368 : SURFACE LATITUDE
SLON.WGS84                       -117.4224 : SURFACE LONGITUDE
~Curve Information -----------------------------------------
DEPT    .m      : Depth meter
AF20ED  .OHMM   : ARRAY INDUCTION FOUR FOOT RESISTIVITY A20
AF30ED  .OHMM   : ARRAY INDUCTION FOUR FOOT RESISTIVITY A30
AF60ED  .OHMM   : ARRAY INDUCTION FOUR FOOT RESISTIVITY A60
CALWS   .MM     : CALIPER [HCALSED]
CONDWS  .MMHO   : CONDUCTIVITY [1000/DRESWS]
DCORWS  .KG/M3  : DENSITY CORRECTION [DRHOED]
DENWS   .KG/M3  : BUCK DENSITY  M=2.65 F=1.0] [RHOZED]
DPHILSED.V/V    : DENSITY POROSITY LIMESTONE FROM FDC LOG
DPHISSED.V/V    : DENSITY POROSITY SANDSTONE FROM FDC LOG
DPOLSWS .V/V    : DENSITY POROSITY [M=2.71 F=1.0] [DENWS]
DRESWS  .OHMM   : DEEP RESISTIVITY [AF60ED]
DTED    .US/M   : DELTA TIME FROM SONIC LOG
DTWS    .US/M   : DELTA TIME [DTED]
GRDED   .GAPI   : GAMMA RAY FROM FDC LOG
GRRED   .GAPI   : GAMMA RAY FROM RESISTIVITY LOG
GRSED   .GAPI   : GAMMA RAY FROM SONIC LOG
GRWS    .GAPI   : GAMMA RAY [GRRED]
HCALDED .MM     : HRCC CALIPER CALIBRATED FROM DENSITY LOG
HCALSED .MM     : HRCC CALIPER CALIBRATED FROM SONIC LOG
HDDED   .MM     : HOLE DIAMETER
HDRAED  .KG/M3  : DENSITY CORRECTION FROM DENSITY LOG
HDSED   .MM     : HOLE DIAMETER FROM SONIC
MRESWS  .OHMM   : SHALLOW LATERAL RESISTIVITY [AF60ED]
NPOLSWS .V/V    : NEUTRON POROSITY[CONVERTED FROM [NPORSSED,SPLICED NPORLSED AT 1149.5 M]
NPORLSED.V/V    : ENCHANCED THERMAL NEUTRON POROSITY IN SELECTED LITHOLOGY SANDSTONE
NPORSSED.V/V    : NEUTRON POROSITY SANDSTONE FROM DENSITY LOG
PEFWS   .B/E    : PHOTO ELECTROL [PEFED]
PEFZED  .B/E    : PHOTOELECTRIC FACTOR STANDARD RESOLUTION FROM DENSITY LOG
RHOZED  .KG/M3  : BULK DENSITY HRDD STANDARD RESOLUTION
RXOZED  .OHMM   : INVADED FORMATION RESISTIVITY FILTERED
SPRED   .MV     : SPONTANEOUS POTENTIAL FROM RESISTIVITY LOG
SPWS    .MV     : SPONTANEOUS POTENTIAL [BASELINE 0 MV] [SPRED]
SRESWS  .OHMM   : SHALLOW RESISTIVITY [AF20ED]
TENDED  .N      : TENSION FROM FDC LOG
TENRED  .N      : TENSION FROM RESISTIVITY LOG
TENSED  .N      : TENSTION FROM SONIC
~Params ----------------------------------------------------
PD  .                                  GL : PERMANENT DATUM
EPD .M                              551.9 : ELEVATION PERMANENT DATUM
LMF .                                  KB : LOG MEASURED FROM
DAPD.M                                4.7 : FEET ABOVE PERMANENT DATUM
DMF .                                  KB : DRILLING MEASURED FROM
EKB .M                              556.6 : KELLY BUSHING
EDF .M                              556.3 : DRILLING FLOOR
EGL .M                              551.9 : GROUND LEVEL
DATE.                            03/06/03 : RUN DATE
RUN .                                   1 : RUN NUMBER
DD  .M                               2545 : DEPTH DRILLER
DL  .M                               2544 : DEPTH LOGGER
BLI .M                             2538.3 : BOTTOM LOG INTERVAL
TLI .M                                421 : TOP LOG INTERVAL
CS  .MM                             219.1 : CASING SIZE
CBD .M                                421 : CASING BOTTOM DRILLER
CBL .M                              420.5 : CASING BOTTOM LOGGER
BS  .MM                               200 : BIT SIZE
BSD .M                               2545 : BIT SIZE AT DEPTH
DFT .                            GEL CHEM : DRILLING FLUID TYPE
DFD .                                1050 : DRILLING FLUID DENSITY
DFV .                                  83 : DRILLING FLUID VISCOSITY
DFPH.                                10.5 : DRILLING FLUID PH
DFL .                                   7 : DRILLING FLUID LOSS
MSS .                            FLOWLINE : MUD SAMPLE SOURCE
RMS .OHMM                            1.27 : RESISTIVITY MUD SAMPLE
MST .DEGC                              17 : MUD SAMPLE TEMPERATURE
RMF .OHMM                            0.98 : RESISTIVITY MUD FILTRATE SAMPLE
MFST.DEGC                              18 : MUD FILTRATE SAMPLE TEMPERATURE
RMC .OHMM                            1.55 : RESISTIVITY MUD CAKE
MCST.DEGC                              18 : MUD CAKE SAMPLE TEMPERATURE
MFSS.                            MEASURED : MUD FILTRATE SAMPLE SOURCE
MCSS.                             MEAURED : MUD CAKE SAMPLE SOURCE
RMB .OHMM                           0.566 : RESISTIVITY MUD AT BHT
TCS .HRS                              640 : TIME CIRCULATED STOPPED
TLAB.HRS                             1645 : TIME LOGGER AT BOTTOM
LUN .                                2133 : LOGGING UNIT NUMBER
LUL .                      GRANDE PRAIRIE : LOGGING UNIT LOCATION
ENGI.                            STIRLING : RECORDING ENGINEER
WITN.                              MCLEAY : WITNESSED BY
CLNT.                             A2DTECH : CLIENT CODE
ORIG. 6.5"/100M 16.5"/100M 33"/100M PRINT : ORIGIN OF DATA
UWI .                    100072507623W500 : UNIQUE WELL ID
DICO.              A2D Technologies, Inc. : DIGITIZING COMPANY
~Other -----------------------------------------------------
1. ALL CURVES APPEAR ON DEPTH, 1050 PPM
~ASCII -----------------------------------------------------
# ...
 1400.00000    9.89030    9.43300    8.90300  224.87470  112.68380   35.09610 2607.90370    0.06750    -999.25    0.05970    8.90300  190.22630  190.22630   23.95180   23.65310   23.59760   23.65310  223.90490  224.87470  227.20420   35.09610  226.29610    9.43300    0.08280    0.08280    -999.25    3.65710    3.65710 2607.90370   77.67600  -54.19780  -75.22940    9.89030 15077.77980 15093.67240 15012.35840
 1450.00000    3.87710    3.10210    2.55090  235.35030  392.63520   62.83400 2510.07930    0.12020    -999.25    0.11690    2.55090  209.52860  209.52860   33.82580   33.74580   33.68300   33.74580  234.95120  235.35030  229.68570   62.83400  229.08070    3.10210    0.18300    0.18300    -999.25    4.94050    4.94050 2510.07930   33.11530  -72.98020  -92.19460    3.87710 15321.24170 15355.31490 15493.76370
 1500.00000    3.81780    4.06570    4.33130  251.61540  231.74150  173.82350 2251.25320    0.23730    -999.25    0.26830    4.33130  266.36290  266.36290   51.17860   51.70750   51.20220   51.70750  242.56490  251.61540  256.59480  173.82350  256.22660    4.06570    0.33640    0.33640    -999.25    3.44550    3.44550 2251.25320    2.45970  -21.53240  -32.05160    3.81780 16108.84620 16062.20160 16115.22550
 1550.00000   68.93660   72.05970   62.03500  215.59130   16.14840   -4.79490 2683.57940    0.01460    -999.25    0.01550   62.03500  178.45280  178.45280   20.84210   20.67210   20.69150   20.67210  217.85950  215.59130  216.40900   -4.79490  218.13430   72.05970    0.03840    0.03840    -999.25    4.27770    4.27770 2683.57940  112.37190  -42.58930  -48.14790   68.93660 15981.06590 15905.27680 15984.13380
 1600.00000    3.82320    4.43090    4.37110  250.44070  229.57750  220.50360 2436.65780    0.15980    -999.25    0.15980    4.37110  235.46190  235.46190   74.08550   71.69490   71.34670   71.69490  246.53920  250.44070  252.51850  220.50360  270.06350    4.43090    0.18930    0.18930    -999.25    3.04060    3.04060 2436.65780    4.61850  -36.09370  -39.81180    3.82320 16283.82220 16359.84860 16391.77830
 1650.00000    6.55730    6.43390    6.32980  206.44110  157.98290   33.91950 2683.80370    0.02130    -999.25    0.01530    6.32980  228.03310  228.03310   46.45650   46.73530   46.60590   46.73530  207.60770  206.44110  209.60260   33.91950  209.28640    6.43390    0.15340    0.15340    -999.25    3.93930    3.93930 2683.80370    7.80560  -14.95100  -19.28660    6.55730 16752.20310 16608.69230 16647.71290
 1700.00000   15.89370   16.17640   16.46600  199.06400   60.73600   -6.70880 2682.29050    0.01660    -999.25    0.01620   16.46600  200.54370  200.54370   41.15830   41.52660   41.22230   41.52660  198.92740  199.06400  200.40580   -6.70880  200.46840   16.17640    0.07860    0.07860    -999.25    4.28380    4.28380 2682.29050   25.34090  -17.03110  -20.91690   15.89370 17234.46480 17211.72760 17226.29000
 1750.00000    5.84000    5.71010    5.62320  203.14870  177.83780   -5.62930 2642.73220    0.03590    -999.25    0.03930    5.62320  245.46700  245.46700   96.33560   96.42300   96.34690   96.42300  203.07690  203.14870  195.85080   -5.62930  195.91770    5.71010    0.15750    0.15750    -999.25    3.20130    3.20130 2642.73220    7.92950  -10.05500  -16.33020    5.84000 17307.48150 17090.17290 17134.97170
 1800.00000    4.75130    4.94330    5.25340  237.65490  190.35240  143.62230 2531.61390    0.11340    -999.25    0.10430    5.25340  257.37020  257.37020  102.62630  100.44550  102.35570  100.44550  236.05280  237.65490  311.47780  143.62230  314.27090    4.94330    0.23950    0.23950    -999.25    3.16970    3.16970 2531.61390    3.23720  -30.96150  -36.59640    4.75130 17848.11910 17793.27150 17688.11910
 1850.00000  209.10090  227.16350  253.08110  201.99470    3.95130   -7.75130 2695.48400    0.00670    -999.25    0.00850  253.08110  166.17650  166.17650   16.93150   17.54390   17.12020   17.54390  201.94700  201.99470  200.03950   -7.75130  200.43660  227.16350    0.01840    0.01840    -999.25    5.02090    5.02090 2695.48400  213.04060  -85.81560  -88.29110  209.10090 17855.09670 17932.59470 17831.53710
 1900.00000  487.68310  618.13380  524.32660  206.30050    1.90760    0.75890 2723.09350   -0.00910    -999.25   -0.00770  524.32660  160.55410  160.55410   14.84590   15.22530   15.00360   15.22530  206.31710  206.30050  201.14320    0.75890  200.36110  618.13380    0.00040    0.00040    -999.25    4.98250    4.98250 2723.09350 1246.84820 -121.54790 -120.86400  487.68310 18316.83790 18273.29590 18211.55670
 1950.00000  120.69850  136.90540  147.48970  220.70080    6.79990   -0.46880 2703.40490    0.00320    -999.25    0.00390  147.48970  165.50340  165.50340    8.24150    8.09330    8.30880    8.09330  220.85180  220.70080  227.42620   -0.46880  227.19340  136.90540    0.02130    0.02130    -999.25    4.94500    4.94500 2703.40490  148.41500 -105.39870 -101.55530  120.69850 18554.37600 18581.13380 18630.36720
 2000.00000  421.76130  545.96280  835.74470  200.77660    1.21270   -5.34240 2706.75240    0.00210    -999.25    0.00190  835.74470  160.47730  160.47730   12.02290   12.19530   11.80830   12.19530  200.29810  200.77660  202.69790   -5.34240  202.75600  545.96280    0.00550    0.00550    -999.25    5.02120    5.02120 2706.75240  326.63640 -152.03480 -145.03200  421.76130 18330.65730 18422.91110 18335.24700
 2050.00000  504.95800  570.81130  639.96230  200.11820    1.57090    3.57070 2745.81350   -0.01760    -999.25   -0.02090  639.96230  162.57200  162.57200   19.04540   19.21080   19.35810   19.21080  200.67360  200.11820  202.87820    3.57070  202.93700  570.81130    0.01070    0.01070    -999.25    5.14040    5.14040 2745.81350  800.59980 -135.95700 -125.79480  504.95800 18690.77340 18676.23340 18809.07130
 2100.00000  151.60090  148.41070  144.95430  194.67230    6.90160   -4.06780 2717.71590   -0.00810    -999.25   -0.00450  144.95430  169.38940  169.38940   13.58620   13.09250   13.60990   13.09250  195.21930  194.67230  197.92080   -4.06780  197.41840  148.41070    0.10260    0.10260    -999.25    3.02990    3.02990 2717.71590  203.28470 -109.32240  -96.00070  151.60090 19072.50190 19133.21280 19011.81930
 2150.00000   98.09630  103.60330  115.63650  196.33380    8.88570   -4.46150 2709.20480    0.00120    -999.25    0.00050  115.63650  170.05750  170.05750   30.26040   34.55070   31.07900   34.55070  196.84910  196.33380  193.98480   -4.46150  194.10570  103.60330    0.02410    0.02410    -999.25    4.87430    4.87430 2709.20480  294.78780  -30.26360  -13.78250   98.09630 19616.10550 19550.68550 19471.35940
 2200.00000   18.70090   19.12400   20.18540  195.26650   49.80740    2.40580 2685.36320    0.01670    -999.25    0.01440   20.18540  201.50150  201.50150   58.00820   65.59970   58.74790   65.59970  195.38470  195.26650  209.47840    2.40580  214.59510   19.12400    0.11890    0.11890    -999.25    4.42270    4.42270 2685.36320   27.02920   -9.06190    3.47120   18.70090 19968.58600 19958.48930 20079.25390
 2250.00000    6.05500    6.61900    6.90020  246.23800  144.92520   76.53160 2615.99940    0.05660    -999.25    0.05500    6.90020  249.77870  249.77870  101.79670  102.40770  101.98230  102.40770  247.51030  246.23800  312.35020   76.53160  312.51740    6.61900    0.28850    0.28850    -999.25    3.61460    3.61460 2615.99940    4.07580  -13.77730  -18.86650    6.05500 19823.62990 19897.15520 19695.07620
 2300.00000    4.77980    5.49480    5.91890  273.45470  168.95460   71.04170 2596.28450    0.06190    -999.25    0.06650    5.91890  261.36600  261.36600  100.49910  101.00170  100.75400  101.00170  273.01810  273.45470  362.96830   71.04170  364.72500    5.49480    0.37770    0.37770    -999.25    3.47660    3.47660 2596.28450    3.07570   11.01410   -9.32340    4.77980 19798.64850 19883.75780 19716.43360
 2350.00000    6.43500    6.95530    7.36700  258.99710  135.74140   38.48400 2630.76010    0.04610    -999.25    0.04630    7.36700  254.06080  254.06080   96.41270   96.58670   96.41290   96.58670  259.52510  258.99710  352.97800   38.48400  353.45910    6.95530    0.29950    0.29950    -999.25    3.57290    3.57290 2630.76010    4.97320  -47.86770  -41.86370    6.43500 19484.78610 19578.80960 19599.65130
