~Version ---------------------------------------------------
VERS.      2.0 : CWLS log ASCII Standard -VERSION 2.0
WRAP.       NO : One line per depth step
CREA. 11/13/17 : LAS Creation Date
~Well ------------------------------------------------------
STRT.FT                    1000.0 : START DEPTH
STOP.FT                    9550.0 : STOP DEPTH
STEP.FT                  50.00000 : STEP LENGTH
NULL.                     -999.25 : NULL VALUE
COMP.      MESA PETROLEUM COMPANY : COMPANY
WELL. MESA ET AL SAKWA 14-3-65-15 : WELL
FLD .                             : FIELD
LOC .                             : LOCATION
CTRY.                      CANADA : COUNTRY
SRVC.                Schlumberger : SERVICE COMPANY
DATE.                 05-Mar-1972 : LOGDATE
PROV.                     Alberta : PROVINCE
UWI .            100140306515W500 : UNIQUE WELL ID
SLAT.WGS84               54.60078 : SURFACE LATITUDE
SLON.WGS84              -116.1844 : SURFACE LONGITUDE
~Curve Information -----------------------------------------
DEPT  .FT    : Depth Curve
CALSED.IN    : CALIPER FROM SONIC LOG
CALWS .IN    : CALIPER [CALSED]
CONDWS.MMHO  : CONDUCTIVITY [1000/DRESWS]
DRESWS.OHMM  : DEEP RESISTIVITY [ILDED]
DTED  .US/F  : DELTA TIME FROM SONIC LOG [DEPTH ADJ TO LL8]
DTWS  .US/F  : DELTA TIME [DTED]
GRSED .GAPI  : GAMMA RAY FROM SONIC LOG
GRWS  .GAPI  : GAMMA RAY [GRSED]
ILDED .OHMM  : INDUCTION LOG DEEP RESISTIVITY
ILMED .OHMM  : INDUCTION LOG MEDIUM RESISTIVITY
LL8ED .OHMM  : 8 INCH LATEROLOG RESISTIVITY
MRESWS.OHMM  : MEDIUM RESISTIVITY [ILMED]
SPRED .MV    : SPONTANEOUS POTENTIAL FROM RESISTIVITY LOG
SPWS  .MV    : SPONTANEOUS POTENTIAL [BASELINE 0 MV] [SPRED]
SRESWS.OHMM  : SHALLOW RESISTIVITY [LL8ED]
~Params ----------------------------------------------------
PD  .                     GL : PERMANENT DATUM
EPD .FT                 3248 : ELEVATION PERMANENT DATUM
LMF .                     KB : LOG MEASURED FROM
DAPD.FT                   14 : FEET ABOVE PERMANENT DATUM
EKB .FT                 3262 : KELLY BUSHING
EGL .FT                 3248 : GROUND LEVEL
DATE.               03/05/72 : RUN DATE
RUN .                      1 : RUN NUMBER
DD  .FT                 9600 : DEPTH DRILLER
DL  .FT                 9602 : DEPTH LOGGER
BLI .FT                 9596 : BOTTOM LOG INTERVAL
TLI .FT                 1088 : TOP LOG INTERVAL
CBD .FT                 1088 : CASING BOTTOM DRILLER
CBL .FT                 1088 : CASING BOTTOM LOGGER
BS  .IN                 8.75 : BIT SIZE
BSD .FT                 9600 : BIT SIZE AT DEPTH
DFT .                    GEL : DRILLING FLUID TYPE
DFD .                    8.8 : DRILLING FLUID DENSITY
DFV .                    185 : DRILLING FLUID VISCOSITY
DFPH.                     10 : DRILLING FLUID PH
DFL .                    7.8 : DRILLING FLUID LOSS
MSS .               FLOWLINE : MUD SAMPLE SOURCE
RMS .OHMM               3.18 : RESISTIVITY MUD SAMPLE
MST .DEGF                 68 : MUD SAMPLE TEMPERATURE
RMF .OHMM               3.21 : RESISTIVITY MUD FILTRATE SAMPLE
MFST.DEGF                 61 : MUD FILTRATE SAMPLE TEMPERATURE
TCS .HRS                   4 : TIME CIRCULATED STOPPED
LUN .                   5628 : LOGGING UNIT NUMBER
LUL .                    EDM : LOGGING UNIT LOCATION
ENGI.                WORONUK : RECORDING ENGINEER
WITN.                  HOVER : WITNESSED BY
CLNT.                A2DTECH : CLIENT CODE
ORIG.            2" 5" PRINT : ORIGIN OF DATA
UWI .       100140306515W500 : UNIQUE WELL ID
DICO. A2D Technologies, Inc. : DIGITIZING COMPANY
~Other -----------------------------------------------------
~ASCII -----------------------------------------------------
# ...
 5600.00000    9.32500    9.32500   92.09970   10.85780   85.64710   85.64710   58.92560   58.92560   10.85780   16.47760   26.22310   16.47760 -105.74340  -58.88930   26.22310
 5650.00000   10.90660   10.90660  128.58430    7.77700   75.88260   75.88260   87.42560   87.42560    7.77700    9.98940   12.98630    9.98940  -67.45240  -20.96520   12.98630
 5700.00000   11.16590   11.16590   97.45480   10.26120   75.32100   75.32100   80.66290   80.66290   10.26120   11.31270   12.50660   11.31270  -47.09820   -0.97960   12.50660
 5750.00000   15.00000   15.00000  324.90740    3.07780  141.92510  141.92510   65.54620   65.54620    3.07780    2.69060    3.94540    2.69060  -51.06150   -5.30800    3.94540
 5800.00000    9.86070    9.86070    8.04540  124.29440   63.52150   63.52150   50.80110   50.80110  124.29440  110.02060  171.38020  110.02060  -58.79620  -13.40960  171.38020
 5850.00000   11.29730   11.29730   85.77140   11.65890   63.41390   63.41390   80.93770   80.93770   11.65890   12.84780   10.60020   12.84780  -81.00100  -35.98120   10.60020
 5900.00000   12.00390   12.00390  316.78650    3.15670   67.20010   67.20010   60.93450   60.93450    3.15670    3.44280    4.01510    3.44280  -84.09760  -39.44470    4.01510
 5950.00000   11.11870   11.11870   18.01950   55.50600   54.08400   54.08400   37.11930   37.11930   55.50600   73.67780  111.68050   73.67780  -84.57860  -40.29440  111.68050
 6000.00000   10.25030   10.25030  628.61450    1.59080   76.85010   76.85010   47.97010   47.97010    1.59080    1.73100   13.65120    1.73100 -121.40620  -77.48700   13.65120
 6050.00000   10.02340   10.02340  315.96570    3.16490   87.13750   87.13750   33.35430   33.35430    3.16490    4.14130   20.13730    4.14130 -120.79840  -77.24610   20.13730
 6100.00000   10.62630   10.62630   11.85940   84.32160   55.69570   55.69570   21.28550   21.28550   84.32160   90.02020  165.20670   90.02020  -87.51300  -44.32750  165.20670
 6150.00000    9.22280    9.22280   84.33550   11.85740   54.12210   54.12210   20.71440   20.71440   11.85740   20.91700  161.11970   20.91700 -176.25890 -133.44030  161.11970
 6200.00000    9.29130    9.29130   38.06660   26.27080   52.89070   52.89070   19.51500   19.51500   26.27080   45.39350  278.69060   45.39350 -169.76930 -127.31940  278.69060
 6250.00000   10.41270   10.41270   15.67290   63.80440   51.88380   51.88380   22.00790   22.00790   63.80440  114.97130  254.10860  114.97130 -142.87720 -100.79230  254.10860
 6300.00000   10.17520   10.17520  407.88020    2.45170   67.45710   67.45710   67.14660   67.14660    2.45170    2.55970    2.96820    2.55970  -68.13240  -26.41440    2.96820
 6350.00000   10.56290   10.56290  748.39100    1.33620   70.90440   70.90440   54.85990   54.85990    1.33620    1.72390    6.83630    1.72390 -102.78630  -61.18830    6.83630
 6400.00000    9.61590    9.61590  139.59460    7.16360   62.96830   62.96830   79.14840   79.14840    7.16360    7.96080    9.58830    7.96080  -47.81510   -6.09030    9.58830
 6450.00000    9.51910    9.51910   19.01870   52.58830   52.89890   52.89890   12.45490   12.45490   52.58830   53.31720   68.26720   53.31720 -113.04260  -71.19040   68.26720
 6500.00000    9.18380    9.18380    7.41290  134.89980   56.17790   56.17790   17.40570   17.40570  134.89980  125.62010  372.28710  125.62010  -70.40590  -28.42750  372.28710
 6550.00000    8.72480    8.72480   12.85850   77.76970   53.90950   53.90950   29.27300   29.27300   77.76970   74.84210  126.16960   74.84210  -43.83200   -1.72680  126.16960
 6600.00000    8.69440    8.69440   66.13450   15.12070   57.29980   57.29980   39.32050   39.32050   15.12070   26.12170   48.31330   26.12170  -80.71530  -38.48330   48.31330
 6650.00000    8.94970    8.94970   26.21520   38.14580   53.20830   53.20830   31.05210   31.05210   38.14580   54.67910  115.19120   54.67910  -67.19370  -24.83490  115.19120
 6700.00000    8.72910    8.72910    7.75400  129.21460   54.89370   54.89370   27.42730   27.42730  129.21460  133.70050  168.14410  133.70050  -66.80580  -24.31960  168.14410
 6750.00000    8.71670    8.71670   30.04400   33.28450   56.63160   56.63160   39.44570   39.44570   33.28450   36.67910   46.02150   36.67910  -40.38810    2.22420   46.02150
 6800.00000    8.78980    8.78980   17.50130   57.13860   61.48520   61.48520   55.31930   55.31930   57.13860   66.05350  104.91190   66.05350  -24.40980   18.32930  104.91190
 6850.00000    8.86890    8.86890   11.17680   89.47120   51.13950   51.13950   27.40660   27.40660   89.47120  110.20530  271.04840  110.20530  -39.99400    2.87190  271.04840
 6900.00000    8.78830    8.78830   10.03800   99.62130   52.65800   52.65800   15.27750   15.27750   99.62130  107.95500  266.16170  107.95500  -73.48180  -30.48910  266.16170
 6950.00000    9.06500    9.06500    7.77400  130.31660   50.08380   50.08380   15.82150   15.82150  130.31660  137.29800  449.83570  137.29800 -126.31150  -82.36290  449.83570
 7000.00000    8.97490    8.97490    5.26310  190.00350   49.74140   49.74140   22.49010   22.49010  190.00350  165.02840  210.24910  165.02840  -81.74600  -36.51830  210.24910
 7050.00000    9.20320    9.20320   21.73490   46.00900   52.13910   52.13910   15.29350   15.29350   46.00900   52.24250  113.40260   52.24250 -120.59420  -74.08100  113.40260
 7100.00000    9.23220    9.23220    8.81100  113.49440   49.27480   49.27480   12.22600   12.22600  113.49440  144.64290  217.06990  144.64290 -133.45960  -85.66090  217.06990
 7150.00000    8.88130    8.88130   27.69060   36.11330   53.33830   53.33830   15.33350   15.33350   36.11330   49.85200  188.88530   49.85200 -126.60060  -77.51640  188.88530
 7200.00000    9.27140    9.27140   22.04440   45.38260   51.48910   51.48910   16.66160   16.66160   45.38260   70.54940  182.39020   70.54940 -144.59920  -94.22310  182.39020
 7250.00000    9.05430    9.05430   11.51560   86.83880   48.43450   48.43450   14.96650   14.96650   86.83880  113.10500  172.33440  113.10500 -140.88800  -89.23280  172.33440
 7300.00000    8.54460    8.54460   31.76580   31.48040   52.52120   52.52120   12.19910   12.19910   31.48040   47.08560  227.39670   47.08560 -153.31580 -100.37510  227.39670
 7350.00000    9.61430    9.61430   25.13980   39.77750   53.11710   53.11710   17.29350   17.29350   39.77750   50.39010   87.64000   50.39010 -128.05680  -73.83060   87.64000
 7400.00000    9.58790    9.58790   13.27460   75.33210   50.78640   50.78640   15.19580   15.19580   75.33210   65.83930   99.15990   65.83930 -128.00440  -72.49270   99.15990
 7450.00000    9.26670    9.26670    8.54910  117.56230   50.80050   50.80050   16.88930   16.88930  117.56230  106.42670  325.02920  106.42670 -128.33150  -71.52780  325.02920
 7500.00000    8.32680    8.32680   59.64170   16.76680   60.33730   60.33730   13.85730   13.85730   16.76680   30.81980   74.57930   30.81980 -185.54730 -127.46460   74.57930
 7550.00000    8.61010    8.61010   27.55100   36.29630   49.96990   49.96990   13.82790   13.82790   36.29630   61.15560  258.68910   61.15560 -173.69400 -114.32580  258.68910
 7600.00000    9.31830    9.31830   19.19000   52.11040   54.91630   54.91630   26.60790   26.60790   52.11040  137.15830  187.94310  137.15830 -168.02050 -107.36680  187.94310
 7650.00000    9.24590    9.24590    6.53250  153.08080   49.59350   49.59350   17.66750   17.66750  153.08080  131.67990  348.84370  131.67990 -142.71630  -80.77710  348.84370
 7700.00000    8.94580    8.94580   28.26340   35.38150   54.27660   54.27660   41.85720   41.85720   35.38150   42.01450   99.60850   42.01450 -140.65210  -77.42100   99.60850
 7750.00000    9.37950    9.37950    6.08380  164.37050   48.05650   48.05650   19.40830   19.40830  164.37050  226.44450  183.91410  226.44450 -164.84650 -100.33630  183.91410
 7800.00000    9.26570    9.26570   54.14100   18.47030   53.19190   53.19190   43.02240   43.02240   18.47030   19.90760   28.60110   19.90760 -155.00600  -89.21030   28.60110
 7850.00000    9.01370    9.01370  117.74820    8.49270   56.02950   56.02950   36.56130   36.56130    8.49270    8.96430   10.73720    8.96430 -136.05840  -68.97720   10.73720
