~Version ---------------------------------------------------
VERS.      2.0 : CWLS log ASCII Standard -VERSION 2.0
WRAP.       NO : One line per depth step
CREA. 08/30/13 : LAS Creation Date
~Well ------------------------------------------------------
STRT.M                            350.0 : START DEPTH
STOP.M                           3500.0 : STOP DEPTH
STEP.M                         50.00000 : STEP LENGTH
NULL.                           -999.25 : NULL VALUE
COMP. HUDSONS BAY OIL & GAS COMPANY LTD : COMPANY
WELL.    HB DEB ET AL CARROT CREEK 8-18 : WELL
FLD .                                   : FIELD
LOC .                                   : LOCATION
CTRY.                            CANADA : COUNTRY
SRVC.                      Schlumberger : SERVICE COMPANY
DATE.                       04-Apr-1981 : LOGDATE
PROV.                           Alberta : PROVINCE
UWI .                  100081805214W500 : UNIQUE WELL ID
SLAT.WGS84                     53.48753 : SURFACE LATITUDE
SLON.WGS84                    -116.0458 : SURFACE LONGITUDE
~Curve Information -----------------------------------------
DEPT    .M      : DEPTH METER
CALDED  .MM     : CALIPER FROM DENSITY LOG [ADJ. TO RESISTIVITY LOG]
CALSED  .MM     : CALIPER FROM SONIC LOG
CALWS   .MM     : CALIPER [CALDED]
CILDED  .MMHO   : CONDUCTIVITY FROM RESISTIVITY LOG
CONDWS  .MMHO   : CONDUCTIVITY [1000/DRESWS]
DCORED  .KG/M3  : DENSITY CORRECTION FROM DENSITY LOG [ADJ. TO RESISTIVITY LOG]
DCORWS  .KG/M3  : DENSITY CORRECTION [DCORED]
DENWS   .KG/M3  : FORMATION BULK DENSITY [CALC. FROM DPOLSWS,M=2710,F=1000]
DPHILSED.V/V    : DENSITY POROSITY LIMESTONE [M=2710,F=1000] FROM DENSITY LOG [ADJ. TO RESISTIVITY LOG]
DPHISSED.V/V    : DENSITY POROSITY SANDSTONE [M=2650,F=1000] FROM DENSITY LOG [ADJ. TO RESISTIVITY LOG]
DPOLSWS .V/V    : DENSITY POROSITY LIMESTONE [DPHISSED CONVERTED TO LIMESTONE MATRIX,M=2710,F=1000,SPL. TO DPHILSED @ 2436M]
DRESWS  .OHMM   : DEEP RESISTIVITY [ILDED]
DTED    .US/M   : DELTA-T FROM SONIC LOG
DTWS    .US/M   : COMPRESSIONAL SONIC [DTED]
GRDED   .GAPI   : GAMMA RAY FROM DENSITY LOG [ADJ. TO RESISTIVITY LOG]
GRSED   .GAPI   : GAMMA RAY FROM SONIC LOG
GRWS    .GAPI   : GAMMA RAY [GRSED SPL. TO GRDED @ 3512M]
ILDED   .OHMM   : DEEP INDUCTION FROM RESISTIVITY LOG
ILMED   .OHMM   : MEDIUM INDUCTION FROM RESISTIVITY LOG
MRESWS  .OHMM   : MEDIUM RESISTIVITY [ILMED]
NPHILSED.V/V    : NEUTRON POROSITY LIMESTONE FROM DENSITY LOG [ADJ. TO RESISTIVITY LOG]
NPHISSED.V/V    : NEUTRON POROSITY SANDSTONE FROM DENSITY LOG [ADJ. TO RESISTIVITY LOG]
NPOLSWS .V/V    : NEUTRON POROSITY LIMESTONE [NPHISSED MATRIX CONVERSION FOR LIMESTONE,SPL. TO NPHILSED @ 2736M]
RHOBED  .KG/M3  : BULK DENSITY FROM DENSITY LOG [ADJ. TO RESISTIVITY LOG/DPHILSED]
SFLED   .OHMM   : SPHERICALLY FOCUSED FROM RESISTIVITY LOG
SPRED   .MV     : SPONTANEOUS POTENTIAL FROM RESISTIVITY LOG
SPWS    .MV     : SPONTANEOUS POTENTIAL [BASELINE 0 MV,SPRED]
SRESWS  .OHMM   : SHALLOW RESISTIVITY [SFLED]
~Params ----------------------------------------------------
PD  .                         GL : PERMANENT DATUM
EPD .M                     956.7 : ELEVATION PERMANENT DATUM
LMF .                         KB : LOG MEASURED FROM
DAPD.M                         7 : FEET ABOVE PERMANENT DATUM
DMF .                         KB : DRILLING MEASURED FROM
EKB .M                     963.7 : KELLY BUSHING
EGL .M                     956.7 : GROUND LEVEL
DATE.                   04/04/81 : RUN DATE
RUN .                          1 : RUN NUMBER
DD  .M                      3532 : DEPTH DRILLER
DL  .M                    3532.7 : DEPTH LOGGER
BLI .M                    3531.8 : BOTTOM LOG INTERVAL
TLI .M                     361.7 : TOP LOG INTERVAL
CS  .MM                      244 : CASING SIZE
CBD .M                       362 : CASING BOTTOM DRILLER
CBL .M                     361.7 : CASING BOTTOM LOGGER
BS  .MM                      222 : BIT SIZE
BSD .M                      3532 : BIT SIZE AT DEPTH
DFT .                   GEL CHEM : DRILLING FLUID TYPE
DFD .                       1115 : DRILLING FLUID DENSITY
DFV .                         93 : DRILLING FLUID VISCOSITY
DFPH.                         10 : DRILLING FLUID PH
DFL .                       10.8 : DRILLING FLUID LOSS
MSS .                CIRCULATION : MUD SAMPLE SOURCE
RMS .OHMM                   1.35 : RESISTIVITY MUD SAMPLE
MST .DEGC                  17.22 : MUD SAMPLE TEMPERATURE
RMF .OHMM                   1.09 : RESISTIVITY MUD FILTRATE SAMPLE
MFST.DEGC                  15.55 : MUD FILTRATE SAMPLE TEMPERATURE
MFSS.                      PRESS : MUD FILTRATE SAMPLE SOURCE
MCSS.                       MEAS : MUD CAKE SAMPLE SOURCE
RMB .OHMM                  0.415 : RESISTIVITY MUD AT BHT
TCS .HRS                     445 : TIME CIRCULATED STOPPED
TLAB.HRS                    1330 : TIME LOGGER AT BOTTOM
LUN .                       8218 : LOGGING UNIT NUMBER
LUL .                      EDSON : LOGGING UNIT LOCATION
ENGI.                        PAO : RECORDING ENGINEER
WITN.                       KYBA : WITNESSED BY
CLNT.                    A2DTECH : CLIENT CODE
ORIG. 6.5"/100M 16.5"/100M PRINT : ORIGIN OF DATA
UWI .           100081805214W500 : UNIQUE WELL ID
DICO.     A2D Technologies, Inc. : DIGITIZING COMPANY
~Other -----------------------------------------------------
DIL-SFL-BHC RUN IN COMBO & CNFD LOG RAN.
RHOB & DCOR ARE FROM SMALL SCALE.
NEUTRON MATRIX CONVERSION: SCHLUMBERGER.
~ASCII -----------------------------------------------------
  350.00000    -999.25    -999.25    -999.25    -999.25    -999.25    -999.25    -999.25    -999.25    -999.25    -999.25    -999.25    -999.25    -999.25    -999.25    -999.25   40.00520   40.00520    -999.25    -999.25    -999.25    -999.25    -999.25    -999.25    -999.25    -999.25    -999.25    -999.25    -999.25
  400.00000  317.76310  319.32010  317.76310   63.57540   61.26220   17.29670   17.29670 2295.66250    -999.25    0.21480    0.24230   16.33760  328.06750  328.06750   55.41130   56.34530   56.34530   16.33760    -999.25    -999.25    -999.25    0.34620    0.30280 2298.98110   12.00970  -53.38860  -11.79580   12.00970
  450.00000  329.64770  290.42870  329.64770   70.66150   73.47410  137.75140  137.75140 2264.39500    -999.25    0.23370    0.26060   13.61150  280.00200  280.00200   64.76400   62.45860   62.45860   13.61150    -999.25    -999.25    -999.25    0.30050    0.25980 2256.91150   10.53950  -49.81790   -6.19510   10.53950
  500.00000  300.10630  301.78700  300.10630   98.86000   99.97100   -7.46970   -7.46970 2508.59500    -999.25    0.08570    0.11780   10.00290  255.09930  255.09930   75.67630   78.91330   78.91330   10.00290    -999.25    -999.25    -999.25    0.23060    0.18680 2511.14040    8.40700  -48.56160   -4.68360    8.40700
  550.00000  401.15740  321.14750  401.15740  172.89340  172.81010   27.98780   27.98780 2329.73500    -999.25    0.19410    0.22240    5.78670  351.07520  351.07520   87.72020   92.09060   92.09060    5.78670    -999.25    -999.25    -999.25    0.42400    0.38160 2331.51490    4.36510  -49.63390   -5.50860    4.36510
  600.00000  365.75020  324.43480  365.75020   85.54520   90.30650    2.47600    2.47600 2421.64000    -999.25    0.13840    0.16860   11.07340  291.32460  291.32460   67.03960   65.01260   65.01260   11.07340    -999.25    -999.25    -999.25    0.27620    0.23320 2450.91460    9.10250  -51.78280   -7.05170    9.10250
  650.00000  326.01030  314.78530  326.01030   88.75160   88.74930    3.93490    3.93490 2396.89000    -999.25    0.15340    0.18310   11.26770  272.16230  272.16230   66.54730   55.56020   55.56020   11.26770    -999.25    -999.25    -999.25    0.29050    0.25500 2395.35620    8.95080  -54.25950   -8.92260    8.95080
  700.00000  346.23570  304.77760  346.23570  132.26690  125.19090   11.17350   11.17350 2483.84500    -999.25    0.10070    0.13230    7.98780  269.61130  269.61130   89.56020   84.56110   84.56110    7.98780    -999.25    -999.25    -999.25    0.25720    0.20850 2492.29930    6.15540  -51.32900   -5.71580    6.15540
  750.00000  422.37760  293.64820  422.37760  128.19460  128.13120  125.32280  125.32280 2368.18000    -999.25    0.17080    0.19990    7.80450  287.95690  287.95690  105.72220  106.91220  106.91220    7.80450    -999.25    -999.25    -999.25    0.27790    0.23160 2387.76540    5.54100  -49.73870   -4.12550    5.54100
  800.00000  384.27810  312.40590  384.27810  169.76220  169.73610   10.10540   10.10540 2405.14000    -999.25    0.14840    0.17830    5.89150  282.78940  282.78940   90.00840   88.85900   88.85900    5.89150    -999.25    -999.25    -999.25    0.27340    0.22940 2408.80320    5.18120  -48.90420   -3.29100    5.18120
  850.00000  338.04000  309.95120  338.04000   67.41670   67.07310   15.71450   15.71450 2425.93000    -999.25    0.13580    0.16610   14.90910  259.44250  259.44250   65.00070   53.13440   53.13440   14.90910    -999.25    -999.25    -999.25    0.27660    0.23200 2425.75120   12.80510  -54.35220   -8.73900   12.80510
  900.00000  299.62910  296.05840  299.62910  152.82900  152.83520   12.42530   12.42530 2445.73000    -999.25    0.12380    0.15450    6.54670  279.32520  279.32520   78.28020   73.34990   73.34990    6.54670    -999.25    -999.25    -999.25    0.31880    0.28520 2456.45230    5.42370  -49.29670   -3.68350    5.42370
  950.00000  334.62420  297.00140  334.62420  103.81680  103.77930    7.51190    7.51190 2506.28500    -999.25    0.08710    0.11910    9.63860  273.43800  273.43800   83.08290   79.48330   79.48330    9.63860    -999.25    -999.25    -999.25    0.29600    0.24880 2506.26380    8.17730  -49.17300   -3.78100    8.17730
 1000.00000  355.12220  287.31960  355.12220  190.34950  193.67340   35.40190   35.40190 2436.98500    -999.25    0.12910    0.15970    5.16580  307.89610  307.89610   78.69000   85.43630   85.43630    5.16580    -999.25    -999.25    -999.25    0.31470    0.26230 2445.06050    4.37150  -49.60720   -4.82780    4.37150
 1050.00000  363.05340  304.14080  363.05340  232.50800  232.13320   33.81530   33.81530 1981.50250    -999.25    0.40520    0.42600    4.30850  330.61220  330.61220  102.58980  100.97290  100.97290    4.30850    -999.25    -999.25    -999.25    0.40830    0.35140 1994.43100    3.16070  -48.31730   -4.15050    3.16070
 1100.00000  273.39980  301.74110  273.39980   87.52320   86.08000  101.61720  101.61720 2528.06500    -999.25    0.07390    0.10640   11.61710  279.11460  279.11460   81.14780   75.69080   75.69080   11.61710    -999.25    -999.25    -999.25    0.30280    0.26250 2527.02540    8.31500  -49.41060   -5.85640    8.31500
 1150.00000  318.33420  334.18730  318.33420   85.81410   84.91130   79.93280   79.93280 2439.62500    -999.25    0.12750    0.15810   11.77700  259.09020  259.09020   63.30920   67.96700   67.96700   11.77700    -999.25    -999.25    -999.25    0.26140    0.21740 2441.22170    9.80400  -48.31830   -5.37670    9.80400
 1200.00000  269.90090  280.89920  269.90090   62.53370   68.70260  145.56510  145.56510 2108.14000    -999.25    0.32840    0.35200   14.55550  254.65710  254.65710   54.64040   52.57010   52.57010   14.55550    -999.25    -999.25    -999.25    0.31140    0.26000 2094.43650   11.23720  -51.03030   -8.70130   11.23720
 1250.00000  296.76570  265.00090  296.76570   88.46700   88.90470   18.16220   18.16220 1892.65000    -999.25    0.45900    0.47800   11.24800  275.91870  275.91870   67.54710   73.92380   73.92380   11.24800    -999.25    -999.25    -999.25    0.44490    0.40310 1949.96900    9.88530  -45.97830   -4.26190    9.88530
 1300.00000  311.22200  274.78310  311.22200   99.40630  108.09760   16.20820   16.20820 2424.94000    -999.25    0.13640    0.16670    9.25090  275.25120  275.25120   66.89290   60.56770   60.56770    9.25090    -999.25    -999.25    -999.25    0.30680    0.26310 2443.12720    6.86800  -49.34200   -8.16960    6.86800
 1350.00000  337.39230  283.41230  337.39230    -999.25   83.84060   33.37130   33.37130 2453.32000    -999.25    0.11920    0.15010   11.92740  261.35570  261.35570   70.79210   56.99080   56.99080   11.92740   10.99330   10.99330    -999.25    0.28330    0.23910 2461.13010    9.28130  -46.26290   -5.21960    9.28130
 1400.00000  262.09320  262.46150  262.09320    -999.25   31.08470   40.01120   40.01120 2500.51000    -999.25    0.09060    0.12250   32.17020  230.50060  230.50060   43.14680   41.53850   41.53850   32.17020   36.19820   36.19820    -999.25    0.23000    0.18620 2498.11160   33.70480  -61.49930  -20.58510   33.70480
 1450.00000  294.74810  264.27620  294.74810    -999.25   49.89100  191.06960  191.06960 2467.34500    -999.25    0.11070    0.14190   20.04370  205.76710  205.76710   47.27040   45.40130   45.40130   20.04370   24.38350   24.38350    -999.25    0.16430    0.12980 2510.18950   57.01180  -47.35440   -5.34730   57.01180
 1500.00000  288.99710  256.48850  288.99710    -999.25   90.64300  249.56950  249.56950 2191.96000    -999.25    0.27760    0.30290   11.03410  259.66510  259.66510   89.45800   93.98280   93.98280   11.03410   10.64320   10.64320    -999.25    0.29550    0.24870 2247.05410   10.66140  -47.58760   -4.02470   10.66140
 1550.00000  274.07030  271.35020  274.07030    -999.25   72.17110  219.87720  219.87720 2279.65750    -999.25    0.22450    0.25170   13.85650  246.10260  246.10260   99.33320   97.27170   97.27170   13.85650   13.50730   13.50730    -999.25    0.27000    0.22090 2280.87800   12.98380  -49.03270   -6.23370   12.98380
