~Version ---------------------------------------------------
VERS. 2.0 : CWLS log ASCII Standard -VERSION 2.0
WRAP. YES : Multiple lines per depth step
~Well ------------------------------------------------------
STRT.m                             450.0 : START DEPTH
STOP.m                            2700.0 : STOP DEPTH
STEP.m                          50.00000 : STEP LENGTH
NULL.                            -999.25 : NULL VALUE
COMP.           PENN WEST PETROLEUM LTD. : COMPANY
WELL. PENN WEST ET AL TOMAHAWK 8-30-52-5 : WELL
FLD .                                    : FIELD
LOC .                                    : LOCATION
CTRY.                             CANADA : COUNTRY
SRVC.             Schlumberger of Canada : SERVICE COMPANY
DATE.                        19-Sep-1984 : LOGDATE
PROV.                            Alberta : PROVINCE
UWI .                   100083005205W500 : UNIQUE WELL ID
SLAT.WGS84                      53.51595 : SURFACE LATITUDE
SLON.WGS84                     -114.7188 : SURFACE LONGITUDE
~Curve Information -----------------------------------------
DEPT    .m      : Depth Curve
CALDED  .MM     : CALIPER  CNLD
CALSED  .MM     : CALIPER  SONIC
CALWS   .MM     : CALIPER (CALSED/CALDED/CALSED @ 1248,1688)
CONDWS  .MMHO   : CONDUCTIVITY (1000/DRESWS)
DCORWS  .KG/M3  : DENSITY CORRECTION (DRHOED)
DENWS   .KG/M3  : BULK DENSITY  (RHOBED)
DPHISSED.V/V    : DENSITY POROSITY SANDSTONE
DPOLSWS .V/V    : DENSITY POROSITY (M=2710 F=1000 FROM DENWS)
DRESWS  .OHMM   : DEEP RESISTIVITY (ILDED)
DRHOED  .KG/M3  : DENSITY CORRECTION
DTED    .US/M   : DELTA TIME
DTWS    .US/M   : DELTA TIME  (DTED)
GRDED   .GAPI   : GAMMA RAY  CNLD
GRSED   .GAPI   : GAMMA RAY  SONIC
GRWS    .GAPI   : GAMMA RAY (GRSED/GRDED/GRSED @ 1189,1686)
ILDED   .OHMM   : DEEP INDUCTION RESISTIVITY
ILMED   .OHMM   : MEDIUM INDUCTION RESISTIVITY
MRESWS  .OHMM   : MEDIUM RESISTIVITY (ILMED)
NPHISSED.V/V    : NEUTRON POROSITY SANDSTONE
NPOLSWS .V/V    : NEUTRON POROSITY LIMESTONE (NPHISSED CONVERTED TO LS)
RHOBED  .KG/M3  : BULK DENSITY
SFLUED  .OHMM   : SPHERICALLY FOCUSED RESISTIVITY
SPRED   .MV     : Spontaneous Potential  DIL
SPWS    .MV     : SPONTANEOUS POTENTIAL (SPRED) BASELINE 0 MV
SRESWS  .OHMM   : SHALLOW RESISTIVITY (SFLUED)
~Params ----------------------------------------------------
PD  .                         GL : PERMANENT DATUM
EPD .M                    799.64 : ELEVATION PERMANENT DATUM
LMF .                         KB : LOG MEASURED FROM
DAPD.M                      4.62 : FEET ABOVE PERMANENT DATUM
DMF .                         KB : DRILLING MEASURED FROM
EKB .M                    804.26 : KELLY BUSHING
EGL .M                    799.64 : GROUND LEVEL
DATE.                   09/19/84 : RUN DATE
RUN .                          1 : RUN NUMBER
DD  .M                    2714.5 : DEPTH DRILLER
DL  .M                    2714.8 : DEPTH LOGGER
BLI .M                    2713.8 : BOTTOM LOG INTERVAL
TLI .M                     426.3 : TOP LOG INTERVAL
CS  .MM                      244 : CASING SIZE
CBD .M                       426 : CASING BOTTOM DRILLER
CBL .M                       426 : CASING BOTTOM LOGGER
BS  .MM                      222 : BIT SIZE
BSD .M                    2714.5 : BIT SIZE AT DEPTH
DFT .                        GEL : DRILLING FLUID TYPE
DFD .                       1140 : DRILLING FLUID DENSITY
DFV .                         90 : DRILLING FLUID VISCOSITY
DFPH.                         10 : DRILLING FLUID PH
DFL .                        8.8 : DRILLING FLUID LOSS
MSS .                   FLOWLINE : MUD SAMPLE SOURCE
RMS .OHMM                   1.18 : RESISTIVITY MUD SAMPLE
MST .DEGC                   28.9 : MUD SAMPLE TEMPERATURE
RMF .OHMM                   0.99 : RESISTIVITY MUD FILTRATE SAMPLE
MFST.DEGC                   21.1 : MUD FILTRATE SAMPLE TEMPERATURE
MFSS.                       MEAS : MUD FILTRATE SAMPLE SOURCE
RMB .OHMM                  0.688 : RESISTIVITY MUD AT BHT
TCS .HRS                    1600 : TIME CIRCULATED STOPPED
TLAB.HRS                    2330 : TIME LOGGER AT BOTTOM
LUN .                       8110 : LOGGING UNIT NUMBER
LUL .                        EDM : LOGGING UNIT LOCATION
ENGI.          TRUSEVYCH CORNISH : RECORDING ENGINEER
WITN.                      URBAN : WITNESSED BY
CLNT.                    A2DTECH : CLIENT CODE
ORIG. 6.5"/100M 16.5"/100M PRINT : ORIGIN OF DATA
UWI .           100083005205W500 : UNIQUE WELL ID
DICO.     A2D Technologies, Inc. : DIGITIZING COMPANY
~Other -----------------------------------------------------
~ASCII -----------------------------------------------------
  450.00000    -999.25  239.66160  239.66160  114.81190    -999.25    -999.25    -999.25    -999.25    8.70990    -999.25  320.55600  320.55600    -999.25   63.33010   63.33010    8.70990    8.24550    8.24550    -999.25    -999.25    -999.25    7.87150  -21.39960  -11.13770    7.87150
  500.00000    -999.25  265.10030  265.10030  246.07510    -999.25    -999.25    -999.25    -999.25    4.06380    -999.25  367.01060  367.01060    -999.25   89.70800   89.70800    4.06380    3.84620    3.84620    -999.25    -999.25    -999.25    4.06900  -23.71070  -13.15440    4.06900
  550.00000    -999.25  232.75080  232.75080  342.12600    -999.25    -999.25    -999.25    -999.25    2.92290    -999.25  355.99790  355.99790    -999.25   98.03590   98.03590    2.92290    2.60780    2.60780    -999.25    -999.25    -999.25    2.48190  -16.71150   -5.86080    2.48190
  600.00000    -999.25  243.94560  243.94560  334.95230    -999.25    -999.25    -999.25    -999.25    2.98550    -999.25  379.54760  379.54760    -999.25   64.71300   64.71300    2.98550    2.83230    2.83230    -999.25    -999.25    -999.25    3.91300  -18.12670   -6.98160    3.91300
  650.00000    -999.25  219.45290  219.45290  171.41780    -999.25    -999.25    -999.25    -999.25    5.83370    -999.25  307.81000  307.81000    -999.25   70.67530   70.67530    5.83370    5.44170    5.44170    -999.25    -999.25    -999.25    4.74610  -16.68310   -5.24360    4.74610
  700.00000    -999.25  214.43100  214.43100  175.92010    -999.25    -999.25    -999.25    -999.25    5.68440    -999.25  313.15780  313.15780    -999.25   66.59140   66.59140    5.68440    5.45840    5.45840    -999.25    -999.25    -999.25    4.95770  -18.63910   -6.90520    4.95770
  750.00000    -999.25  216.07430  216.07430  196.54090    -999.25    -999.25    -999.25    -999.25    5.08800    -999.25  338.01100  338.01100    -999.25   57.31750   57.31750    5.08800    4.67210    4.67210    -999.25    -999.25    -999.25    4.49630  -16.40510   -4.37680    4.49630
  800.00000    -999.25  237.19080  237.19080  210.83260    -999.25    -999.25    -999.25    -999.25    4.74310    -999.25  327.28250  327.28250    -999.25   65.18380   65.18380    4.74310    5.27860    5.27860    -999.25    -999.25    -999.25    5.10390  -16.23200   -3.90930    5.10390
  850.00000    -999.25  235.46380  235.46380  152.29040    -999.25    -999.25    -999.25    -999.25    6.56640    -999.25  284.26180  284.26180    -999.25   49.49430   49.49430    6.56640    6.32470    6.32470    -999.25    -999.25    -999.25    6.10720  -16.39010   -3.77300    6.10720
  900.00000    -999.25  262.24780  262.24780  208.04730    -999.25    -999.25    -999.25    -999.25    4.80660    -999.25  323.88360  323.88360    -999.25   83.18850   83.18850    4.80660    4.53410    4.53410    -999.25    -999.25    -999.25    4.98380  -14.51940   -1.60790    4.98380
  950.00000    -999.25  290.32860  290.32860  121.80710    -999.25    -999.25    -999.25    -999.25    8.20970    -999.25  289.02270  289.02270    -999.25   89.63290   89.63290    8.20970    7.97990    7.97990    -999.25    -999.25    -999.25    7.52140  -19.83280   -6.62690    7.52140
 1000.00000    -999.25  237.21090  237.21090  124.32400    -999.25    -999.25    -999.25    -999.25    8.04350    -999.25  322.19550  322.19550    -999.25  109.68550  109.68550    8.04350    7.41680    7.41680    -999.25    -999.25    -999.25    8.64370  -16.05350   -2.57250    8.64370
 1050.00000    -999.25  228.17310  228.17310  150.02400    -999.25    -999.25    -999.25    -999.25    6.66560    -999.25  302.89970  302.89970    -999.25  103.37750  103.37750    6.66560    6.22050    6.22050    -999.25    -999.25    -999.25    7.00500  -17.11340   -5.76180    7.00500
 1100.00000    -999.25  226.46900  226.46900  126.99060    -999.25    -999.25    -999.25    -999.25    7.87460    -999.25  296.32180  296.32180    -999.25   82.36690   82.36690    7.87460    7.64260    7.64260    -999.25    -999.25    -999.25    8.11500  -17.67460   -8.45240    8.11500
 1150.00000    -999.25  219.04700  219.04700  133.52560    -999.25    -999.25    -999.25    -999.25    7.48920    -999.25  290.09990  290.09990    -999.25  101.41380  101.41380    7.48920    7.27840    7.27840    -999.25    -999.25    -999.25    6.61780  -14.17770   -7.08490    6.61780
 1200.00000  275.00320  229.04170  229.04170  111.61960  103.45520 2325.15260    0.19540    0.22510    8.95900  103.45520  288.64650  288.64650  102.79440   93.25000  102.79440    8.95900    8.31390    8.31390    0.27820    0.33740 2325.15260    9.29120  -13.08170   -8.11830    9.29120
 1250.00000  212.09410  225.52370  212.09410  118.24100   68.02970 2422.30540    0.13890    0.16820    8.45730   68.02970  314.06410  314.06410  123.59690  121.96190  123.59690    8.45730    7.87800    7.87800    0.39990    0.42990 2422.30540    9.26790  -10.12000   -7.28600    9.26790
 1300.00000  221.78170  219.67010  221.78170   97.36150   99.17730 2475.48050    0.10540    0.13710   10.27100   99.17730  291.01860  291.01860  127.97730  113.91610  127.97730   10.27100    9.82070    9.82070    0.34550    0.38990 2475.48050   10.11120   -9.76410   -9.05950   10.11120
 1350.00000  308.04760  233.82160  308.04760  158.10030  136.45020 2359.22440    0.17150    0.20510    6.32510  136.45020  318.02820  318.02820  136.74470  151.82710  136.74470    6.32510    6.14290    6.14290    0.42350    0.44660 2359.22440    7.64100   -4.82910   -6.25390    7.64100
 1400.00000  220.23700  220.54890  220.23700  173.96750   14.27480 2443.93700    0.13140    0.15560    5.74820   14.27480  285.13820  285.13820  113.24080  112.92630  113.24080    5.74820    5.42570    5.42570    0.27010    0.33080 2443.93700    8.52170   -9.82220  -13.27640    8.52170
 1450.00000  243.39520  229.84420  243.39520   97.94990  -17.10060 1339.33130    0.80210    0.80160   10.20930  -17.10060  397.79600  397.79600   36.79370   36.89530   36.79370   10.20930    8.13490    8.13490    0.61630    0.63130 1339.33130    9.80030    6.93710    2.04830    9.80030
 1500.00000  255.00610  232.82620  255.00610   89.54960   -5.26790 2621.05540    0.02080    0.05200   11.16700   -5.26790  236.67290  236.67290   77.13900   82.11930   77.13900   11.16700   11.60280   11.60280    0.23900    0.30490 2621.05540   11.01380    2.45040   -3.87310   11.01380
 1550.00000  258.52750  232.23700  258.52750  101.54140   -5.06790 2446.20410    0.12050    0.15430    9.84820   -5.06790  248.43140  248.43140   54.67880   56.79400   54.67880    9.84820   11.70670   11.70670    0.20840    0.27850 2446.20410   24.81330  -26.86350  -34.62160   24.81330
 1600.00000  331.68760  258.94110  331.68760  103.77750  131.20760 2328.92850    0.20310    0.22280    9.63600  131.20760  286.19970  286.19970   94.90750   95.62570   94.90750    9.63600    9.23220    9.23220    0.33180    0.37960 2328.92850   11.80160    6.66210   -2.53070   11.80160
 1650.00000  246.72100  232.09020  246.72100    0.49960    3.94430 2500.59810    0.04600    0.12250 2001.63840    3.94430  170.69210  170.69210   19.49190   18.47140   19.49190 2001.63840 1300.34470 1300.34470    0.05740    0.12720 2500.59810  153.46450  -76.01480  -81.42200  153.46450
 1700.00000    -999.25  217.87780  217.87780   42.08970    -999.25    -999.25    -999.25    -999.25   23.75880    -999.25  189.26750  189.26750    -999.25   29.46180   29.46180   23.75880   24.15950   24.15950    -999.25    -999.25    -999.25   26.79540  -25.77810  -27.07820   26.79540
 1750.00000    -999.25  220.20620  220.20620   26.37710    -999.25    -999.25    -999.25    -999.25   37.91170    -999.25  186.61690  186.61690    -999.25   27.65620   27.65620   37.91170   39.20300   39.20300    -999.25    -999.25    -999.25   44.33240  -12.14840   -9.34140   44.33240
 1800.00000    -999.25  214.18150  214.18150   65.82540    -999.25    -999.25    -999.25    -999.25   15.19170    -999.25  157.19860  157.19860    -999.25   14.61470   14.61470   15.19170   50.37820   50.37820    -999.25    -999.25    -999.25  417.57170 -139.83860 -132.92460  417.57170
