~Version ---------------------------------------------------
VERS. 2.0 : CWLS log ASCII Standard -VERSION 2.0
WRAP.  NO : ONE LINE PER DEPTH STEP
~Well ------------------------------------------------------
STRT.F                      900.0 : START DEPTH
STOP.F                    11750.0 : STOP DEPTH
STEP.F                   50.00000 : STEP LENGTH
NULL.                     -999.25 : NULL VALUE
COMP.        MOBIL OIL CANADA LTD : COMPANY
WELL. MOBIL ET AL PINE CREEK 6-36 : WELL
FLD .                             : FIELD
LOC .                             : LOCATION
CTRY.                      CANADA : COUNTRY
SRVC.                Schlumberger : SERVICE COMPANY
DATE.                 21-Apr-1961 : LOGDATE
PROV.                     Alberta : PROVINCE
UWI .            100063605819W500 : UNIQUE WELL ID
SLAT.WGS84               54.05556 : SURFACE LATITUDE
SLON.WGS84              -116.6911 : SURFACE LONGITUDE
~Curve Information -----------------------------------------
DEPT.F                 : 
CILD.MMHO 07 110 46 00 : CONDUCTIVITY INDUCTION LOG DEEP
ILD .OHMM              : DEEP INDUCTION RESISTIVITY
SPR .MV                : SPONTANEOUS POTENTIAL FROM RESISTIVITY
SN  .OHMM 01 040 10 00 : SHORT NORMAL 10"
MCAL.IN                : MLT [MICROLOG] CALIPER
DT  .US/F 60 520 00 00 : ACOUSTIC TRANSIT TIME SLOWNESS, DELTA T
DT_1.US/F 60 520 00 00 : ACOUSTIC TRANSIT TIME SLOWNESS, DELTA T
DT_2.US/F 60 520 00 00 : ACOUSTIC TRANSIT TIME SLOWNESS, DELTA T
DT_3.US/F 60 520 00 00 : ACOUSTIC TRANSIT TIME SLOWNESS, DELTA T
GRS .GAPI 00 000 00 01 : GAMMA RAY FROM SONIC
~Params ----------------------------------------------------
PD  .                     GL : PERMANENT DATUM
LMF .                     KB : LOG MEASURED FROM
DAPD.FT                 13.6 : FEET ABOVE PERMANENT DATUM
DMF .                     KB : DRILLING MEASURED FROM
EKB .FT                 3433 : KELLY BUSHING
EGL .FT               3419.4 : GROUND LEVEL
DATE.               04/21/61 : RUN DATE
RUN .                      2 : RUN NUMBER
DD  .FT                11780 : DEPTH DRILLER
DL  .FT                11781 : DEPTH LOGGER
BLI .FT                11780 : BOTTOM LOG INTERVAL
TLI .FT                 8720 : TOP LOG INTERVAL
BS  .IN                    9 : BIT SIZE
BSD .FT                11780 : BIT SIZE AT DEPTH
DFT .              LIME BASE : DRILLING FLUID TYPE
DFV .                    120 : DRILLING FLUID VISCOSITY
DFPH.                     13 : DRILLING FLUID PH
DFL .                    8.8 : DRILLING FLUID LOSS
RMS .OHMM                1.0 : RESISTIVITY MUD SAMPLE
MST .DEGF                 55 : MUD SAMPLE TEMPERATURE
RMF .OHMM               0.22 : RESISTIVITY MUD FILTRATE SAMPLE
MFST.DEGF                203 : MUD FILTRATE SAMPLE TEMPERATURE
RMC .OHMM               0.39 : RESISTIVITY MUD CAKE
MCST.DEGF                203 : MUD CAKE SAMPLE TEMPERATURE
RMB .OHMM               0.28 : RESISTIVITY MUD AT BHT
TCS .HRS                   4 : TIME CIRCULATED STOPPED
LUN .                   2742 : LOGGING UNIT NUMBER
LUL .                    EDM : LOGGING UNIT LOCATION
ENGI.               MC CAMUS : RECORDING ENGINEER
WITN.           CURRIE MOORE : WITNESSED BY
CLNT.                A2DTECH : CLIENT CODE
ORIG.            2" 5" PRINT : ORIGIN OF DATA
UWI .       100063605819W500 : UNIQUE WELL ID
DICO. A2D Technologies, Inc. : DIGITIZING COMPANY
~Other -----------------------------------------------------
~ASCII -----------------------------------------------------
  900.00000    -999.25    -999.25    -999.25    -999.25    -999.25    -999.25    -999.25    -999.25    -999.25    1.96460
  950.00000    -999.25    -999.25    -999.25    -999.25    -999.25    -999.25    -999.25    -999.25    -999.25    2.33780
 1000.00000    -999.25    -999.25    -999.25    -999.25    -999.25    -999.25    -999.25    -999.25    -999.25    2.28100
 1050.00000    -999.25    -999.25    -999.25    -999.25    -999.25    -999.25    -999.25    -999.25    -999.25    2.37280
 1100.00000    -999.25    -999.25    -999.25    -999.25    -999.25    -999.25    -999.25    -999.25    -999.25    2.99840
 1150.00000    -999.25    -999.25    -999.25    -999.25    -999.25    -999.25    -999.25    -999.25    -999.25    2.91810
 1200.00000    -999.25    -999.25    -999.25    -999.25    -999.25    -999.25    -999.25    -999.25    -999.25    -999.25
 1250.00000   34.87770   36.98160  -70.42030   16.26320   10.61910   88.92170    -999.25    -999.25    -999.25    3.63780
 1300.00000  128.82210    7.58200  -64.26420    7.78120   13.34410   91.71090    -999.25    -999.25    -999.25    4.98030
 1350.00000   96.22740    9.06660  -60.97910    9.69300   12.88600  121.99930    -999.25    -999.25    -999.25    5.98780
 1400.00000   66.84380   15.19070  -70.87430   10.69830   13.18190   95.67800    -999.25    -999.25    -999.25    6.39270
 1450.00000   43.94170   23.82870  -81.28320   17.59830   11.23960  100.34460    -999.25    -999.25    -999.25    4.08360
 1500.00000   59.89700   15.33440  -64.14070   12.77410   12.55330  110.94660    -999.25    -999.25    -999.25    6.16510
 1550.00000  130.62050    7.90780  -64.67200    9.05380   12.62680  114.83280    -999.25    -999.25    -999.25    6.05480
 1600.00000   98.85940    9.82200  -74.86760   10.19590   12.36470   87.23000    -999.25    -999.25    -999.25    4.59190
 1650.00000  140.48620    7.86940  -63.97350   12.76350   11.92370  113.83590    -999.25    -999.25    -999.25    3.95950
 1700.00000  101.19740    9.67230  -79.28570    8.44110   10.92680   90.59730    -999.25    -999.25    -999.25    3.25940
 1750.00000   60.57140   17.08170  -73.47300   15.35100   11.73040   66.17900    -999.25    -999.25    -999.25    3.82880
 1800.00000  148.52500    5.82600  -70.35070    6.10750   15.03850   96.89620    -999.25    -999.25    -999.25    5.05800
 1850.00000   95.62800   10.68250  -73.13760    6.92200   14.12390   91.26610    -999.25    -999.25    -999.25    3.55320
 1900.00000  101.36120    9.51950  -71.81820    6.92320   13.85680   91.53700    -999.25    -999.25    -999.25    5.01170
 1950.00000  302.71660    3.25770  -60.97070    4.85570   15.10110  131.92320    -999.25    -999.25    -999.25    4.01880
 2000.00000  173.91710    5.12510  -64.57430    5.57600   14.69260  105.39270    -999.25    -999.25    -999.25    4.83980
 2050.00000  205.69730    4.37020  -67.80240    5.19990   13.88550   97.99100    -999.25    -999.25    -999.25    4.55370
 2100.00000  169.14350    5.32180  -72.18390    6.18610   13.36860   91.90230    -999.25    -999.25    -999.25    5.00030
 2150.00000   96.64770    9.83920  -70.26110    7.91890   12.62550   88.63450    -999.25    -999.25    -999.25    5.70000
 2200.00000  105.29790    9.36770  -76.89790    8.28950   10.41640   86.85310    -999.25    -999.25    -999.25    3.33080
 2250.00000   91.65080   10.73780  -75.87440    8.53710   10.81060   82.44690    -999.25    -999.25    -999.25    3.60230
 2300.00000  165.68400    5.91460  -69.69470    4.92500   14.05140   91.67380    -999.25    -999.25    -999.25    4.50000
 2350.00000  108.83100    8.67480  -71.23690    6.62360   13.04180   90.47750    -999.25    -999.25    -999.25    4.06170
 2400.00000  212.22490    4.15250  -67.13780    4.89890   12.62630   92.93360    -999.25    -999.25    -999.25    4.88600
 2450.00000  135.01450    7.06670  -71.86890    6.39790   11.36000   90.59470    -999.25    -999.25    -999.25    4.62450
 2500.00000  139.71700    6.83630  -64.92860    6.57060   12.37060   94.37630    -999.25    -999.25    -999.25    5.66870
 2550.00000  289.30560    3.24460  -66.50520    5.07810   11.25570   93.96500    -999.25    -999.25    -999.25    5.57140
 2600.00000  214.85770    4.50830  -60.53950    4.86710   11.89970  100.93500    -999.25    -999.25    -999.25    5.16260
 2650.00000  227.45430    3.85480  -61.66030    4.14550   12.02450   82.80790    -999.25    -999.25    -999.25    4.95390
 2700.00000  236.02710    4.00480  -59.70070    4.64150   11.40760  110.59340    -999.25    -999.25    -999.25    5.64660
 2750.00000  181.50020    5.38040  -62.43330    5.43930   11.65780  101.93520    -999.25    -999.25    -999.25    5.33410
 2800.00000  210.62680    4.53090  -68.65770    4.93230   11.65480   94.02890    -999.25    -999.25    -999.25    4.43250
 2850.00000  236.20920    3.97400  -64.59440    4.48020   13.93620   86.21060    -999.25    -999.25    -999.25    4.89170
 2900.00000  105.84060    8.77000  -69.82330    7.83470   13.30120   77.63930    -999.25    -999.25    -999.25    3.05020
 2950.00000  224.15780    4.06300  -64.66350    4.69190   11.87770  102.68830    -999.25    -999.25    -999.25    4.79840
 3000.00000  234.42890    3.82580  -61.97130    5.39970   11.94510   96.59390    -999.25    -999.25    -999.25    4.51360
 3050.00000   73.58300   13.39100  -75.37970   11.86940   11.12090   82.73990    -999.25    -999.25    -999.25    3.13740
 3100.00000  162.68320    5.58740  -65.97710    5.29180   12.39230   91.50260    -999.25    -999.25    -999.25    4.83660
 3150.00000  157.66420    5.57080  -66.33910    6.98700   12.07470   92.04210    -999.25    -999.25    -999.25    4.79850
 3200.00000  172.07360    4.95430  -66.76940    5.28750   12.35260   87.79640    -999.25    -999.25    -999.25    5.44050
 3250.00000  184.99230    4.90920  -59.07100    6.00960   10.89560  108.91990    -999.25    -999.25    -999.25    5.32480
 3300.00000  247.84010    3.53770  -63.09290    4.01130   12.19140   98.93890    -999.25    -999.25    -999.25    5.69050
 3350.00000  117.34120    7.59350  -65.84790    6.97320   12.02440   83.59970    -999.25    -999.25    -999.25    4.38530
 3400.00000  178.96390    5.43620  -59.49530    5.89010   12.91440   93.07500    -999.25    -999.25    -999.25    4.80870
 3450.00000  202.39220    4.34220  -60.87320    4.80110   12.31390   93.51600    -999.25    -999.25    -999.25    5.06100
 3500.00000  142.99360    6.80410  -67.89040    6.54920   10.79390   85.09190    -999.25    -999.25    -999.25    4.40110
 3550.00000  272.85560    3.36670  -60.43480    3.98420   11.89840  107.47090    -999.25    -999.25    -999.25    5.57400
 3600.00000   71.59640   13.65660  -68.49420    9.00740    9.94140   85.21240    -999.25    -999.25    -999.25    3.15460
 3650.00000  220.28000    3.99260  -60.91370    4.43580   11.73350   96.14790    -999.25    -999.25    -999.25    5.38120
 3700.00000  240.83110    3.87840  -55.34320    4.84670   12.49090  101.12150    -999.25    -999.25    -999.25    4.38960
 3750.00000   78.54080   12.36540  -66.18880    9.60510   10.50900   81.59510    -999.25    -999.25    -999.25    3.42670
 3800.00000  209.17480    4.51780  -56.97490    4.91760   12.33490   90.49810    -999.25    -999.25    -999.25    4.85540
 3850.00000  195.43850    4.64080  -62.34600    5.38880   12.54400   92.12680    -999.25    -999.25    -999.25    5.05430
 3900.00000  207.28020    5.07110  -58.29610    5.93740   11.69950   80.53690    -999.25    -999.25    -999.25    4.06070
 3950.00000  188.54890    4.56790  -57.23710    5.14800   12.56030   90.90770    -999.25    -999.25    -999.25    4.12800
 4000.00000   97.71930   10.35390  -63.14400    8.76120   12.65500   79.86100    -999.25    -999.25    -999.25    3.68670
 4050.00000  138.28120    6.53130  -62.28890    6.36080   12.23530   88.82640    -999.25    -999.25    -999.25    4.23320
 4100.00000  117.41480    8.55720  -64.25110    7.80000   12.04470   83.50500    -999.25    -999.25    -999.25    3.88740
 4150.00000   85.61490   14.48260  -60.65990    9.16210   10.20480   74.73490    -999.25    -999.25    -999.25    2.86210
