~Version ---------------------------------------------------
VERS. 2.0 : CWLS log ASCII Standard -VERSION 2.0
WRAP.  NO : One line per depth step
~Well ------------------------------------------------------
STRT.ft                       700.0 : START DEPTH
STOP.ft                     10900.0 : STOP DEPTH
STEP.ft                    50.00000 : STEP LENGTH
NULL.                       -999.25 : NULL VALUE
COMP.   SHELL CANADA RESOURCES LTD. : COMPANY
WELL. SHELL ET AL PEERS 11-34-53-14 : WELL
FLD .                               : FIELD
LOC .                               : LOCATION
CTRY.                        CANADA : COUNTRY
SRVC.        Schlumberger of Canada : SERVICE COMPANY
DATE.                   29-Aug-1977 : LOGDATE
PROV.                       Alberta : PROVINCE
UWI .              100113405314W500 : UNIQUE WELL ID
SLAT.WGS84                 53.62396 : SURFACE LATITUDE
SLON.WGS84                -115.9841 : SURFACE LONGITUDE
~Curve Information -----------------------------------------
DEPT   .ft    : Depth Curve
CALD   .IN    : CALIPER FROM FDC/CNL LOG
CALS   .IN    : CALIPER FROM BHC/GR LOG
DCOR   .G/C3  : DENSITY CORRECTION FROM FDC/CNL LOG
DPHI_LS.DEC   : DENSITY POROSITY LIMESTONE FROM FDC/CNL LOG
DPHI_SS.DEC   : DENSITY POROSITY SANDSTONE FROM FDC/CNL LOG
DT     .US/F  : DELTA-T (INTERVAL TRANSIT TIME) FROM BHC/GR LOG
GRD    .GAPI  : GAMMA RAY FROM FDC/CNL LOG
GRR    .GAPI  : GAMMA RAY FROM DLL LOG
GRS    .GAPI  : GAMMA RAY FROM BHC/GR LOG
LLD    .OHMM  : LATEROLOG DEEP RESISTIVITY FROM DLL LOG
LLS    .OHMM  : LATEROLOG SHALLOW RESISTIVITY FROM DLL LOG
MCAL   .IN    : CALIPER FROM PML LOG
NPHI_LS.DEC   : NEUTRON POROSITY LIMESTONE FROM FDC/CNL LOG
NPHI_SS.DEC   : NEUTRON POROSITY SANDSTONE FROM FDC/CNL LOG
PROX   .OHMM  : PROXIMITY RESISTIVITY FROM PML LOG
RHOB   .G/C3  : BULK DENSITY FROM FDC/CNL LOG
~Params ----------------------------------------------------
PD  .                     GL : PERMANENT DATUM
EPD .FT               2853.7 : ELEVATION PERMANENT DATUM
LMF .                     KB : LOG MEASURED FROM
DAPD.FT                 20.6 : FEET ABOVE PERMANENT DATUM
EKB .FT               2874.3 : KELLY BUSHING
EGL .FT               2853.7 : GROUND LEVEL
DATE.               08/29/77 : RUN DATE
RUN .                      1 : RUN NUMBER
DD  .FT                10950 : DEPTH DRILLER
DL  .FT                10935 : DEPTH LOGGER
BLI .FT                10932 : BOTTOM LOG INTERVAL
TLI .FT                 1159 : TOP LOG INTERVAL
CS  .IN                9.625 : CASING SIZE
CBD .FT                 1159 : CASING BOTTOM DRILLER
CBL .FT                 1159 : CASING BOTTOM LOGGER
BS  .IN                 8.75 : BIT SIZE
BSD .FT                10950 : BIT SIZE AT DEPTH
DFT .             KCL BARITE : DRILLING FLUID TYPE
DFD .                    9.2 : DRILLING FLUID DENSITY
DFV .                     65 : DRILLING FLUID VISCOSITY
DFPH.                   10.5 : DRILLING FLUID PH
DFL .                   14.2 : DRILLING FLUID LOSS
RMS .OHMM              0.243 : RESISTIVITY MUD SAMPLE
MST .DEGF                 60 : MUD SAMPLE TEMPERATURE
RMF .OHMM              0.172 : RESISTIVITY MUD FILTRATE SAMPLE
MFST.DEGF                 74 : MUD FILTRATE SAMPLE TEMPERATURE
RMB .OHMM              0.069 : RESISTIVITY MUD AT BHT
TCS .HRS                   5 : TIME CIRCULATED STOPPED
LUN .                   7772 : LOGGING UNIT NUMBER
LUL .                    EDM : LOGGING UNIT LOCATION
ENGI.               BERNISKY : RECORDING ENGINEER
WITN.                  CRAIG : WITNESSED BY
CLNT.                A2DTECH : CLIENT CODE
ORIG.            2" 5" PRINT : ORIGIN OF DATA
UWI .       100113405314W500 : UNIQUE WELL ID
DICO. A2D Technologies, Inc. : DIGITIZING COMPANY
~Other -----------------------------------------------------
~ASCII -----------------------------------------------------
# ...
 5000.00000   10.51290   10.35160    0.23290    -999.25    0.10850   80.35980  125.07940  118.22060  122.74420    8.88750    9.39620    -999.25    -999.25    0.31220    -999.25    2.36700
 5050.00000   10.56510   10.38100    0.25670    -999.25    0.15520   80.28170  119.96540  119.04960  122.13060    9.40310    9.94840    -999.25    -999.25    0.31190    -999.25    2.40420
 5100.00000   11.41270   10.67940    0.18510    -999.25    0.28040   80.77160  123.33830  127.31400  126.31620    8.20900    8.69750    -999.25    -999.25    0.32170    -999.25    2.17640
 5150.00000   11.48070   10.41350    0.18950    -999.25    0.37190   83.26740  129.76080  131.42010  125.13120    7.55240    8.04050    -999.25    -999.25    0.33440    -999.25    2.01010
 5200.00000    9.31380    9.50070    0.13720    -999.25    0.08990   71.85150  107.86220  110.85940   95.02420   18.40650   20.78440    -999.25    -999.25    0.21340    -999.25    2.50380
 5250.00000   10.27420    9.89660    0.18420    -999.25    0.08800   75.21890  124.60700  122.25280  115.06360   13.64930   14.42800    -999.25    -999.25    0.24700    -999.25    2.51760
 5300.00000   10.26420   10.22930    0.20360    -999.25    0.16610   75.85220  126.07310  123.31430  123.87440   11.91510   12.58290    -999.25    -999.25    0.24200    -999.25    2.42350
 5350.00000   10.84390   10.28860    0.19920    -999.25    0.14830   76.24450  129.75960  123.30680  120.33670   12.49960   13.66140    -999.25    -999.25    0.26260    -999.25    2.35020
 5400.00000   10.58490   10.36520    0.25830    -999.25    0.17840   78.50560  130.28660  126.56500  120.01280   10.96610   11.58180    -999.25    -999.25    0.29950    -999.25    2.27610
 5450.00000   10.87360   10.30470    0.19450    -999.25    0.24560   81.45490  128.45190  126.13180  127.57130   10.17630   11.48390    -999.25    -999.25    0.30540    -999.25    2.25790
 5500.00000   10.60320    9.98600    0.23340    -999.25    0.15980   79.67640  128.11350  127.46720  129.23920   12.43360   14.11460    -999.25    -999.25    0.32390    -999.25    2.40840
 5550.00000    9.05280    9.50850    0.17010    -999.25    0.15060   82.09330  142.20500  134.57160  145.00280   14.48230   17.55800    -999.25    -999.25    0.33500    -999.25    2.53350
 5600.00000    9.01740    9.23150    0.01520    -999.25    0.04800   86.25640  144.13790  148.24090  149.79200   15.05840   18.25320    -999.25    -999.25    0.37020    -999.25    2.60240
 5650.00000    9.07160    9.32210   -0.00410    -999.25    0.01780   85.53490  147.98250  151.19970  142.37360   15.96530   19.23150    -999.25    -999.25    0.34440    -999.25    2.59870
 5700.00000    9.08520    9.39750    0.01760    -999.25    0.04460   87.51550  136.85790  143.21060  149.52570   16.16300   18.58990    -999.25    -999.25    0.36160    -999.25    2.57160
 5750.00000    9.20860    9.39040    0.00460    -999.25    0.02700   81.89680  130.66000  133.77540  132.19590   25.64320   31.44640    -999.25    -999.25    0.32920    -999.25    2.59690
 5800.00000   10.22850    9.56390    0.20690    -999.25    0.12070   86.59970  145.03170  137.71900  132.46200   13.16460   16.06760    -999.25    -999.25    0.35210    -999.25    2.43340
 5850.00000    9.13180    9.68070    0.12700    -999.25    0.10730   92.05320  151.33760  141.23500  146.67930   17.35450   21.10460    -999.25    -999.25    0.38990    -999.25    2.51820
 5900.00000   10.19710   10.27030    0.19880    -999.25    0.14970   81.73560  127.99280  129.18050  127.76310   11.45660   12.84740    -999.25    -999.25    0.32710    -999.25    2.43870
 5950.00000   10.53640   10.10690    0.23540    -999.25    0.16150   85.10240  128.25680  130.06720  133.40040    8.98360   10.85630    -999.25    -999.25    0.35390    -999.25    2.44910
 6000.00000    9.92720    9.92060    0.10020    -999.25    0.09870   76.31690  120.06270  124.58650  123.50200   13.79910   15.76590    -999.25    -999.25    0.32000    -999.25    2.48110
 6050.00000   11.14390    9.97740    0.25690    -999.25    0.19410   85.22960  128.73710  136.66890  136.96370    8.38510   10.07900    -999.25    -999.25    0.35920    -999.25    2.31470
 6100.00000   10.60880    9.92980    0.25720    -999.25    0.10220   82.76170  133.66590  135.41320  134.95150   10.06170   12.20100    -999.25    -999.25    0.32680    -999.25    2.47080
 6150.00000   10.44880    9.81180    0.22040    -999.25    0.10400   86.48530  172.41820  169.74060  166.97360    9.78510   11.89630    -999.25    -999.25    0.36180    -999.25    2.44280
 6200.00000   12.60880   10.29400    0.22200    -999.25    0.27630   88.04160  121.43230  123.19600  129.57830    5.07520    5.84700    -999.25    -999.25    0.39760    -999.25    2.10450
 6250.00000   12.32570   10.17890    0.25750    -999.25    0.22480   84.92090  122.89650  126.86200  128.88200    6.60310    7.81560    -999.25    -999.25    0.36530    -999.25    2.25990
 6300.00000    8.70560    9.20650    0.01560    -999.25    0.03160   69.13930  102.00550  101.79150  105.09170   27.46210   30.78510    -999.25    -999.25    0.20540    -999.25    2.55830
 6350.00000    8.72680    9.21130   -0.02120    -999.25    0.01480   65.30560   81.97270   83.10760   75.14660   27.14610   29.23250    -999.25    -999.25    0.14350    -999.25    2.64790
 6400.00000    9.17130    9.47720   -0.00030    -999.25    0.00980   71.73590  102.11560   98.16330   96.57200   19.39440   18.39800    -999.25    -999.25    0.22350    -999.25    2.59710
 6450.00000    9.01860    9.56100   -0.01470    -999.25    0.05500   69.53850   93.58650   97.00170   91.14980   21.28250   24.17670    -999.25    -999.25    0.34190    -999.25    2.53960
 6500.00000    9.06960    9.48870    0.00920    -999.25    0.09420   78.96420  117.41450  119.61130  108.85660   24.34280   25.58960    -999.25    -999.25    0.32330    -999.25    2.50530
 6550.00000   10.20310   10.09020    0.01830    -999.25    0.04500   69.15600   67.68310   66.37120   64.31260   15.23150   13.69910    -999.25    -999.25    0.19050    -999.25    2.55020
 6600.00000    9.75410   10.03420    0.05290    -999.25    0.22260   73.93560  103.88710  112.88840  104.50070   26.73420   26.95270    -999.25    -999.25    0.31660    -999.25    2.57190
 6650.00000   10.88570   10.68490    0.10710    -999.25    0.13740   84.26940  121.60880  113.60410  110.54390   15.56670   14.28770    -999.25    -999.25    0.34940    -999.25    2.54300
 6700.00000   10.02030   10.14050    0.02350    -999.25   -0.00910   67.15260   68.91940   72.90380   68.13780   26.28820   19.00800    -999.25    -999.25    0.19300    -999.25    2.63040
 6750.00000    9.06600    9.85730    0.00860    -999.25    0.04190   69.89630   89.07640  100.92670   91.75220   23.78280   21.93450    -999.25    -999.25    0.27060    -999.25    2.60620
 6800.00000    9.24220    9.44330    0.02770    -999.25    0.05910   68.20510   81.14060   83.27350   71.93290   15.81800   15.29810    -999.25    -999.25    0.21700    -999.25    2.60600
 6850.00000    9.00390    9.41110    0.00300    -999.25   -0.01230   65.20550   63.14860   63.53620   64.58470   27.46090   29.20730    -999.25    -999.25    0.17780    -999.25    2.65420
 6900.00000    9.25430    9.56880    0.06310    -999.25   -0.06640   58.78510   57.07360   57.56160   50.17080   55.66300   63.57310    -999.25    -999.25    0.13030    -999.25    2.71310
 6950.00000    9.38940    9.52050    0.00890    -999.25   -0.00550   72.91700  112.60960  105.51280  107.84570   16.29190   19.24290    -999.25    -999.25    0.26240    -999.25    2.62430
 7000.00000    9.12320    9.52030    0.02140    -999.25   -0.00990   66.67680   90.47430   91.07430   86.29070   38.03580   44.63740    -999.25    -999.25    0.18840    -999.25    2.62850
 7050.00000    9.18580    9.40910    0.00910    -999.25    0.11240   69.36020   49.21140   47.37780   42.07200   39.55080   34.82410    -999.25    -999.25    0.10960    -999.25    2.48300
 7100.00000   10.78030    9.74890    0.20840    -999.25    0.07710   69.63330   86.80780   92.49670   97.46880   58.61560   66.82550    -999.25    -999.25    0.21680    -999.25    2.49540
