~Version ---------------------------------------------------
VERS.      2.0 : CWLS log ASCII Standard -VERSION 2.0
WRAP.       NO : One line per depth step
CREA. 01/09/18 : LAS Creation Date
~Well ------------------------------------------------------
STRT.FT                          1150.0 : START DEPTH
STOP.FT                         12100.0 : STOP DEPTH
STEP.FT                        50.00000 : STEP LENGTH
NULL.                           -999.25 : NULL VALUE
COMP. HUDSONS BAY OIL & GAS COMPANY LTD : COMPANY
WELL. HB ET AL EAST MARLBORO 7-15-55-18 : WELL
FLD .                                   : FIELD
LOC .                                   : LOCATION
CTRY.                            CANADA : COUNTRY
SRVC.            Schlumberger of Canada : SERVICE COMPANY
DATE.                       14-Sep-1968 : LOGDATE
PROV.                           Alberta : PROVINCE
UWI .                  100071505518W500 : UNIQUE WELL ID
SLAT.WGS84                     53.74917 : SURFACE LATITUDE
SLON.WGS84                    -116.5848 : SURFACE LONGITUDE
~Curve Information -----------------------------------------
DEPT    .FT    : Depth Curve
CALDED  .IN    : CALIPER FROM DENSITY LOG, DEPTH ADJUSTED WITH [SPRED]
CALSED  .IN    : CALIPER FROM SONIC LOG, DEPTH ADJUSTED WITH [SPRED]
CALWS   .IN    : CALIPER [CALSED]
CONDWS  .MMHO  : CONDUCTIVITY [1000/DRESWS]
DCORED  .G/C3  : DENSITY CORRECTION FROM DENSITY LOG, DEPTH ADJUSTED WITH [SPRED]
DCORWS  .G/C3  : DENSITY CORRECTION [DCORED]
DENWS   .G/C3  : BULK DENSITY [RHOBED]
DPOLSWS .V/V   : DENITY POROSITY LIMESTONE [CALCULATED FROM DENWS]
DRESWS  .OHMM  : DEEP RESISTIVITY [ILDED]
DTED    .US/F  : DELTA TIME FROM SONIC LOG, DEPTH ADJUSTED WITH [SPRED]
DTWS    .US/F  : DELTA TIME [DTED]
GRNED   .GAPI  : GAMMA RAY FROM NEUTRON LOG, DEPTH ADJUSTED WITH [SPRED]
GRSED   .GAPI  : GAMMA RAY FROM SONIC LOG, DEPTH ADJUSTED WITH [SPRED]
GRWS    .GAPI  : GAMMA RAY [GRSED], SPLICED WITH [GRNED] FROM 8632'-8667'
ILDED   .OHMM  : INDUCTION LOG DEEP RESISTIVITY
ILMED   .OHMM  : INDUCTION LOG MEDIUM RESISTIVITY
LL8ED   .OHMM  : 8 INCH LATEROLOG RESISTIVITY
MRESWS  .OHMM  : MEDIUM RESISTIVITY [ILMED]
NEUTED  .NAPI  : NEUTRON FROM NEUTRON LOG, DEPTH ADJUSTED WITH [SPRED]
NEUTWS  .NAPI  : NEUTRON [NEUTED]
NPOLSWS .V/V   : NEITRON POROSITY LIMESTONE [SNPLSED]
PORLSED .V/V   : DENITY POROSITY LIMESTONE FROM DENSITY LOG, DEPTH ADJUSTED WITH [SPRED]
PORSDMED.V/V   : DENITY POROSITY DOLOMITE FROM DENSITY LOG, DEPTH ADJUSTED WITH [SPRED]
RHOBED  .G/C3  : BULK DENSITY FROM DENSITY LOG, DEPTH ADJUSTED WITH [SPRED]
SNPLSED .V/V   : SIDEWALL NEUTRON POROSITY LIMESTONE FROM DENSITY LOG, DEPTH ADJUSTED WITH [SPRED]
SPRED   .MV    : SPONTANEOUS POTENTIAL FROM RESISTIVITY LOG
SPWS    .MV    : SPONTANEOUS POTENTIAL [BASELINE 0 MV] [SPRED]
SRESWS  .OHMM  : SHALLOW RESISTIVITY [LL8ED]
~Params ----------------------------------------------------
PD  .                     GL : PERMANENT DATUM
EPD .FT                 3167 : ELEVATION PERMANENT DATUM
LMF .                     KB : LOG MEASURED FROM
DAPD.FT                   15 : FEET ABOVE PERMANENT DATUM
EKB .FT                 3182 : KELLY BUSHING
EGL .FT                 3167 : GROUND LEVEL
DATE.               09/14/68 : RUN DATE
RUN .                      3 : RUN NUMBER
DD  .FT                12110 : DEPTH DRILLER
DL  .FT                12109 : DEPTH LOGGER
BLI .FT                12105 : BOTTOM LOG INTERVAL
TLI .FT                11350 : TOP LOG INTERVAL
CBD .FT                 1265 : CASING BOTTOM DRILLER
BS  .IN                 8.75 : BIT SIZE
BSD .FT                12110 : BIT SIZE AT DEPTH
DFT .                    GEL : DRILLING FLUID TYPE
DFD .                   11.1 : DRILLING FLUID DENSITY
DFV .                    300 : DRILLING FLUID VISCOSITY
DFPH.                   11.5 : DRILLING FLUID PH
DFL .                    4.2 : DRILLING FLUID LOSS
MSS .             CIRCULATED : MUD SAMPLE SOURCE
RMS .OHMM               1.59 : RESISTIVITY MUD SAMPLE
MST .DEGF                 52 : MUD SAMPLE TEMPERATURE
RMF .OHMM               0.86 : RESISTIVITY MUD FILTRATE SAMPLE
MFST.DEGF                 58 : MUD FILTRATE SAMPLE TEMPERATURE
RMC .OHMM               1.69 : RESISTIVITY MUD CAKE
MCST.DEGF                 56 : MUD CAKE SAMPLE TEMPERATURE
RMB .OHMM               0.25 : RESISTIVITY MUD AT BHT
TCS .HRS                   4 : TIME CIRCULATED STOPPED
LUN .                   7501 : LOGGING UNIT NUMBER
LUL .                    EDM : LOGGING UNIT LOCATION
ENGI.               STUEHMER : RECORDING ENGINEER
WITN.                 WALKER : WITNESSED BY
CLNT.                A2DTECH : CLIENT CODE
ORIG.            2" 5" PRINT : ORIGIN OF DATA
UWI .       100071505518W500 : UNIQUE WELL ID
DICO. A2D Technologies, Inc. : DIGITIZING COMPANY
~Other -----------------------------------------------------
~ASCII -----------------------------------------------------
# ...
 11150.00000    8.74880    8.88010    8.88010    0.65960   -0.02930   -0.02930    2.64130    0.04020 1515.98060   60.13480   60.13480    -999.25  108.27720  108.27720 1515.98060 2141.41160 1316.99490 2141.41160    -999.25    -999.25    0.04060    0.08590   -0.03800    2.64130    0.04060 -147.60000 -106.44380 1316.99490
 11200.00000   10.67300    9.52590    9.52590    0.71310   -0.13780   -0.13780    2.57870    0.07680 1402.25270   54.36050   54.36050    -999.25   49.61190   49.61190 1402.25270 2136.21240 1297.79200 2136.21240    -999.25    -999.25    0.08100    0.05590   -0.06150    2.57870    0.08100 -146.32320 -105.55710 1297.79200
 11250.00000    8.61570    8.72160    8.72160    1.27290   -0.04130   -0.04130    2.82260   -0.06580  785.63010   46.87320   46.87320    -999.25   12.47460   12.47460  785.63010 1908.91260  655.94960 1908.91260    -999.25    -999.25   -0.08870    0.08000   -0.04590    2.82260   -0.08870 -133.74170  -93.36200  655.94960
 11300.00000    8.64410    8.75620    8.75620   49.03480   -0.08680   -0.08680    2.69200    0.01050   20.39370   49.45440   49.45440    -999.25   14.74560   14.74560   20.39370   25.50230   59.44020   25.50230    -999.25    -999.25    0.03350    0.11900   -0.00310    2.69200    0.03350 -146.64710 -106.65560   59.44020
 11350.00000    8.68100    8.92420    8.92420   11.24260   -0.03800   -0.03800    2.68550    0.01430   88.94750   52.57980   52.57980    -999.25   12.38010   12.38010   88.94750   90.63840  125.44680   90.63840    -999.25    -999.25    0.00190    0.09730   -0.02460    2.68550    0.00190 -127.59110  -87.98790  125.44680
 11400.00000    8.66220    8.91450    8.91450    3.67250   -0.13100   -0.13100    2.85010   -0.08190  272.29680   46.63380   46.63380    -999.25   13.57920   13.57920  272.29680  312.91640  551.25410  312.91640    -999.25    -999.25   -0.08900    0.06070   -0.06030    2.85010   -0.08900 -132.66340  -93.44840  551.25410
 11450.00000    9.92510    9.31270    9.31270    0.65950   -0.17090   -0.17090    2.66700    0.02510 1516.33070   50.26560   50.26560    -999.25   27.24220   27.24220 1516.33070 2103.40280 1280.20530 2103.40280    -999.25    -999.25   -0.01250    0.07680   -0.04110    2.66700   -0.01250 -115.83070  -77.00600 1280.20530
 11500.00000    9.98150    9.01940    9.01940    0.82530   -0.15250   -0.15250    2.58320    0.07420 1211.64450   51.51410   51.51410   30.91890   17.33470   17.33470 1211.64450 2064.50540 1299.01120 2064.50540  788.80670  788.80670    0.08760    0.06350   -0.05940    2.58320    0.08760 -103.12460  -64.68610 1299.01120
 11550.00000    9.26320    9.29030    9.29030    0.67380   -0.09950   -0.09950    2.67490    0.02050 1484.20540   51.17510   51.17510   43.71760    0.60800   18.71760 1484.20540 2119.40550 1286.77270 2119.40550  781.84280  781.84280    0.02700    0.03310   -0.08830    2.67490    0.02700 -125.13630  -87.08610 1286.77270
 11600.00000   14.85800   10.11800   10.11800    0.65240    0.04180    0.04180    1.49210    0.71220 1532.83240   50.07970   50.07970   34.16750   12.70340   12.70340 1532.83240 2094.73050   29.81290 2094.73050  772.22340  772.22340    0.26830    0.62980    0.15050    1.49210    0.26830  -61.98240  -24.32040   29.81290
 11650.00000   14.18250   10.65370   10.65370    2.33690    0.02320    0.02320    1.68590    0.59890  427.92130   55.71000   55.71000   33.86500   16.59770   16.59770  427.92130  231.41200   37.92230  231.41200  801.09440  801.09440    0.27550    0.56240    0.15360    1.68590    0.27550  -74.56490  -37.29120   37.92230
 11700.00000    -999.25   11.46880   11.46880    6.25350    0.02560    0.02560    1.61960    0.63760  160.52260   51.55830   51.55830   44.09640   13.97540   13.97540  160.52260  153.68180   57.01950  153.68180  626.44970  626.44970    0.23670    0.60650    0.11740    1.61960    0.23670  -97.75540  -60.87190   57.01950
 11750.00000    -999.25   11.26360   11.26360    3.05050    0.01610    0.01610    1.62910    0.63210  327.82040   56.32960   56.32960   38.98750   16.12810   16.12810  327.82040  464.92250  114.49420  464.92250  562.43320  562.43320    0.23030    0.57470    0.11110    1.62910    0.23030 -145.58830 -109.09110  114.49420
 11800.00000    -999.25   10.96360   10.96360    2.05850    0.00140    0.00140    1.72930    0.57350  485.78150   54.05690   54.05690   44.07320   23.61500   23.61500  485.78150  146.49990  167.02500  146.49990  558.61910  558.61910    0.18220    0.12870    0.06150    1.72930    0.18220 -148.73730 -112.62840  167.02500
 11850.00000    8.65140    8.69680    8.69680    4.14690   -0.10730   -0.10730    2.92920   -0.12820  241.14470   48.68700   48.68700   30.09900   12.93260   12.93260  241.14470 1794.15320  431.17810 1794.15320 1116.36830 1116.36830    0.04830   -0.07670   -0.06870    2.92920    0.04830 -175.53310 -139.81240  431.17810
 11900.00000    8.51080    8.52490    8.52490    2.53260   -0.05690   -0.05690    2.86730   -0.09200  394.84960   46.69080   46.69080   37.52070   11.17130   11.17130  394.84960 2100.44190  694.12180 2100.44190  864.14640  864.14640    0.04830   -0.06420   -0.07250    2.86730    0.04830 -119.09210  -83.75970  694.12180
 11950.00000    9.02620    9.23510    9.23510    1.29400   -0.11010   -0.11010    2.78810   -0.04570  810.28250   51.73220   51.73220   48.10700   10.73290   10.73290  810.28250 1807.26320  339.47550 1807.26320  711.54470  711.54470    0.08010   -0.06370   -0.03970    2.78810    0.08010 -126.79070  -91.84840  339.47550
 12000.00000   10.54480    9.39830    9.39830    0.66170   -0.08520   -0.08520    2.58710    0.07190 1511.18620   54.57500   54.57500    -999.25   17.94990   17.94990 1511.18620 1398.64540  459.63650 1398.64540    -999.25    -999.25    0.07390    0.05720   -0.04600    2.58710    0.07390  -69.23850  -34.68260  459.63650
 12050.00000   10.47450    9.09630    9.09630    1.19340   -0.18390   -0.18390    2.65530    0.03200  837.91160   59.70660   59.70660    -999.25   31.29650   31.29650  837.91160  217.38890  259.60220  217.38890    -999.25    -999.25    0.03390    0.04750   -0.08680    2.65530    0.03390  -52.38000  -56.21070  259.60220
 12100.00000    8.38000    9.33170    9.33170    1.82610   -0.10110   -0.10110    2.57950    0.07630  547.61320   45.09200   45.09200    -999.25    -999.25    -999.25  547.61320  319.64240 1488.04240  319.64240    -999.25    -999.25    0.06520   -0.05640   -0.05720    2.57950    0.06520 -102.64410 -107.06380 1488.04240
