~Version ---------------------------------------------------
VERS.      2.0 : CWLS log ASCII Standard -VERSION 2.0
WRAP.       NO : One line per depth step
CREA. 12/18/17 : LAS Creation Date
~Well ------------------------------------------------------
STRT.FT                          1000.0 : START DEPTH
STOP.FT                          9650.0 : STOP DEPTH
STEP.FT                        50.00000 : STEP LENGTH
NULL.                           -999.25 : NULL VALUE
COMP.            FRONTIER PRODUCING INC : COMPANY
WELL. FRONT ET AL SAKWATAMAU 9-22-63-15 : WELL
FLD .                                   : FIELD
LOC .                                   : LOCATION
CTRY.                            CANADA : COUNTRY
SRVC.                      Schlumberger : SERVICE COMPANY
DATE.                       22-Dec-1965 : LOGDATE
PROV.                           Alberta : PROVINCE
UWI .                  100092206315W500 : UNIQUE WELL ID
SLAT.WGS84                      54.4662 : SURFACE LATITUDE
SLON.WGS84                    -116.1714 : SURFACE LONGITUDE
~Curve Information -----------------------------------------
DEPT  .FT    : Depth Curve
CALSED.IN    : CALIPER FROM SONIC LOG [ADJ. TO RESISTIVITY LOG]
CALWS .IN    : CALIPER [CALSED]
CILDED.MMHO  : CONDUCTIVITY FROM RESISTIVITY LOG
CONDWS.MMHO  : CONDUCTIVITY [1000/DRESWS]
DRESWS.OHMM  : DEEP RESISTIVITY [1000/CILDED IF ILDED<2, ILDED]
DTED  .US/F  : DELTA TIME FROM SONIC LOG [ADJ. TO RESISTIVITY LOG]
DTWS  .US/F  : COMPRESSIONAL SONIC [DTED]
GRSED .GAPI  : GAMMA RAY FROM SONIC LOG [ADJ. TO RESISTIVITY LOG]
GRWS  .GAPI  : GAMMA RAY [GRSED]
ILDED .OHMM  : DEEP INDUCTION FROM RESISTIVITY LOG
SNED  .OHMM  : 16 INCH SHORT NORMAL RESISTIVITY FROM RESISTIVITY LOG
SPRED .MV    : SPONTANEOUS POTENTIAL FROM RESISTIVITY LOG
SPWS  .MV    : SPONTANEOUS POTENTIAL [BASELINE 0 MV, SPRED]
SRESWS.OHMM  : SHALLOW RESISTIVITY [SNED]
~Params ----------------------------------------------------
PD  .                     GL : PERMANENT DATUM
EPD .FT                 3111 : ELEVATION PERMANENT DATUM
LMF .                     KB : LOG MEASURED FROM
DAPD.FT                   13 : FEET ABOVE PERMANENT DATUM
EKB .FT                 3124 : KELLY BUSHING
EGL .FT                 3111 : GROUND LEVEL
DATE.               12/22/65 : RUN DATE
RUN .                      1 : RUN NUMBER
DD  .FT                 9705 : DEPTH DRILLER
DL  .FT                 9697 : DEPTH LOGGER
BLI .FT                 9696 : BOTTOM LOG INTERVAL
TLI .FT                  996 : TOP LOG INTERVAL
CBD .FT                  997 : CASING BOTTOM DRILLER
CBL .FT                  996 : CASING BOTTOM LOGGER
BS  .IN                7.875 : BIT SIZE
BSD .FT                 9705 : BIT SIZE AT DEPTH
DFT .                    GEL : DRILLING FLUID TYPE
DFD .                    9.5 : DRILLING FLUID DENSITY
DFV .                    135 : DRILLING FLUID VISCOSITY
DFPH.                     11 : DRILLING FLUID PH
DFL .                    8.3 : DRILLING FLUID LOSS
RMS .OHMM               2.53 : RESISTIVITY MUD SAMPLE
MST .DEGF                 62 : MUD SAMPLE TEMPERATURE
RMF .OHMM               1.89 : RESISTIVITY MUD FILTRATE SAMPLE
MFST.DEGF                 72 : MUD FILTRATE SAMPLE TEMPERATURE
RMC .OHMM               2.36 : RESISTIVITY MUD CAKE
MCST.DEGF                 72 : MUD CAKE SAMPLE TEMPERATURE
TCS .HRS                 2.5 : TIME CIRCULATED STOPPED
LUN .                   3718 : LOGGING UNIT NUMBER
LUL .                     DV : LOGGING UNIT LOCATION
ENGI.               WILLIAMS : RECORDING ENGINEER
WITN.           HESKETH YONT : WITNESSED BY
CLNT.                A2DTECH : CLIENT CODE
ORIG.            2" 5" PRINT : ORIGIN OF DATA
UWI .       100092206315W500 : UNIQUE WELL ID
DICO. A2D Technologies, Inc. : DIGITIZING COMPANY
~Other -----------------------------------------------------
IEL-BCS LOG RUN
ALL CURVES HAVE BEEN VERIFIED FROM SMALL SECTION @TOP-4490'
~ASCII -----------------------------------------------------
 1000.00000   10.14250   10.14250    -999.25   84.90480   11.77790  112.86100  112.86100   71.98980   71.98980   11.77790    7.94070    -999.25    -999.25    7.94070
 1050.00000   14.46640   14.46640  301.09810  276.87310    3.61190  188.45350  188.45350   31.68030   31.68030    3.61190    4.03630  -41.68740   -2.18120    4.03630
 1100.00000   10.29740   10.29740   67.21370   64.10340   15.59980  111.28060  111.28060   61.60420   61.60420   15.59980   13.15220  -50.59530  -11.18820   13.15220
 1150.00000   14.12590   14.12590  254.23370  229.06880    4.36550  136.37130  136.37130   55.62750   55.62750    4.36550    3.87510  -41.83410   -2.52540    3.87510
 1200.00000   11.52020   11.52020  156.75780  138.33750    7.22870  120.63640  120.63640   59.68690   59.68690    7.22870    5.28520  -40.39290   -1.18330    5.28520
 1250.00000   12.61820   12.61820  277.14320  260.57950    3.83760  136.80250  136.80250   60.33940   60.33940    3.83760    3.23490  -41.52280   -2.41160    3.23490
 1300.00000   12.98980   12.98980  270.24960  251.49530    3.97680  178.05920  178.05920   47.68710   47.68710    3.97680    3.49650  -41.51130   -2.49860    3.49650
 1350.00000    9.72850    9.72850   73.27940   71.72780   13.94160  103.75690  103.75690   55.46340   55.46340   13.94160    8.57930  -45.04940   -6.13570    8.57930
 1400.00000   10.37120   10.37120  250.90890  225.27090    4.43910  128.32880  128.32880   64.09510   64.09510    4.43910    3.83430  -41.39630   -2.58110    3.83430
 1450.00000   12.13620   12.13620  476.32810  476.32810    2.09940  128.98000  128.98000   67.00640   67.00640    1.98360    2.92860  -39.99720   -1.28110    2.92860
 1500.00000   10.23430   10.23430  192.02170  180.58360    5.53760  108.07950  108.07950   58.93220   58.93220    5.53760    4.36480  -41.62940   -3.01170    4.36480
 1550.00000   11.18530   11.18530  153.17380  140.59470    7.11320  106.45190  106.45190   63.50560   63.50560    7.11320    5.26640  -42.32930   -3.81000    5.26640
 1600.00000   11.55180   11.55180  349.36720  360.17860    2.77640  148.48790  148.48790   70.64850   70.64850    2.77640    3.07620  -40.15760   -1.73740    3.07620
 1650.00000    9.85050    9.85050  140.63690  131.09080    7.62830  111.89710  111.89710   64.11890   64.11890    7.62830    5.60480  -42.08900   -3.76730    5.60480
 1700.00000   12.02900   12.02900  322.39650  293.40140    3.40830  149.99730  149.99730   61.51230   61.51230    3.40830    3.26980  -39.79170   -1.56910    3.26980
 1750.00000   11.79710   11.79710  243.23610  222.83630    4.48760  119.99170  119.99170   62.65910   62.65910    4.48760    3.61660  -41.83420   -3.71000    3.61660
 1800.00000   10.12680   10.12680  290.43020  281.04690    3.55990  101.84840  101.84840   78.04840   78.04840    3.55990    3.17270  -42.05950   -4.03370    3.17270
 1850.00000    9.38280    9.38280  118.73610  111.00130    9.00890  108.52720  108.52720   87.10140   87.10140    9.00890    6.33120  -42.46300   -4.53630    6.33120
 1900.00000   10.59350   10.59350  278.09410  212.49470    4.70600  127.98710  127.98710   59.90460   59.90460    4.70600    3.16580  -40.67590   -2.84760    3.16580
 1950.00000   11.27930   11.27930  218.34370  205.23350    4.87250  129.71670  129.71670   76.10180   76.10180    4.87250    3.61240  -41.04980   -3.32060    3.61240
 2000.00000    9.11430    9.11430  176.75750  152.28810    6.56650  101.07010  101.07010   50.93940   50.93940    6.56650    4.97780  -41.62350   -3.99280    4.97780
 2050.00000    8.58890    8.58890   88.32630   83.65470   11.95390  107.41810  107.41810   56.81100   56.81100   11.95390    8.77400  -51.07300  -13.54070    8.77400
 2100.00000    8.81870    8.81870  144.78930  138.17880    7.23700  100.97020  100.97020   69.27820   69.27820    7.23700    5.70740  -42.85030   -5.41710    5.70740
 2150.00000    8.75840    8.75840  171.17760  150.50950    6.64410  105.29540  105.29540   60.63180   60.63180    6.64410    4.85320  -43.28830   -5.95350    4.85320
 2200.00000    8.79000    8.79000  168.54100  152.98470    6.53660  102.05370  102.05370   59.88250   59.88250    6.53660    4.73120  -40.36990   -3.13420    4.73120
 2250.00000    8.19200    8.19200  144.52920  124.57800    8.02710  102.18940  102.18940   48.50280   48.50280    8.02710    5.37250  -43.36250   -6.22530    5.37250
 2300.00000    8.21050    8.21050   60.60080   56.18100   17.81340  110.61630  110.61630   53.91800   53.91800   17.81340   12.33780  -51.07160  -14.03280   12.33780
 2350.00000   10.71710   10.71710  210.60820  184.63810    5.41600  110.15550  110.15550   58.50720   58.50720    5.41600    4.89500  -40.38890   -3.44920    4.89500
 2400.00000    8.12370    8.12370   73.62000   67.44360   14.82720   94.51880   94.51880   52.93820   52.93820   14.82720    8.58100  -43.66010   -6.81880    8.58100
 2450.00000    9.38120    9.38120  223.98370  208.51140    4.79590  118.12700  118.12700   50.00070   50.00070    4.79590    4.24900  -39.23690   -2.49470    4.24900
 2500.00000    9.02880    9.02880   36.86180   32.71000   30.57170   92.01920   92.01920   42.04270   42.04270   30.57170   14.57210  -48.65710  -12.01330   14.57210
 2550.00000    8.34750    8.34750   54.02700   48.90970   20.44590  104.94610  104.94610   45.03690   45.03690   20.44590   10.75030  -53.19380  -16.64850   10.75030
 2600.00000    9.66760    9.66760  135.93800  126.85040    7.88330   97.15530   97.15530   52.97550   52.97550    7.88330    6.02840  -40.71660   -4.27040    6.02840
 2650.00000   10.67930   10.67930  201.43420  183.51320    5.44920  114.18700  114.18700   55.77650   55.77650    5.44920    4.17010  -37.28840   -0.94060    4.17010
 2700.00000    9.15730    9.15730  155.43110  136.19150    7.34260  101.03880  101.03880   47.41810   47.41810    7.34260    5.56490  -38.87600   -2.70720    5.56490
 2750.00000    9.65440    9.65440  219.77200  200.78310    4.98050  102.43040  102.43040   54.77650   54.77650    4.98050    4.37270  -37.35510   -1.41680    4.37270
 2800.00000    9.72250    9.72250  170.24770  157.49570    6.34950  100.18110  100.18110   59.39820   59.39820    6.34950    4.88490  -37.98170   -2.27390    4.88490
 2850.00000    8.88970    8.88970  165.47060  143.93250    6.94770  105.53940  105.53940   48.47100   48.47100    6.94770    7.78990  -51.41220  -15.93640    7.78990
 2900.00000    8.28070    8.28070   81.35040   75.73120   13.20460   98.58630   98.58630   43.01620   43.01620   13.20460   12.04560  -56.85870  -21.61340   12.04560
 2950.00000    7.96680    7.96680  224.77400  200.86370    4.97850  102.22480  102.22480   62.56900   62.56900    4.97850    4.35700  -38.41770   -3.40440    4.35700
 3000.00000    7.74650    7.74650  223.12250  207.37420    4.82220  101.36520  101.36520   61.60730   61.60730    4.82220    4.16440  -36.95390   -2.17110    4.16440
 3050.00000    7.53220    7.53220  198.29380  173.51120    5.76470   99.65710   99.65710   64.08510   64.08510    5.76470    4.87170  -38.99400   -4.24030    4.87170
 3100.00000    8.46580    8.46580  172.33860  152.87010    6.54150   89.17860   89.17860   51.73410   51.73410    6.54150    4.73750  -38.27960   -3.34700    4.73750
 3150.00000    7.63210    7.63210  146.46850  125.36510    7.97670  106.72830  106.72830   78.07810   78.07810    7.97670    5.29100  -39.52830   -4.41790    5.29100
 3200.00000    8.11690    8.11690  122.86790  110.99520    9.00940   95.14850   95.14850   80.82060   80.82060    9.00940    6.97800  -41.12720   -5.83790    6.97800
 3250.00000    7.97060    7.97060  157.49860  145.93430    6.85240  113.73320  113.73320   80.60300   80.60300    6.85240    5.46420  -39.88120   -4.41410    5.46420
 3300.00000    7.74130    7.74130  160.77520  145.93500    6.85250  104.74550  104.74550  106.44810  106.44810    6.85250    5.76440  -38.61480   -2.96990    5.76440
 3350.00000    7.79940    7.79940   99.24690   89.04480   11.23030   91.48290   91.48290   94.12460   94.12460   11.23030    9.44750  -40.79540   -4.97160    9.44750
 3400.00000    8.32380    8.32380  136.22840  127.26050    7.85790   94.10920   94.10920  108.90230  108.90230    7.85790    6.49100  -39.77450   -3.77290    6.49100
