~Version ---------------------------------------------------
VERS.      2.0 : CWLS log ASCII Standard -VERSION 2.0
WRAP.       NO : One line per depth step
CREA. 11/16/17 : LAS Creation Date
~Well ------------------------------------------------------
STRT.FT                       1050.0 : START DEPTH
STOP.FT                      11200.0 : STOP DEPTH
STEP.FT                     50.00000 : STEP LENGTH
NULL.                        -999.25 : NULL VALUE
COMP.         CALIFORNIA STANDARD CO : COMPANY
WELL. CALSTAN B.A. KAYBOB 2-18-62-18 : WELL
FLD .                             WC : FIELD
LOC .                                : LOCATION
CTRY.                         CANADA : COUNTRY
SRVC.                   Schlumberger : SERVICE COMPANY
DATE.                    31-Mar-1959 : LOGDATE
PROV.                        Alberta : PROVINCE
UWI .               100021806218W500 : UNIQUE WELL ID
SLAT.WGS84                  54.35781 : SURFACE LATITUDE
SLON.WGS84                 -116.6847 : SURFACE LONGITUDE
~Curve Information -----------------------------------------
DEPT  .FT         : Depth Curve
CALWS .IN         : CALIPER [MCALED]
CILDED.MMHO       : CONDUCTIVITY FROM RESISTIVITY LOG
CONDWS.MMHO       : CONDUCTIVITY [1000/DRESWS]
DRESWS.OHMM       : DEEP RESISTIVITY [1000/CILDED IF ILDED < 1, ILDED]
DT1ED .US/F       : SONIC FROM SONIC LOG [ADJ TO RESISTIVITY LOG]
DTED  .US/F       : SONIC FROM SONIC LOG [ADJ TO RESISTIVITY LOG]
DTWS  .US/F       : COMPRESSIONAL SONIC [DTED]
GRSED .UgRa-Eq/T  : GAMMA RAY FROM SONIC LOG [ADJ TO RESISTIVITY LOG]
GRWS  .GAPI       : GAMMA RAY [GRSED*16.50]
ILDED .OHMM       : INDUCTION DEEP FROM RESISTIVITY LOG
MCALED.IN         : CALIPER FROM MICROLOG [ADJ TO RESISTIVITY LOG]
SNED  .OHMM       : SHORT NORMAL FROM RESISTIVITY LOG
SPRED .MV         : SPONTANEOUS POTENTIAL FROM RESISTIVITY LOG
SPWS  .MV         : SPONTANEOUS POTENTIAL [BASELINE 0 MV, SPRED]
SRESWS.OHMM       : SHALLOW RESISTIVITY [SNED]
~Params ----------------------------------------------------
LMF .                     KB : LOG MEASURED FROM
DMF .                     KB : DRILLING MEASURED FROM
EKB .FT                 2888 : KELLY BUSHING
EGL .FT                 2876 : GROUND LEVEL
DATE.               03/31/59 : RUN DATE
RUN .                      2 : RUN NUMBER
DD  .FT                11256 : DEPTH DRILLER
DL  .FT                11246 : DEPTH LOGGER
BLI .FT                11241 : BOTTOM LOG INTERVAL
TLI .FT                 2250 : TOP LOG INTERVAL
BS  .IN                    9 : BIT SIZE
BSD .FT                11256 : BIT SIZE AT DEPTH
DFT .               OIL EMUL : DRILLING FLUID TYPE
DFD .                   10.6 : DRILLING FLUID DENSITY
DFV .                    112 : DRILLING FLUID VISCOSITY
DFPH.                    9.5 : DRILLING FLUID PH
DFL .                    5.4 : DRILLING FLUID LOSS
RMS .OHMM                  3 : RESISTIVITY MUD SAMPLE
MST .DEGF                 64 : MUD SAMPLE TEMPERATURE
RMF .OHMM                  2 : RESISTIVITY MUD FILTRATE SAMPLE
MFST.DEGF                 77 : MUD FILTRATE SAMPLE TEMPERATURE
RMC .OHMM                3.3 : RESISTIVITY MUD CAKE
MCST.DEGF                 77 : MUD CAKE SAMPLE TEMPERATURE
RMB .OHMM               0.96 : RESISTIVITY MUD AT BHT
TCS .HRS                 7.5 : TIME CIRCULATED STOPPED
LUN .                   1573 : LOGGING UNIT NUMBER
LUL .                    W C : LOGGING UNIT LOCATION
ENGI.               SHERRIFF : RECORDING ENGINEER
WITN.                  SMITH : WITNESSED BY
CLNT.                A2DTECH : CLIENT CODE
ORIG.            2" 5" PRINT : ORIGIN OF DATA
UWI .       100021806218W500 : UNIQUE WELL ID
DICO. A2D Technologies, Inc. : DIGITIZING COMPANY
~Other -----------------------------------------------------
~ASCII -----------------------------------------------------
# ...
 3350.00000    8.85230   91.50630   99.51340   10.04890    -999.25   95.09480   95.09480    4.70040   77.55660   10.04890    8.85230   12.33510 -161.08370  -19.41150   12.33510
 3400.00000   10.00610  147.49640  148.08450    6.75290    -999.25   95.09710   95.09710    5.98760   98.79540    6.75290   10.00610    8.64430 -161.90090   -8.72360    8.64430
 3450.00000    -999.25  174.72430  193.00180    5.18130    -999.25   99.60150   99.60150    6.59350  108.79280    5.18130    -999.25    7.21900 -163.51140  -10.33410    7.21900
 3500.00000    -999.25  139.59190  142.95310    6.99530    -999.25   99.76510   99.76510    8.17540  134.89410    6.99530    -999.25    8.69650 -165.77000  -12.59270    8.69650
 3550.00000    -999.25  121.38370  125.37610    7.97600    -999.25   91.40750   91.40750    7.70230  127.08800    7.97600    -999.25    9.81850 -165.20690  -12.02960    9.81850
 3600.00000    -999.25  122.88650  124.07100    8.05990    -999.25   94.73130   94.73130    9.27100  152.97150    8.05990    -999.25   10.30060 -165.46730  -12.29000   10.30060
 3650.00000    -999.25  133.77380  134.75090    7.42110    -999.25  108.07850  108.07850   12.27250  202.49630    7.42110    -999.25   10.86150 -161.57470   -8.39740   10.86150
 3700.00000    -999.25   96.52050   96.57080   10.35510    -999.25   96.54420   96.54420    8.48960  140.07840   10.35510    -999.25   14.69210 -161.75140   -8.57410   14.69210
 3750.00000    -999.25  108.34940  109.44150    9.13730    -999.25   88.96360   88.96360    8.14180  134.33970    9.13730    -999.25   11.93190 -162.17140   -8.99410   11.93190
 3800.00000    -999.25  112.52550  113.95230    8.77560    -999.25   93.70160   93.70160    7.70140  127.07310    8.77560    -999.25   11.15720 -163.09260   -9.91530   11.15720
 3850.00000    -999.25  147.07440  154.96910    6.45290    -999.25   93.95560   93.95560    8.65900  142.87350    6.45290    -999.25    8.55480 -164.44800  -11.27070    8.55480
 3900.00000    -999.25  112.91520  114.48850    8.73450    -999.25   85.52610   85.52610    9.10460  150.22590    8.73450    -999.25   10.97620 -162.91290   -9.73560   10.97620
 3950.00000    -999.25   96.76850   96.37900   10.37570    -999.25   85.28260   85.28260    8.13600  134.24400   10.37570    -999.25   12.64330 -162.31370   -9.13640   12.64330
 4000.00000    -999.25  125.10220  127.60640    7.83660    -999.25   88.88750   88.88750    8.80620  145.30230    7.83660    -999.25   10.06800 -159.94570   -6.76840   10.06800
 4050.00000    -999.25  135.89470  141.37070    7.07360    -999.25   92.68900   92.68900    8.98430  148.24100    7.07360    -999.25    9.40170 -159.76360   -6.58630    9.40170
 4100.00000   11.98640  147.94720  165.10910    6.05660    -999.25   95.36830   95.36830    8.76870  144.68360    6.05660   11.98640    7.35410 -160.15050   -6.97320    7.35410
 4150.00000   11.73750  107.42990  114.78550    8.71190    -999.25   90.21980   90.21980    9.26210  152.82460    8.71190   11.73750   10.27560 -159.63020   -6.45290   10.27560
 4200.00000   11.06500   76.04860   75.37440   13.26710    -999.25   84.74830   84.74830    8.29830  136.92190   13.26710   11.06500   17.09950 -160.99510   -8.01210   17.09950
 4250.00000   10.80200   99.66620  106.92790    9.35210    -999.25   86.61390   86.61390    7.92620  130.78230    9.35210   10.80200   11.10220 -158.77190   -7.26590   11.10220
 4300.00000   11.06750   90.89170   97.80810   10.22410    -999.25   89.71520   89.71520    7.97010  131.50670   10.22410   11.06750   12.00740 -158.53110   -8.50220   12.00740
 4350.00000   11.05050  117.79820  120.91310    8.27040    -999.25   92.39880   92.39880    7.84600  129.45900    8.27040   11.05050   10.62870 -157.32990   -8.78770   10.62870
 4400.00000    -999.25  108.47140  110.96190    9.01210    -999.25   88.07050   88.07050    8.30000  136.95000    9.01210    -999.25   11.47730 -156.36190   -9.29670   11.47730
 4450.00000    -999.25  134.31810  140.28590    7.12830    -999.25   92.22660   92.22660    8.69270  143.42960    7.12830    -999.25    9.71790 -153.89260   -8.31410    9.71790
 4500.00000    -999.25  129.98600  134.81270    7.41770    -999.25   93.94170   93.94170    5.98250   98.71120    7.41770    -999.25   10.66490 -152.48160   -8.38010   10.66490
 4550.00000    -999.25  107.54060  107.95410    9.26320    -999.25   98.13040   98.13040    8.96470  147.91760    9.26320    -999.25   13.11690 -150.31260   -7.68810   13.11690
 4600.00000    -999.25  113.01170  113.67770    8.79680    -999.25   97.42940   97.42940    9.45200  155.95800    8.79680    -999.25   12.77420 -148.82940   -7.43390   12.77420
 4650.00000    -999.25   85.99760   86.61910   11.54480    -999.25  101.23900  101.23900   10.35350  170.83280   11.54480    -999.25   17.34750 -148.02690   -7.39590   17.34750
 4700.00000    -999.25   79.23640   80.44020   12.43160    -999.25   95.98070   95.98070   10.55880  174.22020   12.43160    -999.25   18.95050 -146.91120   -7.04990   18.95050
 4750.00000    -999.25   53.92620   48.39290   20.66420    -999.25   96.12670   96.12670   10.60550  174.99070   20.66420    -999.25   32.49740 -145.39640   -6.29960   32.49740
 4800.00000    -999.25  125.17920  124.99220    8.00050    -999.25   99.93260   99.93260    8.78760  144.99540    8.00050    -999.25   12.40600 -147.20920   -8.87700   12.40600
 4850.00000    -999.25  131.54930  133.07960    7.51430    -999.25   84.85650   84.85650    8.45470  139.50260    7.51430    -999.25    9.90110 -149.55610  -11.99350    9.90110
 4900.00000   12.41850  154.68370  168.13220    5.94770    -999.25   93.44210   93.44210    8.65010  142.72670    5.94770   12.41850    7.62530 -149.16260  -12.36460    7.62530
 4950.00000   12.75360  170.04990  187.20280    5.34180    -999.25   94.83650   94.83650    9.06710  149.60710    5.34180   12.75360    7.25340 -147.53990  -11.51150    7.25340
 5000.00000   12.74790  156.11450  173.76190    5.75500    -999.25   91.33620   91.33620    8.49110  140.10320    5.75500   12.74790    7.56700 -146.62570  -11.36190    7.56700
 5050.00000   11.81050   65.69140   69.33560   14.42260    -999.25   65.02610   65.02610    5.65970   93.38500   14.42260   11.81050   17.09350 -148.01370  -13.51450   17.09350
 5100.00000   13.80800  132.84450  141.89430    7.04750    -999.25   85.49460   85.49460    8.61760  142.19040    7.04750   13.80800    9.04010 -145.82680  -12.09720    9.04010
 5150.00000    -999.25  196.29190  227.55200    4.39460    -999.25   95.09180   95.09180    8.89050  146.69320    4.39460    -999.25    6.21200 -144.38330  -11.41830    6.21200
 5200.00000    -999.25  149.76560  168.05880    5.95030    -999.25   89.12320   89.12320    9.74190  160.74130    5.95030    -999.25    8.15230 -142.34930  -10.15390    8.15230
 5250.00000    -999.25  348.07590  522.05690    1.91550    -999.25  112.87350  112.87350    8.57890  141.55190    1.91550    -999.25    3.78780 -140.21460   -8.78380    3.78780
 5300.00000    -999.25  314.86690  442.73250    2.25870    -999.25  103.87530  103.87530    9.17980  151.46670    2.25870    -999.25    3.74480 -139.04340   -8.37720    3.74480
 5350.00000    -999.25  193.80940  223.46370    4.47500    -999.25   95.67930   95.67930    9.96240  164.37960    4.47500    -999.25    6.20310 -138.59250   -8.69590    6.20310
 5400.00000   12.18230  179.87610  202.62190    4.93530    -999.25   89.44260   89.44260    8.22620  135.73230    4.93530   12.18230    7.10400 -137.86290   -8.73090    7.10400
 5450.00000   10.49800   57.40410   58.33390   17.14270    -999.25   79.73090   79.73090    6.03940   99.65010   17.14270   10.49800   25.33270 -142.76740  -14.40500   25.33270
 5500.00000   14.20000  437.82440  701.40980    1.42570    -999.25    -999.25    -999.25    7.62170  125.75810    1.42570   14.20000    3.32850 -137.09640   -9.49860    3.32850
 5550.00000    9.67470   70.64940   71.26210   14.03270    -999.25   72.72260   72.72260    6.72060  110.88990   14.03270    9.67470   25.17470 -141.49470  -14.66150   25.17470
 5600.00000    9.78220   65.26600   67.46860   14.82170    -999.25   77.11100   77.11100    7.09240  117.02460   14.82170    9.78220   22.89730 -139.35370  -13.29010   22.89730
