~Version ---------------------------------------------------
VERS. 2.0 : CWLS log ASCII Standard -VERSION 2.0
WRAP.  NO : ONE LINE PER DEPTH STEP
~Well ------------------------------------------------------
STRT.F                      557.7428 : START DEPTH
STOP.F                    10838.7428 : STOP DEPTH
STEP.F                       0.50000 : STEP LENGTH
NULL.                        -999.25 : NULL VALUE
COMP.           PETROFINA CANADA LTD : COMPANY
WELL. FINA AMOCO HB FOXCK 6-35-60-18 : WELL
FLD .                                : FIELD
LOC .                                : LOCATION
CTRY.                         CANADA : COUNTRY
SRVC.         Schlumberger of Canada : SERVICE COMPANY
DATE.                    29-Aug-1976 : LOGDATE
PROV.                        Alberta : PROVINCE
UWI .               100063506018W500 : UNIQUE WELL ID
SLAT.WGS84                  54.22952 : SURFACE LATITUDE
SLON.WGS84                 -116.5928 : SURFACE LONGITUDE
~Curve Information -----------------------------------------
DEPT   .F                 : 
SPR    .MV                : SPONTANEOUS POTENTIAL FROM RESISTIVITY
ILD    .OHMM              : DEEP INDUCTION RESISTIVITY
ILM    .OHMM              : INDUCTION MEDIUM RESISTIVITY
LL8    .OHMM              : LATEROLOG-8 RESISTIVITY
CALD   .IN   70 280 01 00 : CALIPER
DCOR   .G/C3 45 356 01 00 : DENSITY CORRECTION
GRD    .GAPI 45 310 01 00 : GAMMA RAY FROM DENSITY LOG
RHOB   .G/C3 45 350 01 00 : BULK DENSITY
DPOR_SS.DEC               : DENSITY POROSITY SANDSTONE
NPOR_S .DEC               : ENCHANCED THERMAL NEUTRON POROSITY IN SELECTED LITHOLOGY SANDSTONE
DPOR_LS.DEC               : DENSITY POROSITY LIMESTONE
NPOR_LS.DEC               : ENCHANCED THERMAL NEUTRON POROSITY IN SELECTED LITHOLOGY SANDSTONE
DT     .US/F 60 520 00 00 : ACOUSTIC TRANSIT TIME SLOWNESS, DELTA T
CALS   .IN                : 
GRS    .GAPI              : GAMMA RAY FROM SONIC LOG
GR     .GAPI              : GAMMA RAY
~Params ----------------------------------------------------
PD  .                     GL : PERMANENT DATUM
EPD .FT                 3085 : ELEVATION PERMANENT DATUM
LMF .                     KB : LOG MEASURED FROM
DAPD.FT                 15.7 : FEET ABOVE PERMANENT DATUM
EKB .FT               3100.9 : KELLY BUSHING
EDF .FT               3085.2 : DRILLING FLOOR
EGL .FT               3085.5 : GROUND LEVEL
DATE.               08/29/76 : RUN DATE
RUN .                      1 : RUN NUMBER
DD  .FT                10843 : DEPTH DRILLER
DL  .FT                10840 : DEPTH LOGGER
BLI .FT                10834 : BOTTOM LOG INTERVAL
TLI .FT                 1119 : TOP LOG INTERVAL
CBD .FT                 1119 : CASING BOTTOM DRILLER
CBL .FT                 1119 : CASING BOTTOM LOGGER
BS  .IN                 8.75 : BIT SIZE
BSD .FT                10843 : BIT SIZE AT DEPTH
DFT .               GEL CHEM : DRILLING FLUID TYPE
DFD .                    9.3 : DRILLING FLUID DENSITY
DFV .                    150 : DRILLING FLUID VISCOSITY
DFPH.                   10.5 : DRILLING FLUID PH
DFL .                    7.0 : DRILLING FLUID LOSS
MSS .            CIRCULATION : MUD SAMPLE SOURCE
RMS .OHMM               2.43 : RESISTIVITY MUD SAMPLE
MST .DEGF                 76 : MUD SAMPLE TEMPERATURE
RMF .OHMM               2.33 : RESISTIVITY MUD FILTRATE SAMPLE
MFST.DEGF                 73 : MUD FILTRATE SAMPLE TEMPERATURE
RMC .OHMM               2.22 : RESISTIVITY MUD CAKE
MCST.DEGF                 67 : MUD CAKE SAMPLE TEMPERATURE
RMB .OHMM               0.86 : RESISTIVITY MUD AT BHT
TCS .HRS                   3 : TIME CIRCULATED STOPPED
LUN .                   7691 : LOGGING UNIT NUMBER
LUL .                    WCT : LOGGING UNIT LOCATION
ENGI.              CROCKFORD : RECORDING ENGINEER
WITN.                 HALKOW : WITNESSED BY
CLNT.                A2DTECH : CLIENT CODE
ORIG.            2" 5" PRINT : ORIGIN OF DATA
UWI .       100063506018W500 : UNIQUE WELL ID
DICO. A2D Technologies, Inc. : DIGITIZING COMPANY
~Other -----------------------------------------------------
~ASCII -----------------------------------------------------
# ...
 2557.24280  -33.82880    3.29280    2.86860    3.64870    -999.25    0.10680   83.06180    1.60130    0.60000    -999.25    -999.25    -999.25  128.53120   13.85090   79.71560    -999.25
 2557.74280  -33.63080    3.47700    3.03140    3.92710    -999.25    0.10750   81.84110    1.58680    0.60010    -999.25    -999.25    -999.25  117.02220   12.88860   82.52470    -999.25
 2558.24280  -33.51840    3.74910    3.22440    4.28400    -999.25    0.09940   81.64520    1.57240    0.60010    -999.25    -999.25    -999.25  105.35350   11.10890   84.43210    -999.25
 2558.74280  -33.46440    4.04250    3.42910    4.44460    -999.25    0.08690   81.73100    1.55880    0.60020    -999.25    -999.25    -999.25   95.35290   10.11040   84.09560    -999.25
 2559.24280  -33.40600    4.35890    3.64670    4.33630    -999.25    0.08140   83.88640    1.56490    0.60030    -999.25    -999.25    -999.25   92.03890   10.17250   81.85080    -999.25
 2559.74280  -33.20460    4.63350    3.81930    4.20870    -999.25    0.08560   88.43970    1.58080    0.60030    -999.25    -999.25    -999.25   92.96080   10.41370   79.50130    -999.25
 2560.24280  -32.83510    4.75460    3.87980    4.21030    -999.25    0.08290   92.33500    1.59260    0.60040    -999.25    -999.25    -999.25   94.80930   10.56230   77.71390    -999.25
 2560.74280  -32.49760    4.74770    3.87650    4.28590    -999.25    0.07730   94.03860    1.62080    0.60050    -999.25    -999.25    -999.25   97.11270   10.41050   77.64280    -999.25
 2561.24280  -32.20410    4.67620    3.84840    4.30100   15.14290    0.08330   94.27520    1.64650    0.60060    -999.25    -999.25    -999.25   98.03740   10.11990   78.85300    -999.25
 2561.74280  -31.90010    4.56080    3.78570    4.21870   14.60650    0.09050   93.72840    1.63260    0.59210    -999.25    -999.25    -999.25   98.05510    9.98940   80.23220    -999.25
 2562.24280  -31.63730    4.44240    3.70420    4.09870   14.02080    0.09460   92.36440    1.59910    0.58990    -999.25    -999.25    -999.25   99.04760    9.92450   81.46390    -999.25
 2562.74280  -31.36000    4.33220    3.61680    3.99660   14.43180    0.09620   90.21180    1.57960    0.59860    -999.25    -999.25    -999.25  100.74760    9.83940   82.51450    -999.25
 2563.24280  -31.12020    4.25960    3.53770    3.92210    -999.25    0.08840   88.40880    1.56350    0.59980    -999.25    -999.25    -999.25  101.68300    9.89090   83.52230    -999.25
 2563.74280  -31.01720    4.21340    3.46240    3.89040    -999.25    0.08290   87.60700    1.54740    0.59990    -999.25    -999.25    -999.25  101.56490    9.88440   84.27300    -999.25
 2564.24280  -31.05300    4.16100    3.41530    3.89220    -999.25    0.08240   87.80480    1.54590    0.59990    -999.25    -999.25    -999.25  101.39090    9.75890   84.17420    -999.25
 2564.74280  -31.24570    4.08770    3.40240    3.89400    -999.25    0.08860   90.33850    1.55540    0.59990    -999.25    -999.25    -999.25  102.25360    9.65920   83.34720    -999.25
 2565.24280  -31.51240    3.92210    3.36430    3.89580    -999.25    0.09410   94.69030    1.57550    0.60000    -999.25    -999.25    -999.25  103.63460    9.72260   82.49430    -999.25
 2565.74280  -31.80900    3.68960    3.24180    3.87210    -999.25    0.08000   97.71350    1.58840    0.60000    -999.25    -999.25    -999.25  103.79430    9.98320   81.91950    -999.25
 2566.24280  -32.17720    3.47080    3.03420    3.81270    -999.25    0.05980   98.21110    1.55630    0.60010    -999.25    -999.25    -999.25  103.08690   10.57400   82.12590    -999.25
 2566.74280  -32.54320    3.27340    2.80930    3.71420    -999.25    0.04770   97.43890    1.48990    0.60010    -999.25    -999.25    -999.25  102.82570   10.69960   83.24110    -999.25
 2567.24280  -32.91690    3.10700    2.60050    3.54600    -999.25    0.04720   95.44500    1.45230    0.60020    -999.25    -999.25    -999.25  102.10620   10.25950   84.66720    -999.25
 2567.74280  -33.29770    2.99110    2.41220    3.34370    -999.25    0.05060   92.45200    1.45220    0.60020    -999.25    -999.25    -999.25  102.30670   10.07650   86.15820    -999.25
 2568.24280  -33.69840    2.98210    2.30980    3.15280   15.19290    0.05630   88.90530    1.47200    0.60020    -999.25    -999.25    -999.25  104.01290   10.06640   87.80440    -999.25
 2568.74280  -33.96010    3.06140    2.31410    3.04260   14.03330    0.07590   85.05650    1.52740    0.60030    -999.25    -999.25    -999.25  106.38410   10.21630   88.61010    -999.25
 2569.24280  -33.94170    3.15590    2.41720    3.12170   13.13510    0.09260   82.46930    1.58430    0.60030    -999.25    -999.25    -999.25  112.78860   10.75610   87.80290    -999.25
 2569.74280  -33.83010    3.26210    2.59680    3.48720   14.31910    0.09640   81.79520    1.59410    0.60040    -999.25    -999.25    -999.25  124.56120   11.76240   86.09750    -999.25
 2570.24280  -33.84770    3.42970    2.78730    4.04520    -999.25    0.09470   81.68980    1.56440    0.60040    -999.25    -999.25    -999.25  135.28110   12.71000   84.08290    -999.25
 2570.74280  -34.12510    3.65790    2.99200    4.36050    -999.25    0.08960   82.12100    1.54480    0.60040    -999.25    -999.25    -999.25  138.91400   12.96910   81.60100    -999.25
 2571.24280  -34.51470    3.90130    3.18660    4.37500    -999.25    0.08090   83.40740    1.55160    0.60050    -999.25    -999.25    -999.25  125.33990   11.66750   78.65130    -999.25
 2571.74280  -34.98060    4.16080    3.32310    4.36330    -999.25    0.07800   84.98490    1.55460    0.60050    -999.25    -999.25    -999.25  106.65690   10.36270   75.82160    -999.25
 2572.24280  -35.47690    4.41380    3.42150    4.31370    -999.25    0.08950   86.63150    1.57140    0.60020    -999.25    -999.25    -999.25  100.92170   10.71360   74.13980    -999.25
 2572.74280  -35.88430    4.62910    3.52270    4.14240    -999.25    0.10830   88.64890    1.64820    0.59900    -999.25    -999.25    -999.25  102.02710   11.82740   73.79990    -999.25
 2573.24280  -36.06570    4.81270    3.63080    4.02580    -999.25    0.11470   91.11580    1.77320    0.59740    -999.25    -999.25    -999.25  108.60600   12.24450   73.76580    -999.25
 2573.74280  -35.94910    4.99000    3.74210    4.24650    -999.25    0.10410   93.22620    1.91470    0.56740    -999.25    -999.25    -999.25  116.82910   12.05330   73.75760    -999.25
 2574.24280  -35.69530    5.12860    3.85290    4.69430    -999.25    0.09050   93.22330    2.03620    0.48800    -999.25    -999.25    -999.25  120.61520   12.61240   74.32520    -999.25
 2574.74280  -35.48020    5.21130    3.97610    5.00440    -999.25    0.07500   91.38430    2.08900    0.40340    -999.25    -999.25    -999.25  119.16010   13.41980   76.09610    -999.25
 2575.24280  -35.43300    5.36860    4.18410    5.10220    -999.25    0.07420   89.35830    2.07450    0.35140    -999.25    -999.25    -999.25  113.96110   13.79940   78.75780    -999.25
 2575.74280  -35.54780    5.64980    4.48150    5.19060    -999.25    0.09210   86.64570    2.01240    0.33250    -999.25    -999.25    -999.25  104.98330   12.94340   80.91320    -999.25
 2576.24280  -35.74410    5.98220    4.80040    5.56440   14.82280    0.11050   82.61320    1.92230    0.34780    -999.25    -999.25    -999.25   99.26730   11.37790   81.94760    -999.25
 2576.74280  -36.00970    6.23640    5.07150    6.29690   13.92340    0.12140   78.12470    1.81230    0.39030    -999.25    -999.25    -999.25  101.72930   11.21890   82.10340    -999.25
 2577.24280  -36.34590    6.34650    5.20100    7.09580   14.21780    0.11160   74.95770    1.67460    0.43990    -999.25    -999.25    -999.25  102.12140   12.13560   81.01530    -999.25
 2577.74280  -36.63400    6.40440    5.24600    7.41620   15.16120    0.09630   73.86800    1.59860    0.52980    -999.25    -999.25    -999.25   92.35100   12.61020   79.03090    -999.25
 2578.24280  -36.71260    6.44770    5.29150    7.02700   15.20420    0.09700   73.51520    1.60860    0.59950    -999.25    -999.25    -999.25   87.48870   12.02820   77.16290    -999.25
