~Version ---------------------------------------------------
VERS.      2.0 : CWLS log ASCII Standard -VERSION 2.0
WRAP.       NO : One line per depth step
CREA. 12/11/17 : LAS Creation Date
~Well ------------------------------------------------------
STRT.FT                        300.0 : START DEPTH
STOP.FT                      10150.0 : STOP DEPTH
STEP.FT                     50.00000 : STEP LENGTH
NULL.                        -999.25 : NULL VALUE
COMP.           PETROFINA CANADA LTD : COMPANY
WELL. FINA AMOCO HB PASSCK 7-2-62-17 : WELL
FLD .                                : FIELD
LOC .                                : LOCATION
CTRY.                         CANADA : COUNTRY
SRVC.                   Schlumberger : SERVICE COMPANY
DATE.                    14-Mar-1978 : LOGDATE
PROV.                        Alberta : PROVINCE
UWI .               100070206217W500 : UNIQUE WELL ID
SLAT.WGS84                  54.33347 : SURFACE LATITUDE
SLON.WGS84                 -116.4328 : SURFACE LONGITUDE
~Curve Information -----------------------------------------
DEPT    .FT    : Depth Curve
CALDED  .IN    : CALIPER FROM DENSITY LOG [ADJ. TO RESISTIVITY LOG]
CALSED  .IN    : CALIPER FROM SONIC LOG
CALWS   .IN    : CALIPER [CALDED SPL. TO CALSED FROM 1027'-2457']
CILDED  .MMHO  : CONDUCTIVITY FROM RESISTIVITY LOG
CONDWS  .MMHO  : CONDUCTIVITY [1000/DRESWS]
DCORWS  .G/C3  : DENSITY CORRECTION [DRHOED]
DENWS   .G/C3  : FORMATION BULK DENSITY [CALC. FROM DPOLSWS, M=2.71, F=1.00]
DPHILSED.V/V   : DENSITY POROSITY LIMESTONE [M=2.71, F=1.00] FROM DENSITY LOG [ADJ. TO RESISTIVITY LOG]
DPHISSED.V/V   : DENSITY POROSITY SANDSTONE [M=2.65, F=1.00] FROM DENSITY LOG [ADJ. TO RESISTIVITY LOG]
DPOLSWS .V/V   : DENSITY POROSITY LIMESTONE [DPHISSED CONVERTED TO LIMESTONE MATRIX, M=2.71, F=1.00 SPL.TO DPHILSED @ 6300']
DRESWS  .OHMM  : DEEP RESISTIVITY [ILDED]
DRHOED  .G/C3  : DENSITY CORRECTION FROM DENSITY LOG [ADJ. TO RESISTIVITY LOG]
DTED    .US/F  : DELTA TIME FROM SONIC LOG
DTWS    .US/F  : COMPRESSIONAL SONIC [DTED]
GRDED   .GAPI  : GAMMA RAY FROM DENSITY LOG [ADJ. TO RESISTIVITY LOG]
GRSED   .GAPI  : GAMMA RAY FROM SONIC LOG
GRWS    .GAPI  : GAMM RAY [GRDED SPL. TO GRSED @ 35'] GRWS IN CSG. (+25 GAPI) FROM (994'-1027')
ILDED   .OHMM  : DEEP INDUCTION LOG RESISTIVITY FROM RESISTIVITY LOG
ILMED   .OHMM  : MEDIUM INDUCTION LOG RESISTIVITY FROM RESISTIVITY LOG
LL8ED   .OHMM  : 8 INCH LATEROLOG RESISTIVITY FROM RESISTIVITY LOG
MRESWS  .OHMM  : MEDIUM RESISTIVITY [ILMED]
NPHILSED.V/V   : NEUTRON POROSITY LIMESTONE FROM DENSITY LOG [ADJ. TO RESISTIVITY LOG]
NPHISSED.V/V   : NEUTRON POROSITY SANDSTONE FROM DENSITY LOG [ADJ. TO RESISTIVITY LOG]
NPOLSWS .V/V   : NEUTRON POROSITY LIMESTONE [NPHISSED MATRIX (SLB) CONVERSION FOR LIMESTONE, SPL.TO NPHILSED @ 6300']
RHOBED  .G/C3  : BULK DENSITY FROM DENSITY LOG [ADJ. TO RESISTIVITY LOG]
SPRED   .MV    : SPONTANEOUS POTENTIAL FROM RESISTIVITY LOG
SPWS    .MV    : SPONTANEOUS POTENTIAL [BASELINE 0 MV, SPRED]
SRESWS  .OHMM  : SHALLOW RESISTIVITY [LL8ED]
~Params ----------------------------------------------------
PD  .                     GL : PERMANENT DATUM
EPD .FT               2914.3 : ELEVATION PERMANENT DATUM
LMF .                     KB : LOG MEASURED FROM
DAPD.FT                 17.6 : FEET ABOVE PERMANENT DATUM
EKB .FT               2931.9 : KELLY BUSHING
EGL .FT               2914.3 : GROUND LEVEL
DATE.               03/14/78 : RUN DATE
RUN .                      2 : RUN NUMBER
DD  .FT                10155 : DEPTH DRILLER
DL  .FT                10163 : DEPTH LOGGER
BLI .FT                10157 : BOTTOM LOG INTERVAL
TLI .FT                 1027 : TOP LOG INTERVAL
CBD .FT                 1028 : CASING BOTTOM DRILLER
CBL .FT                 1027 : CASING BOTTOM LOGGER
BS  .IN                 8.75 : BIT SIZE
BSD .FT                10155 : BIT SIZE AT DEPTH
DFT .               GEL CHEM : DRILLING FLUID TYPE
DFD .                    9.3 : DRILLING FLUID DENSITY
DFV .                     90 : DRILLING FLUID VISCOSITY
DFPH.                     11 : DRILLING FLUID PH
DFL .                    9.0 : DRILLING FLUID LOSS
MSS .               FLOWLINE : MUD SAMPLE SOURCE
RMS .OHMM               1.87 : RESISTIVITY MUD SAMPLE
MST .DEGF                 74 : MUD SAMPLE TEMPERATURE
RMF .OHMM               1.52 : RESISTIVITY MUD FILTRATE SAMPLE
MFST.DEGF                 72 : MUD FILTRATE SAMPLE TEMPERATURE
RMB .OHMM               0.62 : RESISTIVITY MUD AT BHT
TCS .HRS                 3.5 : TIME CIRCULATED STOPPED
LUN .                   7730 : LOGGING UNIT NUMBER
LUL .                    EDM : LOGGING UNIT LOCATION
ENGI.               ACKERMAN : RECORDING ENGINEER
WITN.                 DAVIES : WITNESSED BY
CLNT.                A2DTECH : CLIENT CODE
ORIG.            2" 5" PRINT : ORIGIN OF DATA
UWI .       100070206217W500 : UNIQUE WELL ID
DICO. A2D Technologies, Inc. : DIGITIZING COMPANY
~Other -----------------------------------------------------
DIL-CNFD-BHC TOOLS RUN
DIL AND BHC TOOL CURVES FROM 1024' TO 2452' FROM 2" SCALE SECTION
~ASCII -----------------------------------------------------
# ...
 2800.00000    9.47230    9.41770    9.47230    -999.25   91.51560    0.07110    2.41090    -999.25    0.14490    0.17490   10.92710    0.07110   89.20290   89.20290   58.27550   62.78490   62.78490   10.92710   10.38890    9.74100   10.38890    -999.25    0.33440    0.29060    2.41340  -55.66970   -4.79740    9.74100
 2850.00000    9.06930    9.03520    9.06930    -999.25   48.46020    0.13640    2.41520    -999.25    0.14230    0.17240   20.63550    0.13640   89.53710   89.53710   46.97740   56.47710   56.47710   20.63550   19.10070   16.87090   19.10070    -999.25    0.34340    0.29970    2.42130  -62.89090  -11.95120   16.87090
 2900.00000    8.33810    8.69700    8.33810    -999.25   79.97060    0.07870    2.38770    -999.25    0.15900    0.18850   12.50460    0.07870   84.65630   84.65630   60.44410   63.76740   63.76740   12.50460   13.55100   14.02580   13.55100    -999.25    0.35600    0.31240    2.36260  -61.61630  -10.60950   14.02580
 2950.00000    8.24540    8.72180    8.24540    -999.25   66.59920    0.11780    2.38020    -999.25    0.16350    0.19290   15.03590    0.11780   85.81030   85.81030   53.13090   60.43250   60.43250   15.03590   16.17430   17.48220   16.17430    -999.25    0.35420    0.31060    2.38410  -64.74960  -13.67530   17.48220
 3000.00000    8.22090    8.55970    8.22090    -999.25   35.53050    0.10780    2.46440    -999.25    0.11250    0.14360   28.14480    0.10780   70.19980   70.19980   43.47180   45.68560   45.68560   28.14480   28.93290   31.34710   28.93290    -999.25    0.27110    0.22710    2.46710  -62.08710  -10.94580   31.34710
 3050.00000    8.56030    9.00750    8.56030    -999.25   70.88330    0.05770    2.41370    -999.25    0.14320    0.17330   14.10770    0.05770   82.85260   82.85260   52.86530   56.84390   56.84390   14.10770   12.92330   14.78570   12.92330    -999.25    0.32100    0.27710    2.41510  -59.60490   -8.39650   14.78570
 3100.00000   10.00910    9.48400   10.00910    -999.25  210.83700    0.22010    2.12170    -999.25    0.32020    0.34410    4.74300    0.22010  113.79290  113.79290   76.68740   78.88490   78.88490    4.74300    4.16740    4.33900    4.16740    -999.25    0.49640    0.45640    2.13340  -52.43470   -1.15880    4.33900
 3150.00000    8.29640    8.41680    8.29640    -999.25   71.89280    0.08670    2.37020    -999.25    0.16960    0.19870   13.90960    0.08670   90.92510   90.92510   50.06580   43.52700   43.52700   13.90960   14.59850   12.04610   14.59850    -999.25    0.34610    0.30250    2.37860  -63.39440  -12.05150   12.04610
 3200.00000    8.51480    8.66920    8.51480    -999.25  102.00910    0.04770    2.42180    -999.25    0.13830    0.16860    9.80540    0.04770   86.42310   86.42310   59.18500   66.02170   66.02170    9.80540    9.46020   11.68470    9.46020    -999.25    0.33880    0.29510    2.42540  -57.01240   -5.60200   11.68470
 3250.00000    8.84550    9.09570    8.84550    -999.25  224.51730    0.08320    2.49230    -999.25    0.09550    0.12730    4.45400    0.08320   91.54720   91.54720   73.87580   76.31750   76.31750    4.45400    4.78400    5.63330    4.78400    -999.25    0.39510    0.35210    2.48970  -52.36760   -0.89010    5.63330
 3300.00000    9.55660    9.94930    9.55660    -999.25  190.21890    0.16220    2.51850    -999.25    0.07970    0.11200    5.25710    0.16220   90.80480   90.80480   76.52860   85.30280   85.30280    5.25710    4.96820    6.10120    4.96820    -999.25    0.42580    0.38350    2.51950  -53.27560   -1.73110    6.10120
 3350.00000   10.45230   10.20160   10.45230    -999.25  119.98750    0.07330    2.51730    -999.25    0.08040    0.11270    8.33420    0.07330   87.26560   87.26560   80.47880   89.32830   89.32830    8.33420    8.84390    9.18460    8.84390    -999.25    0.36470    0.32120    2.51180  -55.37290   -3.76090    9.18460
 3400.00000   10.46570   11.37930   10.46570    -999.25  153.75150    0.17080    2.33550    -999.25    0.19060    0.21900    6.50400    0.17080   92.28960   92.28960   97.33950  114.56950  114.56950    6.50400    6.86440    7.24000    6.86440    -999.25    0.43600    0.39390    2.35440  -55.77320   -4.09410    7.24000
 3450.00000   11.57350   11.19590   11.57350    -999.25  128.08980    0.14950    2.48960    -999.25    0.09720    0.12890    7.80730    0.14950   85.69310   85.69310   94.99730  109.68060  109.68060    7.80730    8.40420    9.11440    8.40420    -999.25    0.39700    0.35400    2.48510  -56.54720   -4.80070    9.11440
 3500.00000   11.67780   11.90130   11.67780    -999.25  165.71380    0.19490    2.30500    -999.25    0.20910    0.23690    6.03450    0.19490   92.13390   92.13390  110.43130  119.49140  119.49140    6.03450    6.85910    7.08780    6.85910    -999.25    0.45130    0.40960    2.30830  -57.04490   -5.23130    7.08780
 3550.00000   11.20170   11.00620   11.20170    -999.25  168.66820    0.15800    2.35760    -999.25    0.17720    0.20610    5.92880    0.15800   97.34810   97.34810  117.51400  130.90860  130.90860    5.92880    6.34270    7.11670    6.34270    -999.25    0.47760    0.43680    2.36170  -56.15470   -4.27410    7.11670
 3600.00000   10.31480    9.75650   10.31480    -999.25   85.43580    0.07810    2.56260    -999.25    0.05300    0.08620   11.70470    0.07810   81.08400   81.08400  107.23990  119.58990  119.58990   11.70470   11.88120   15.39430   11.88120    -999.25    0.31640    0.27250    2.57310  -55.78940   -3.89360   15.39430
 3650.00000    9.99990   10.06730    9.99990    -999.25  124.79720    0.12960    2.54790    -999.25    0.06190    0.09480    8.01300    0.12960   90.75310   90.75310  107.18060  115.83780  115.83780    8.01300    8.45000    9.96790    8.45000    -999.25    0.38480    0.34160    2.55510  -54.31380   -2.49080    9.96790
 3700.00000    9.87750   10.25270    9.87750    -999.25  123.71740    0.11080    2.52770    -999.25    0.07420    0.10660    8.08300    0.11080   85.90520   85.90520  105.09740  122.00540  122.00540    8.08300    8.43050    9.65820    8.43050    -999.25    0.36350    0.32000    2.53320  -54.72310   -2.97340    9.65820
 3750.00000    9.85420   10.40390    9.85420    -999.25  178.24990    0.12690    2.39460    -999.25    0.15480    0.18450    5.61010    0.12690   93.89340   93.89340  106.55440  118.25060  118.25060    5.61010    6.07630    6.52860    6.07630    -999.25    0.44470    0.40290    2.37420  -55.71610   -4.03920    6.52860
 3800.00000   10.76080   11.00150   10.76080    -999.25  147.44480    0.18700    2.44040    -999.25    0.12700    0.15760    6.78220    0.18700   86.23810   86.23810   99.21070  118.25550  118.25550    6.78220    7.10650    7.71410    7.10650    -999.25    0.38670    0.34360    2.44140  -55.79480   -4.19070    7.71410
 3850.00000   10.83330   11.04070   10.83330    -999.25  139.62580    0.21680    2.49010    -999.25    0.09690    0.12860    7.16200    0.21680   84.00000   84.00000   99.46000  113.28500  113.28500    7.16200    7.61830    8.66200    7.61830    -999.25    0.37900    0.33580    2.47260  -56.18130   -4.65050    8.66200
 3900.00000   11.34060   10.81230   11.34060    -999.25  139.40200    0.16080    2.48100    -999.25    0.10240    0.13390    7.17350    0.16080   87.58070   87.58070  110.58360  125.27600  125.27600    7.17350    7.39890    9.11550    7.39890    -999.25    0.39020    0.34710    2.48060  -55.13990   -3.68190    9.11550
 3950.00000   10.75490    9.99120   10.75490    -999.25  154.76280    0.17480    2.46550    -999.25    0.11180    0.14300    6.46150    0.17480   88.31380   88.31380  107.44430  120.44810  120.44810    6.46150    6.78940    7.63900    6.78940    -999.25    0.40400    0.36120    2.47210  -55.41480   -4.03010    7.63900
 4000.00000   10.06290   10.13560   10.06290    -999.25  173.08520    0.15540    2.36240    -999.25    0.17430    0.20330    5.77750    0.15540   89.32720   89.32720  105.99000  129.34700  129.34700    5.77750    6.24550    6.85220    6.24550    -999.25    0.45290    0.41130    2.37930  -55.03960   -3.72770    6.85220
