~Version ---------------------------------------------------
VERS.      2.0 : CWLS log ASCII Standard -VERSION 2.0
WRAP.       NO : One line per depth step
CREA. 07/27/13 : LAS Creation Date
~Well ------------------------------------------------------
STRT.M                   300.0 : START DEPTH
STOP.M                  3250.0 : STOP DEPTH
STEP.M                50.00000 : STEP LENGTH
NULL.                  -999.25 : NULL VALUE
COMP.        SUNCOR ENERGY INC : COMPANY
WELL. SUNCOR CARROT 9-34-53-14 : WELL
FLD .                          : FIELD
LOC .                          : LOCATION
CTRY.                   CANADA : COUNTRY
SRVC.             Schlumberger : SERVICE COMPANY
DATE.              15-Sep-1998 : LOGDATE
PROV.                  Alberta : PROVINCE
UWI .         100093405314W500 : UNIQUE WELL ID
SLAT.WGS84            53.62161 : SURFACE LATITUDE
SLON.WGS84           -115.9717 : SURFACE LONGITUDE
~Curve Information -----------------------------------------
DEPT    .M      : DEPTH METER
AT10ED  .OHMM   : 10 INCH RESISTIVITY TWO FOOT RESOLUTION FROM RESISTIVITY LOG
AT20ED  .OHMM   : 20 INCH RESISTIVITY TWO FOOT RESOLUTION FROM RESISTIVITY LOG
AT30ED  .OHMM   : 30 INCH RESISTIVITY TWO FOOT RESOLUTION FROM RESISTIVITY LOG
AT60ED  .OHMM   : 60 INCH RESISTIVITY TWO FOOT RESOLUTION FROM RESISTIVITY LOG
AT90ED  .OHMM   : 90 INCH RESISTIVITY TWO FOOT RESOLUTION FROM RESISTIVITY LOG
CAL2ED  .MM     : CALIPER 2 FROM DENSITY LOG
CALSED  .MM     : CALIPER FROM SONIC LOG [ADJ. TO RESISTIVITY LOG]
CALWS   .MM     : CALIPER [HCALSED]
CONDWS  .MMHO   : CONDUCTIVITY [1000/DRESWS]
DCORWS  .KG/M3  : DENSITY CORRECTION [HDRAED]
DENWS   .KG/M3  : FROMATION BULK DENSITY [CALC FROM DPOSSWS, M=2650,F=1000]
DPHISSED.V/V    : DENSITY POROSITY SANDSTONE [M=2650,F=1000] FROM DENSITY LOG
DPHZSSED.V/V    : DENSITY POROSITY SANDSTONE [M=2650,F=1000] FROM DENSITY LOG
DPOSSWS .V/V    : DENSITY POROSITY SANDSTONE [DPHZSSED]
DRESWS  .OHMM   : DEEP RESISTIVITY [AT90ED]
DRHOED  .KG/M3  : DENSITY CORRECTION FROM DENSITY LOG
DTED    .US/M   : DELTA TIME FROM SONIC LOG [ADJ. TO RESISTIVITY LOG]
DTWS    .US/M   : COMPRESSIONAL SONIC [DTED]
GRED    .GAPI   : GAMMA RAY FROM CBL LOG [ADJ. TO RESISTIVITY LOG]
GRRED   .GAPI   : GAMMA RAY FROM RESISTIVITY LOG
GRSED   .GAPI   : GAMMA RAY FROM SONIC LOG [ADJ. TO RESISTIVITY LOG]
GRWS    .GAPI   : GAMMA RAY [GRED SPL. TO GRRED @ 385M AND SPL. TO GRSED @ 3248.2M]
HCALSED .MM     : HRCC CALIPER FROM SONIC LOG [ADJ. TO RESISTIVITY LOG]
HDRAED  .KG/M3  : DENSITY CORRECTION FROM DENSITY LOG
MRESWS  .OHMM   : MEDIUM RESISTIVITY [AT30ED]
NPORSSED.V/V    : NEUTRON POROSITY SANDSTONE FROM DENSITY LOG
NPOSSWS .V/V    : NEUTRON POROSITY SANDSTONE [NPORSSED]
PEFED   .B/E    : PHOTOELECTRIC FACTOR FROM DENSITY LOG
PEFWS   .B/E    : PHOTOELECTRIC FACTOR [PEFZED]
PEFZED  .B/E    : PHOTOELECTRIC FACTOR FROM DENSITY LOG
RHOBED  .KG/M3  : BULK DENSITY FROM DENSITY LOG [ADJ. TO DPHISSED]
RHOZED  .KG/M3  : BULK DENSITY HRDD STANDARD RESOLUTION FROM DENSITY LOG [DPHZSSED]
SPRED   .MV     : SPONTANEOUS POTENTIAL FROM RESISTIVITY LOG
SPWS    .MV     : SPONTANEOUS POTENTIAL [SPRED]
SRESWS  .OHMM   : SHALLOW RESISTIVITY [AT10ED]
TENRED  .N      : TENSION FROM RESISTIVITY LOG
TENSED  .N      : TENSION FROM SONIC LOG [ADJ. TO RESISTIVITY LOG]
~Params ----------------------------------------------------
PD  .                       GL : PERMANENT DATUM
EPD .M                   870.3 : ELEVATION PERMANENT DATUM
LMF .                       KB : LOG MEASURED FROM
DAPD.M                     6.3 : FEET ABOVE PERMANENT DATUM
DMF .                       KB : DRILLING MEASURED FROM
EKB .M                   876.6 : KELLY BUSHING
EDF .M                   876.3 : DRILLING FLOOR
EGL .M                   870.3 : GROUND LEVEL
DATE.                 09/15/98 : RUN DATE
RUN .                        2 : RUN NUMBER
DD  .M                    3262 : DEPTH DRILLER
DL  .M                  3262.7 : DEPTH LOGGER
BLI .M                  3260.3 : BOTTOM LOG INTERVAL
TLI .M                    2235 : TOP LOG INTERVAL
CS  .MM                  177.8 : CASING SIZE
CBD .M                    2233 : CASING BOTTOM DRILLER
CBL .M                    2235 : CASING BOTTOM LOGGER
BS  .MM                  155.6 : BIT SIZE
BSD .M                    3262 : BIT SIZE AT DEPTH
DFT .              GEL POLYMER : DRILLING FLUID TYPE
DFD .                     1155 : DRILLING FLUID DENSITY
DFV .                       77 : DRILLING FLUID VISCOSITY
DFPH.                      6.5 : DRILLING FLUID PH
DFL .                     10.5 : DRILLING FLUID LOSS
MSS .                 FLOWLINE : MUD SAMPLE SOURCE
RMS .OHMM                0.827 : RESISTIVITY MUD SAMPLE
MST .DEGC                   14 : MUD SAMPLE TEMPERATURE
RMF .OHMM                0.648 : RESISTIVITY MUD FILTRATE SAMPLE
MFST.DEGC                   13 : MUD FILTRATE SAMPLE TEMPERATURE
RMC .OHMM                 1.18 : RESISTIVITY MUD CAKE
MCST.DEGC                   10 : MUD CAKE SAMPLE TEMPERATURE
MFSS.                     MEAS : MUD FILTRATE SAMPLE SOURCE
MCSS.                     MEAS : MUD CAKE SAMPLE SOURCE
RMB .OHMM                0.225 : RESISTIVITY MUD AT BHT
TCS .HRS                   200 : TIME CIRCULATED STOPPED
TLAB.HRS                     5 : TIME LOGGER AT BOTTOM
LUN .                     2111 : LOGGING UNIT NUMBER
LUL .                NISKU F S : LOGGING UNIT LOCATION
ENGI.            HARVEY KAZEMI : RECORDING ENGINEER
WITN.                PATTERSON : WITNESSED BY
CLNT.                  A2DTECH : CLIENT CODE
ORIG. 6.5"/100M 16"/100M PRINT : ORIGIN OF DATA
UWI .         100093405314W500 : UNIQUE WELL ID
DICO.   A2D Technologies, Inc. : DIGITIZING COMPANY
~Other -----------------------------------------------------
AIT-CNT-LDT RAN IN COMBO & BHC & CBL TOOL RUN
RHOZ & RHOB FROM SMALL SCALE SECTION
POOR PEF DUE TO BARITE IN MUD
SP RELOGGED FROM BRIDGE @ 1963 M
~ASCII -----------------------------------------------------
# ...
 1300.00000    6.72930    6.93970    7.10790    7.68080    7.89790  247.85060    -999.25  277.72840  126.61590   77.62620 2312.08000    -999.25    0.20480    0.20480    7.89790    -999.25  283.29430  283.29430   44.39570   74.50820   74.27820   74.50820  277.72840   77.62620    7.10790    0.32430    0.32430    -999.25    9.66090    9.66090    -999.25 2292.41630   17.44860   -2.79860    6.72930 13776.80960 13745.38180
 1350.00000   10.14550   10.39020   10.75150   11.14840   11.31960  263.21340    -999.25  254.27750   88.34230    4.91240 2631.02500    -999.25    0.01150    0.01150   11.31960    -999.25  260.42600  260.42600   62.67380  106.68100  106.91610  106.68100  254.27750    4.91240   10.75150    0.24130    0.24130    -999.25    3.73360    3.73360    -999.25 2629.19530   16.29310   -4.66630   10.14550 14203.68160 13682.66210
 1400.00000   10.88900   11.10390   11.28520   11.79880   12.00050  250.09720    -999.25  251.80840   83.32990   -1.83160 2600.50000    -999.25    0.03000    0.03000   12.00050    -999.25  289.85120  289.85120   77.95770  129.31050  128.55760  129.31050  251.80840   -1.83160   11.28520    0.29610    0.29610    -999.25    3.69630    3.69630    -999.25 2601.18870   19.89920   -1.90320   10.88900 14220.47070 13871.08500
 1450.00000    7.91600    8.79490    9.00510    9.70310    9.84990  291.94680    -999.25  225.42670  101.52390    7.18170 2580.86500    -999.25    0.04190    0.04190    9.84990    -999.25  266.54720  266.54720   67.44730  101.22480  100.95300  101.22480  225.42670    7.18170    9.00510    0.25700    0.25700    -999.25    4.51750    4.51750    -999.25 2574.27000   22.08230   -1.15150    7.91600 14584.43260 14373.37500
 1500.00000    9.42010    9.87850   10.22630   10.69480   10.87380  275.19010    -999.25  222.02710   91.96420    6.18180 2571.29500    -999.25    0.04770    0.04770   10.87380    -999.25  257.25760  257.25760   64.84050   92.46940   92.68180   92.46940  222.02710    6.18180   10.22630    0.22870    0.22870    -999.25    3.89380    3.89380    -999.25 2572.84010   21.46920   -3.00190    9.42010 14810.69630 14908.66310
 1550.00000    6.41990    7.24860    7.42590    7.77270    7.84280  281.94870    -999.25  224.69780  127.50550   53.55770 2574.92500    -999.25    0.04550    0.04550    7.84280    -999.25  274.13320  274.13320   65.81880  110.69400  111.38990  110.69400  224.69780   53.55770    7.42590    0.26360    0.26360    -999.25    5.56910    5.56910    -999.25 2576.03640   24.44280   -1.94290    6.41990 14754.38180 14842.02250
 1600.00000   12.17040   12.54620   12.85310   13.07230   13.91070  262.21110    -999.25  230.02980   71.88710   83.58640 2407.45000    -999.25    0.14700    0.14700   13.91070    -999.25  259.02260  259.02260   62.98650  100.05290  100.55800  100.05290  230.02980   83.58640   12.85310    0.21350    0.21350    -999.25    9.45720    9.45720    -999.25 2423.46220   21.59880  -14.70430   12.17040 14811.64750 14807.10250
 1650.00000    8.86680    9.75290   10.21420   10.06270    9.69820  231.32930    -999.25  256.99630  103.11190  130.42260 2296.07500    -999.25    0.21450    0.21450    9.69820    -999.25  253.46620  253.46620   73.00070  109.47070  109.80230  109.47070  256.99630  130.42260   10.21420    0.26570    0.26570    -999.25   10.00000   10.00000    -999.25 2300.20190   93.51970  -21.37560    8.86680 15587.40230 15443.25200
 1700.00000   11.90560   11.83960   11.33220   10.80640   10.39490  231.01480    -999.25  250.23560   96.20100  190.64770 2509.58500    -999.25    0.08510    0.08510   10.39490    -999.25  282.11220  282.11220   77.57590  127.63450  126.20740  127.63450  250.23560  190.64770   11.33220    0.29380    0.29380    -999.25   10.00000   10.00000    -999.25 2540.99000  222.93900   -5.42000   11.90560 15168.21290 14962.48830
 1750.00000   16.08810   16.01840   15.36100   14.78840   14.37230  244.66230    -999.25  215.70350   69.57830   33.60230 2548.36000    -999.25    0.06160    0.06160   14.37230    -999.25  289.69030  289.69030   77.58840  134.21150  134.57770  134.21150  215.70350   33.60230   15.36100    0.31270    0.31270    -999.25    6.66430    6.66430    -999.25 2538.40110   52.17210  -31.37750   16.08810 15620.27730 15370.87300
 1800.00000    6.48200    7.76520    7.98490    7.74810    7.57220  251.36610    -999.25  236.26970  132.06200   94.32520 2350.69000    -999.25    0.18140    0.18140    7.57220    -999.25  261.66940  261.66940   68.12210   99.53180   99.44300   99.53180  236.26970   94.32520    7.98490    0.29310    0.29310    -999.25   10.00000   10.00000    -999.25 2342.33420  270.96370   -0.89440    6.48200 16183.36130 15848.26560
 1850.00000   10.24720   10.04560    9.61380    8.88800    8.65460  229.88310    -999.25  234.61610  115.54550  170.12180 2550.17500    -999.25    0.06050    0.06050    8.65460    -999.25  258.22750  258.22750   63.98380  105.23960  105.78630  105.23960  234.61610  170.12180    9.61380    0.25670    0.25670    -999.25   10.00000   10.00000    -999.25 2540.43330  202.43450  -65.94110   10.24720 17447.28520 17396.70510
 1900.00000    5.01770    6.44450    5.79240    5.24110    4.84180  284.52730    -999.25  302.93730  206.53480   32.51230 2105.00500    -999.25    0.33030    0.33030    4.84180    -999.25  296.79180  296.79180   55.08830   88.64810   88.67550   88.64810  302.93730   32.51230    5.79240    0.35470    0.35470    -999.25   10.00000   10.00000    -999.25 2090.08460  242.58420  -41.98960    5.01770 16717.67380 16270.61820
 1950.00000   15.92610   16.90740   15.24960   14.50420   13.52610  231.65350    -999.25  226.54270   73.93110  128.99730 2616.17500    -999.25    0.02050    0.02050   13.52610    -999.25  230.11800  230.11800   54.22600   88.67530   88.93780   88.67530  226.54270  128.99730   15.24960    0.17600    0.17600    -999.25    8.39570    8.39570    -999.25 2625.26510  233.33290  -55.11980   15.92610 16883.16410 16558.27930
 2000.00000   38.20970   45.55570   28.26410   24.59310   20.67020  231.45880    -999.25  214.13440   48.37880   39.25900 2637.46000    -999.25    0.00760    0.00760   20.67020    -999.25  213.49990  213.49990   34.02080   53.06200   53.47700   53.06200  214.13440   39.25900   28.26410    0.12830    0.12830    -999.25    4.62290    4.62290    -999.25 2646.06930  219.21330  -73.11830   38.20970 16991.49610 16840.46680
 2050.00000   18.33380   16.22800   15.49410   14.80300   14.43150  237.92220    -999.25  223.09360   69.29290   -4.86290 2514.37000    -999.25    0.08220    0.08220   14.43150    -999.25  271.88630  271.88630   56.12040   87.81740   87.77530   87.81740  223.09360   -4.86290   15.49410    0.32340    0.32340    -999.25    3.36800    3.36800    -999.25 2512.62700  282.94910  -13.26140   18.33380 17141.46480 16984.11910
 2100.00000    7.23640    9.93770    8.57710    7.80800    7.69330  251.77770    -999.25  225.11030  129.98320   36.02420 2607.92500    -999.25    0.02550    0.02550    7.69330    -999.25  246.54810  246.54810   61.31990  100.05610  100.03820  100.05610  225.11030   36.02420    8.57710    0.25130    0.25130    -999.25    5.75730    5.75730    -999.25 2605.30760  262.66700  -37.52720    7.23640 17066.18950 16979.48240
 2150.00000  383.60430  549.60940  210.10070  193.07810  176.68220  233.26470    -999.25  218.80240    5.65990   35.14890 2335.18000    -999.25    0.19080    0.19080  176.68220    -999.25  251.28250  251.28250   24.51340   46.93970   46.88250   46.93970  218.80240   35.14890  210.10070    0.19500    0.19500    -999.25    4.10000    4.10000    -999.25 2344.58400  209.57710  -94.62350  383.60430 17422.27730 17264.39650
 2200.00000  191.29440  308.84600  206.74790  136.09530  163.70660  225.89240    -999.25  252.82320    6.10850  170.41730 2525.09500    -999.25    0.07570    0.07570  163.70660    -999.25  194.43640  194.43640   15.41060   28.30660   28.40710   28.30660  252.82320  170.41730  206.74790    0.12680    0.12680    -999.25    9.56920    9.56920    -999.25 2553.15010  237.78370  -70.42330  191.29440 17009.87700 16698.95310
 2250.00000   34.69070   29.94150   28.03980   21.74960   20.48830  146.50630  147.09510  147.95610   48.80830   18.58830 2449.69000    0.08850    0.12140    0.12140   20.48830   69.97420  194.73680  194.73680    -999.25   15.49280   14.66340   15.49280  147.95610   18.58830   28.03980    0.11590    0.11590    2.31080    2.23620    2.23620 2522.50020 2445.54960  167.83740 -121.38970   34.69070 17385.06640 13327.10550
