~Version ---------------------------------------------------
VERS. 2.0 : CWLS log ASCII Standard -VERSION 2.0
WRAP.  NO : ONE LINE PER DEPTH STEP
~Well ------------------------------------------------------
STRT.F                      2050.0 : START DEPTH
STOP.F                     11200.0 : STOP DEPTH
STEP.F                    50.00000 : STEP LENGTH
NULL.                      -999.25 : NULL VALUE
COMP.     CHEVRON STANDARD LIMITED : COMPANY
WELL. CHEVRON KAYBOB S 10-19-60-18 : WELL
FLD .                              : FIELD
LOC .                              : LOCATION
CTRY.                       CANADA : COUNTRY
SRVC.                      Unknown : SERVICE COMPANY
DATE.                  02-Dec-1969 : LOGDATE
PROV.                      Alberta : PROVINCE
UWI .             100101906018W500 : UNIQUE WELL ID
SLAT.WGS84                54.20497 : SURFACE LATITUDE
SLON.WGS84               -116.6847 : SURFACE LONGITUDE
~Curve Information -----------------------------------------
DEPT.F                 : 
AC  .US/F 60 500 41 00 : ACOUSTIC
SPR .MV   07 010 01 00 : SPONTANEOUS POTENTIAL FROM RESISTIVITY LOG
ILD .OHMM 07 120 46 00 : INDUCTION DEEP RESISTIVITY
ILM .OHMM 07 120 44 00 : INDUCTION MEDIUM RESISTIVITY
SFL .OHMM 07 220 01 00 : SPHERICALLY FOCUSED LOG
CALS.IN   60 280 50 00 : CALIPER FROM SONIC LOG
GRS .GAPI 60 310 01 00 : GAMMA RAY FROM SONIC LOG
~Params ----------------------------------------------------
PD  .                     GL : PERMANENT DATUM
EPD .FT               3271.7 : ELEVATION PERMANENT DATUM
LMF .                     KB : LOG MEASURED FROM
DAPD.FT                 15.5 : FEET ABOVE PERMANENT DATUM
DMF .                     KB : DRILLING MEASURED FROM
EKB .FT               3287.2 : KELLY BUSHING
EGL .FT               3271.7 : GROUND LEVEL
DATE.               12/02/69 : RUN DATE
RUN .                      1 : RUN NUMBER
DD  .FT                11226 : DEPTH DRILLER
DL  .FT                11223 : DEPTH LOGGER
BLI .FT                11221 : BOTTOM LOG INTERVAL
TLI .FT                 2044 : TOP LOG INTERVAL
CS  .IN                9.625 : CASING SIZE
CBD .FT                 2041 : CASING BOTTOM DRILLER
CBL .FT                 2044 : CASING BOTTOM LOGGER
BS  .IN                 8.75 : BIT SIZE
BSD .FT                11226 : BIT SIZE AT DEPTH
DFT .                MUD GEL : DRILLING FLUID TYPE
DFD .                    9.2 : DRILLING FLUID DENSITY
DFV .                    124 : DRILLING FLUID VISCOSITY
DFPH.                   11.4 : DRILLING FLUID PH
DFL .                    7.6 : DRILLING FLUID LOSS
MSS .                   CIRC : MUD SAMPLE SOURCE
RMS .OHMM               1.75 : RESISTIVITY MUD SAMPLE
MST .DEGF                 50 : MUD SAMPLE TEMPERATURE
RMF .OHMM               1.25 : RESISTIVITY MUD FILTRATE SAMPLE
MFST.DEGF                 60 : MUD FILTRATE SAMPLE TEMPERATURE
RMC .OHMM                2.1 : RESISTIVITY MUD CAKE
MCST.DEGF                 60 : MUD CAKE SAMPLE TEMPERATURE
MFSS.                   MEAS : MUD FILTRATE SAMPLE SOURCE
MCSS.                   MEAS : MUD CAKE SAMPLE SOURCE
TCS .HRS                   7 : TIME CIRCULATED STOPPED
LUN .                   6002 : LOGGING UNIT NUMBER
LUL .                    V V : LOGGING UNIT LOCATION
ENGI.              KOWALCHUK : RECORDING ENGINEER
WITN.               PETERSON : WITNESSED BY
CLNT.                A2DTECH : CLIENT CODE
ORIG.            2" 5" PRINT : ORIGIN OF DATA
UWI .       100101906018W500 : UNIQUE WELL ID
DICO. A2D Technologies, Inc. : DIGITIZING COMPANY
~Other -----------------------------------------------------
~ASCII -----------------------------------------------------
# ...
 6550.00000  122.50000  -19.67350   10.87660   10.20660   14.36520   13.55200   97.97800
 6600.00000   87.96000  -21.17170   14.62790   16.44130   15.49530   13.25890  127.05840
 6650.00000   89.57000  -21.40010   14.84880   16.36580   16.77040   12.18730  118.33670
 6700.00000  128.79000  -25.90470   32.99860   31.16420   25.95050   12.85440   81.78360
 6750.00000   75.78000  -39.91750   12.09180   14.15890   16.11280   11.78070   91.00150
 6800.00000  123.24000  -22.66480   19.00450   11.31630   55.79130   13.62830   74.42380
 6850.00000   82.50000  -28.49880    9.62310   11.21030   11.73330   10.51630  109.20890
 6900.00000   70.92000  -29.69510   12.83770   15.59770   15.44300   10.46500  117.40440
 6950.00000   77.82000  -27.06610    3.93300    4.57320    4.91930   11.66530  101.71240
 7000.00000   71.73000  -24.97360   11.47300   13.63040   16.48330   10.68330  115.68230
 7050.00000   74.61000  -36.03130   26.74220   30.14150   28.45990   10.92190   84.93250
 7100.00000   60.08000  -40.19720   10.11580   15.64950    9.49350   10.48680   90.75380
 7150.00000   75.46000  -33.00310   14.16650   16.35070   15.59260   10.86170  119.08190
 7200.00000   74.72000  -35.63730   27.19190   33.67040   36.23460   10.21230   84.26880
 7250.00000   95.30000  -32.62230    8.75870    9.88730   21.82690   12.82960  124.31930
 7300.00000   89.62000  -28.31470    4.85630    5.38230    6.24910   12.22580  145.43870
 7350.00000   90.70800  -26.60280    2.61960    2.80130    3.82870   13.51410  136.52170
 7400.00000  106.83600  -27.21220   15.60220   10.87610   24.84760   14.76200  175.88710
 7450.00000   60.79200  -28.96690  128.50360  189.36390  570.38760   10.14250  108.51100
 7500.00000   80.03200  -35.67680    9.33660   10.27660   17.11180   10.08150  118.39260
 7550.00000   67.87200  -44.60250   24.43950   29.04210   29.46920   10.14250  117.17860
 7600.00000   65.79600  -37.87020   20.79290   24.25520   25.24080    9.95540  116.00530
 7650.00000   62.51600 -146.09950    2.01760    4.83300   22.38120    9.37090   50.41620
 7700.00000   55.27600 -124.27940   26.68230   31.17060   35.77040   10.68340   99.67480
 7750.00000   67.17200 -170.09010    5.70160    6.28570   11.25350   10.55240   57.41080
 7800.00000   59.60400 -156.12870    6.95900   10.56300   34.86770    9.81980   49.76040
 7850.00000   52.77200 -124.12560   24.36760   31.04310  102.41180   10.12130   75.17980
 7900.00000   50.58000 -134.00780  164.27270  255.41080 1126.68710   10.55370   27.44170
 7950.00000   54.34800 -186.92290   12.97000   26.73620   63.88060    9.82920   33.37680
 8000.00000   51.41600 -173.38240   34.23630   48.73770  177.68050   10.07550   26.76570
 8050.00000   60.71600 -109.53030    5.73700    7.23930    8.30160    9.99110  111.36000
 8100.00000   60.34000  -91.94230   15.43090   18.59670   19.42510   10.10660  126.99670
 8150.00000   63.81600  -99.71610    4.99470    6.04250    6.69400   10.17060   97.10160
 8200.00000   66.96000  -83.89450   12.60830   15.53200   20.98110   10.88900  141.94950
 8250.00000   53.11280  -87.98360   68.83090   97.46410  333.77690   10.19220   52.91140
 8300.00000   55.98240  -86.45040   30.42900   36.36480   40.52450   10.29630   50.38460
 8350.00000   56.60160  -92.01320   44.54460   55.55190   60.75340   10.08840   61.66690
 8400.00000   56.56800  -93.26800   32.77780   40.31010   43.80920   10.16190   66.06730
 8450.00000   55.78400  -97.69760   45.97960   63.19550   80.24130    9.94060   59.70980
 8500.00000   56.34800 -102.88300   47.57680   60.03370   85.21320    9.94500   55.27040
 8550.00000   56.38000 -109.99500  105.59280  150.32070  210.95520    9.96350   65.72750
 8600.00000   67.99600 -100.17650   41.89740   60.42120   64.87650   10.07660  132.30820
 8650.00000   51.63600 -116.03330  170.41500  267.87580  749.29340   10.12560   45.16870
 8700.00000   51.17360 -157.74230  185.39210  318.64950  370.24510   10.14060   36.20890
 8750.00000   50.09600 -152.70740  181.27600  241.84520  295.73720    9.80140   33.34390
 8800.00000   50.16000 -168.56570  215.66720  320.78630  754.21770   10.73050   30.79910
 8850.00000   51.65440 -178.10820  140.92270  242.11110  297.67800   10.28410   26.34030
 8900.00000   51.30000 -171.90780  201.24030  241.71300  442.36430   10.83970   29.14990
 8950.00000   50.95200 -180.87960  217.78110  282.67910  443.33140   11.13660   31.37360
 9000.00000   52.75200 -191.56630  189.14180  213.22380  309.34250   10.64640   30.75100
 9050.00000   53.98240 -184.07750  200.03060  218.90210  413.60930   10.96590   30.25260
 9100.00000   51.54240 -184.49660  103.93650  117.42570  140.09750   10.48570   27.33610
 9150.00000   51.79200 -185.53260  156.25300  166.44670  553.67990   10.30500   30.86010
 9200.00000   51.87200 -188.24210  174.18830  222.09170  576.90950   10.81820   29.64220
 9250.00000   53.92400 -193.67460  109.80990  132.09210  169.49370   10.87210   24.36420
 9300.00000   51.56960 -187.94110   82.85110   91.83270  121.18810   10.51080   29.64420
 9350.00000   52.52400 -182.49260  134.31310  167.30130  350.61250   10.46160   31.01470
 9400.00000   70.32880 -160.12060   12.40380   15.42700   18.25600    9.65840   77.80290
 9450.00000   50.90160 -183.38050   61.47080   78.06380   57.90890   10.39290   46.99260
 9500.00000   55.34000 -173.46470   98.80140   88.94640  158.94500   10.44980   39.53180
 9550.00000   53.32960 -155.75850   87.56340   74.98550  518.17800   10.55860   40.22080
 9600.00000   53.93520 -107.87580   66.36600   61.20680  109.87560    9.69600   41.42320
 9650.00000   55.09600  -99.90700   42.49190   40.54890   58.72060    9.64110   54.99960
 9700.00000   51.54800 -110.56260  144.07330  119.06020  389.66000    9.64140   39.11500
 9750.00000   53.33440 -100.99880   69.81920   60.10640   96.61680    9.62190   45.51420
 9800.00000   53.99440  -96.31190   61.19370   53.77640  101.78070    9.70240   44.94830
 9850.00000   57.52000  -92.31130   40.49590   37.95400   58.47670    9.70610   50.69060
 9900.00000   61.85360  -87.65530   14.12420   16.03240   17.53820   10.26390   69.32810
 9950.00000   69.95600  -82.73000    6.66630    8.05980    9.01160   10.74280   97.47570
 10000.00000   72.78160  -80.17840    5.06700    6.39070    7.41690   10.66300  113.31780
 10050.00000   62.62320  -77.42570   13.95360   16.35160   17.18590   10.11980   78.06100
 10100.00000   78.08320  -77.58480    9.98660   11.24230   16.09550   10.60900  153.18990
 10150.00000   77.66800  -78.76470    6.39590    7.46100    9.46350   10.49280  107.98280
 10200.00000   85.22560  -78.56080    4.95490    5.79400    6.02710   13.11020  113.70950
 10250.00000   69.36880  -70.79060   11.27440   13.08100   13.22330   10.74130  112.90320
 10300.00000   68.90960  -70.62360    9.45460   11.05220   12.57660   11.25640  104.75310
 10350.00000   64.61040  -69.13970   11.13960   13.68450   14.26450   10.28610  100.29280
 10400.00000   75.26160  -68.29260    6.29820    7.75520    8.72210   10.39270  140.22630
 10450.00000   73.64080  -65.70650    8.99120   10.76500   12.19810   10.33770  124.93170
 10500.00000   73.80320  -63.69730    6.77360    8.69230   10.10030   10.68140  117.41790
 10550.00000   79.44880  -63.00140    8.95080   10.26990    9.20080   10.20480  141.60470
 10600.00000   84.16000  -58.97310   62.16290   59.21200  155.32330   10.35190  145.34780
 10650.00000   80.90480  -68.71570  152.47650  106.32070 1245.98320   10.18110  201.74630
 10700.00000   85.26320  -74.48180  194.08160  139.01260 1183.30190   10.14850  216.88580
 10750.00000   75.81360  -55.09630   59.02700   69.84380  194.02090   10.15780  177.84960
 10800.00000   60.80160  -17.53690   55.63650   57.60150  101.29480   10.03720   74.81180
 10850.00000   55.32400   -8.77560   65.08100   54.14990   84.71260   10.11870   61.06880
 10900.00000   51.62960  -35.64490  254.97110  168.66730  692.37910    9.70850   32.41580
 10950.00000   64.10400  -23.09970   69.59370   58.59560  132.01660    9.21930   36.22910
 11000.00000   59.40800  -67.54240   31.41100   34.05730   30.00700    9.23460   43.96690
