~Version ---------------------------------------------------
VERS.      2.0 : CWLS log ASCII Standard -VERSION 2.0
WRAP.       NO : One line per depth step
CREA. 11/14/17 : LAS Creation Date
~Well ------------------------------------------------------
STRT.FT                           1100.0 : START DEPTH
STOP.FT                          10400.0 : STOP DEPTH
STEP.FT                         50.00000 : STEP LENGTH
NULL.                            -999.25 : NULL VALUE
COMP.               CHEVRON STANDARD LTD : COMPANY
WELL. CHEVRON GULF PASS CREEK 7-36-61-18 : WELL
FLD .                                    : FIELD
LOC .                                    : LOCATION
CTRY.                             CANADA : COUNTRY
SRVC.                       Schlumberger : SERVICE COMPANY
DATE.                        11-Jan-1976 : LOGDATE
PROV.                            Alberta : PROVINCE
UWI .                   100073606118W500 : UNIQUE WELL ID
SLAT.WGS84                      54.31663 : SURFACE LATITUDE
SLON.WGS84                      -116.558 : SURFACE LONGITUDE
~Curve Information -----------------------------------------
DEPT    .FT    : Depth Curve
CALDED  .IN    : CALIPER FROM DENSITY LOG
CALSED  .IN    : CALIPER FROM SONIC LOG [ADJ.TO GRDED]
CALWS   .IN    : CALIPER [CALSED]
CONDWS  .MMHO  : CONDUCTIVITY [1000/DRESWS]
DCORED  .G/C3  : DENSITY CORRECTION FROM DENSITY LOG
DCORWS  .G/C3  : DENSITY CORRECTION [DCORED]
DENWS   .G/C3  : FORMATION BULK DENSITY [RHOBED]
DPHILSED.V/V   : DENSITY POROSITY LIME [M=2.71, F=1.00,ADJ.TO RHOBED] FROM DENSITY LOG
DPHISSED.V/V   : DENSITY POROSITY SAND [M=2.65, F=1.00,ADJ.TO RHOBED] FROM DENSITY LOG
DPOLSWS .V/V   : DENSITY POROSITY LIME [CALC FROM DENWS, M=2.71, F=1.00]
DRESWS  .OHMM  : DEEP RESISTIVITY [ILDED]
DTED    .US/F  : DELTA-T FROM SONIC LOG [ADJ.TO GRDED]
DTWS    .US/F  : COMPRESSIONAL SONIC [DTED]
GRDED   .GAPI  : GAMMA RAY FROM DENSITY LOG
GRSED   .GAPI  : GAMMA RAY FROM SONIC LOG [ADJ.TO GRDED]
GRWS    .GAPI  : GAMMA RAY [GRSED SPL.TO GRDED @ 10379']
ILDED   .OHMM  : DEEP INDUCTION FROM RESISTIVITY LOG
ILMED   .OHMM  : MEDIUM INDUCTION FROM RESISTIVITY LOG
LL8ED   .OHMM  : LATEROLOG 8 FROM RESISTIVITY LOG
MRESWS  .OHMM  : MEDIUM RESISTIVITY [ILMED]
NPHILSED.V/V   : NEUTRON POROSITY LIME FROM DENSITY LOG [ADJ.TO RHOBED]
NPHISSED.V/V   : NEUTRON POROSITY SAND FROM DENSITY LOG [ADJ.TO RHOBED]
NPOLSWS .V/V   : NEUTRON POROSITY LIME [NPHISSED MATRIX CONVERTED TO LIME SPL.TO NPHILSED @ 6655']
RHOBED  .G/C3  : BULK DENSITY FROM DENSITY LOG
SPRED   .MV    : SPONTANEOUS POTENTIAL FROM RESISTIVITY LOG
SPWS    .MV    : SPONTANEOUS POTENTIAL [BASELINE 0 MV, SPRED]
SRESWS  .OHMM  : SHALLOW RESISTIVITY [LL8ED]
~Params ----------------------------------------------------
PD  .                     GL : PERMANENT DATUM
EPD .FT                 2874 : ELEVATION PERMANENT DATUM
LMF .                     KB : LOG MEASURED FROM
DAPD.FT                   15 : FEET ABOVE PERMANENT DATUM
EKB .FT                 2889 : KELLY BUSHING
EGL .FT                 2874 : GROUND LEVEL
DATE.               01/11/76 : RUN DATE
RUN .                      1 : RUN NUMBER
DD  .FT                10410 : DEPTH DRILLER
DL  .FT                10421 : DEPTH LOGGER
BLI .FT                10415 : BOTTOM LOG INTERVAL
TLI .FT                 1118 : TOP LOG INTERVAL
CBD .FT                 1118 : CASING BOTTOM DRILLER
CBL .FT                 1121 : CASING BOTTOM LOGGER
BS  .IN                 8.75 : BIT SIZE
BSD .FT                10410 : BIT SIZE AT DEPTH
DFT .               GEL CHEM : DRILLING FLUID TYPE
DFD .                    9.5 : DRILLING FLUID DENSITY
DFV .                    137 : DRILLING FLUID VISCOSITY
DFPH.                    9.5 : DRILLING FLUID PH
DFL .                      9 : DRILLING FLUID LOSS
MSS .               FLOWLINE : MUD SAMPLE SOURCE
RMS .OHMM               2.38 : RESISTIVITY MUD SAMPLE
MST .DEGF                 54 : MUD SAMPLE TEMPERATURE
RMF .OHMM               2.06 : RESISTIVITY MUD FILTRATE SAMPLE
MFST.DEGF                 60 : MUD FILTRATE SAMPLE TEMPERATURE
RMC .OHMM               1.88 : RESISTIVITY MUD CAKE
MCST.DEGF                 42 : MUD CAKE SAMPLE TEMPERATURE
RMB .OHMM               0.66 : RESISTIVITY MUD AT BHT
TCS .HRS                 5.5 : TIME CIRCULATED STOPPED
LUN .                   7657 : LOGGING UNIT NUMBER
ENGI.                STANDEN : RECORDING ENGINEER
WITN.                   WONG : WITNESSED BY
CLNT.                A2DTECH : CLIENT CODE
ORIG.            2" 5" PRINT : ORIGIN OF DATA
UWI .       100073606118W500 : UNIQUE WELL ID
DICO. A2D Technologies, Inc. : DIGITIZING COMPANY
~Other -----------------------------------------------------
~ASCII -----------------------------------------------------
 1100.00000    -999.25    -999.25    -999.25    -999.25    -999.25    -999.25    -999.25    -999.25    -999.25    -999.25    -999.25    -999.25    -999.25    -999.25   39.99170   39.99170    -999.25    -999.25    -999.25    -999.25    -999.25    -999.25    -999.25    -999.25    -999.25    -999.25    -999.25
 1150.00000    -999.25    9.94120    9.94120   90.05420    -999.25    -999.25    -999.25    -999.25    -999.25    -999.25   11.10670   85.84700   85.84700    -999.25   56.46440   56.46440   11.10670   10.27500    9.55150   10.27500    -999.25    -999.25    -999.25    -999.25 -129.73370   -2.93020    9.55150
 1200.00000    -999.25   10.45560   10.45560  104.09620    -999.25    -999.25    -999.25    -999.25    -999.25    -999.25    9.60650   98.85480   98.85480    -999.25   68.95650   68.95650    9.60650    8.88650    7.20680    8.88650    -999.25    -999.25    -999.25    -999.25 -139.62780   -5.22600    7.20680
 1250.00000    -999.25   10.12670   10.12670  195.53400    -999.25    -999.25    -999.25    -999.25    -999.25    -999.25    5.11420  110.24250  110.24250    -999.25   81.82370   81.82370    5.11420    4.59200    4.11540    4.59200    -999.25    -999.25    -999.25    -999.25 -142.62070   -7.23320    4.11540
 1300.00000    -999.25   11.27080   11.27080  309.78980    -999.25    -999.25    -999.25    -999.25    -999.25    -999.25    3.23260  150.54500  150.54500    -999.25   67.24540   67.24540    3.23260    3.59120    3.74860    3.59120    -999.25    -999.25    -999.25    -999.25 -147.96830  -11.59520    3.74860
 1350.00000    -999.25   10.76130   10.76130  219.55820    -999.25    -999.25    -999.25    -999.25    -999.25    -999.25    4.55460  124.20530  124.20530    -999.25   76.24020   76.24020    4.55460    5.08220    4.99260    5.08220    -999.25    -999.25    -999.25    -999.25 -147.37920  -10.01390    4.99260
 1400.00000    -999.25   10.88260   10.88260  222.79900    -999.25    -999.25    -999.25    -999.25    -999.25    -999.25    4.50030  110.10770  110.10770    -999.25   89.25570   89.25570    4.50030    4.66320    5.44080    4.66320    -999.25    -999.25    -999.25    -999.25 -145.28830   -5.84950    5.44080
 1450.00000    -999.25   12.88280   12.88280  305.63280    -999.25    -999.25    -999.25    -999.25    -999.25    -999.25    3.27190  142.72330  142.72330    -999.25   75.88670   75.88670    3.27190    3.81890    3.82990    3.81890    -999.25    -999.25    -999.25    -999.25 -149.31850   -7.70700    3.82990
 1500.00000    -999.25   10.65700   10.65700  204.92640    -999.25    -999.25    -999.25    -999.25    -999.25    -999.25    4.87980   91.00050   91.00050    -999.25   85.19690   85.19690    4.87980    5.00530    5.66770    5.00530    -999.25    -999.25    -999.25    -999.25 -148.72200   -5.33870    5.66770
 1550.00000    -999.25   10.55320   10.55320  382.19080    -999.25    -999.25    -999.25    -999.25    -999.25    -999.25    2.61650  114.19800  114.19800    -999.25  113.17420  113.17420    2.61650    2.85710    3.14090    2.85710    -999.25    -999.25    -999.25    -999.25 -147.29240   -5.94800    3.14090
 1600.00000    -999.25   11.62500   11.62500  218.51710    -999.25    -999.25    -999.25    -999.25    -999.25    -999.25    4.57630  105.53620  105.53620    -999.25   82.02350   82.02350    4.57630    4.17950    4.06750    4.17950    -999.25    -999.25    -999.25    -999.25 -150.50350  -11.21130    4.06750
 1650.00000    -999.25   12.44820   12.44820  327.86850    -999.25    -999.25    -999.25    -999.25    -999.25    -999.25    3.05210  142.42960  142.42960    -999.25   70.12730   70.12730    3.05210    3.40470    3.37280    3.40470    -999.25    -999.25    -999.25    -999.25 -146.95350   -9.70020    3.37280
 1700.00000    -999.25   10.72990   10.72990  324.11760    -999.25    -999.25    -999.25    -999.25    -999.25    -999.25    3.08530  121.52760  121.52760    -999.25   82.53580   82.53580    3.08530    3.38040    3.55110    3.38040    -999.25    -999.25    -999.25    -999.25 -142.67270   -7.47170    3.55110
 1750.00000    -999.25   10.96980   10.96980  426.16660    -999.25    -999.25    -999.25    -999.25    -999.25    -999.25    2.34650  110.35050  110.35050    -999.25   77.00670   77.00670    2.34650    2.67020    2.93540    2.67020    -999.25    -999.25    -999.25    -999.25 -141.70380   -8.54170    2.93540
 1800.00000    -999.25   10.64020   10.64020  227.68050    -999.25    -999.25    -999.25    -999.25    -999.25    -999.25    4.39250   98.77510   98.77510    -999.25   93.63170   93.63170    4.39250    4.76910    5.79440    4.76910    -999.25    -999.25    -999.25    -999.25 -138.76630   -7.64300    5.79440
 1850.00000    -999.25   10.58280   10.58280  319.60110    -999.25    -999.25    -999.25    -999.25    -999.25    -999.25    3.12890  113.03160  113.03160    -999.25   88.35880   88.35880    3.12890    3.60710    3.53740    3.60710    -999.25    -999.25    -999.25    -999.25 -137.74420   -8.37100    3.53740
 1900.00000    -999.25   10.94660   10.94660  335.33250    -999.25    -999.25    -999.25    -999.25    -999.25    -999.25    2.98230  121.80160  121.80160    -999.25   82.56780   82.56780    2.98230    3.20330    3.37230    3.20330    -999.25    -999.25    -999.25    -999.25 -136.28610   -8.06830    3.37230
 1950.00000    -999.25   10.31840   10.31840  242.36550    -999.25    -999.25    -999.25    -999.25    -999.25    -999.25    4.12600  109.17360  109.17360    -999.25   98.55550   98.55550    4.12600    4.36260    4.76210    4.36260    -999.25    -999.25    -999.25    -999.25 -133.87540   -6.82070    4.76210
 2000.00000    -999.25   10.39390   10.39390  146.84500    -999.25    -999.25    -999.25    -999.25    -999.25    -999.25    6.80990   89.61310   89.61310    -999.25   83.65540   83.65540    6.80990    7.64360    8.25090    7.64360    -999.25    -999.25    -999.25    -999.25 -135.90440  -10.00510    8.25090
 2050.00000    -999.25   10.72300   10.72300  169.43590    -999.25    -999.25    -999.25    -999.25    -999.25    -999.25    5.90340   93.57450   93.57450    -999.25   73.49610   73.49610    5.90340    6.19450    6.04520    6.19450    -999.25    -999.25    -999.25    -999.25 -132.64020   -7.89640    6.04520
 2100.00000    -999.25   10.58400   10.58400  240.00960    -999.25    -999.25    -999.25    -999.25    -999.25    -999.25    4.16650   98.96770   98.96770    -999.25   85.95770   85.95770    4.16650    4.31750    4.66230    4.31750    -999.25    -999.25    -999.25    -999.25 -131.48120   -7.85150    4.66230
 2150.00000    -999.25   10.20030   10.20030  343.20050    -999.25    -999.25    -999.25    -999.25    -999.25    -999.25    2.91590  124.60150  124.60150    -999.25  101.50730  101.50730    2.91590    3.11550    3.65250    3.11550    -999.25    -999.25    -999.25    -999.25 -131.85840   -8.32130    3.65250
 2200.00000    -999.25   10.69540   10.69540  199.84410    -999.25    -999.25    -999.25    -999.25    -999.25    -999.25    5.00390   89.64220   89.64220    -999.25   74.42630   74.42630    5.00390    4.72380    4.45510    4.72380    -999.25    -999.25    -999.25    -999.25 -128.24280   -4.79900    4.45510
 2250.00000    -999.25   10.38760   10.38760  357.56430    -999.25    -999.25    -999.25    -999.25    -999.25    -999.25    2.79670  107.99910  107.99910    -999.25   98.02250   98.02250    2.79670    2.97230    3.08480    2.97230    -999.25    -999.25    -999.25    -999.25 -130.97850   -7.62740    3.08480
 2300.00000    -999.25    9.73680    9.73680   95.47940    -999.25    -999.25    -999.25    -999.25    -999.25    -999.25   10.47670   97.47710   97.47710    -999.25   63.62910   63.62910   10.47670   10.85570   11.88310   10.85570    -999.25    -999.25    -999.25    -999.25 -142.00500  -18.74650   11.88310
 2350.00000    -999.25   10.56160   10.56160  320.26650    -999.25    -999.25    -999.25    -999.25    -999.25    -999.25    3.12240  107.99820  107.99820    -999.25  100.14710  100.14710    3.12240    2.88520    2.74150    2.88520    -999.25    -999.25    -999.25    -999.25 -128.60660   -5.44140    2.74150
