~Version ---------------------------------------------------
VERS.      2.0 : CWLS log ASCII Standard -VERSION 2.0
WRAP.       NO : ONE LINE PER DEPTH STEP
CREA. 08/28/13 : LAS CREATION DATE
~Well ------------------------------------------------------
STRT.M                     450.0 : START DEPTH
STOP.M                    3750.0 : STOP DEPTH
STEP.M                  50.00000 : STEP LENGTH
NULL.                    -999.25 : NULL VALUE
COMP. ALBERTA ENERGY COMPANY LTD : COMPANY
WELL.   AEC NORTH KARR 4-26-66-1 : WELL
FLD .                            : FIELD
LOC .                            : LOCATION
CTRY.                     CANADA : COUNTRY
SRVC.                    Unknown : SERVICE COMPANY
DATE.                18-Oct-1996 : LOGDATE
PROV.                    Alberta : PROVINCE
UWI .           100042606601W600 : UNIQUE WELL ID
SLAT.WGS84              54.73603 : SURFACE LATITUDE
SLON.WGS84             -118.0441 : SURFACE LONGITUDE
~Curve Information -----------------------------------------
DEPT    .M      : DEPTH METERS
AHIBDED .MM     : ARRAY INDUCTION INPUT BOREHOLE DIAMETER TO AIT PROCESSING
AHT10ED .OHMM   : 10 INCH RESISTIVITY TWO FOOT RESOLUTION FROM AIT LOG
AHT20ED .OHMM   : 20 INCH RESISTIVITY TWO FOOT RESOLUTION FROM AIT LOG
AHT30ED .OHMM   : 30 INCH RESISTIVITY TWO FOOT RESOLUTION FROM AIT LOG
AHT60ED .OHMM   : 60 INCH RESISTIVITY TWO FOOT RESOLUTION FROM AIT LOG
AHT90ED .OHMM   : 90 INCH RESISTIVITY TWO FOOT RESOLUTION FROM AIT LOG
AHTRTED .OHMM   : ARRAY INDUCTION TWO FOOT RT
AHTRXED .OHMM   : ARRAY INDUCTION TWO FOOT RT
CALDED  .MM     : CALIPER FROM DENSITY LOG
CALRED  .MM     : CALIPER FROM RESISTIVITY LOG
CALWS   .MM     : CALIPER [HCLARED]<3625>[CALRED]
CGRDED  .GAPI   : GAMMA RAY FROM DENSITY LOG
CONDWS  .MMHO   : CONDUCTIVITY [1000/DRESWS]
DCORWS  .KG/M3  : DENSITY CORRECTION [HDRAED]<3625>[DRHOED]
DENWS   .KG/M3  : BULK DENSITY [RHOZED]<3625>[RHOBED]
DPHILSED.V/V    : DENSITY POROSITY [M=2710 F=1000] FROM DENSITY LOG
DPHZLSED.V/V    : DENSITY POROSITY LIMESTONE FROM DENSITY LOG
DPHZSSED.V/V    : DENSITY POROSITY SANDSTONE FROM DENSITY LOG
DPOLSWS .V/V    : DENSITY POROSITY LIMESTONE [CALCULATED FROM DENWS]
DRESWS  .OHMM   : DEEP RESISTIVITY [AHT90ED], SPLICED WITH [LLDED]AT 3625m
DRHOED  .KG/M3  : DENSITY CORRECTION FROM DENSITY LOG
DT4PED  .US/M   : DELTA TIME COMP - P & S FROM DIPOLE SONIC LOG
DTCOED  .US/M   : DELTA TIME COMPRESSIONAL FROM SONIC LOG
DTED    .US/M   : DELTA TIME FROM SONIC LOG
DTWS    .US/M   : DELTA TIME [DTED]
GRRED   .GAPI   : GAMMA RAY FROM RESISTIVITY LOG
GRSED   .GAPI   : GAMMA RAY FROM SONIC LOG
GRWS    .GAPI   : GAMMA RAY [GRRED]
HCALRED .MM     : HRCC CALIPER CALIBRATED FROM RES. LOG
HDDED   .MM     : HOLE DIAMETER FROM DENSITY LOG
HDRAED  .KG/M3  : DENSITY CORRECTION FROM DENSITY LOG
HDSED   .MM     : HOLE DIAMETER FROM SONIC LOG
LLDED   .OHMM   : LATEROLOG DEEP RESISTIVITY
LLSED   .OHMM   : LATEROLOG SHALLOW RESISTIVITY
MRESWS  .OHMM   : MEDIUM RESISTIVITY [LLSED]
MSFLED  .OHMM   : MICROSPHERICALLY FOCUSED LOG RESISTIVITY
NPOLSWS .V/V    : NUTRON POROSITY LIMESTONE [NPORLSED], MATRIX CONVERTED [NPORSSED] TO LIMESTONE FROM TOP TO 2150m
NPORLSED.V/V    : NUTRON POROSITY LIMESTONE FROM DENSITY LOG
NPORSSED.V/V    : NUTRON POROSITY SANDSTONE FROM DENSITY LOG
PEFED   .B/E    : PHOTOELECTRIC FACTOR FROM DENSITY LOG
PEFWS   .B/E    : PHOTOELECTRIC FACTOR [PEFED]
PEFZED  .B/E    : PHOTOELECTRIC FACTOR STANDARD RESOLUTION FROM DENSITY LOG
RHOBED  .KG/M3  : BULK DENSITY FROM DENSITY LOG
RHOZED  .KG/M3  : BULK DENSITY FROM DENSITY LOG
SGRDED  .GAPI   : GAMMA RAY FROM DENSITY LOG
SPRED   .MV     : SPONTANEOUS POTENTIAL FROM RESISTIVITY LOG
SPWS    .MV     : SPONTANEOUS POTENTIAL [BASELINE 0 MV] [SPRED]
SRESWS  .OHMM   : SHALLOW RESISTIVITY [AHT10ED], SPLICED WITH [LLSED] AT 3625m
TENDED  .N      : TENSION FROM DENSITY LOG
TENRED  .N      : TENSION FROM RESISTIVITY LOG
TENSED  .N      : TENSION FROM SONIC LOG
~Params ----------------------------------------------------
PD  .                        GL : PERMANENT DATUM
EPD .M                    811.6 : ELEVATION PERMANENT DATUM
LMF .                        KB : LOG MEASURED FROM
DAPD.M                      7.4 : FEET ABOVE PERMANENT DATUM
DMF .                        KB : DRILLING MEASURED FROM
EKB .M                      819 : KELLY BUSHING
EDF .M                    818.7 : DRILLING FLOOR
EGL .M                    811.6 : GROUND LEVEL
DATE.                  10/18/96 : RUN DATE
RUN .                         1 : RUN NUMBER
DD  .M                     3755 : DEPTH DRILLER
DL  .M                     3756 : DEPTH LOGGER
BLI .M                   3755.2 : BOTTOM LOG INTERVAL
TLI .M                     3627 : TOP LOG INTERVAL
CS  .MM                   177.8 : CASING SIZE
CBD .M                     3628 : CASING BOTTOM DRILLER
CBL .M                     3627 : CASING BOTTOM LOGGER
BS  .MM                     152 : BIT SIZE
BSD .M                     3755 : BIT SIZE AT DEPTH
DFT .                  GEL CHEM : DRILLING FLUID TYPE
DFD .                      1130 : DRILLING FLUID DENSITY
DFV .                        60 : DRILLING FLUID VISCOSITY
DFPH.                      10.5 : DRILLING FLUID PH
DFL .                         8 : DRILLING FLUID LOSS
MSS .                  FLOWLINE : MUD SAMPLE SOURCE
RMS .OHMM                  3.32 : RESISTIVITY MUD SAMPLE
MST .DEGC                     9 : MUD SAMPLE TEMPERATURE
RMF .OHMM                  2.76 : RESISTIVITY MUD FILTRATE SAMPLE
MFST.DEGC                     9 : MUD FILTRATE SAMPLE TEMPERATURE
RMC .OHMM                  1.85 : RESISTIVITY MUD CAKE
MCST.DEGC                    11 : MUD CAKE SAMPLE TEMPERATURE
MFSS.                  MEASURED : MUD FILTRATE SAMPLE SOURCE
MCSS.                  MEASURED : MUD CAKE SAMPLE SOURCE
RMB .OHMM                 0.824 : RESISTIVITY MUD AT BHT
TCS .HRS                   2230 : TIME CIRCULATED STOPPED
TLAB.HRS                   1545 : TIME LOGGER AT BOTTOM
LUN .                      2028 : LOGGING UNIT NUMBER
LUL .            GRANDE PRAIRIE : LOGGING UNIT LOCATION
ENGI.           GIESSEN CARRCLL : RECORDING ENGINEER
WITN.                    SHIPKA : WITNESSED BY
CLNT.                   A2DTECH : CLIENT CODE
ORIG. 16.5"/100M 33"/100M PRINT : ORIGIN OF DATA
UWI .          100042606601W600 : UNIQUE WELL ID
DICO.    A2D Technologies, Inc. : DIGITIZING COMPANY
~Other -----------------------------------------------------
~ASCII -----------------------------------------------------
# ...
 1150.00000  215.70580   19.73350   16.89740   14.97010   11.68610   11.22220   11.17200   20.92200    -999.25    -999.25  215.07170    -999.25    -999.25   54.72100 2447.04440    -999.25    -999.25    0.11010    0.15380   11.22220    -999.25  281.60510  278.92460  289.39500  289.39500   76.19750   68.84300   76.19750  215.07170  218.89760   54.72100  233.41840    -999.25    -999.25   14.97010    -999.25    0.22560    -999.25    0.27780    -999.25    2.95400    2.95400    -999.25 2447.04440    -999.25    -999.25    -999.25   19.73350    -999.25 10085.54690    -999.25
 1200.00000  216.28210    7.44360    7.52400    7.61610    8.10770    8.17940    8.40720    7.36530    -999.25    -999.25  215.87480    -999.25    -999.25   61.98980 2556.55620    -999.25    -999.25    0.05650    0.08970    8.17940    -999.25  294.62050  292.54310  302.78150  302.78150  122.61870  111.95790  122.61870  215.87480  230.01780   61.98980  234.82570    -999.25    -999.25    7.61610    -999.25    0.25450    -999.25    0.30570    -999.25    3.44260    3.44260    -999.25 2556.55620    -999.25    -999.25    -999.25    7.44360    -999.25 10327.63670    -999.25
 1250.00000  216.20070    7.84950    7.67790    8.03790    8.39230    8.43800    8.34170    7.76140    -999.25    -999.25  215.60740    -999.25    -999.25   67.27210 2578.33720    -999.25    -999.25    0.04170    0.07700    8.43800    -999.25  297.40000  299.70970  310.43490  310.43490  120.14800  113.71200  120.14800  215.60740  224.07020   67.27210  235.30180    -999.25    -999.25    8.03790    -999.25    0.30180    -999.25    0.35060    -999.25    4.21450    4.21450    -999.25 2578.33720    -999.25    -999.25    -999.25    7.84950    -999.25 10014.15630    -999.25
 1300.00000  215.72730   10.00520   10.54340   10.67800   10.86950   11.36260   11.35100   10.14110    -999.25    -999.25  215.44050    -999.25    -999.25   91.58040 2601.32060    -999.25    -999.25    0.03040    0.06360   11.36260    -999.25  284.19430  286.75320  298.02460  298.02460  113.69670   98.91730  113.69670  215.44050  220.01060   91.58040  235.10110    -999.25    -999.25   10.67800    -999.25    0.24320    -999.25    0.29470    -999.25    3.81680    3.81680    -999.25 2601.32060    -999.25    -999.25    -999.25   10.00520    -999.25 10441.34470    -999.25
 1350.00000  217.15210   12.91340   13.03660   13.44910   14.07270   14.80050   14.71520   12.70140    -999.25    -999.25  216.24990    -999.25    -999.25   60.17050 2507.94410    -999.25    -999.25    0.08260    0.11820   14.80050    -999.25  323.72640  324.82560  335.24940  335.24940  141.20300  122.03880  141.20300  216.24990  224.84550   60.17050  239.07560    -999.25    -999.25   13.44910    -999.25    0.32210    -999.25    0.36960    -999.25    4.28350    4.28350    -999.25 2507.94410    -999.25    -999.25    -999.25   12.91340    -999.25 10548.45120    -999.25
 1400.00000  218.42000   10.87950   10.97090   11.07470   11.46810   11.70910   11.88080   10.80260    -999.25    -999.25  218.12760    -999.25    -999.25   67.39280 2611.97730    -999.25    -999.25    0.02110    0.05730   11.70910    -999.25  262.81480  261.96140  273.81240  273.81240  107.63070   90.77900  107.63070  218.12760  222.23340   67.39280  243.85440    -999.25    -999.25   11.07470    -999.25    0.20260    -999.25    0.25520    -999.25    3.35330    3.35330    -999.25 2611.97730    -999.25    -999.25    -999.25   10.87950    -999.25 10822.77830    -999.25
 1450.00000  217.85720    9.21800    8.99500    9.51280    9.68410    9.83530    9.55990    9.30210    -999.25    -999.25  217.70300    -999.25    -999.25   67.22740 2575.81760    -999.25    -999.25    0.04300    0.07850    9.83530    -999.25  266.95680  268.08280  271.37010  271.37010  112.14730  106.16330  112.14730  217.70300  221.05950   67.22740  231.74290    -999.25    -999.25    9.51280    -999.25    0.22900    -999.25    0.28110    -999.25    3.68890    3.68890    -999.25 2575.81760    -999.25    -999.25    -999.25    9.21800    -999.25 11371.39160    -999.25
 1500.00000  222.29750    6.41300    6.59150    6.71020    6.77860    6.86240    6.86640    6.50080    -999.25    -999.25  220.42680    -999.25    -999.25   50.45560 2592.10600    -999.25    -999.25    0.03510    0.06890    6.86240    -999.25  276.80050  279.09960  281.79970  281.79970  113.30470  104.61060  113.30470  220.42680  221.53950   50.45560  236.14880    -999.25    -999.25    6.71020    -999.25    0.26120    -999.25    0.31210    -999.25    3.96540    3.96540    -999.25 2592.10600    -999.25    -999.25    -999.25    6.41300    -999.25 11631.76270    -999.25
 1550.00000  219.37310    9.90580   10.18030   10.28170   10.37540   10.51170   10.37450    9.93920    -999.25    -999.25  218.36130    -999.25    -999.25  102.79670 2623.25070    -999.25    -999.25    0.01370    0.05070   10.51170    -999.25  262.71360  264.31240  268.59530  268.59530  113.21990   97.74070  113.21990  218.36130  218.67650  102.79670  236.16880    -999.25    -999.25   10.28170    -999.25    0.22160    -999.25    0.27400    -999.25    3.75280    3.75280    -999.25 2623.25070    -999.25    -999.25    -999.25    9.90580    -999.25 11540.35250    -999.25
 1600.00000  214.71680    2.88090    2.89080    2.93500    2.96160    2.98560    3.05080    2.93900    -999.25    -999.25  214.74580    -999.25    -999.25   58.34300 2511.46680    -999.25    -999.25    0.08550    0.11610    2.98560    -999.25  302.06100  299.80800  305.51690  305.51690  105.59860   97.27280  105.59860  214.74580  268.96270   58.34300  284.85930    -999.25    -999.25    2.93500    -999.25    0.31260    -999.25    0.36070    -999.25    3.47940    3.47940    -999.25 2511.46680    -999.25    -999.25    -999.25    2.88090    -999.25 11730.42190    -999.25
 1650.00000  233.33210    4.53810    4.47370    4.43660    4.39920    4.36260    4.51740    4.35270    -999.25    -999.25  232.85280    -999.25    -999.25   71.13380 2576.76030    -999.25    -999.25    0.04240    0.07790    4.36260    -999.25  291.66730  294.95340  297.15230  297.15230  125.87710  107.52870  125.87710  232.85280  218.97200   71.13380  243.19420    -999.25    -999.25    4.43660    -999.25    0.25740    -999.25    0.30850    -999.25    3.61610    3.61610    -999.25 2576.76030    -999.25    -999.25    -999.25    4.53810    -999.25 11913.84470    -999.25
 1700.00000  230.45000   14.83390   14.15120   14.00970   13.84850   14.47310   13.77820   14.63370    -999.25    -999.25  228.59910    -999.25    -999.25  104.92190 2697.34160    -999.25    -999.25   -0.02830    0.00740   14.47310    -999.25  239.89350  245.75240  249.41330  249.41330   79.93890   77.29040   79.93890  228.59910  223.28090  104.92190  244.61320    -999.25    -999.25   14.00970    -999.25    0.17020    -999.25    0.22220    -999.25    3.47340    3.47340    -999.25 2697.34160    -999.25    -999.25    -999.25   14.83390    -999.25 12245.13570    -999.25
 1750.00000  216.07320   12.38590   12.28680   12.18420   12.08100   11.84770   11.88010   12.39660    -999.25    -999.25  215.43490    -999.25    -999.25   61.07520 2572.71170    -999.25    -999.25    0.04530    0.08030   11.84770    -999.25  233.18490  234.55800  236.58360  236.58360   77.10810   63.51070   77.10810  215.43490  236.66230   61.07520  246.83060    -999.25    -999.25   12.18420    -999.25    0.16410    -999.25    0.21580    -999.25    2.68510    2.68510    -999.25 2572.71170    -999.25    -999.25    -999.25   12.38590    -999.25 12415.76760    -999.25
 1800.00000  211.86260   26.47220   26.46380   22.34200   18.19590   16.38180   15.70670   27.20240    -999.25    -999.25  212.05280    -999.25    -999.25   75.77840 2518.23750    -999.25    -999.25    0.08460    0.11210   16.38180    -999.25  214.51050  217.43850  243.31340  243.31340   28.90880   20.23010   28.90880  212.05280  218.70010   75.77840  232.54820    -999.25    -999.25   22.34200    -999.25    0.11250    -999.25    0.15980    -999.25    2.42770    2.42770    -999.25 2518.23750    -999.25    -999.25    -999.25   26.47220    -999.25 12916.82320    -999.25
