~Version ---------------------------------------------------
VERS. 2.0 : CWLS log ASCII Standard -VERSION 2.0
WRAP.  NO : ONE LINE PER DEPTH STEP
~Well ------------------------------------------------------
STRT.F                              900.0 : START DEPTH
STOP.F                             9050.0 : STOP DEPTH
STEP.F                           50.00000 : STEP LENGTH
NULL.                             -999.25 : NULL VALUE
COMP. EDWIN L. COX SOUTHERN DRILLING INC. : COMPANY
WELL.               COX AZTEC 11-30-69-19 : WELL
FLD .                                     : FIELD
LOC .                                     : LOCATION
CTRY.                              CANADA : COUNTRY
SRVC.                       Dresser Atlas : SERVICE COMPANY
DATE.                         18-Dec-1971 : LOGDATE
PROV.                             Alberta : PROVINCE
UWI .                    100113006919W500 : UNIQUE WELL ID
SLAT.WGS84                       55.00587 : SURFACE LATITUDE
SLON.WGS84                      -116.8901 : SURFACE LONGITUDE
~Curve Information -----------------------------------------
DEPT.F    0   1   0  0 : 1 MEASURED DEPTH
SPR .MV   07 010 01 00 : SPONTANEOUS POTENTIAL FROM RESISTIVITY LOG
ILD .OHMM 07 120 46 00 : INDUCTION DEEP RESISTIVITY
ILM .OHMM 07 120 44 00 : INDUCTION MEDIUM RESISTIVITY
SFL .OHMM 07 220 06 00 : SPHERICALLY FOCUSED LOG
CILD.MMHO 07 110 46 00 : INDUCTION DEEP CONDUCTIVITY
GRS .GAPI 60 310 01 00 : GAMMA RAY FROM SONIC LOG
DT  .US/F 60 500 00 00 : DELTA-T (INTERVAL TRANSIT TIME)
CALS.IN   60 280 50 00 : CALIPER FROM SONIC LOG
~Params ----------------------------------------------------
PD  .                     GL : PERMANENT DATUM
EPD .FT               2315.7 : ELEVATION PERMANENT DATUM
LMF .                     KB : LOG MEASURED FROM
DAPD.FT                 15.4 : FEET ABOVE PERMANENT DATUM
DMF .                     KB : DRILLING MEASURED FROM
EKB .FT               2331.1 : KELLY BUSHING
EGL .FT               2315.7 : GROUND LEVEL
DATE.               12/18/71 : RUN DATE
RUN .                      1 : RUN NUMBER
DD  .FT                 9106 : DEPTH DRILLER
DL  .FT                 9087 : DEPTH LOGGER
BLI .FT                 9085 : BOTTOM LOG INTERVAL
TLI .FT                  935 : TOP LOG INTERVAL
CS  .IN                8.625 : CASING SIZE
CBD .FT                  930 : CASING BOTTOM DRILLER
CBL .FT                  935 : CASING BOTTOM LOGGER
BS  .IN                7.875 : BIT SIZE
BSD .FT                 9106 : BIT SIZE AT DEPTH
DFT .                MUD GEL : DRILLING FLUID TYPE
DFD .                    9.2 : DRILLING FLUID DENSITY
DFV .                    135 : DRILLING FLUID VISCOSITY
DFPH.                    9.5 : DRILLING FLUID PH
DFL .                    7.6 : DRILLING FLUID LOSS
MSS .                   CIRC : MUD SAMPLE SOURCE
RMS .OHMM                  2 : RESISTIVITY MUD SAMPLE
MST .DEGF                 60 : MUD SAMPLE TEMPERATURE
RMF .OHMM                1.9 : RESISTIVITY MUD FILTRATE SAMPLE
MFST.DEGF                 61 : MUD FILTRATE SAMPLE TEMPERATURE
RMC .OHMM                2.7 : RESISTIVITY MUD CAKE
MCST.DEGF                 61 : MUD CAKE SAMPLE TEMPERATURE
MFSS.                   MEAS : MUD FILTRATE SAMPLE SOURCE
MCSS.                   MEAS : MUD CAKE SAMPLE SOURCE
RMB .OHMM               0.63 : RESISTIVITY MUD AT BHT
TCS .HRS                 3.5 : TIME CIRCULATED STOPPED
LUN .                   6091 : LOGGING UNIT NUMBER
LUL .                     VV : LOGGING UNIT LOCATION
ENGI.          CLARK GISTERN : RECORDING ENGINEER
WITN.                 MACKEY : WITNESSED BY
CLNT.                A2DTECH : CLIENT CODE
ORIG.            2" 5" PRINT : ORIGIN OF DATA
UWI .       100113006919W500 : UNIQUE WELL ID
DICO. A2D Technologies, Inc. : DIGITIZING COMPANY
~Other -----------------------------------------------------
~ASCII -----------------------------------------------------
  900.00000    -999.25    -999.25    -999.25    -999.25    -999.25   53.21620    -999.25    -999.25
  950.00000  -34.93370    3.58770    -999.25    4.85270  321.50380   67.45550  126.01870    7.77670
 1000.00000  -39.33070    8.29000    -999.25   17.02270  129.33000   57.24840  125.27790    9.03170
 1050.00000  -39.75790    3.43540    -999.25    4.45020  304.88070   68.24870  123.62410    8.86250
 1100.00000  -38.96570    3.44410    -999.25    4.52160  302.40730   64.74240  140.78960    9.36290
 1150.00000  -37.41400    4.11920    -999.25    5.05700  259.71090   59.21880  140.33670   10.31970
 1200.00000  -38.54980    9.14980    -999.25   10.30640  116.37840   50.85420  117.58420    9.05280
 1250.00000  -38.26980    4.35360    -999.25    5.47460  242.82920   53.64710  153.90160   10.63080
 1300.00000  -37.76020    3.33670    -999.25    4.67420  314.48030   54.71260  213.21270   13.04030
 1350.00000  -33.07680    3.27640    -999.25    4.29010  327.12640   63.87550  132.24800   10.29690
 1400.00000  -33.35800    4.34240    -999.25    6.36250  244.85600   54.19980  146.13730    8.70000
 1450.00000  -33.38520    3.75810    -999.25    4.72880  287.87130   64.44310  139.79860    8.82520
 1500.00000  -34.03600    4.32400    -999.25    5.24840  242.27740   73.09030  115.79990    8.92520
 1550.00000  -33.57600    4.06400    -999.25    4.81890  267.23580   72.98160  119.99680    8.79500
 1600.00000  -35.93150    4.74850    -999.25    5.93360  217.32500   73.28080  119.92370    9.21330
 1650.00000  -37.96650    5.15980    -999.25    5.62730  208.17230   81.24140  111.61890   12.75280
 1700.00000  -39.37520    5.10680    -999.25    5.98270  209.92240   87.12480  127.60730   13.05300
 1750.00000  -36.93850    4.95200    -999.25    6.74780  217.94620  110.71710  119.46430   11.73330
 1800.00000  -36.58520    6.05390    -999.25    8.36170  176.17080  141.09110  117.45310    9.83530
 1850.00000  -36.92500    4.62600    -999.25    6.71150  230.83410  105.66030  118.53130   10.10420
 1900.00000  -41.51940    5.67750    -999.25    6.87390  184.46790   88.03200  128.42030   12.07550
 1950.00000  -41.49630    7.41360    -999.25    9.58090  145.54550   78.56750  105.85590    9.75940
 2000.00000  -40.69170    5.19160    -999.25    5.72410  203.88880   77.97280  196.88890   13.16300
 2050.00000  -41.59490    6.95900    -999.25    7.25140  148.35290   82.13220  237.07160    7.85800
 2100.00000  -40.24150    6.01940    -999.25    6.85160  176.17090   78.04070  239.96740   12.31560
 2150.00000  -41.33950    7.70880    -999.25    8.45590  127.19170   77.23640  204.30060   11.39700
 2200.00000  -40.18230    7.93060    -999.25    6.68780  137.88480   75.57580  129.24010   12.72970
 2250.00000  -40.10440    6.99870    -999.25    6.15660  152.41630   79.17480  111.27080   11.83550
 2300.00000  -40.34650    8.47850    -999.25    7.25240  123.90510   87.99760  107.86850   12.48490
 2350.00000  -38.55760    6.50500    -999.25    5.44870  164.44110   89.47730  121.51060   12.23020
 2400.00000  -36.50480    5.91630    -999.25    5.72680  186.57380   95.05710  112.43830   10.91700
 2450.00000  -37.09060    6.64330    -999.25    6.40020  162.55760   99.99240  116.68700    9.55920
 2500.00000  -37.18630    6.59270    -999.25    6.35590  164.16830   96.02240  132.33700    9.82220
 2550.00000  -37.79150    6.73860    -999.25    7.83620  158.52980  132.53100  130.52200    8.15890
 2600.00000  -39.10920    7.41560    -999.25    8.79950  144.00920  116.30490  143.55450    8.65050
 2650.00000  -38.07510    5.06780    -999.25    4.98050  208.34700   80.49220  112.20510    9.39940
 2700.00000  -37.18630    5.04980    -999.25    5.33120  208.06090   87.81230   97.36490    7.66810
 2750.00000  -37.03120    5.11880    -999.25    5.53020  206.10270   98.35420  102.40650    8.60330
 2800.00000  -37.26020    5.50210    -999.25    5.68120  189.71650   96.36290  102.02880    8.62020
 2850.00000  -36.72380    6.12480    -999.25    5.96840  171.81430  102.36640   91.15010    8.21350
 2900.00000  -33.97190    4.54730    -999.25    4.74500  230.40720   95.94170   99.99250    9.08900
 2950.00000  -35.19980    6.73860    -999.25   10.45330  159.04680  101.51180   96.75180    8.88550
 3000.00000  -33.70470    4.47920    -999.25    4.76290  242.92580   93.13010  101.49040    8.97210
 3050.00000  -33.40550    4.26890    -999.25    4.67380  253.21470  104.09760  104.62930    9.62860
 3100.00000  -33.30710    2.47430    -999.25    3.17870  433.74310  115.61950  127.50220    9.61080
 3150.00000  -33.51810    2.37030    -999.25    2.73230  506.00300   96.32270  111.94870   10.63080
 3200.00000  -36.81540    2.08440    2.32770    2.89770    -999.25   97.69780  118.24760   12.11030
 3250.00000  -38.28880    2.60800    3.00650    3.47330    -999.25  100.98090   99.54920   11.97700
 3300.00000  -40.58410    2.90840    3.32690    3.79430    -999.25   99.51050  104.34600   11.22890
 3350.00000  -54.99580    5.58620    7.05160    8.50110    -999.25   55.64360   86.06350    9.03400
 3400.00000  -63.87710    3.97550    5.75770    9.43650    -999.25   86.10590   87.89060    9.71980
 3450.00000  -41.36610    2.30070    2.57100    4.51810    -999.25   70.80650  190.54870   11.02540
 3500.00000  -46.93840    2.42240    2.51890    3.34070    -999.25   58.82750   90.70400    9.21970
 3550.00000  -42.21910    3.20620    3.75470    4.69440    -999.25   54.20170   89.32540    9.55710
 3600.00000  -76.95430    6.65530   11.20920   15.70420    -999.25   66.00190   95.70000    8.94680
 3650.00000  -76.54410    4.78300    7.24770   11.29230    -999.25   58.60990   89.64240    8.71680
 3700.00000  -48.21060    5.62720    7.85890   12.71470    -999.25   68.79190  139.58720   10.06230
 3750.00000  -56.36350    4.99320    5.55980    6.39690    -999.25   83.71180   92.32450    9.12390
 3800.00000  -45.22530    4.17220    5.02520    5.77990    -999.25   73.74570   96.20530    8.19830
 3850.00000  -46.57970    3.80350    4.43570    4.94870    -999.25   86.13310   92.86490    9.16540
 3900.00000  -72.32280    8.81830   14.52430   26.97970    -999.25   49.42790   69.53600    7.06590
 3950.00000  -50.43190    4.74880    5.73120    6.67070    -999.25   80.35840   88.49470    9.47570
 4000.00000  -88.11490    5.89250   10.26130   13.81110    -999.25   65.68890   90.39640    8.70870
 4050.00000  -90.08420    7.61330   13.40630   18.08260    -999.25   66.57570   92.36270    8.76310
 4100.00000  -44.65480    4.61340    5.21760    5.80150    -999.25   80.48760   86.59710    7.96170
 4150.00000  -62.45060    9.28240   14.97100   23.70540    -999.25   47.85870   66.98200    7.58860
 4200.00000  -46.03020    4.78070    5.45180    5.94590    -999.25   74.62300   89.68340    8.29360
 4250.00000  -50.36460    8.56200   11.69340   15.82270    -999.25   82.78900   86.50090    7.65570
 4300.00000  -44.94390    2.95920    3.34040    4.25460    -999.25   76.86820  109.72890    9.13120
 4350.00000  -47.47060    7.44930    9.46440    9.09870    -999.25   53.59240   77.58520    7.51270
 4400.00000  -42.06680    4.53380    5.29420    7.86290    -999.25   87.49030   84.30330    8.23860
 4450.00000  -46.72350   10.10890   11.29120   14.55940    -999.25   79.88040   84.02070    7.61880
 4500.00000  -49.10460    2.20900    3.21330    9.64300    -999.25  121.39780  101.01450   10.03570
 4550.00000  -44.27910    1.84580    2.20040    3.07930    -999.25   90.12170  114.18380   10.18050
 4600.00000  -40.89060   13.16760   15.43330   21.08430    -999.25  133.44240  112.28610    8.61760
 4650.00000  -30.83480   63.96340   83.09160  109.32270    -999.25  206.51010  107.38990    8.52500
 4700.00000  -17.70170  149.99960  187.86450  342.00320    -999.25  104.45110   76.53500    8.39290
 4750.00000  -71.92960    5.75730   11.11480   19.63140    -999.25   83.36820   74.86320    9.72110
 4800.00000  -28.11640    2.81020    3.78690    5.55380    -999.25   98.70740   76.88850   10.50980
 4850.00000  -46.65740    4.51240    5.42690    7.52070    -999.25  125.10340   77.20500   10.17330
