~Version ---------------------------------------------------
VERS.      2.0 : CWLS log ASCII Standard -VERSION 2.0
WRAP.       NO : One line per depth step
CREA. 11/20/17 : LAS Creation Date
~Well ------------------------------------------------------
STRT.FT                            1000.0 : START DEPTH
STOP.FT                            9500.0 : STOP DEPTH
STEP.FT                          50.00000 : STEP LENGTH
NULL.                             -999.25 : NULL VALUE
COMP.                  FRONTIER OIL & GAS : COMPANY
WELL. FRONTIER SUN L BA GOOSE 10-18-66-17 : WELL
FLD .                                     : FIELD
LOC .                                     : LOCATION
CTRY.                              CANADA : COUNTRY
SRVC.                        Schlumberger : SERVICE COMPANY
DATE.                         21-Dec-1966 : LOGDATE
PROV.                             Alberta : PROVINCE
UWI .                    100101806617W500 : UNIQUE WELL ID
SLAT.WGS84                       54.71404 : SURFACE LATITUDE
SLON.WGS84                      -116.5551 : SURFACE LONGITUDE
~Curve Information -----------------------------------------
DEPT  .FT    : Depth Curve
CALSED.IN    : CALIPER FROM SONIC LOG
CALWS .IN    : CALIPER [CALSED]
CILDED.MMHO  : DEEP INDUCTION CONDUCTIVITY FROM RESISTIVITY LOG
CONDWS.MMHO  : CONDUCTIVITY [1000/DRESWS]
DRESWS.OHMM  : DEEP RESISTIVITY [1000/CILDED,IF ILDED<2.5,ILDED]
DTED  .US/F  : DELTA TIME FROM SONIC LOG
DTWS  .US/F  : COMPRESSIONAL SONIC [DTED]
GRSED .GAPI  : GAMMA RAY FROM SONIC LOG
GRWS  .GAPI  : GAMMA RAY [GRSED]
ILDED .OHMM  : DEEP INDUCTION RESISTIVITY FROM RESISTIVITY LOG
SNED  .OHMM  : 16 INCH SHORT NORMAL FROM RESISTIVITY LOG
SPRED .MV    : SPONTANEOUS POTENTIAL FROM RESISTIVITY LOG
SPWS  .MV    : SPONTANEOUS POTENTIAL [BASELINE 0MV, SPRED]
SRESWS.OHMM  : SHALLOW RESISTIVITY [SNED]
~Params ----------------------------------------------------
PD  .                     GL : PERMANENT DATUM
EPD .FT                 2677 : ELEVATION PERMANENT DATUM
LMF .                     KB : LOG MEASURED FROM
DAPD.FT                   14 : FEET ABOVE PERMANENT DATUM
EKB .FT                 2691 : KELLY BUSHING
EGL .FT                 2677 : GROUND LEVEL
DATE.               12/21/66 : RUN DATE
RUN .                      1 : RUN NUMBER
DD  .FT                 9520 : DEPTH DRILLER
DL  .FT                 9522 : DEPTH LOGGER
BLI .FT                 9521 : BOTTOM LOG INTERVAL
TLI .FT                  978 : TOP LOG INTERVAL
CBD .FT                  978 : CASING BOTTOM DRILLER
CBL .FT                  978 : CASING BOTTOM LOGGER
BS  .IN                7.875 : BIT SIZE
BSD .FT                 9520 : BIT SIZE AT DEPTH
DFT .           GEL CHEM OIL : DRILLING FLUID TYPE
DFD .                    9.7 : DRILLING FLUID DENSITY
DFV .                    132 : DRILLING FLUID VISCOSITY
DFPH.                     10 : DRILLING FLUID PH
DFL .                    6.4 : DRILLING FLUID LOSS
RMS .OHMM               2.23 : RESISTIVITY MUD SAMPLE
MST .DEGF                 68 : MUD SAMPLE TEMPERATURE
RMF .OHMM               1.81 : RESISTIVITY MUD FILTRATE SAMPLE
MFST.DEGF                 66 : MUD FILTRATE SAMPLE TEMPERATURE
RMC .OHMM               2.37 : RESISTIVITY MUD CAKE
MCST.DEGF                 66 : MUD CAKE SAMPLE TEMPERATURE
RMB .OHMM               0.88 : RESISTIVITY MUD AT BHT
TCS .HRS                   3 : TIME CIRCULATED STOPPED
LUN .                   3705 : LOGGING UNIT NUMBER
LUL .                    WCT : LOGGING UNIT LOCATION
ENGI.              DEMETRICK : RECORDING ENGINEER
WITN.              MACLNTOSH : WITNESSED BY
CLNT.                A2DTECH : CLIENT CODE
ORIG.            2" 5" PRINT : ORIGIN OF DATA
UWI .       100101806617W500 : UNIQUE WELL ID
DICO. A2D Technologies, Inc. : DIGITIZING COMPANY
~Other -----------------------------------------------------
IEL-BCS LOG RUN
ALL IEL DATA FROM TOP TO 3790' FROM 2" SCALE LOG
~ASCII -----------------------------------------------------
 1000.00000   10.13880   10.13880  150.28800  143.69470    6.95920  102.56430  102.56430   48.29470   48.29470    6.95920    7.07810  -55.66400   -6.86080    7.07810
 1050.00000   10.10170   10.10170  105.02930  105.80110    9.45170   99.99040   99.99040   75.02750   75.02750    9.45170    7.97500  -53.86950   -4.91320    7.97500
 1100.00000   10.94440   10.94440  229.90340  220.61420    4.53280  137.21070  137.21070   60.01210   60.01210    4.53280    5.10610  -53.25280   -4.14330    5.10610
 1150.00000   14.10320   14.10320  301.07100  290.00640    3.44820  131.12190  131.12190   59.20210   59.20210    3.44820    4.05820  -54.55870   -5.29600    4.05820
 1200.00000   10.91260   10.91260  138.21160  138.23800    7.23390  114.81520  114.81520   53.46610   53.46610    7.23390    6.00330  -57.18940   -7.77360    6.00330
 1250.00000    9.35450    9.35450  129.75150  123.84970    8.07430  110.62820  110.62820   59.26980   59.26980    8.07430    7.82580  -61.65360  -12.08460    7.82580
 1300.00000   10.98010   10.98010  616.42510  463.56390    2.15720  140.75030  140.75030   85.41450   85.41450    2.15720    2.76060  -53.13640   -3.41430    2.76060
 1350.00000   10.50290   10.50290  279.24450  270.28490    3.69980  114.47850  114.47850   57.35720   57.35720    3.69980    4.31560  -54.42500   -4.54970    4.31560
 1400.00000   11.85870   11.85870  268.50820  261.53360    3.82360  123.94120  123.94120   63.53260   63.53260    3.82360    4.27100  -54.78520   -4.75670    4.27100
 1450.00000    9.37240    9.37240  163.70450  161.43870    6.19430  110.93240  110.93240   55.14510   55.14510    6.19430    5.50510  -59.24850   -9.06690    5.50510
 1500.00000    8.02150    8.02150  106.46830  118.24940    8.45670  105.56780  105.56780   50.32670   50.32670    8.45670    8.95930  -61.31300  -10.97820    8.95930
 1550.00000    8.15490    8.15490   87.42100   89.05590   11.22890  107.71730  107.71730   54.88300   54.88300   11.22890    9.82290  -65.94230  -15.45440    9.82290
 1600.00000   10.05760   10.05760  114.69420  113.75400    8.79090  125.95380  125.95380   44.17280   44.17280    8.79090    7.55610  -61.91900  -11.27790    7.55610
 1650.00000    9.89770    9.89770  238.61620  233.42130    4.28410  126.65430  126.65430   49.75870   49.75870    4.28410    4.71180  -52.95130   -1.69690    4.71180
 1700.00000   10.35150   10.35150  241.72760  233.50300    4.28260  111.86230  111.86230   55.28390   55.28390    4.28260    4.69490  -56.08800   -3.91350    4.69490
 1750.00000    9.37070    9.37070  255.58950  231.40650    4.32140  108.75660  108.75660   59.15760   59.15760    4.32140    4.85880  -56.15290   -3.05830    4.85880
 1800.00000   10.09830   10.09830  288.10610  258.85950    3.86310  119.30380  119.30380   50.32590   50.32590    3.86310    4.29270  -56.29310   -2.27840    4.29270
 1850.00000    8.92300    8.92300  123.25170  126.94380    7.87750   95.89010   95.89010   46.73500   46.73500    7.87750    7.47860  -65.49060  -10.55580    7.47860
 1900.00000    9.25830    9.25830  280.32000  261.75950    3.82030  116.93660  116.93660   52.11350   52.11350    3.82030    4.38130  -59.20790   -3.57590    4.38130
 1950.00000   10.36530   10.36530  218.00220  213.72540    4.67890  105.89930  105.89930   50.10890   50.10890    4.67890    5.02710  -58.23730   -2.25690    5.02710
 2000.00000   13.23570   13.23570  273.81780  266.34000    3.75460  130.79000  130.79000   47.50110   47.50110    3.75460    4.39260  -60.99160   -4.66280    4.39260
 2050.00000    9.87990    9.87990  101.48450   97.23180   10.28470  106.12530  106.12530   47.46160   47.46160   10.28470    8.59540  -69.75650  -13.07920    8.59540
 2100.00000   11.64350   11.64350  322.00460  292.40620    3.41990  121.54760  121.54760   53.28140   53.28140    3.41990    4.18610  -61.09180   -4.06610    4.18610
 2150.00000    9.84190    9.84190   82.36140   84.34330   11.85630  109.58980  109.58980   39.94690   39.94690   11.85630   10.22700  -74.73780  -17.36370   10.22700
 2200.00000   12.02420   12.02420  261.17740  247.38390    4.04230  107.47190  107.47190   48.71940   48.71940    4.04230    4.86250  -63.36180   -5.63930    4.86250
 2250.00000    9.05150    9.05150  113.28800  115.96490    8.62330  101.37410  101.37410   38.21820   38.21820    8.62330    8.94250  -74.58120  -16.51020    8.94250
 2300.00000    8.28660    8.28660   83.45390   83.37020   11.99470   95.40880   95.40880   49.84010   49.84010   11.99470   11.22110  -66.57600   -8.15660   11.22110
 2350.00000   11.61270   11.61270  229.34700  230.50500    4.33830  108.37130  108.37130   53.74950   53.74950    4.33830    4.82860  -63.01390   -4.24610    4.82860
 2400.00000   11.28910   11.28910  190.78360  190.72690    5.24310   99.21040   99.21040   67.49540   67.49540    5.24310    5.66910  -63.19410   -4.07790    5.66910
 2450.00000    -999.25    -999.25  199.63570  213.89920    4.67510    -999.25    -999.25    -999.25    -999.25    4.67510    5.27240  -62.14270   -2.67810    5.27240
 2500.00000    -999.25    -999.25  131.02150  130.88150    7.64050    -999.25    -999.25    -999.25    -999.25    7.64050    7.09340  -65.58940   -5.77630    7.09340
 2550.00000    -999.25    -999.25  136.57600  135.52160    7.37890    -999.25    -999.25    -999.25    -999.25    7.37890    6.79180  -65.93550   -5.77400    6.79180
 2600.00000    -999.25    -999.25  149.76930  157.87310    6.33420    -999.25    -999.25    -999.25    -999.25    6.33420    7.22800  -63.77490   -3.26500    7.22800
 2650.00000    -999.25    -999.25  119.38220  120.06960    8.32850    -999.25    -999.25    -999.25    -999.25    8.32850    9.86370  -63.20150   -2.34320    9.86370
 2700.00000    -999.25    -999.25  158.20010  158.54140    6.30750    -999.25    -999.25    -999.25    -999.25    6.30750    7.24820  -63.17850   -1.97170    7.24820
 2750.00000    -999.25    -999.25  142.35230  139.39220    7.17400    -999.25    -999.25    -999.25    -999.25    7.17400    6.89160  -65.57340   -4.56230    6.89160
 2800.00000    -999.25    -999.25  146.54430  137.09710    7.29410    -999.25    -999.25    -999.25    -999.25    7.29410    6.60030  -65.93250   -5.19120    6.60030
 2850.00000    -999.25    -999.25  134.93870  130.96380    7.63570    -999.25    -999.25    -999.25    -999.25    7.63570    7.03350  -65.51320   -5.04170    7.03350
 2900.00000    -999.25    -999.25  138.88030  141.20900    7.08170    -999.25    -999.25    -999.25    -999.25    7.08170    7.72330  -63.67200   -3.47030    7.72330
 2950.00000    -999.25    -999.25  131.28030  130.85410    7.64210    -999.25    -999.25    -999.25    -999.25    7.64210    6.94020  -65.33840   -5.40650    6.94020
 3000.00000    -999.25    -999.25  114.01410  114.74470    8.71500    -999.25    -999.25    -999.25    -999.25    8.71500    7.62470  -65.47830   -5.81620    7.62470
 3050.00000    -999.25    -999.25  139.43810  139.28350    7.17960    -999.25    -999.25    -999.25    -999.25    7.17960    6.71040  -65.60160   -6.20940    6.71040
 3100.00000    -999.25    -999.25  126.63350  123.63080    8.08860    -999.25    -999.25    -999.25    -999.25    8.08860    7.77990  -63.66680   -4.54440    7.77990
 3150.00000    -999.25    -999.25  128.15370  125.70710    7.95500    -999.25    -999.25    -999.25    -999.25    7.95500    7.46450  -62.69540   -3.84280    7.46450
 3200.00000    -999.25    -999.25  125.50450  125.45480    7.97100    -999.25    -999.25    -999.25    -999.25    7.97100    7.16390  -63.04540   -4.46260    7.16390
 3250.00000    -999.25    -999.25  105.11410  108.12100    9.24890    -999.25    -999.25    -999.25    -999.25    9.24890    8.69750  -63.18910   -4.87610    8.69750
 3300.00000    -999.25    -999.25  153.44570  153.46600    6.51610    -999.25    -999.25    -999.25    -999.25    6.51610    7.19430  -61.94040   -3.89720    7.19430
 3350.00000    -999.25    -999.25  160.64770  161.76260    6.18190    -999.25    -999.25    -999.25    -999.25    6.18190    6.97870  -59.14880   -1.37550    6.97870
 3400.00000    -999.25    -999.25  142.98820  141.64710    7.05980    -999.25    -999.25    -999.25    -999.25    7.05980    8.44600  -58.13150   -0.62800    8.44600
