~Version ---------------------------------------------------
VERS.      2.0 : CWLS log ASCII Standard -VERSION 2.0
WRAP.       NO : One line per depth step
CREA. 12/21/17 : LAS Creation Date
~Well ------------------------------------------------------
STRT.FT                         300.0 : START DEPTH
STOP.FT                        9800.0 : STOP DEPTH
STEP.FT                      50.00000 : STEP LENGTH
NULL.                         -999.25 : NULL VALUE
COMP. CHAMPLIN OIL & REFINING COMPANY : COMPANY
WELL.      CHAMPLIN KAYBOB 2-28-64-19 : WELL
FLD .                                 : FIELD
LOC .                                 : LOCATION
CTRY.                          CANADA : COUNTRY
SRVC.          Schlumberger of Canada : SERVICE COMPANY
DATE.                     06-Jul-1960 : LOGDATE
PROV.                         Alberta : PROVINCE
UWI .                100022806419W500 : UNIQUE WELL ID
SLAT.WGS84                   54.56169 : SURFACE LATITUDE
SLON.WGS84                  -116.8075 : SURFACE LONGITUDE
~Curve Information -----------------------------------------
DEPT  .FT    : Depth Curve
CALWS .IN    : CALIPER [MCALED
CILDED.MMHO  : INDUCTION CONDUCTIVITY FROM IEL
CONDWS.MMHO  : CONDUCTIVITY [1000/DRESWS]
DRESWS.OHMM  : DEEP RESISTIVITY [IF ILDED LESS THAN 2, THEN 1000/CILDED. ELSE, ILDED]
GRED  .GAPI  : GAMMA RAY FROM CASED CALIPER LOG [DEPTH SHIFTRED TO RES.]
GRWS  .GAPI  : GAMMA RAY [GRED]
ILDED .OHMM  : INDUCTION LOG RESISTIVITY
MCALED.IN    : MLT (MICROLOG) CALIPER
NEUTED.NAPI  : NEUTRON FROM NEUTRON LOG [SLIGHT DEPTH SHIFT TO SNED]
NEUTWS.NAPI  : NEUTRON [NEUTED]
SNED  .OHMM  : SHORT NORMAL RESISTIVITY FROM IEL
SPRED .MV    : SPONTANEOUS POTENTIAL FROM IEL
SPWS  .MV    : SPONTANEOUS POTENTIAL [SPRED. BASELINE "0" MV]
SRESWS.OHMM  : SHALLOW RESISTIVITY [SNED]
~Params ----------------------------------------------------
LMF .                     KB : LOG MEASURED FROM
DMF .                     KB : DRILLING MEASURED FROM
EKB .FT                 2447 : KELLY BUSHING
EGL .FT                 2432 : GROUND LEVEL
DATE.               07/06/60 : RUN DATE
RUN .                      1 : RUN NUMBER
DD  .FT                 9825 : DEPTH DRILLER
DL  .FT                 9824 : DEPTH LOGGER
BLI .FT                 9818 : BOTTOM LOG INTERVAL
TLI .FT                 1034 : TOP LOG INTERVAL
CBD .FT                 1034 : CASING BOTTOM DRILLER
CBL .FT                 1034 : CASING BOTTOM LOGGER
BS  .IN                7.875 : BIT SIZE
BSD .FT                 9825 : BIT SIZE AT DEPTH
DFT .                    GEL : DRILLING FLUID TYPE
DFD .                   10.4 : DRILLING FLUID DENSITY
DFV .                     90 : DRILLING FLUID VISCOSITY
DFPH.                   10.5 : DRILLING FLUID PH
DFL .                    6.4 : DRILLING FLUID LOSS
MSS .            CIRCULATION : MUD SAMPLE SOURCE
RMS .OHMM                1.5 : RESISTIVITY MUD SAMPLE
MST .DEGF                 90 : MUD SAMPLE TEMPERATURE
RMF .OHMM                0.9 : RESISTIVITY MUD FILTRATE SAMPLE
MFST.DEGF                 88 : MUD FILTRATE SAMPLE TEMPERATURE
RMC .OHMM                2.2 : RESISTIVITY MUD CAKE
MCST.DEGF                 88 : MUD CAKE SAMPLE TEMPERATURE
RMB .OHMM                0.7 : RESISTIVITY MUD AT BHT
TCS .HRS                 2.5 : TIME CIRCULATED STOPPED
LUN .                   1573 : LOGGING UNIT NUMBER
LUL .                     WC : LOGGING UNIT LOCATION
ENGI.                  GOETZ : RECORDING ENGINEER
WITN.                  NAMEE : WITNESSED BY
CLNT.                A2DTECH : CLIENT CODE
ORIG.            2" 5" PRINT : ORIGIN OF DATA
UWI .       100022806419W500 : UNIQUE WELL ID
DICO. A2D Technologies, Inc. : DIGITIZING COMPANY
~Other -----------------------------------------------------
~ASCII -----------------------------------------------------
  300.00000    -999.25    -999.25    -999.25    -999.25   40.30220   40.30220    -999.25    -999.25    -999.25    -999.25    -999.25    -999.25    -999.25    -999.25
  350.00000    -999.25    -999.25    -999.25    -999.25   32.85770   32.85770    -999.25    -999.25    -999.25    -999.25    -999.25    -999.25    -999.25    -999.25
  400.00000    -999.25    -999.25    -999.25    -999.25   35.79940   35.79940    -999.25    -999.25    -999.25    -999.25    -999.25    -999.25    -999.25    -999.25
  450.00000    -999.25    -999.25    -999.25    -999.25   35.63700   35.63700    -999.25    -999.25    -999.25    -999.25    -999.25    -999.25    -999.25    -999.25
  500.00000    -999.25    -999.25    -999.25    -999.25   26.25500   26.25500    -999.25    -999.25    -999.25    -999.25    -999.25    -999.25    -999.25    -999.25
  550.00000    -999.25    -999.25    -999.25    -999.25   29.60320   29.60330    -999.25    -999.25    -999.25    -999.25    -999.25    -999.25    -999.25    -999.25
  600.00000    -999.25    -999.25    -999.25    -999.25   40.31130   40.31130    -999.25    -999.25    -999.25    -999.25    -999.25    -999.25    -999.25    -999.25
  650.00000    -999.25    -999.25    -999.25    -999.25   49.37690   49.37700    -999.25    -999.25    -999.25    -999.25    -999.25    -999.25    -999.25    -999.25
  700.00000    -999.25    -999.25    -999.25    -999.25   37.12240   37.12240    -999.25    -999.25    -999.25    -999.25    -999.25    -999.25    -999.25    -999.25
  750.00000    -999.25    -999.25    -999.25    -999.25   37.42950   37.42950    -999.25    -999.25    -999.25    -999.25    -999.25    -999.25    -999.25    -999.25
  800.00000    -999.25    -999.25    -999.25    -999.25   24.95540   24.95540    -999.25    -999.25    -999.25    -999.25    -999.25    -999.25    -999.25    -999.25
  850.00000    -999.25    -999.25    -999.25    -999.25   44.52200   44.52200    -999.25    -999.25    -999.25    -999.25    -999.25    -999.25    -999.25    -999.25
  900.00000    -999.25    -999.25    -999.25    -999.25   38.81140   38.81140    -999.25    -999.25    -999.25    -999.25    -999.25    -999.25    -999.25    -999.25
  950.00000    -999.25    -999.25    -999.25    -999.25   41.62810   41.62810    -999.25    -999.25    -999.25    -999.25    -999.25    -999.25    -999.25    -999.25
 1000.00000    -999.25    -999.25    -999.25    -999.25   47.85900   47.85900    -999.25    -999.25    -999.25    -999.25    -999.25    -999.25    -999.25    -999.25
 1050.00000    -999.25  337.13900  380.80010    2.62610   71.30040   71.30030    2.62600    -999.25    -999.25    -999.25    3.87980  -73.97770   -3.93440    3.87980
 1100.00000    -999.25  299.80170  343.52460    2.91100   62.26720   62.26720    2.91100    -999.25    -999.25    -999.25    3.35260  -75.44430   -3.23670    3.35260
 1150.00000    -999.25  177.40400  233.53570    4.28200   67.88890   67.88880    4.28200    -999.25    -999.25    -999.25    5.57700  -76.00110   -4.02630    5.57700
 1200.00000    -999.25  205.66580  230.37230    4.34080   66.21090   66.21090    4.34080    -999.25    -999.25    -999.25    5.37990  -73.81300   -2.77140    5.37990
 1250.00000    -999.25  291.19530  329.70660    3.03300   69.00730   69.00730    3.03300    -999.25    -999.25    -999.25    3.92300  -71.15670   -1.51250    3.92300
 1300.00000    -999.25  281.80290  340.57050    2.93620   69.97660   69.97660    2.93630    -999.25    -999.25    -999.25    3.61240  -69.59420   -1.17260    3.61230
 1350.00000    -999.25  154.56130  166.63330    6.00120   77.66990   77.66990    6.00120    -999.25    -999.25    -999.25    7.99720  -71.37470   -4.00240    7.99720
 1400.00000    -999.25  183.65260  219.96880    4.54610   63.34410   63.34410    4.54610    -999.25    -999.25    -999.25    5.29690  -68.72250   -2.38920    5.29690
 1450.00000    -999.25  359.73400  459.09470    2.17820   65.29770   65.29770    2.17820    -999.25    -999.25    -999.25    2.70380  -67.57950   -2.06820    2.70380
 1500.00000    -999.25  415.49860  460.99940    2.16920  115.61960  115.61960    2.16920    -999.25    -999.25    -999.25    2.80250  -68.41810   -2.61380    2.80250
 1550.00000    -999.25  310.50980  360.94570    2.77050   66.18080   66.18080    2.77050    -999.25    -999.25    -999.25    3.33260  -69.23600   -3.14020    3.33270
 1600.00000    -999.25  365.51950  442.22350    2.26130   65.16270   65.16270    2.26130    -999.25    -999.25    -999.25    3.09030  -67.87580   -1.48550    3.09030
 1650.00000    -999.25   80.95680   88.04790   11.35740   43.45190   43.45200   11.35750    -999.25    -999.25    -999.25   11.80080  -75.44020   -9.04130   11.80070
 1700.00000    -999.25  105.38760  101.00300    9.90070   34.44110   34.44110    9.90070    -999.25    -999.25    -999.25   11.65740  -73.90580   -7.57000   11.65740
 1750.00000    -999.25  132.22490  162.83730    6.14110   63.57340   63.57340    6.14110    -999.25    -999.25    -999.25    6.97660  -73.51110   -7.23810    6.97660
 1800.00000    -999.25  114.65730  152.67410    6.54990   55.30540   55.30540    6.54990    -999.25    -999.25    -999.25    8.24960  -76.99250  -10.78200    8.24960
 1850.00000    -999.25  298.11660  379.65070    2.63400   59.92800   59.92800    2.63400    -999.25    -999.25    -999.25    3.29560  -69.51340   -3.36600    3.29560
 1900.00000    -999.25  115.89620  123.01710    8.12890   46.93360   46.93360    8.12890    -999.25    -999.25    -999.25    9.38190  -78.00210  -11.91720    9.38190
 1950.00000    -999.25  253.19670  329.90230    3.03120   56.54830   56.54830    3.03120    -999.25    -999.25    -999.25    4.01160  -68.78170   -2.75990    4.01160
 2000.00000    -999.25  246.11810  319.16250    3.13320   58.23340   58.23340    3.13320    -999.25    -999.25    -999.25    3.82530  -66.33670   -0.37770    3.82530
 2050.00000    -999.25  167.74820  172.37810    5.80120   63.24050   63.24050    5.80120    -999.25    -999.25    -999.25    6.51110  -70.81350   -4.69800    6.51110
 2100.00000    -999.25  263.14900  328.55830    3.04360   51.75400   51.75400    3.04360    -999.25    -999.25    -999.25    4.34600  -70.46860   -4.18080    4.34600
 2150.00000    -999.25  314.22080  399.45670    2.50340   57.44590   57.44590    2.50340    -999.25    -999.25    -999.25    3.18560  -70.80030   -4.34200    3.18560
 2200.00000    -999.25  275.33840  359.33740    2.78290   64.57270   64.57270    2.78290    -999.25    -999.25    -999.25    3.57060  -69.38770   -2.75710    3.57060
 2250.00000    -999.25  204.15000  256.50890    3.89850   43.58160   43.58160    3.89850    -999.25    -999.25    -999.25    4.48910  -69.26720   -2.46510    4.48910
 2300.00000    -999.25   81.56870   89.08450   11.22530   40.48330   40.48330   11.22530    -999.25    -999.25    -999.25   11.25970  -78.81090  -11.83820   11.25980
 2350.00000    -999.25  160.90200  147.05020    6.80040   48.38700   48.38700    6.80040    -999.25    -999.25    -999.25    8.40240  -71.45880   -4.31390    8.40240
 2400.00000    -999.25  282.32400  339.43760    2.94610   60.38860   60.38860    2.94600    -999.25    -999.25    -999.25    3.96670  -69.30840   -1.99290    3.96670
 2450.00000    -999.25  149.79180  150.30590    6.65310   49.93210   49.93210    6.65310    -999.25    -999.25    -999.25    9.69550  -81.51640  -14.02860    9.69550
 2500.00000    -999.25  195.18530  206.51340    4.84230   50.92290   50.92290    4.84230    -999.25    -999.25    -999.25    6.29660  -70.26890   -2.60970    6.29660
 2550.00000    -999.25  181.93550  210.87480    4.74210   50.86590   50.86590    4.74210    -999.25    -999.25    -999.25    5.95470  -70.10420   -2.27430    5.95470
 2600.00000    -999.25  236.94340  270.44570    3.69760   66.67360   66.67360    3.69760    -999.25    -999.25    -999.25    5.22230  -69.75110   -1.78010    5.22230
 2650.00000    -999.25  196.71600  248.06820    4.03120   59.54690   59.54690    4.03120    -999.25    -999.25    -999.25    5.16990  -70.24480   -2.17690    5.16990
 2700.00000    -999.25  165.53040  183.12670    5.46070   78.28100   78.28100    5.46070    -999.25    -999.25    -999.25    6.43680  -72.71300   -4.54730    6.43680
