~Version ---------------------------------------------------
VERS.      2.0 : CWLS log ASCII Standard -VERSION 2.0
WRAP.       NO : One line per depth step
CREA. 09/04/14 : LAS Creation Date
~Well ------------------------------------------------------
STRT.FT                  300.0 : START DEPTH
STOP.FT                10400.0 : STOP DEPTH
STEP.FT               50.00000 : STEP LENGTH
NULL.                  -999.25 : NULL VALUE
COMP.    J M HUBER CORPORATION : COMPANY
WELL. HUBER ROSEVEAR 6-5-55-14 : WELL
FLD .                       WC : FIELD
LOC .                          : LOCATION
CTRY.                   CANADA : COUNTRY
SRVC.             Schlumberger : SERVICE COMPANY
DATE.              04-Sep-1976 : LOGDATE
PROV.                  Alberta : PROVINCE
UWI .         100060505514W500 : UNIQUE WELL ID
SLAT.WGS84            53.72293 : SURFACE LATITUDE
SLON.WGS84           -116.0453 : SURFACE LONGITUDE
~Curve Information -----------------------------------------
DEPT   .FT    : Depth Curve
CALD   .IN    : CALIPER FROM DENSITY LOG
CALR   .IN    : CALIPER FROM RESISTIVITY
CALS   .IN    : CALIPER FROM SONIC LOG
DCOR   .G/C3  : DENSITY CORRECTION
DPHI_LS.DEC   : DENSITY POROSITY LIMESTONE
DPHI_SS.DEC   : DENSITY POROSITY SANDSTONE
DT     .US/F  : INTERVAL TRANSIT TIME
GRD    .GAPI  : GAMMA RAY FROM DENSITY LOG
GRS    .GAPI  : GAMMA RAY FROM SONIC LOG
LLD    .OHMM  : LATEROLOG DEEP
LLS    .OHMM  : LATEROLOG SHALLOW
NPHI_LS.DEC   : NEUTRON POROSITY LIMESTONE
NPHI_SS.DEC   : NEUTRON POROSITY SANDSTONE
RHOB   .G/C3  : BULK DENSITY
SPR    .MV    : SPONTANEOUS POTENTIAL FROM RES.
~Params ----------------------------------------------------
PD  .                     GL : PERMANENT DATUM
EPD .FT                 2650 : ELEVATION PERMANENT DATUM
LMF .                     KB : LOG MEASURED FROM
DAPD.FT                   16 : FEET ABOVE PERMANENT DATUM
EKB .FT                 2666 : KELLY BUSHING
EGL .FT                 2650 : GROUND LEVEL
DATE.               09/04/76 : RUN DATE
RUN .                      2 : RUN NUMBER
DD  .FT                10450 : DEPTH DRILLER
DL  .FT                10450 : DEPTH LOGGER
BLI .FT                10448 : BOTTOM LOG INTERVAL
TLI .FT                 8400 : TOP LOG INTERVAL
CBD .FT                 1105 : CASING BOTTOM DRILLER
BS  .IN                 8.75 : BIT SIZE
BSD .FT                10450 : BIT SIZE AT DEPTH
DFT .               GEL CHEM : DRILLING FLUID TYPE
DFD .                    9.6 : DRILLING FLUID DENSITY
DFV .                     82 : DRILLING FLUID VISCOSITY
DFPH.                     11 : DRILLING FLUID PH
DFL .                     15 : DRILLING FLUID LOSS
RMS .OHMM               0.28 : RESISTIVITY MUD SAMPLE
MST .DEGF                 62 : MUD SAMPLE TEMPERATURE
RMF .OHMM               0.23 : RESISTIVITY MUD FILTRATE SAMPLE
MFST.DEGF                 62 : MUD FILTRATE SAMPLE TEMPERATURE
RMB .OHMM               0.11 : RESISTIVITY MUD AT BHT
TCS .HRS                   1 : TIME CIRCULATED STOPPED
LUN .                   7730 : LOGGING UNIT NUMBER
LUL .                    EDM : LOGGING UNIT LOCATION
ENGI.         PIMM MACDONALD : RECORDING ENGINEER
WITN.                 TAYLOR : WITNESSED BY
CLNT.                A2DTECH : CLIENT CODE
ORIG.               5" PRINT : ORIGIN OF DATA
UWI .       100060505514W500 : UNIQUE WELL ID
DICO. A2D Technologies, Inc. : DIGITIZING COMPANY
~Other -----------------------------------------------------
~ASCII -----------------------------------------------------
# ...
 4900.00000   11.42860    9.71480   10.53350    0.22590    -999.25    0.17360   78.33100  121.26490  117.42770   12.72000   13.29250    -999.25    0.24140    2.36820  -52.33600
 4950.00000   12.43210    9.93970   11.01770    0.21470    -999.25    0.30800   79.40910  113.25160  122.66860   11.80720   12.40100    -999.25    0.23620    2.11990  -51.63870
 5000.00000   13.92630   10.03670   10.89810    0.22370    -999.25    0.28380   81.12270  126.49610  130.19760   10.08420   11.02160    -999.25    0.26470    2.16690  -51.92130
 5050.00000   12.91210    9.97950   10.99750    0.16000    -999.25    0.37970   83.05330  128.69650  140.95900    9.72940   10.16890    -999.25    0.29190    2.05040  -48.44480
 5100.00000   13.55600   11.39440   10.84270    0.18740    -999.25    0.40740   83.60020  100.44250  124.29570    8.62600    9.02730    -999.25    0.35340    1.96860  -52.16860
 5150.00000    -999.25   10.98020   10.75210    -999.25    -999.25    -999.25   89.76190    -999.25  129.96370    8.18240    8.90930    -999.25    -999.25    -999.25  -53.13080
 5200.00000    -999.25   10.02260   10.38740    -999.25    -999.25    -999.25   87.24570    -999.25  141.76390   14.52920   15.27650    -999.25    -999.25    -999.25  -53.88280
 5250.00000    -999.25   10.28800   10.72270    -999.25    -999.25    -999.25   87.91940    -999.25  147.08230   11.45200   12.73520    -999.25    -999.25    -999.25  -53.19390
 5300.00000    -999.25   11.67920   10.48230    -999.25    -999.25    -999.25   88.62090    -999.25  158.01230   11.63910   13.52030    -999.25    -999.25    -999.25  -52.86780
 5350.00000    -999.25   11.92490   10.22740    -999.25    -999.25    -999.25   89.99600    -999.25  160.28090   18.22450   20.40000    -999.25    -999.25    -999.25  -55.63100
 5400.00000    -999.25   10.48710   10.05620    -999.25    -999.25    -999.25   88.74630    -999.25  153.54640   17.47300   21.15520    -999.25    -999.25    -999.25  -53.88190
 5450.00000    -999.25   10.28770   10.36240    -999.25    -999.25    -999.25   91.14410    -999.25  142.62750   16.84630   18.94240    -999.25    -999.25    -999.25  -52.30940
 5500.00000    -999.25   12.23120   10.38440    -999.25    -999.25    -999.25   84.58960    -999.25  163.42400   20.63480   24.37100    -999.25    -999.25    -999.25  -52.26710
 5550.00000    -999.25   13.40990   11.18800    -999.25    -999.25    -999.25   81.32050    -999.25  131.34280    7.97770    8.57090    -999.25    -999.25    -999.25  -49.47750
 5600.00000    -999.25   13.30400   10.78610    -999.25    -999.25    -999.25   78.39310    -999.25  138.02540   11.46400   12.60490    -999.25    -999.25    -999.25  -47.61700
 5650.00000    -999.25   13.30030   11.01210    -999.25    -999.25    -999.25   80.74210    -999.25  126.89750    8.07840    8.83660    -999.25    -999.25    -999.25  -46.69710
 5700.00000    -999.25    9.75520   10.82070    -999.25    -999.25    -999.25   79.14320    -999.25  128.71960   10.68390   11.52840    -999.25    -999.25    -999.25  -52.45270
 5750.00000    -999.25   10.21420   11.10800    -999.25    -999.25    -999.25   84.60470    -999.25  126.66290    8.24010    9.15370    -999.25    -999.25    -999.25  -50.72840
 5800.00000    -999.25    9.91550   10.74290    -999.25    -999.25    -999.25   87.03010    -999.25  175.82860   11.15640   13.04210    -999.25    -999.25    -999.25  -51.60770
 5850.00000    -999.25   10.59080   13.17100    -999.25    -999.25    -999.25   92.02190    -999.25  117.34220    4.11820    4.33180    -999.25    -999.25    -999.25  -38.27130
 5900.00000   14.08990   10.18460   11.31040    -999.25    -999.25    0.45520   88.28910  113.74230  120.39260    5.46630    5.87690    -999.25    0.41440    -999.25  -45.31860
 5950.00000   11.28780   10.12080    9.86030    0.22070    -999.25    0.19170   68.74080   94.62470   87.59620    6.54610    7.51800    -999.25    0.40120    2.49900  -56.10440
 6000.00000    9.40820    9.68220    9.73440    0.11510    -999.25    0.02500   66.95490   71.27120   78.65440   24.62390   25.77110    -999.25    0.13010    2.57730  -54.51430
 6050.00000   11.23560    9.89850   10.98110    0.12380    -999.25    0.04500   73.40090  101.34100  110.24930   15.96030   13.62850    -999.25    0.20690    2.58840  -46.94570
 6100.00000   10.19490   10.21560   10.46840    0.02980    -999.25    0.01020   70.16590   93.22750   99.18800   15.13270   14.09190    -999.25    0.25570    2.66170  -51.13780
 6150.00000   10.80460   10.35490   10.93770    0.04130    -999.25    0.01520   71.14020   95.25130   99.88760   21.78200   17.18860    -999.25    0.23410    2.61910  -45.26950
 6200.00000   10.42300   10.62390   10.63570    0.03590    -999.25    0.01630   71.22300   95.72720   99.74620   25.91190   17.02290    -999.25    0.20400    2.60410  -48.40700
 6250.00000   10.38080   10.37210   10.58950    0.06850    -999.25    0.03360   71.75100  107.95950  101.03450   29.50440   27.40160    -999.25    0.26630    2.64280  -48.58000
 6300.00000   10.41610   10.65050   10.54350    0.07930    -999.25   -0.02630   70.68990   91.08400   82.84010   19.40460   15.50360    -999.25    0.23110    2.66450  -50.63860
 6350.00000   10.77120   12.76730   10.62290    0.13790    -999.25    0.09740   71.15600  107.89430  112.74240   23.89290   19.81200    -999.25    0.30250    2.57930  -46.79100
 6400.00000   11.17480   11.11010   11.24060    0.05130    -999.25    0.06980   68.86060   75.08730   75.83340   13.93870   11.05410    -999.25    0.21950    2.52250  -44.36300
 6450.00000   14.98680   10.52810   11.56670    0.01900    -999.25    0.44990   88.73340   64.49130   79.17180 1767.72170   39.22110    -999.25    0.66420    2.06870  -40.45980
 6500.00000   10.18070   10.20780   10.53700    0.02310    -999.25    0.04120   69.58490   95.58380   96.48530   18.77720   19.58880    -999.25    0.23640    2.59750  -47.49340
 6550.00000   10.52830   10.50300   10.77850    0.03870    -999.25    0.00410   70.29230   70.67030   78.14730   11.78770   11.18880    -999.25    0.21640    2.62100  -46.17680
 6600.00000   10.34820   10.40280   10.48180    0.06550    -999.25    0.00800   69.29780   82.63540   97.54770   21.95790   24.45460    -999.25    0.18790    2.59220  -49.29670
 6650.00000   11.10210   10.64300   11.19080    0.03910    -999.25    0.05630   68.35320   94.70260   98.10840   27.82240   30.24240    -999.25    0.18850    2.54860  -48.04190
 6700.00000   10.24460   10.42140   10.38350    0.04170    -999.25   -0.00210   64.55640  103.74660  110.27810   62.32840   50.30540    -999.25    0.15030    2.65840  -49.51050
 6750.00000   10.68310   10.68900   10.52290    0.04260    -999.25   -0.02170   62.10640   60.10520   66.88590   35.95850   31.14990    -999.25    0.10590    2.67040  -49.75080
 6800.00000   11.98420   10.54380   10.40350    0.15010    -999.25    0.09630   75.42990   76.40020  101.94330  156.00250  196.22240    -999.25    0.18320    2.48410  -58.45360
 6850.00000   12.33670   10.73520   10.17070    0.22680    -999.25    0.13120   71.10600   60.24130   78.19900  123.45820  132.58900    -999.25    0.14080    2.40500  -56.97200
 6900.00000   10.46800   11.17600   10.27700    0.05080    -999.25   -0.00490   71.53290  119.35150  121.86500   20.08750   22.20110    -999.25    0.18660    2.64670  -55.56440
 6950.00000   10.44580    9.85070   10.65360    0.02820    -999.25    0.02530   84.74330  129.01110  132.19410   14.06140   16.14430    -999.25    0.33840    2.62410  -50.89060
 7000.00000   10.03640    6.07800    9.95470    0.11510    -999.25    0.03700   56.87940   35.94050   42.14190    4.89390    4.56540    -999.25    0.10320    2.61520  -54.65550
 7050.00000    9.30360    6.54810    9.54480    0.04640    -999.25    0.05250   58.79040   37.60140   45.53090  384.63870  278.84630    -999.25    0.07490    2.56660  -56.80520
 7100.00000    9.33270    6.12490    9.50680    0.06240    -999.25   -0.02190   55.57850   42.01490   47.13010  993.13670  529.94790    -999.25    0.05740    2.66920  -57.31760
 7150.00000   12.84470    6.82580   10.15290    0.23620    0.08920    0.10450   56.66830   47.47820   60.67240   15.56120   12.65940    0.13510    0.15000    2.59670  -56.82710
