~Version ---------------------------------------------------
VERS.      2.0 : CWLS log ASCII Standard -VERSION 2.0
WRAP.       NO : One line per depth step
CREA. 11/17/17 : LAS Creation Date
~Well ------------------------------------------------------
STRT.FT                          1000.0 : START DEPTH
STOP.FT                          9050.0 : STOP DEPTH
STEP.FT                        50.00000 : STEP LENGTH
NULL.                           -999.25 : NULL VALUE
COMP.            SINCLAIR CANADA OIL CO : COMPANY
WELL. SINCLAIR ET AL SUNSET 10-34-70-20 : WELL
FLD .                                   : FIELD
LOC .                                   : LOCATION
CTRY.                            CANADA : COUNTRY
SRVC.                           Unknown : SERVICE COMPANY
DATE.                       23-Mar-1965 : LOGDATE
PROV.                           Alberta : PROVINCE
UWI .                  100103407020W500 : UNIQUE WELL ID
SLAT.WGS84                     55.10692 : SURFACE LATITUDE
SLON.WGS84                     -116.959 : SURFACE LONGITUDE
~Curve Information -----------------------------------------
DEPT  .FT    : Depth Curve
CALWS .IN    : CALIPER [MCALED]
CILDED.MMHO  : CONDUCTIVITY FROM RESISTIVITY LOG
CONDWS.MMHO  : CONDUCTIVITY [1000/DRESWS]
DRESWS.OHMM  : DEEP RESISTIVITY [1000/CILDED IF ILDED < 1, ILDED]
DTED  .US/F  : DELTA-TIME FROM SONIC LOG
DTWS  .US/F  : COMPRESSIONAL SONIC [DTED]
GRSED .GAPI  : GAMMA RAY FROM SONIC LOG
GRWS  .GAPI  : GAMMA RAY [GRSED]
ILDED .OHMM  : DEEP INDUCTION 36' 6" RESISTIVITY FROM RESISTIVITY LOG
MCALED.IN    : MICRO CALIPER FROM ML LOG
SNED  .OHMM  : SHORT NORMAL 16" RESISTIVITY FROM RESISTIVITY LOG
SPRED .MV    : SPONTANEOUS POTENTIAL FROM RESISTIVITY LOG
SPWS  .MV    : SPONTANEOUS POTENTIAL [BASELINE 0 MV, SPRED]
SRESWS.OHMM  : SHALLOW RESISTIVITY [SNED]
~Params ----------------------------------------------------
PD  .                     GL : PERMANENT DATUM
EPD .FT                 2305 : ELEVATION PERMANENT DATUM
LMF .                     GL : LOG MEASURED FROM
EGL .FT                 2305 : GROUND LEVEL
DATE.               03/23/65 : RUN DATE
RUN .                      1 : RUN NUMBER
DD  .FT                 9060 : DEPTH DRILLER
DL  .FT                 9069 : DEPTH LOGGER
BLI .FT                 9068 : BOTTOM LOG INTERVAL
TLI .FT                  955 : TOP LOG INTERVAL
CBD .FT                  950 : CASING BOTTOM DRILLER
CBL .FT                  955 : CASING BOTTOM LOGGER
BS  .IN                7.875 : BIT SIZE
BSD .FT                 9060 : BIT SIZE AT DEPTH
DFT .                    GEL : DRILLING FLUID TYPE
DFD .                    9.8 : DRILLING FLUID DENSITY
DFV .                    141 : DRILLING FLUID VISCOSITY
DFPH.                    9.5 : DRILLING FLUID PH
DFL .                      7 : DRILLING FLUID LOSS
RMS .OHMM               2.22 : RESISTIVITY MUD SAMPLE
MST .DEGF                 62 : MUD SAMPLE TEMPERATURE
RMF .OHMM               1.37 : RESISTIVITY MUD FILTRATE SAMPLE
MFST.DEGF                 65 : MUD FILTRATE SAMPLE TEMPERATURE
RMC .OHMM               1.93 : RESISTIVITY MUD CAKE
RMB .OHMM              0.834 : RESISTIVITY MUD AT BHT
TCS .HRS                   4 : TIME CIRCULATED STOPPED
LUN .                   1576 : LOGGING UNIT NUMBER
LUL .                    WCT : LOGGING UNIT LOCATION
ENGI.              DEMETRICK : RECORDING ENGINEER
WITN.               SHERRIFF : WITNESSED BY
CLNT.                A2DTECH : CLIENT CODE
ORIG.            2" 5" PRINT : ORIGIN OF DATA
UWI .       100103407020W500 : UNIQUE WELL ID
DICO. A2D Technologies, Inc. : DIGITIZING COMPANY
~Other -----------------------------------------------------
IE-BCS-ML LOG RUN
ALL RESISTIVITY DATA FROM SMALL SECTION @ TOP-2696'
~ASCII -----------------------------------------------------
# ...
 5900.00000   10.19050   96.09800   98.88070   10.11320   62.48440   62.48440   46.64270   46.64270   10.11320   10.19050   16.08110   -9.25110   -9.59610   16.08110
 5950.00000    9.86720   23.47640   20.01050   49.97380   53.16400   53.16400   24.27380   24.27380   49.97380    9.86720   49.55110   -8.62770   -8.35450   49.55110
 6000.00000    9.28010   24.31900   26.27380   38.06080   54.08990   54.08990   33.09060   33.09060   38.06080    9.28010   44.01470  -39.14160  -35.65800   44.01470
 6050.00000    8.73790   28.55240   31.37950   31.86790   55.34080   55.34080   26.18370   26.18370   31.86790    8.73790   42.32980  -43.23530  -36.54130   42.32980
 6100.00000    8.74780   21.22600   22.06000   45.33090   55.00520   55.00520   28.48460   28.48460   45.33090    8.74780   50.00000  -47.11270  -37.18720   50.00000
 6150.00000    9.14420   39.60000   40.89090   24.45530   58.62490   58.62490   43.96050   43.96050   24.45530    9.14420   32.11380  -29.21380  -16.07780   32.11380
 6200.00000    9.44470   77.47360   82.60710   12.10550   64.40770   64.40770   66.09440   66.09440   12.10550    9.44470   18.60520  -28.99030  -12.62280   18.60520
 6250.00000    8.66200   47.75660   51.10620   19.56710   60.36960   60.36960   46.49700   46.49700   19.56710    8.66200   28.50450  -38.88040  -19.30250   28.50450
 6300.00000    9.41340   63.12460   66.99580   14.92630   62.75770   62.75770   55.12910   55.12910   14.92630    9.41340   22.70170  -32.65480   -9.86650   22.70170
 6350.00000    9.37560   64.07230   68.50070   14.59840   65.90830   65.90830   61.15010   61.15010   14.59840    9.37560   20.50710  -30.42160   -4.40170   20.50710
 6400.00000    9.64400   19.05970   21.55690   46.38880   54.48290   54.48290   33.85010   33.85010   46.38880    9.64400   40.43940  -41.87090  -12.64060   40.43940
 6450.00000    8.85950    4.07230    3.67640  272.00690   51.27100   51.27100   13.75430   13.75430  272.00690    8.85950  160.43490  -57.72050  -26.73090  160.43490
 6500.00000    9.95130    8.15070    5.74960  173.92420   50.38480   50.38480   17.05080   17.05080  173.92420    9.95130   80.99760 -108.54480  -77.36890   80.99760
 6550.00000    9.73760    2.21330    1.89020  529.04580   49.70940   49.70940   19.34840   19.34840  529.04580    9.73760  205.77530  -65.72100  -34.35880  205.77530
 6600.00000    9.68560    1.26730    1.88850  529.53470   49.34800   49.34800   15.74330   15.74330  529.53470    9.68560  190.43550  -70.60690  -39.05710  190.43550
 6650.00000    9.41110    1.90130    1.88980  529.16780   48.32750   48.32750   15.72670   15.72670  529.16780    9.41110  208.49800  -74.07150  -42.33540  208.49800
 6700.00000    8.79400    5.18260    2.00000  500.00000   49.08180   49.08180   14.78090   14.78090  500.00000    8.79400  222.17820  -82.47700  -50.55330  222.17820
 6750.00000    9.49000   16.87300   18.81980   53.13560   52.33180   52.33180   14.22590   14.22590   53.13560    9.49000   90.02930 -118.29730  -86.18730   90.02930
 6800.00000    8.87460   18.44050   19.75230   50.62700   52.07940   52.07940   17.93800   17.93800   50.62700    8.87460  112.19250 -143.54360 -111.24720  112.19250
 6850.00000    9.23020    1.55550    1.88960  529.22570   48.33760   48.33760   14.28350   14.28350  529.22570    9.23020  214.66370 -110.32470  -77.84080  214.66370
 6900.00000    9.53150    2.78200    2.00000  500.00000   48.50530   48.50530   14.06910   14.06910  500.00000    9.53150  163.81920  -98.90920  -66.23900  163.81920
 6950.00000    9.54070    3.42040    1.90130  525.95590   48.43370   48.43370   15.03820   15.03820  525.95590    9.54070  157.98580 -105.42890  -72.57110  157.98580
 7000.00000    9.52340    2.98700    1.96310  509.39210   49.19520   49.19520   18.25830   18.25830  509.39210    9.52340  160.49090 -106.98960  -73.94550  160.49090
 7050.00000    9.38200    2.75740    1.90020  526.26230   48.40110   48.40110   18.63080   18.63080  526.26230    9.38200  183.61300 -108.79930  -75.56880  183.61300
 7100.00000    9.26440    3.62370    2.77650  360.16570   49.78890   49.78890   12.07060   12.07060  360.16570    9.26440  120.30940 -119.49840  -86.08040  120.30940
 7150.00000    7.93170   60.83540   61.36480   16.29600   55.70030   55.70030   29.03880   29.03880   16.29600    7.93170   74.39190 -164.13110 -130.52670   74.39190
 7200.00000    9.44620   15.28040   14.94980   66.89050   49.38060   49.38060   10.25600   10.25600   66.89050    9.44620  106.43140 -200.04090 -166.24900  106.43140
 7250.00000    8.62420   37.73920   42.61900   23.46370   54.59860   54.59860   34.91200   34.91200   23.46370    8.62420   40.12180 -127.30610  -93.32780   40.12180
 7300.00000    8.88260   34.41580   37.16570   26.90650   48.95470   48.95470   21.96430   21.96430   26.90650    8.88260   98.25430 -170.65100 -136.48640   98.25430
 7350.00000    8.78400  123.84580  129.07060    7.74770   54.70780   54.70780   47.21010   47.21010    7.74770    8.78400   16.50820 -122.62040  -88.26820   16.50820
 7400.00000    8.62130   46.94130   53.16320   18.81000   51.38920   51.38920   27.77460   27.77460   18.81000    8.62130   36.22150 -120.50290  -85.96440   36.22150
 7450.00000    8.52870   15.18180   14.06850   71.08060   54.75950   54.75950   31.17480   31.17480   71.08060    8.52870   65.13420  -54.09170  -19.36570   65.13420
 7500.00000    8.59760   13.26260   12.80760   78.07840   52.02060   52.02060   11.75810   11.75810   78.07840    8.59760   89.72000 -109.74150  -74.82910   89.72000
 7550.00000    8.47520  104.15330  110.39230    9.05860   62.96630   62.96630   65.13610   65.13610    9.05860    8.47520   13.33130  -52.90140  -17.80270   13.33130
 7600.00000   11.71120  121.96610  132.51350    7.54640   75.59120   75.59120   71.76430   71.76430    7.54640   11.71120   11.97760  -43.45470   -8.16840   11.97760
 7650.00000   13.31510  146.39750  167.54910    5.96840   81.95430   81.95430   74.56680   74.56680    5.96840   13.31510    8.67020  -54.63960  -19.07650    8.67020
 7700.00000   17.27910  173.75700  206.43670    4.84410   76.03640   76.03640   60.95410   60.95410    4.84410   17.27910    5.76750  -52.08610  -16.23650    5.76750
 7750.00000   17.43280  248.43780  312.29510    3.20210   91.77150   91.77150   78.92160   78.92160    3.20210   17.43280    4.09350  -67.09110  -30.95700    4.09350
 7800.00000   17.46800  249.50280  285.45330    3.50320   86.22740   86.22740   63.84930   63.84930    3.50320   17.46800    4.73140  -66.30910  -29.89040    4.73140
 7850.00000   17.42970  191.99300  226.27510    4.41940   79.84670   79.84670   65.33370   65.33370    4.41940   17.42970    5.02690  -75.60280  -38.89760    5.02690
 7900.00000   17.43690  175.53350  203.23960    4.92030   76.31630   76.31630   61.08370   61.08370    4.92030   17.43690    6.02270  -75.88880  -38.89900    6.02270
 7950.00000   17.40880  236.87900  274.10030    3.64830   86.02780   86.02780   62.41480   62.41480    3.64830   17.40880    4.58280  -70.11000  -32.83380    4.58280
 8000.00000   17.33180  216.47840  248.52750    4.02370   87.08680   87.08680   68.37230   68.37230    4.02370   17.33180    5.03220  -75.25420  -37.69340    5.03220
 8050.00000   11.29450  208.01460  220.81880    4.52860   84.87990   84.87990   99.98590   99.98590    4.52860   11.29450    6.15710  -69.39620  -31.55080    6.15710
 8100.00000    9.26810   80.62780   85.65160   11.67520   65.86510   65.86510   58.85250   58.85250   11.67520    9.26810   16.44530  -49.76400  -11.63210   16.44530
 8150.00000    8.86510   74.51560   80.39230   12.43900   62.99670   62.99670   64.68250   64.68250   12.43900    8.86510   18.73310  -43.53360   -5.11720   18.73310
 8200.00000    9.77990   99.66310  109.17270    9.15980   64.54710   64.54710   67.35630   67.35630    9.15980    9.77990   12.84130  -56.25550  -17.55260   12.84130
 8250.00000   10.35370  131.25940  139.91300    7.14730   75.83700   75.83700   81.50420   81.50420    7.14730   10.35370   10.95380  -66.45610  -26.78660   10.95380
 8300.00000    9.04550   81.56340   88.86910   11.25250   81.80210   81.80210   91.43960   91.43960   11.25250    9.04550   17.39070  -55.56130  -14.42930   17.39070
