~Version ---------------------------------------------------
VERS.      2.0 : CWLS log ASCII Standard -VERSION 2.0
WRAP.       NO : One line per depth step
CREA. 12/07/17 : LAS Creation Date
~Well ------------------------------------------------------
STRT.FT                            300.0 : START DEPTH
STOP.FT                           7900.0 : STOP DEPTH
STEP.FT                         50.00000 : STEP LENGTH
NULL.                            -999.25 : NULL VALUE
COMP.     CANADIAN OIL COMPANIES LIMITED : COMPANY
WELL. WHITE ROSE ET AL WATINO 4-10-78-24 : WELL
FLD .                                    : FIELD
LOC .                                    : LOCATION
CTRY.                             CANADA : COUNTRY
SRVC.                       Schlumberger : SERVICE COMPANY
DATE.                        23-Dec-1961 : LOGDATE
PROV.                            Alberta : PROVINCE
UWI .                   100041007824W500 : UNIQUE WELL ID
SLAT.WGS84                      55.73903 : SURFACE LATITUDE
SLON.WGS84                     -117.6449 : SURFACE LONGITUDE
~Curve Information -----------------------------------------
DEPT  .FT         : Depth Curve
CALSED.IN         : CALIPER FROM SONIC LOG
CALWS .IN         : CALIPER [MCALED SPL. TO CALSED @ 5425']
CILDED.MMHO       : DEEP INDUCTION  CONDUCTIVITY FROM RESISTIVITY LOG
CONDWS.MMHO       : CONDUCTIVITY [1000/DRESWS]
DRESWS.OHMM       : DEEP RESISTIVITY [1000/CILDED IF ILDED <1.5, ILDED]
DTED  .US/F       : DELTA-T (SPAN 1') FROM SONIC LOG
DTWS  .US/F       : COMPRESSIONAL SONIC [DTED]
GRNED .GAPI       : GAMMA RAY FROM GRN LOG
GRSED .UgRa-Eq/T  : GAMMA RAY FROM SONIC LOG
GRWS  .GAPI       : GAMMA RAY [GRNED SPL. TO GRSED (UgRa-Eq/T *16.5) @ 5497']
ILDED .OHMM       : DEEP INDUCTION  RESISTIVITY FROM RESISTIVITY LOG
MCALED.IN         : MLT (MICROLOG) CALIPER FROM MICROLOG
NEUTED.NAPI       : NEUTRON FROM GRN LOG
NEUTWS.NAPI       : NEUTRON [NEUTED]
SNED  .OHMM       : SHORT NORMAL RESISTIVITY FROM RESISTIVITY LOG
SPRED .MV         : SPONTANEOUS POTENTIAL FROM RESISTIVITY LOG
SPWS  .MV         : SPONTANEOUS POTENTIAL [BASELINE 0 MV] [SPRED]
SRESWS.OHMM       : SHALLOW RESISTIVITY [SNED]
~Params ----------------------------------------------------
PD  .                     GL : PERMANENT DATUM
EPD .FT               1245.4 : ELEVATION PERMANENT DATUM
LMF .                     KB : LOG MEASURED FROM
DAPD.FT                 12.6 : FEET ABOVE PERMANENT DATUM
EKB .FT                 1258 : KELLY BUSHING
EGL .FT               1245.4 : GROUND LEVEL
DATE.               12/23/61 : RUN DATE
RUN .                      2 : RUN NUMBER
DD  .FT                 7915 : DEPTH DRILLER
DL  .FT                 7911 : DEPTH LOGGER
BLI .FT                 7906 : BOTTOM LOG INTERVAL
TLI .FT                 4764 : TOP LOG INTERVAL
BS  .IN                 8.75 : BIT SIZE
BSD .FT                 7915 : BIT SIZE AT DEPTH
DFT .                   GYPN : DRILLING FLUID TYPE
DFD .                   12.5 : DRILLING FLUID DENSITY
DFV .                     96 : DRILLING FLUID VISCOSITY
DFPH.                      8 : DRILLING FLUID PH
DFL .                   14.6 : DRILLING FLUID LOSS
RMS .OHMM                1.1 : RESISTIVITY MUD SAMPLE
MST .DEGF                 84 : MUD SAMPLE TEMPERATURE
RMF .OHMM                0.6 : RESISTIVITY MUD FILTRATE SAMPLE
MFST.DEGF                 66 : MUD FILTRATE SAMPLE TEMPERATURE
RMC .OHMM                1.8 : RESISTIVITY MUD CAKE
MCST.DEGF                 60 : MUD CAKE SAMPLE TEMPERATURE
RMB .OHMM                0.6 : RESISTIVITY MUD AT BHT
TCS .HRS                   2 : TIME CIRCULATED STOPPED
LUN .                   1511 : LOGGING UNIT NUMBER
LUL .                     DC : LOGGING UNIT LOCATION
ENGI.                PRATHER : RECORDING ENGINEER
WITN.                 LEPPER : WITNESSED BY
CLNT.                A2DTECH : CLIENT CODE
ORIG.            2" 5" PRINT : ORIGIN OF DATA
UWI .       100041007824W500 : UNIQUE WELL ID
DICO. A2D Technologies, Inc. : DIGITIZING COMPANY
~Other -----------------------------------------------------
IEL-BHC-GRN-ML LOG RUN
CALSED 5" (5') SHALLOW RECORDED
SPWS: SPRED APPLIED (+11) UNIT FILTER
~ASCII -----------------------------------------------------
# ...
 2250.00000    -999.25    8.61360   65.92200   71.52770   13.98060    -999.25    -999.25    -999.25    -999.25    -999.25   13.98060    8.61360    -999.25    -999.25   17.30350  -29.11620   -7.91970   17.30350
 2300.00000    -999.25    9.01830   62.17730   65.64870   15.23260    -999.25    -999.25    -999.25    -999.25    -999.25   15.23260    9.01830    -999.25    -999.25   18.86530  -29.42100   -8.43250   18.86530
 2350.00000    -999.25   11.87960  134.02990  141.75150    7.05460    -999.25    -999.25    -999.25    -999.25    -999.25    7.05460   11.87960    -999.25    -999.25    8.68140  -27.16160   -6.38250    8.68140
 2400.00000    -999.25    8.40460  229.01940  238.86870    4.18640    -999.25    -999.25    -999.25    -999.25    -999.25    4.18640    8.40460    -999.25    -999.25    5.35510  -29.94870   -9.37760    5.35510
 2450.00000    -999.25   11.14220  300.82700  292.18410    3.42250    -999.25    -999.25    -999.25    -999.25    -999.25    3.42250   11.14220    -999.25    -999.25    4.11870  -20.30250    0.05920    4.11870
 2500.00000    -999.25   10.73170  389.40380  396.93570    2.51930    -999.25    -999.25    -999.25    -999.25    -999.25    2.51930   10.73170    -999.25    -999.25    3.28340  -22.59620   -2.44260    3.28340
 2550.00000    -999.25   11.50530  390.57910  398.04160    2.51230    -999.25    -999.25    -999.25    -999.25    -999.25    2.51230   11.50530    -999.25    -999.25    3.47420  -22.15320   -2.20760    3.47420
 2600.00000    -999.25    8.62930   79.05620   66.95320   14.93580    -999.25    -999.25    -999.25    -999.25    -999.25   14.93580    8.62930    -999.25    -999.25   22.04370  -22.73330   -2.84380   22.04370
 2650.00000    -999.25    8.40600    5.79190    5.27280  189.65380    -999.25    -999.25    -999.25    -999.25    -999.25  189.65380    8.40600    -999.25    -999.25  117.80210  -44.84980  -24.81510  117.80210
 2700.00000    -999.25    8.47340  323.81580  341.36680    2.92940    -999.25    -999.25    -999.25    -999.25    -999.25    2.92940    8.47340    -999.25    -999.25   10.44170  -50.78590  -30.60500   10.44170
 2750.00000    -999.25    8.53110  387.90940  393.90240    2.53870    -999.25    -999.25    -999.25    -999.25    -999.25    2.53870    8.53110    -999.25    -999.25    6.73610  -50.37980  -30.05370    6.73610
 2800.00000    -999.25    8.55590  431.18230  444.95860    2.24740    -999.25    -999.25    -999.25    -999.25    -999.25    2.24740    8.55590    -999.25    -999.25    6.10320  -50.92060  -30.44940    6.10320
 2850.00000    -999.25    8.44250  583.50600  611.69560    1.63480    -999.25    -999.25    -999.25    -999.25    -999.25    1.63480    8.44250    -999.25    -999.25    5.91640  -58.11200  -37.49460    5.91640
 2900.00000    -999.25    8.45680  380.41050  397.18790    2.51770    -999.25    -999.25    -999.25    -999.25    -999.25    2.51770    8.45680    -999.25    -999.25    7.16030  -47.17120  -26.40860    7.16030
 2950.00000    -999.25    8.33810  829.04690  829.04690    1.20620    -999.25    -999.25    -999.25    -999.25    -999.25    1.18500    8.33810    -999.25    -999.25    4.23040  -61.75600  -40.84730    4.23040
 3000.00000    -999.25    8.35110 2042.68470 2042.68470    0.48960    -999.25    -999.25    -999.25    -999.25    -999.25    0.54830    8.35110    -999.25    -999.25    1.94510  -67.77570  -46.72180    1.94510
 3050.00000    -999.25    8.42730  534.56340  570.54830    1.75270    -999.25    -999.25    -999.25    -999.25    -999.25    1.75270    8.42730    -999.25    -999.25    6.66850  -52.54520  -31.34610    6.66850
 3100.00000    -999.25    8.52920  727.50120  727.50120    1.37460    -999.25    -999.25    -999.25    -999.25    -999.25    1.47430    8.52920    -999.25    -999.25    3.75920  -66.80880  -45.46360    3.75920
 3150.00000    -999.25    8.55030 1757.62660 1757.62660    0.56890    -999.25    -999.25    -999.25    -999.25    -999.25    0.58600    8.55030    -999.25    -999.25    1.97800  -68.18420  -46.69380    1.97800
 3200.00000    -999.25    8.31730 1355.01990 1355.01990    0.73800    -999.25    -999.25    -999.25    -999.25    -999.25    0.68860    8.31730    -999.25    -999.25    1.79380  -65.29080  -43.65420    1.79380
 3250.00000    -999.25   10.68890  258.16710  294.35140    3.39730    -999.25    -999.25    -999.25    -999.25    -999.25    3.39730   10.68890    -999.25    -999.25    6.08170  -27.66250   -5.88070    6.08170
 3300.00000    -999.25    8.54880   14.79580   12.77000   78.30880    -999.25    -999.25    -999.25    -999.25    -999.25   78.30880    8.54880    -999.25    -999.25   56.06760  -39.36700  -17.44010   56.06760
 3350.00000    -999.25    8.48770  193.80920  226.77790    4.40960    -999.25    -999.25    -999.25    -999.25    -999.25    4.40960    8.48770    -999.25    -999.25   17.97880  -53.71920  -31.64610   17.97880
 3400.00000    -999.25    8.46660   53.66000   56.55790   17.68100    -999.25    -999.25    -999.25    -999.25    -999.25   17.68100    8.46660    -999.25    -999.25   35.64610  -62.74270  -40.52440   35.64610
 3450.00000    -999.25    8.63020  435.69980  349.74820    2.85920    -999.25    -999.25    -999.25    -999.25    -999.25    2.85920    8.63020    -999.25    -999.25    6.87680  -52.92130  -30.55690    6.87680
 3500.00000    -999.25    8.58090   81.73370   83.48570   11.97810    -999.25    -999.25    -999.25    -999.25    -999.25   11.97810    8.58090    -999.25    -999.25   24.61610  -56.63530  -34.12570   24.61610
 3550.00000    -999.25    8.51200   16.09280   13.26990   75.35870    -999.25    -999.25    -999.25    -999.25    -999.25   75.35870    8.51200    -999.25    -999.25   61.19630  -62.42520  -39.77040   61.19630
 3600.00000    -999.25    8.33150 1108.58020 1108.58020    0.90210    -999.25    -999.25    -999.25    -999.25    -999.25    0.87880    8.33150    -999.25    -999.25    3.85030  -72.78450  -49.98360    3.85030
 3650.00000    -999.25    8.41530  300.16240  355.79590    2.81060    -999.25    -999.25    -999.25    -999.25    -999.25    2.81060    8.41530    -999.25    -999.25   11.58370  -70.37390  -47.42780   11.58370
 3700.00000    -999.25    8.22410  834.73770  834.73770    1.19800    -999.25    -999.25    -999.25    -999.25    -999.25    1.18780    8.22410    -999.25    -999.25    4.44330  -66.77390  -43.68160    4.44330
 3750.00000    -999.25    8.58540  903.78080  903.78080    1.10650    -999.25    -999.25    -999.25    -999.25    -999.25    0.99770    8.58540    -999.25    -999.25    3.71020  -66.98100  -43.74360    3.71020
 3800.00000    -999.25    8.38350  338.78740  372.75880    2.68270    -999.25    -999.25    -999.25    -999.25    -999.25    2.68270    8.38350    -999.25    -999.25   15.03560  -67.20380  -43.82120   15.03560
 3850.00000    -999.25    8.22310  399.81870  435.44520    2.29650    -999.25    -999.25    -999.25    -999.25    -999.25    2.29650    8.22310    -999.25    -999.25   12.41090  -78.52340  -54.99460   12.41090
 3900.00000    -999.25    8.47770   79.33250   81.07080   12.33490    -999.25    -999.25    -999.25    -999.25    -999.25   12.33490    8.47770    -999.25    -999.25   13.29110  -43.05460  -19.38060   13.29110
 3950.00000    -999.25    8.52400  428.42470  495.49100    2.01820    -999.25    -999.25    -999.25    -999.25    -999.25    2.01820    8.52400    -999.25    -999.25    7.40100  -64.57040  -40.75030    7.40100
 4000.00000    -999.25    8.48840   27.92070   33.75140   29.62840    -999.25    -999.25    -999.25    -999.25    -999.25   29.62840    8.48840    -999.25    -999.25   32.20840  -39.61980  -15.65450   32.20840
 4050.00000    -999.25    8.19460  216.07110  248.97300    4.01650    -999.25    -999.25    -999.25    -999.25    -999.25    4.01650    8.19460    -999.25    -999.25   18.83850  -66.61310  -42.50260   18.83850
 4100.00000    -999.25    8.65030   41.19310   49.46380   20.21680    -999.25    -999.25    -999.25    -999.25    -999.25   20.21680    8.65030    -999.25    -999.25   17.61320  -32.34180   -8.08520   17.61320
 4150.00000    -999.25    8.56120   61.21790   67.02820   14.91910    -999.25    -999.25    -999.25    -999.25    -999.25   14.91910    8.56120    -999.25    -999.25   16.17290  -35.74870  -11.34690   16.17290
