~Version ---------------------------------------------------
VERS.      2.0 : CWLS log ASCII Standard -VERSION 2.0
WRAP.       NO : One line per depth step
CREA. 12/07/17 : LAS Creation Date
~Well ------------------------------------------------------
STRT.FT                            300.0 : START DEPTH
STOP.FT                           7900.0 : STOP DEPTH
STEP.FT                         50.00000 : STEP LENGTH
NULL.                            -999.25 : NULL VALUE
COMP.     CANADIAN OIL COMPANIES LIMITED : COMPANY
WELL. WHITE ROSE ET AL WATINO 4-10-78-24 : WELL
FLD .                                    : FIELD
LOC .                                    : LOCATION
CTRY.                             CANADA : COUNTRY
SRVC.                       Schlumberger : SERVICE COMPANY
DATE.                        23-Dec-1961 : LOGDATE
PROV.                            Alberta : PROVINCE
UWI .                   100041007824W500 : UNIQUE WELL ID
SLAT.WGS84                      55.73903 : SURFACE LATITUDE
SLON.WGS84                     -117.6449 : SURFACE LONGITUDE
~Curve Information -----------------------------------------
DEPT  .FT         : Depth Curve
CALSED.IN         : CALIPER FROM SONIC LOG
CALWS .IN         : CALIPER [MCALED SPL. TO CALSED @ 5425']
CILDED.MMHO       : DEEP INDUCTION  CONDUCTIVITY FROM RESISTIVITY LOG
CONDWS.MMHO       : CONDUCTIVITY [1000/DRESWS]
DRESWS.OHMM       : DEEP RESISTIVITY [1000/CILDED IF ILDED <1.5, ILDED]
DTED  .US/F       : DELTA-T (SPAN 1') FROM SONIC LOG
DTWS  .US/F       : COMPRESSIONAL SONIC [DTED]
GRNED .GAPI       : GAMMA RAY FROM GRN LOG
GRSED .UgRa-Eq/T  : GAMMA RAY FROM SONIC LOG
GRWS  .GAPI       : GAMMA RAY [GRNED SPL. TO GRSED (UgRa-Eq/T *16.5) @ 5497']
ILDED .OHMM       : DEEP INDUCTION  RESISTIVITY FROM RESISTIVITY LOG
MCALED.IN         : MLT (MICROLOG) CALIPER FROM MICROLOG
NEUTED.NAPI       : NEUTRON FROM GRN LOG
NEUTWS.NAPI       : NEUTRON [NEUTED]
SNED  .OHMM       : SHORT NORMAL RESISTIVITY FROM RESISTIVITY LOG
SPRED .MV         : SPONTANEOUS POTENTIAL FROM RESISTIVITY LOG
SPWS  .MV         : SPONTANEOUS POTENTIAL [BASELINE 0 MV] [SPRED]
SRESWS.OHMM       : SHALLOW RESISTIVITY [SNED]
~Params ----------------------------------------------------
PD  .                     GL : PERMANENT DATUM
EPD .FT               1245.4 : ELEVATION PERMANENT DATUM
LMF .                     KB : LOG MEASURED FROM
DAPD.FT                 12.6 : FEET ABOVE PERMANENT DATUM
EKB .FT                 1258 : KELLY BUSHING
EGL .FT               1245.4 : GROUND LEVEL
DATE.               12/23/61 : RUN DATE
RUN .                      2 : RUN NUMBER
DD  .FT                 7915 : DEPTH DRILLER
DL  .FT                 7911 : DEPTH LOGGER
BLI .FT                 7906 : BOTTOM LOG INTERVAL
TLI .FT                 4764 : TOP LOG INTERVAL
BS  .IN                 8.75 : BIT SIZE
BSD .FT                 7915 : BIT SIZE AT DEPTH
DFT .                   GYPN : DRILLING FLUID TYPE
DFD .                   12.5 : DRILLING FLUID DENSITY
DFV .                     96 : DRILLING FLUID VISCOSITY
DFPH.                      8 : DRILLING FLUID PH
DFL .                   14.6 : DRILLING FLUID LOSS
RMS .OHMM                1.1 : RESISTIVITY MUD SAMPLE
MST .DEGF                 84 : MUD SAMPLE TEMPERATURE
RMF .OHMM                0.6 : RESISTIVITY MUD FILTRATE SAMPLE
MFST.DEGF                 66 : MUD FILTRATE SAMPLE TEMPERATURE
RMC .OHMM                1.8 : RESISTIVITY MUD CAKE
MCST.DEGF                 60 : MUD CAKE SAMPLE TEMPERATURE
RMB .OHMM                0.6 : RESISTIVITY MUD AT BHT
TCS .HRS                   2 : TIME CIRCULATED STOPPED
LUN .                   1511 : LOGGING UNIT NUMBER
LUL .                     DC : LOGGING UNIT LOCATION
ENGI.                PRATHER : RECORDING ENGINEER
WITN.                 LEPPER : WITNESSED BY
CLNT.                A2DTECH : CLIENT CODE
ORIG.            2" 5" PRINT : ORIGIN OF DATA
UWI .       100041007824W500 : UNIQUE WELL ID
DICO. A2D Technologies, Inc. : DIGITIZING COMPANY
~Other -----------------------------------------------------
IEL-BHC-GRN-ML LOG RUN
CALSED 5" (5') SHALLOW RECORDED
SPWS: SPRED APPLIED (+11) UNIT FILTER
~ASCII -----------------------------------------------------
# ...
 4200.00000    -999.25    8.60710  170.83560  180.89400    5.52810    -999.25    -999.25    -999.25    -999.25    -999.25    5.52810    8.60710    -999.25    -999.25    8.89250  -12.91180   11.63610    8.89250
 4250.00000    -999.25    8.50640   62.61910   63.11100   15.84510    -999.25    -999.25    -999.25    -999.25    -999.25   15.84510    8.50640    -999.25    -999.25   17.68050  -29.25430   -4.56120   17.68050
 4300.00000    -999.25    8.33810  322.61810  337.67810    2.96140    -999.25    -999.25    -999.25    -999.25    -999.25    2.96140    8.33810    -999.25    -999.25    5.68800  -46.52260  -21.68430    5.68800
 4350.00000    -999.25    8.54850  101.24580  107.63920    9.29030    -999.25    -999.25    -999.25    -999.25    -999.25    9.29030    8.54850    -999.25    -999.25   13.12020  -31.47240   -6.48790   13.12020
 4400.00000    -999.25    8.16390  345.70060  362.16140    2.76120    -999.25    -999.25    -999.25    -999.25    -999.25    2.76120    8.16390    -999.25    -999.25    9.87830  -57.78350  -32.65380    9.87830
 4450.00000    -999.25    8.57120   31.97990   26.59810   37.59660    -999.25    -999.25    -999.25    -999.25    -999.25   37.59660    8.57120    -999.25    -999.25   31.65170  -27.51500   -2.23920   31.65170
 4500.00000    -999.25    8.55460   70.34020   79.93670   12.50990    -999.25    -999.25    -999.25    -999.25    -999.25   12.50990    8.55460    -999.25    -999.25   14.59300  -31.30480   -5.84220   14.59300
 4550.00000    -999.25    8.50920   50.10710   48.48910   20.62320    -999.25    -999.25    -999.25    -999.25    -999.25   20.62320    8.50920    -999.25    -999.25   30.39270  -51.42320  -25.77060   30.39270
 4600.00000    -999.25    8.53900   16.10670   16.67360   59.97520    -999.25    -999.25    -999.25    -999.25    -999.25   59.97520    8.53900    -999.25    -999.25   56.12840  -85.86920  -60.02530   56.12840
 4650.00000    -999.25    8.54520    4.41820    8.30710  120.37900    -999.25    -999.25    -999.25    -999.25    -999.25  120.37900    8.54520    -999.25    -999.25   58.73350  -79.48260  -53.44870   58.73350
 4700.00000    -999.25    8.28620  151.98180  156.00620    6.41000    -999.25    -999.25    -999.25    -999.25    -999.25    6.41000    8.28620    -999.25    -999.25   15.08660  -96.60440  -70.37920   15.08660
 4750.00000    -999.25    8.50030   13.21650   14.65130   68.25340    -999.25    -999.25    -999.25    -999.25    -999.25   68.25340    8.50030    -999.25    -999.25   48.21570  -71.20060  -44.78540   48.21570
 4800.00000    -999.25    -999.25  241.57420  242.71840    4.12000    -999.25    -999.25    -999.25    -999.25    -999.25    4.12000    -999.25    -999.25    -999.25    5.14090  -72.57940  -45.97410    5.14090
 4850.00000    -999.25    -999.25  338.12310  342.63000    2.91860    -999.25    -999.25    -999.25    -999.25    -999.25    2.91860    -999.25    -999.25    -999.25    4.99530  -76.90010  -50.10360    4.99530
 4900.00000    -999.25    -999.25   63.38360   48.48370   20.62550    -999.25    -999.25    -999.25    -999.25    -999.25   20.62550    -999.25    -999.25    -999.25   25.37810  -78.83950  -51.85290   25.37810
 4950.00000    -999.25    -999.25  131.65550  132.78100    7.53120    -999.25    -999.25    -999.25    -999.25    -999.25    7.53120    -999.25    -999.25    -999.25    8.63930  -80.43140  -53.25360    8.63930
 5000.00000    -999.25    -999.25  144.28870  148.21620    6.74690    -999.25    -999.25    -999.25    -999.25    -999.25    6.74690    -999.25    -999.25    -999.25    9.65300  -72.04720  -44.67930    9.65300
 5050.00000    -999.25    -999.25  136.56520  128.84110    7.76150    -999.25    -999.25    -999.25    -999.25    -999.25    7.76150    -999.25    -999.25    -999.25   15.36570  -82.09380  -54.53590   15.36570
 5100.00000    -999.25    -999.25   58.52100   56.03180   17.84700    -999.25    -999.25    -999.25    -999.25    -999.25   17.84700    -999.25    -999.25    -999.25   22.14500  -68.15810  -40.40890   22.14500
 5150.00000    -999.25    -999.25   28.22570   28.01100   35.70030    -999.25    -999.25    -999.25    -999.25    -999.25   35.70030    -999.25    -999.25    -999.25   34.86970  -74.62970  -46.69050   34.86970
 5200.00000    -999.25    -999.25   54.99310   54.84320   18.23380    -999.25    -999.25    -999.25    -999.25    -999.25   18.23380    -999.25    -999.25    -999.25   19.35160  -66.78580  -38.65530   19.35160
 5250.00000    -999.25    -999.25   31.08630   30.75700   32.51290    -999.25    -999.25    -999.25    -999.25    -999.25   32.51290    -999.25    -999.25    -999.25   29.33740  -67.66780  -39.34730   29.33740
 5300.00000    -999.25    -999.25   68.12280   65.74100   15.21120    -999.25    -999.25    -999.25    -999.25    -999.25   15.21120    -999.25    -999.25    -999.25   16.65700  -69.42850  -40.91800   16.65700
 5350.00000    -999.25    -999.25   75.37690   72.52320   13.78870    -999.25    -999.25    -999.25    -999.25    -999.25   13.78870    -999.25    -999.25    -999.25   15.04720  -71.43410  -42.73230   15.04720
 5400.00000    -999.25    -999.25   59.55610   58.13140   17.20240    -999.25    -999.25    -999.25    -999.25    -999.25   17.20240    -999.25    -999.25    -999.25   17.57940  -72.55820  -43.66630   17.57940
 5450.00000   11.12130   11.12130  219.72250  218.77530    4.57090    -999.25    -999.25    -999.25    -999.25    -999.25    4.57090    -999.25    -999.25    -999.25    5.67180  -71.38870  -42.30560    5.67180
 5500.00000   11.49990   11.49990  225.05180  226.04490    4.42390   83.24690   83.24690    -999.25    5.71620   94.31730    4.42390    -999.25    -999.25    -999.25    5.18900  -70.87170  -41.59850    5.18900
 5550.00000   10.79600   10.79600  235.48330  235.17240    4.25220   87.73550   87.73550    -999.25    6.66300  109.93950    4.25220    -999.25    -999.25    -999.25    5.23990  -68.71200  -39.24880    5.23990
 5600.00000   10.42600   10.42600  109.54770  107.16960    9.33100   70.26370   70.26370    -999.25    4.69030   77.38990    9.33100    -999.25    -999.25    -999.25    9.88280  -69.88390  -40.22940    9.88280
 5650.00000    9.82250    9.82250   23.11800   17.93600   55.75390   89.73010   89.73010    -999.25   14.52160  239.60640   55.75390    -999.25    -999.25    -999.25   34.43800  -54.16140  -24.31690   34.43800
 5700.00000    9.73260    9.73260    9.45060    9.96960  100.30520   51.89010   51.89010    -999.25    1.30340   21.50610  100.30520    -999.25    -999.25    -999.25   52.40660  -97.62550  -67.58970   52.40660
 5750.00000    9.82900    9.82900   11.76370   11.47360   87.15660   53.11950   53.11950    -999.25    1.66020   27.39330   87.15660    -999.25    -999.25    -999.25   54.99490  -85.59770  -55.37190   54.99490
 5800.00000    9.79440    9.79440    6.22160    6.45680  154.87500   51.72760   51.72760    -999.25    1.36460   22.51590  154.87500    -999.25    -999.25    -999.25   69.22210  -85.21650  -54.80070   69.22210
 5850.00000    9.77690    9.77690    7.21700    7.66970  130.38330   51.42600   51.42600    -999.25    1.27090   20.96980  130.38330    -999.25    -999.25    -999.25   56.64430  -99.24810  -68.64100   56.64430
 5900.00000    9.80910    9.80910   10.83290   11.39060   87.79190   50.68170   50.68170    -999.25    1.19580   19.73070   87.79190    -999.25    -999.25    -999.25   51.68410  -93.68320  -62.88610   51.68410
 5950.00000    9.33780    9.33780   29.98160   28.82630   34.69060   55.78870   55.78870    -999.25    1.37790   22.73530   34.69060    -999.25    -999.25    -999.25   48.91380 -105.59960  -74.61120   48.91380
 6000.00000    8.91990    8.91990   47.34330   45.97870   21.74920   58.60070   58.60070    -999.25    1.06390   17.55430   21.74920    -999.25    -999.25    -999.25   40.03920 -117.17830  -85.99980   40.03920
 6050.00000    9.68380    9.68380   20.65190   20.21170   49.47620   54.50340   54.50340    -999.25    1.12120   18.49980   49.47620    -999.25    -999.25    -999.25   49.78330 -103.34080  -71.97230   49.78330
 6100.00000    9.73040    9.73040    2.18810    3.49430  286.18050   51.50170   51.50170    -999.25    1.20080   19.81320  286.18050    -999.25    -999.25    -999.25   85.24710  -87.56750  -56.00770   85.24710
