~Version ---------------------------------------------------
VERS.      2.0 : CWLS log ASCII Standard -VERSION 2.0
WRAP.       NO : One line per depth step
CREA. 01/05/18 : LAS Creation Date
~Well ------------------------------------------------------
STRT.FT                              300.0 : START DEPTH
STOP.FT                            15450.0 : STOP DEPTH
STEP.FT                           50.00000 : STEP LENGTH
NULL.                              -999.25 : NULL VALUE
COMP.                        BANFF OIL LTD : COMPANY
WELL. BANFF AQUIT CHIEFCO WAWA 11-20-42-13 : WELL
FLD .                                      : FIELD
LOC .                                      : LOCATION
CTRY.                               CANADA : COUNTRY
SRVC.               Schlumberger of Canada : SERVICE COMPANY
DATE.                          07-Apr-1970 : LOGDATE
PROV.                              Alberta : PROVINCE
UWI .                     100112004213W500 : UNIQUE WELL ID
SLAT.WGS84                        52.63304 : SURFACE LATITUDE
SLON.WGS84                       -115.8375 : SURFACE LONGITUDE
~Curve Information -----------------------------------------
DEPT    .FT    : Depth Curve
CALDED  .IN    : CALIPER FROM DENSITY LOG [ADJ. TO RESISTIVITY LOG]
CALNED  .IN    : CALIPER FROM SNP LOG [ADJ. TO RESISTIVITY LOG]
CALSED  .IN    : CALIPER FROM SONIC LOG [ADJ. TO RESISTIVITY LOG]
CALWS   .IN    : CALIPER [CALSED]
CONDWS  .MMHO  : CONDUCTIVITY [1000/DRESWS]
CORRED  .G/C3  : DENSITY CORRECTION FROM DENSITY LOG [ADJ. TO RESISTIVITY LOG]
DCORWS  .G/C3  : DENSITY CORRECTION [CORRED]
DENWS   .G/C3  : FORMATION BULK DENSITY [RHOBED]
DPHILSED.V/V   : DENSITY POROSITY LIMESTONE FROM DENSITY LOG [ADJ. TO RESISTIVITY LOG]
DPOLSWS .V/V   : DENSITY POROSITY LIMESTONE [CALC. FROM DENWS, M=2.71 F=1.00]
DRESWS  .OHMM  : DEEP RESISTIVITY [ILDED]
DTED    .US/F  : DELTA T FROM SONIC LOG [ADJ. TO RESISTIVITY LOG]
DTWS    .US/F  : COMPRESSIONAL SONIC [DTED]
GRDED   .GAPI  : GAMMA RAY FROM DENSITY LOG [ADJ. TO RESISTIVITY LOG]
GRDRED  .GAPI  : GAMMA RAY (REPEAT) FROM DENSITY LOG
GRNED   .GAPI  : GAMMA RAY FROM SNP LOG [ADJ. TO RESISTIVITY LOG]
GRSED   .GAPI  : GAMMA RAY FROM SONIC LOG [ADJ. TO RESISTIVITY LOG]
GRWS    .GAPI  : GAMMA RAY [GRSED]
ILDED   .OHMM  : DEEP INDUCTION RESISTIVITY FROM RESISTIVITY LOG
ILMED   .OHMM  : MEDIUM INDUCTION RESISTIVITY FROM RESISTIVITY LOG
ILMRED  .OHMM  : MEDIUM INDUCTION RESISTIVITY(REPEAT) FROM RESISTIVITY LOG [ADJ. TO ILDED]
LL8ED   .OHMM  : LATEROLOG 8 RESISTIVITY FROM RESISTIVITY LOG
MRESWS  .OHMM  : MEDIUM RESISTIVITY [ILMED SPL. TO ILMRED @ 15233']
NPOLSWS .V/V   : NEUTRON POROSITY LIMESTONE [SNPLSED]
RHOBED  .G/C3  : BULK DENSITY FROM DENSITY LOG [ADJ. TO RESISTIVITY LOG]
SNPLSED .V/V   : SIDEWALL NEUTRON POROSITY LIMESTONE FROM SNP LOG [ADJ. TO RESISTIVITY LOG]
SPRED   .MV    : SPONTANEOUS POTENTIAL FROM RESISTIVITY LOG
SPRRED  .MV    : SPONTANEOUS POTENTIAL(REPEAT) FROM RESISTIVITY LOG [ADJ. TO ILDED]
SPWS    .MV    : SPONTANEOUS POTENTIAL [BASELINE 0 MV, SPRED SPL. TO SPRRED @ 15223']
SRESWS  .OHMM  : SHALLOW RESISTIVITY [LL8ED]
~Params ----------------------------------------------------
PD  .                     GL : PERMANENT DATUM
EPD .FT                 4345 : ELEVATION PERMANENT DATUM
LMF .                     KB : LOG MEASURED FROM
DAPD.FT                   14 : FEET ABOVE PERMANENT DATUM
EKB .FT                 4359 : KELLY BUSHING
EGL .FT                 4345 : GROUND LEVEL
DATE.               06/04/70 : RUN DATE
RUN .                      3 : RUN NUMBER
DD  .FT                15476 : DEPTH DRILLER
DL  .FT                15473 : DEPTH LOGGER
BLI .FT                15471 : BOTTOM LOG INTERVAL
TLI .FT                14327 : TOP LOG INTERVAL
CBD .FT                12360 : CASING BOTTOM DRILLER
CBL .FT                12355 : CASING BOTTOM LOGGER
BS  .IN                    6 : BIT SIZE
BSD .FT                15476 : BIT SIZE AT DEPTH
DFT .               GEL CHEM : DRILLING FLUID TYPE
DFD .                    8.9 : DRILLING FLUID DENSITY
DFV .                     47 : DRILLING FLUID VISCOSITY
DFPH.                     11 : DRILLING FLUID PH
DFL .                   12.4 : DRILLING FLUID LOSS
MSS .               FLOWLINE : MUD SAMPLE SOURCE
RMS .OHMM               2.62 : RESISTIVITY MUD SAMPLE
TCS .HRS                   4 : TIME CIRCULATED STOPPED
LUN .                  CSU C : LOGGING UNIT NUMBER
LUL .                 364 RD : LOGGING UNIT LOCATION
ENGI.                 MEGSON : RECORDING ENGINEER
WITN.                BRINKER : WITNESSED BY
CLNT.                A2DTECH : CLIENT CODE
ORIG.        2" 5" 10" PRINT : ORIGIN OF DATA
UWI .       100112004213W500 : UNIQUE WELL ID
DICO. A2D Technologies, Inc. : DIGITIZING COMPANY
~Other -----------------------------------------------------
~ASCII -----------------------------------------------------
# ...
 9900.00000    -999.25    -999.25   10.61470   10.61470  136.67360    -999.25    -999.25    -999.25    -999.25    -999.25    7.31670   89.29910   89.29910    -999.25    -999.25    -999.25   78.47750   78.47750    7.31670    7.40970    -999.25    8.41840    7.40970    -999.25    -999.25    -999.25 -657.63890    -999.25   -6.92110    8.41840
 9950.00000    -999.25    -999.25    9.35750    9.35750   98.74980    -999.25    -999.25    -999.25    -999.25    -999.25   10.12660   84.49840   84.49840    -999.25    -999.25    -999.25   92.32640   92.32640   10.12660   10.59120    -999.25   11.84510   10.59120    -999.25    -999.25    -999.25 -656.70540    -999.25   -6.55880   11.84510
 10000.00000    -999.25    -999.25    9.02350    9.02350   77.90770    -999.25    -999.25    -999.25    -999.25    -999.25   12.83570   73.91650   73.91650    -999.25    -999.25    -999.25   76.16290   76.16290   12.83570   10.13990    -999.25   30.98580   10.13990    -999.25    -999.25    -999.25 -654.89870    -999.25   -5.32310   30.98580
 10050.00000    -999.25    -999.25    9.54370    9.54370  122.95690    -999.25    -999.25    -999.25    -999.25    -999.25    8.13290   88.58440   88.58440    -999.25    -999.25    -999.25   89.12550   89.12550    8.13290    8.67340    -999.25   10.62990    8.67340    -999.25    -999.25    -999.25 -654.37570    -999.25   -5.36840   10.62990
 10100.00000    -999.25    -999.25   10.00070   10.00070  129.19230    -999.25    -999.25    -999.25    -999.25    -999.25    7.74040   86.66470   86.66470    -999.25    -999.25    -999.25   86.59960   86.59960    7.74040    8.48690    -999.25    9.87000    8.48690    -999.25    -999.25    -999.25 -651.54250    -999.25   -3.10920    9.87000
 10150.00000    -999.25    -999.25   10.94970   10.94970  119.91560    -999.25    -999.25    -999.25    -999.25    -999.25    8.33920   90.41250   90.41250    -999.25    -999.25    -999.25   80.41880   80.41880    8.33920    7.50470    -999.25   10.48040    7.50470    -999.25    -999.25    -999.25 -650.02540    -999.25   -2.16300   10.48040
 10200.00000    -999.25    -999.25   10.15600   10.15600   95.18190    -999.25    -999.25    -999.25    -999.25    -999.25   10.50620   86.61250   86.61250    -999.25    -999.25    -999.25   78.96170   78.96170   10.50620    9.31070    -999.25   11.61990    9.31070    -999.25    -999.25    -999.25 -649.42060    -999.25   -2.10180   11.61990
 10250.00000    -999.25    -999.25   10.33560   10.33560  150.58430    -999.25    -999.25    -999.25    -999.25    -999.25    6.64080   87.82600   87.82600    -999.25    -999.25    -999.25   82.36590   82.36590    6.64080    8.07950    -999.25    8.97890    8.07950    -999.25    -999.25    -999.25 -655.73780    -999.25   -8.95260    8.97890
 10300.00000    -999.25    -999.25   10.89790   10.89790  182.94080    -999.25    -999.25    -999.25    -999.25    -999.25    5.46630   90.39910   90.39910    -999.25    -999.25    -999.25   75.99580   75.99580    5.46630    5.89870    -999.25    6.36340    5.89870    -999.25    -999.25    -999.25 -652.59280    -999.25   -6.33850    6.36340
 10350.00000    -999.25    -999.25    9.83640    9.83640  142.08780    -999.25    -999.25    -999.25    -999.25    -999.25    7.03790   89.77720   89.77720    -999.25    -999.25    -999.25   93.43510   93.43510    7.03790    6.56130    -999.25    7.98590    6.56130    -999.25    -999.25    -999.25 -661.35770    -999.25  -15.63960    7.98590
 10400.00000    -999.25    -999.25    9.11280    9.11280   95.73230    -999.25    -999.25    -999.25    -999.25    -999.25   10.44580   78.34240   78.34240    -999.25    -999.25    -999.25   68.70680   68.70680   10.44580   10.47550    -999.25   11.54100   10.47550    -999.25    -999.25    -999.25 -676.77700    -999.25  -31.59240   11.54100
 10450.00000    -999.25    -999.25   11.95350   11.95350  174.16440    -999.25    -999.25    -999.25    -999.25    -999.25    5.74170  108.82900  108.82900    -999.25    -999.25    -999.25   73.08230   73.08230    5.74170    5.19190    -999.25    6.15000    5.19190    -999.25    -999.25    -999.25 -648.72790    -999.25   -4.07690    6.15000
 10500.00000    -999.25    -999.25   10.82910   10.82910  187.47310    -999.25    -999.25    -999.25    -999.25    -999.25    5.33410   90.69710   90.69710    -999.25    -999.25    -999.25   77.17920   77.17920    5.33410    5.20260    -999.25    6.76250    5.20260    -999.25    -999.25    -999.25 -653.72250    -999.25   -9.60500    6.76250
 10550.00000    -999.25    -999.25   10.82690   10.82690  179.70580    -999.25    -999.25    -999.25    -999.25    -999.25    5.56470   92.33460   92.33460    -999.25    -999.25    -999.25   69.27400   69.27400    5.56470    5.04640    -999.25    6.43340    5.04640    -999.25    -999.25    -999.25 -659.36910    -999.25  -15.78260    6.43340
 10600.00000    -999.25    -999.25    9.19400    9.19400   87.88350    -999.25    -999.25    -999.25    -999.25    -999.25   11.37870   77.64150   77.64150    -999.25    -999.25    -999.25  145.34770  145.34770   11.37870   13.61200    -999.25   14.42150   13.61200    -999.25    -999.25    -999.25 -661.63990    -999.25  -18.58950   14.42150
 10650.00000    -999.25    -999.25   11.15950   11.15950  291.27340    -999.25    -999.25    -999.25    -999.25    -999.25    3.43320   93.40760   93.40760    -999.25    -999.25    -999.25   80.09570   80.09570    3.43320    3.71380    -999.25    3.83960    3.71380    -999.25    -999.25    -999.25 -694.65710    -999.25  -51.88950    3.83960
 10700.00000   10.76520   12.30330    9.65260    9.65260  122.81390    0.04400    0.04400    1.81670    -999.25    0.52240    8.14240   75.94260   75.94260   80.11100    -999.25   82.04230   75.60610   75.60610    8.14240    9.52860    -999.25    8.23870    9.52860    0.29690    1.81670    0.29690 -692.72290    -999.25  -49.95530    8.23870
 10750.00000    9.93880   10.10010    9.45360    9.45360  141.08750    0.07050    0.07050    1.86440    0.29970    0.49450    7.08780   91.95540   91.95540   62.73750    -999.25   66.55620   63.52790   63.52790    7.08780    6.52600    -999.25    4.65450    6.52600    0.30000    1.86440    0.30000 -652.43430    -999.25  -14.51370    4.65450
 10800.00000    9.47020    9.47030    8.76450    8.76450   90.79010    0.15900    0.15900    2.55190    0.08130    0.09250   11.01440   71.86140   71.86140   47.76190    -999.25   50.91310   48.06330   48.06330   11.01440   12.88930    -999.25   12.10770   12.88930    0.11900    2.55190    0.11900 -643.89170    -999.25  -43.07000   12.10770
 10850.00000    9.09700    9.31670    8.73520    8.73520   78.58730    0.02160    0.02160    2.53510    0.09650    0.10230   12.72470   70.78760   70.78760   72.02230    -999.25   65.46230   67.33570   67.33570   12.72470   14.30670    -999.25   16.43280   14.30670    0.15860    2.53510    0.15860 -637.78680    -999.25  -74.43690   16.43280
 10900.00000   12.20510   12.40340   11.04890   11.04890  122.33310    0.08580    0.08580    2.01530    0.30000    0.40630    8.17440   89.17780   89.17780   70.09600    -999.25   72.13600   67.86970   67.86970    8.17440    7.04880    -999.25   13.31280    7.04880    0.29990    2.01530    0.29990 -612.53250    -999.25  -86.46790   13.31280
 10950.00000    9.72100    9.98140    8.90240    8.90240  107.00800    0.11590    0.11590    2.31450    0.24460    0.23130    9.34510   72.47100   72.47100   74.52310    -999.25   82.52600   74.50120   74.50120    9.34510   10.52130    -999.25   13.53770   10.52130    0.26530    2.31450    0.26530 -521.82890    -999.25  -33.04960   13.53770
 11000.00000   10.11170   10.11870    9.00920    9.00920  103.04070    0.11680    0.11680    2.44360    0.17280    0.15580    9.70490   73.55920   73.55920   73.65630    -999.25   78.25880   73.17090   73.17090    9.70490   10.29470    -999.25    9.25440   10.29470    0.24200    2.44360    0.24200 -508.73730    -999.25  -36.69730    9.25440
 11050.00000    8.96270    9.23320    8.76800    8.76800   72.11450    0.00280    0.00280    2.62370    0.04360    0.05040   13.86740   67.20080   67.20080   57.99730    -999.25   63.02830   56.50910   56.50910   13.86740   15.53370    -999.25   16.87810   15.53370    0.09000    2.62370    0.09000 -590.98790    -999.25 -121.39700   16.87810
