~Version ---------------------------------------------------
VERS.      2.0 : CWLS log ASCII Standard -VERSION 2.0
WRAP.       NO : One line per depth step
CREA. 11/17/17 : LAS Creation Date
~Well ------------------------------------------------------
STRT.FT                            1200.0 : START DEPTH
STOP.FT                           11100.0 : STOP DEPTH
STEP.FT                          50.00000 : STEP LENGTH
NULL.                             -999.25 : NULL VALUE
COMP.        CANADIAN HOMESTEAD OILS LTD. : COMPANY
WELL. HOMESTEAD RB ANTE CREEK 10-20-65-23 : WELL
FLD .                                     : FIELD
LOC .                                     : LOCATION
CTRY.                              CANADA : COUNTRY
SRVC.              Schlumberger of Canada : SERVICE COMPANY
DATE.                         17-Apr-1963 : LOGDATE
PROV.                             Alberta : PROVINCE
UWI .                    100102006523W500 : UNIQUE WELL ID
SLAT.WGS84                       54.64192 : SURFACE LATITUDE
SLON.WGS84                      -117.4369 : SURFACE LONGITUDE
~Curve Information -----------------------------------------
DEPT  .FT    : Depth Curve
CALSED.IN    : CALIPER FROM SONIC LOG
CALWS .IN    : CALIPER [CALSED]
CILDED.MMHO  : DEEP INDUCTION CONDUCTIVITY FROM RESISTIVITY LOG
CONDWS.MMHO  : CONDUCTIVITY [1000/DRESWS]
DRESWS.OHMM  : DEEP RESISTIVITY [1000/CILDED,IF ILDED<3,ILDED]
DT1ED .US/F  : DELTA TIME (3' SPACING-1' PICK UP SPAN) FROM SONIC LOG
DTED  .US/F  : DELTA TIME (3' SPACING-3' PICK UP SPAN) FROM SONIC LOG
DTWS  .US/F  : COMPRESSIONAL SONIC [DTED]
GRSED .GAPI  : GAMMA RAY FROM SONIC LOG
GRWS  .GAPI  : GAMMA RAY [GRSED]
ILDED .OHMM  : DEEP INDUCTION RESISTIVITY FROM RESISTIVITY LOG
SNED  .OHMM  : 16 INCH  SHORT NORMAL FROM RESISTIVITY LOG
SPRED .MV    : SPONTANEOUS POTENTIAL FROM RESISTIVITY LOG
SPWS  .MV    : SPONTANEOUS POTENTIAL [BASELINE 0 MV,SPRED]
SRESWS.OHMM  : SHALLOW RESISTIVITY [SNED]
~Params ----------------------------------------------------
PD  .                     GL : PERMANENT DATUM
EPD .FT                 2567 : ELEVATION PERMANENT DATUM
LMF .                     KB : LOG MEASURED FROM
DAPD.FT                   14 : FEET ABOVE PERMANENT DATUM
EKB .FT                 2581 : KELLY BUSHING
EGL .FT                 2567 : GROUND LEVEL
DATE.               04/17/69 : RUN DATE
RUN .                      1 : RUN NUMBER
DD  .FT                11135 : DEPTH DRILLER
DL  .FT                11136 : DEPTH LOGGER
BLI .FT                11135 : BOTTOM LOG INTERVAL
TLI .FT                 1229 : TOP LOG INTERVAL
CBD .FT                 1228 : CASING BOTTOM DRILLER
CBL .FT                 1229 : CASING BOTTOM LOGGER
BS  .IN                    9 : BIT SIZE
BSD .FT                11135 : BIT SIZE AT DEPTH
DFT .           GEL CHEMICAL : DRILLING FLUID TYPE
DFD .                     10 : DRILLING FLUID DENSITY
DFV .                     95 : DRILLING FLUID VISCOSITY
DFPH.                      8 : DRILLING FLUID PH
DFL .                   13.2 : DRILLING FLUID LOSS
RMS .OHMM                3.5 : RESISTIVITY MUD SAMPLE
MST .DEGF                 50 : MUD SAMPLE TEMPERATURE
RMF .OHMM                3.3 : RESISTIVITY MUD FILTRATE SAMPLE
MFST.DEGF                 54 : MUD FILTRATE SAMPLE TEMPERATURE
RMC .OHMM                3.6 : RESISTIVITY MUD CAKE
MCST.DEGF                 54 : MUD CAKE SAMPLE TEMPERATURE
RMB .OHMM               0.88 : RESISTIVITY MUD AT BHT
TCS .HRS                   6 : TIME CIRCULATED STOPPED
LUN .                DSU A 9 : LOGGING UNIT NUMBER
ENGI.                MCKEOWN : RECORDING ENGINEER
WITN.                   EARL : WITNESSED BY
CLNT.                A2DTECH : CLIENT CODE
ORIG.            2" 5" PRINT : ORIGIN OF DATA
UWI .       100102006523W500 : UNIQUE WELL ID
DICO. A2D Technologies, Inc. : DIGITIZING COMPANY
~Other -----------------------------------------------------
IEL-BCS LOG RUN
ALL IEL DATA FROM TOP TO 4286' FROM SMALL SCALE SECTION
~ASCII -----------------------------------------------------
# ...
 8100.00000   11.13220   11.13220   21.94550   22.44260   44.55810    -999.25   49.85690   49.85690   54.98480   54.98480   44.55810   50.37730  -96.12550  -24.40560   50.37730
 8150.00000   10.05810   10.05810   19.20920   20.11970   49.70260    -999.25   54.02270   54.02270   40.86700   40.86700   49.70260   61.68210 -103.41510  -31.44110   61.68210
 8200.00000    9.12410    9.12410    5.31860    8.60460  116.21690    -999.25   55.41400   55.41400   76.29240   76.29240  116.21690  152.43190  -89.28280  -17.05470  152.43190
 8250.00000    9.15480    9.15480    1.93920    3.98350  251.03560    -999.25   54.11380   54.11380   74.38220   74.38220  251.03560  205.76840  -90.26740  -17.78520  205.76840
 8300.00000    9.29860    9.29860    9.54320   12.47620   80.15230    -999.25   58.68720   58.68720  104.80140  104.80140   80.15230   93.78720  -85.33580  -12.59950   93.78720
 8350.00000    9.14030    9.14030    4.85070    5.87300  170.27200    -999.25   53.32390   53.32390   63.99970   63.99970  170.27200  178.99450  -96.35850  -23.36810  178.99450
 8400.00000    9.15050    9.15050    3.36820    2.80280  356.78310    -999.25   52.52290   52.52290   55.05130   55.05130  356.78310  313.80670  -88.29140  -15.04690  313.80670
 8450.00000    9.18010    9.18010   12.46060   14.19840   70.43050    -999.25   58.69010   58.69010  105.38990  105.38990   70.43050   79.04790  -74.78760   -1.28900   79.04790
 8500.00000    9.14260    9.14260    6.95610    7.12360  140.37860    -999.25   58.29450   58.29450   95.20910   95.20910  140.37860  141.67240  -78.41010   -4.65740  141.67240
 8550.00000    9.33540    9.33540   19.39140   20.06260   49.84390    -999.25   77.67150   77.67150  174.90100  174.90100   49.84390   41.46620  -84.24600  -10.64250   41.46620
 8600.00000    9.55400    9.55400    0.40110    2.21050  452.38630    -999.25   51.60170   51.60170   30.56600   30.56600  452.38630  330.32790 -142.20450  -68.45210  330.32790
 8650.00000    9.48810    9.48810    1.98190    3.33420  299.92500    -999.25   50.68310   50.68310   33.49170   33.49170  299.92500  260.03310 -154.49930  -80.59810  260.03310
 8700.00000    9.68650    9.68650    2.09720    3.04080  328.86050    -999.25   49.55020   49.55020   23.64650   23.64650  328.86050  212.14790 -148.05970  -74.00960  212.14790
 8750.00000    9.63940    9.63940    2.09940    5.80320  172.31970    -999.25   51.78470   51.78470   30.93560   30.93560  172.31970  196.36270 -157.16060  -82.96160  196.36270
 8800.00000    9.46030    9.46030    1.48180    3.53830  282.62540    -999.25   50.45590   50.45590   29.84030   29.84030  282.62540  227.11370 -165.31600  -90.96810  227.11370
 8850.00000    9.34780    9.34780    3.34530    3.98490  250.95020    -999.25   49.84590   49.84590   28.41400   28.41400  250.95020  113.80710 -175.17170 -100.67490  113.80710
 8900.00000    9.61870    9.61870    0.55270    3.59070  278.50100    -999.25   51.05520   51.05520   28.02480   28.02480  278.50100  231.66280 -175.44170 -100.79600  231.66280
 8950.00000    9.70740    9.70740    1.90500    2.66830  374.77230    -999.25   49.13000   49.13000   28.49270   28.49270  374.77230  267.09400 -171.35150  -96.55700  267.09400
 9000.00000    9.69900    9.69900    3.36210    2.51770  397.18840    -999.25   51.63350   51.63350   31.62070   31.62070  397.18840  204.56710 -161.76350  -86.82010  204.56710
 9050.00000    9.60330    9.60330    0.53120    2.47030  404.81680    -999.25   49.10640   49.10640   28.05000   28.05000  404.81680  322.05850 -159.22700  -84.13470  322.05850
 9100.00000    9.44880    9.44880    2.95600    2.82770  353.64850    -999.25   48.89130   48.89130   28.49820   28.49820  353.64850  240.77290 -168.14520  -92.90400  240.77290
 9150.00000    9.40230    9.40230    1.92020    3.71960  268.84910    -999.25   49.59040   49.59040   24.42750   24.42750  268.84910  253.78540 -180.66200 -105.27190  253.78540
 9200.00000    9.37290    9.37290    0.87380    3.25700  307.03000    -999.25   49.71630   49.71630   26.98230   26.98230  307.03000  190.36110 -187.00020 -111.46120  190.36110
 9250.00000    9.42420    9.42420   12.77990   12.91780   77.41240    -999.25   49.98610   49.98610   31.32780   31.32780   77.41240  104.56160 -190.70690 -115.01900  104.56160
 9300.00000    7.23060    7.23060   13.87770   13.89970   71.94380    -999.25   54.74560   54.74560   33.02470   33.02470   71.94380  130.81940 -206.63000 -130.79330  130.81940
 9350.00000    6.93330    6.93330   13.91550   13.66730   73.16710    -999.25   49.56530   49.56530   39.83720   39.83720   73.16710  152.32310 -244.54530 -168.55970  152.32310
 9400.00000    7.09810    7.09810  144.45580  148.32170    6.74210    -999.25   59.30710   59.30710   32.36730   32.36730    6.74210   54.89900 -237.37210 -161.23760   54.89900
 9450.00000    9.68650    9.68650    1.18010    3.19440  313.05220    -999.25   50.71670   50.71670   54.39380   54.39380  313.05220  231.26530 -115.51090  -39.22750  231.26530
 9500.00000    9.36840    9.36840    0.00040    2.25660  443.15340    -999.25   51.42860   51.42860   52.95070   52.95070  443.15340  249.63930  -94.28360  -17.85130  249.63930
 9550.00000    9.39040    9.39040    1.04000    3.18400  314.06620    -999.25   51.53900   51.53900   51.43270   51.43270  314.06620  239.33240 -111.91310  -35.33190  239.33240
 9600.00000    9.19500    9.19500    0.08200    2.34080  427.19880    -999.25   51.68870   51.68870   47.67400   47.67400  427.19880  254.99630 -106.48080  -29.75080  254.99630
 9650.00000    9.21320    9.21320    1.19260    3.07200  325.51680    -999.25   51.55460   51.55460   48.59370   48.59370  325.51680  250.36640  -90.99910  -14.12020  250.36640
 9700.00000    9.21170    9.21170    5.16750    5.79760  172.48420    -999.25   53.08010   53.08010   60.62100   60.62100  172.48420  148.58020  -83.94520   -6.91740  148.58020
 9750.00000    9.22490    9.22490    5.48020    4.49010  222.71300    -999.25   52.21870   52.21870   61.51230   61.51230  222.71300  168.28080  -89.72900  -12.55230  168.28080
 9800.00000    9.31940    9.31940   20.34170   14.37740   69.55370    -999.25   55.91480   55.91480   84.42710   84.42710   69.55370   73.12110  -80.99660   -3.67100   73.12110
 9850.00000    9.62860    9.62860   20.11430   14.15020   70.67060    -999.25   55.54920   55.54920   73.00250   73.00250   70.67060   91.68210  -89.11380   -9.99160   91.68210
 9900.00000    9.67480    9.67480   21.83740   16.59370   60.26380    -999.25   55.59410   55.59410   69.19450   69.19450   60.26380   79.02340  -89.13960   -6.32410   79.02340
 9950.00000    9.83610    9.83610   43.04010   37.97310   26.33440    -999.25   58.13800   58.13800   67.76160   67.76160   26.33440   47.52200  -94.05470   -7.54590   47.52200
 10000.00000   10.35830   10.35830   83.86100   78.80530   12.68950    -999.25   69.93580   69.93580  110.56220  110.56220   12.68950   17.96970 -100.14320  -12.43640   17.96970
 10050.00000   13.32250   13.32250  203.74790  182.39520    5.48260    -999.25   78.38290   78.38290   93.56500   93.56500    5.48260    4.88740 -120.05280  -32.81150    4.88740
 10100.00000   13.51730   13.51730  266.69270  235.21110    4.25150    -999.25   82.76380   82.76380  121.52180  121.52180    4.25150    4.09840 -160.06610  -73.29030    4.09840
 10150.00000   14.58010   14.58010  297.16420  255.71520    3.91060    -999.25   73.02120   73.02120  122.01280  122.01280    3.91060    3.49670 -111.58870  -25.27840    3.49670
 10200.00000   10.56910   10.56910   71.79790   68.70920   14.55410    -999.25   66.29180   66.29180  104.23320  104.23320   14.55410   23.05880  -98.86430  -13.01940   23.05880
 10250.00000   10.87280   10.87280  135.98050  129.32260    7.73260    -999.25   66.59870   66.59870  105.33180  105.33180    7.73260   10.14650  -93.52920   -8.27460   10.14650
 10300.00000   11.80520   11.80520  180.09330  171.10100    5.84450    -999.25   66.05420   66.05420  121.89050  121.89050    5.84450    6.95200 -108.74590  -24.49940    6.95200
 10350.00000   11.43020   11.43020  160.14900  153.78940    6.50240    -999.25   70.85870   70.85870  125.32750  125.32750    6.50240    8.35560 -101.88330  -18.64490    8.35560
