~Version ---------------------------------------------------
VERS.      2.0 : CWLS log ASCII Standard -VERSION 2.0
WRAP.       NO : One line per depth step
CREA. 12/20/17 : LAS Creation Date
~Well ------------------------------------------------------
STRT.FT                   1000.0 : START DEPTH
STOP.FT                   9700.0 : STOP DEPTH
STEP.FT                 50.00000 : STEP LENGTH
NULL.                    -999.25 : NULL VALUE
COMP.     PACIFIC PETROLEUMS LTD : COMPANY
WELL. PACIFIC KAYBOB 12-35-64-19 : WELL
FLD .                            : FIELD
LOC .                            : LOCATION
CTRY.                     CANADA : COUNTRY
SRVC.         LANE-WELLS COMPANY : SERVICE COMPANY
DATE.                15-Nov-1962 : LOGDATE
PROV.                    Alberta : PROVINCE
UWI .           100123506419W500 : UNIQUE WELL ID
SLAT.WGS84              54.58331 : SURFACE LATITUDE
SLON.WGS84             -116.7693 : SURFACE LONGITUDE
~Curve Information -----------------------------------------
DEPT  .FT    : Depth Curve
CALWS .IN    : CALIPER [MCALED]
CILDED.MMHO  : DEEP INDUCTION CONDUCTIVITY FROM RESISTIVITY LOG
CONDWS.MMHO  : CONDUCTIVITY [1000/DRESWS]
DRESWS.OHMM  : DEEP RESISTIVITY [ILDED]
GR1ED .GAPI  : GAMMA RAY FROM CCL LOG
GRED  .GAPI  : GAMMA RAY FROM GR LOG
GRWS  .GAPI  : GAMMA RAY [GRED]
ILDED .OHMM  : DEEP INDUCTION RESISTIVITY FROM RESISTIVITY LOG
MCALED.IN    : MLT CALIPER FROM MICROLOG
SNED  .OHMM  : SHORT NORMAL RESISTIVITY FROM RESISTIVITY LOG
SPRED .MV    : SPONTANEOUS POTENTIAL FROM RESISTIVITY LOG
SPWS  .MV    : SPONTANEOUS POTENTIAL [BASELINE 0MV, SPRED]
SRESWS.OHMM  : SHALLOW RESISTIVITY [SNED]
~Params ----------------------------------------------------
PD  .                     CF : PERMANENT DATUM
EPD .FT                 2448 : ELEVATION PERMANENT DATUM
LMF .                     KB : LOG MEASURED FROM
DAPD.FT                   14 : FEET ABOVE PERMANENT DATUM
DMF .                     KB : DRILLING MEASURED FROM
EKB .FT                 2462 : KELLY BUSHING
EGL .FT               2446.9 : GROUND LEVEL
DATE.               11/15/62 : RUN DATE
RUN .                      1 : RUN NUMBER
DD  .FT                 9710 : DEPTH DRILLER
DL  .FT                 9706 : DEPTH LOGGER
BLI .FT                 9702 : BOTTOM LOG INTERVAL
TLI .FT                  984 : TOP LOG INTERVAL
CS  .IN                9.625 : CASING SIZE
CBD .FT                  970 : CASING BOTTOM DRILLER
CBL .FT                  984 : CASING BOTTOM LOGGER
BS  .IN                8.625 : BIT SIZE
BSD .FT                 9710 : BIT SIZE AT DEPTH
DFT .                MUD GEL : DRILLING FLUID TYPE
DFD .                   10.1 : DRILLING FLUID DENSITY
DFV .                     80 : DRILLING FLUID VISCOSITY
DFPH.                   10.2 : DRILLING FLUID PH
DFL .                    7.2 : DRILLING FLUID LOSS
RMS .OHMM                2.4 : RESISTIVITY MUD SAMPLE
MST .DEGF                 60 : MUD SAMPLE TEMPERATURE
RMF .OHMM                2.2 : RESISTIVITY MUD FILTRATE SAMPLE
MFST.DEGF                 58 : MUD FILTRATE SAMPLE TEMPERATURE
RMC .OHMM                2.4 : RESISTIVITY MUD CAKE
MCST.DEGF                 56 : MUD CAKE SAMPLE TEMPERATURE
MFSS.                   MEAS : MUD FILTRATE SAMPLE SOURCE
MCSS.                   MEAS : MUD CAKE SAMPLE SOURCE
RMB .OHMM               0.79 : RESISTIVITY MUD AT BHT
TCS .HRS                   4 : TIME CIRCULATED STOPPED
LUN .                   8035 : LOGGING UNIT NUMBER
LUL .                    EDM : LOGGING UNIT LOCATION
ENGI.          VASICEK BLAND : RECORDING ENGINEER
WITN.                    GEE : WITNESSED BY
CLNT.                A2DTECH : CLIENT CODE
ORIG.            2" 5" PRINT : ORIGIN OF DATA
UWI .       100123506419W500 : UNIQUE WELL ID
DICO. A2D Technologies, Inc. : DIGITIZING COMPANY
~Other -----------------------------------------------------
~ASCII -----------------------------------------------------
# ...
 6200.00000   10.98500   24.73830   20.21570   49.46650    -999.25    -999.25    -999.25   49.46650   10.98500  104.35630 -117.71600  -55.82240  104.35630
 6250.00000    9.80320   75.48360   77.47790   12.90690    -999.25    -999.25    -999.25   12.90690    9.80320   32.19460 -148.14030  -87.15980   32.19460
 6300.00000    9.48510   35.74970   31.60490   31.64070    -999.25    -999.25    -999.25   31.64070    9.48510   63.44580 -106.04990  -45.98260   63.44580
 6350.00000   10.01700   37.58330   35.39300   28.25420    -999.25    -999.25    -999.25   28.25420   10.01700   69.32370  -94.87710  -35.72900   69.32370
 6400.00000    9.21710   31.26560   28.07100   35.62390    -999.25    -999.25    -999.25   35.62390    9.21710  100.45320 -126.71330  -68.47840  100.45320
 6450.00000    9.69680   39.62720   37.31680   26.79760    -999.25    -999.25    -999.25   26.79760    9.69680  108.43690 -156.07270  -98.75690  108.43690
 6500.00000   10.30440   32.87250   28.71170   34.82900    -999.25    -999.25    -999.25   34.82900   10.30440  118.53520 -176.56840 -120.16580  118.53520
 6550.00000    9.27640  149.12140  125.50200    7.96800    -999.25    -999.25    -999.25    7.96800    9.27640   11.45150  -88.14650  -32.65710   11.45150
 6600.00000    9.16000  202.66940  153.18390    6.52810    -999.25    -999.25    -999.25    6.52810    9.16000   11.63640  -97.97280  -43.40260   11.63640
 6650.00000    9.75300  392.96680  215.94540    4.63080    -999.25    -999.25    -999.25    4.63080    9.75300    5.24880  -82.63920  -28.98220    5.24880
 6700.00000    9.12590   27.46650   27.56320   36.28030    -999.25    -999.25    -999.25   36.28030    9.12590   75.71470  -63.53510  -10.79730   75.71470
 6750.00000    9.91820   69.90790   61.03180   16.38490    -999.25    -999.25    -999.25   16.38490    9.91820   32.51940  -57.59670   -5.77210   32.51940
 6800.00000    8.74940   36.96020   34.22860   29.21530    -999.25    -999.25    -999.25   29.21530    8.74940   64.55030 -113.28900  -61.40770   64.55030
 6850.00000    8.74430   17.96940   13.56980   73.69310    -999.25    -999.25    -999.25   73.69310    8.74430  113.44230 -125.74640  -73.75960  113.44230
 6900.00000    8.83590   17.59050   12.90530   77.48770    -999.25    -999.25    -999.25   77.48770    8.83590  145.74260 -104.20990  -52.11840  145.74260
 6950.00000    8.98310   15.82910   11.52500   86.76790    -999.25    -999.25    -999.25   86.76790    8.98310  138.47700  -65.51940  -13.32240  138.47700
 7000.00000    8.89770   13.72460    9.17960  108.93710    -999.25    -999.25    -999.25  108.93710    8.89770  184.20920  -83.09120  -30.78940  184.20920
 7050.00000    8.70850   24.36520   23.33680   42.85080    -999.25    -999.25    -999.25   42.85080    8.70850   73.53750  -78.94940  -26.54290   73.53750
 7100.00000    8.71810   26.46200   23.85660   41.91710    -999.25    -999.25    -999.25   41.91710    8.71810   64.99000  -81.84010  -29.32810   64.99000
 7150.00000    8.79440   42.18180   38.20850   26.17220    -999.25    -999.25    -999.25   26.17220    8.79440   35.82670 -116.37220  -63.75540   35.82670
 7200.00000    8.79370   12.48970    8.40660  118.95480    -999.25    -999.25    -999.25  118.95480    8.79370  138.80260 -149.93800  -97.59060  138.80260
 7250.00000    8.91790    7.65630    2.10030  476.12190    -999.25    -999.25    -999.25  476.12190    8.91790  204.75970 -243.33850 -191.83600  204.75970
 7300.00000    9.03100    7.40400    2.09950  476.30150    -999.25    -999.25    -999.25  476.30150    9.03100  273.75110 -177.17700 -126.51950  273.75110
 7350.00000    9.47640    7.72040    2.09720  476.83040    -999.25    -999.25    -999.25  476.83040    9.47640  245.59980 -178.25630 -128.44930  245.59980
 7400.00000    8.86420    7.75450    2.09760  476.73650    -999.25    -999.25    -999.25  476.73650    8.86420  229.06430 -141.56290  -92.60070  229.06430
 7450.00000    9.38830    4.56440    2.10090  475.99430    -999.25    -999.25    -999.25  475.99430    9.38830  234.28130 -166.68130 -118.56960  234.28130
 7500.00000   10.00500    3.45320    2.09960  476.27140    -999.25    -999.25    -999.25  476.27140   10.00500  250.35600 -145.02160  -97.75480  250.35600
 7550.00000    9.64320    8.39560    2.09440  477.47100    -999.25    -999.25    -999.25  477.47100    9.64320  171.55530 -143.71860  -97.29680  171.55530
 7600.00000    9.33740    7.74190    2.09900  476.41090    -999.25    -999.25    -999.25  476.41090    9.33740  238.17490 -155.43340 -109.86210  238.17490
 7650.00000    8.85780   10.57490    2.14860  465.41280    -999.25    -999.25    -999.25  465.41280    8.85780  116.92140 -171.70750 -126.98100  116.92140
 7700.00000    9.70690    6.75830    2.10540  474.96740    -999.25    -999.25    -999.25  474.96740    9.70690  202.70320 -186.08890 -142.21290  202.70320
 7750.00000    9.19730    5.76830    2.10280  475.56230    -999.25    -999.25    -999.25  475.56230    9.19730  171.63150  -90.07820  -47.04720  171.63150
 7800.00000    8.76090   27.35540   27.09690   36.90460    -999.25    -999.25    -999.25   36.90460    8.76090   90.72580 -171.18780 -129.00170   90.72580
 7850.00000    8.14220  158.92700  144.05280    6.94190    -999.25    -999.25    -999.25    6.94190    8.14220   41.74540  -81.22070  -39.88510   41.74540
 7900.00000    8.76910   14.32860    9.76250  102.43330    -999.25    -999.25    -999.25  102.43330    8.76910  122.09240 -151.75320 -111.26240  122.09240
 7950.00000    8.66240   36.37740   34.40320   29.06710    -999.25    -999.25    -999.25   29.06710    8.66240   77.48250 -112.65920  -73.01890   77.48250
 8000.00000    8.33440   20.78430   15.52780   64.40080    -999.25    -999.25    -999.25   64.40080    8.33440  113.30860 -208.02820 -169.23290  113.30860
 8050.00000    8.67990   32.10860   30.44710   32.84390    -999.25    -999.25    -999.25   32.84390    8.67990   42.17780 -107.61530  -69.66490   42.17780
 8100.00000    8.90100    8.16050    2.12050  471.58530    -999.25    -999.25    -999.25  471.58530    8.90100  226.36100 -203.09950 -165.99960  226.36100
 8150.00000    8.77990   11.62170    5.87630  170.17410    -999.25    -999.25    -999.25  170.17410    8.77990  110.49490 -227.78690 -191.53190  110.49490
 8200.00000    8.95590   12.02120    9.30060  107.51980    -999.25    -999.25    -999.25  107.51980    8.95590   76.90120 -251.01740 -215.61280   76.90120
 8250.00000    8.90240    8.17540    2.10000  476.19950    -999.25    -999.25    -999.25  476.19950    8.90240  130.62180 -171.75110 -137.19150  130.62180
 8300.00000    8.76830   23.14170   22.43030   44.58250    -999.25    -999.25    -999.25   44.58250    8.76830   37.75370 -169.70400 -135.98930   37.75370
 8350.00000    8.61210   45.22600   44.77720   22.33280    -999.25    -999.25    -999.25   22.33280    8.61210   31.61230  -58.17630  -25.31210   31.61230
 8400.00000    8.45100   23.13050   22.22660   44.99120    -999.25    -999.25    -999.25   44.99120    8.45100   47.39640 -135.14540 -103.12610   47.39640
 8450.00000    8.52610   38.12850   25.92830   38.56790    -999.25    -999.25    -999.25   38.56790    8.52610   40.43420  -68.11550  -36.94670   40.43420
 8500.00000   13.54530  181.48680  155.27950    6.44000    -999.25    -999.25    -999.25    6.44000   13.54530    7.00440  -98.30120  -68.25480    7.00440
 8550.00000   13.71840  165.26990  148.66350    6.72660    -999.25    -999.25    -999.25    6.72660   13.71840    7.28940  -87.70640  -59.12530    7.28940
 8600.00000    9.38890   89.74450   88.95930   11.24110    -999.25    -999.25    -999.25   11.24110    9.38890   12.89230  -95.75190  -68.64570   12.89230
 8650.00000   15.04750  160.51400  146.55240    6.82350    -999.25    -999.25    -999.25    6.82350   15.04750    7.40950  -72.13040  -46.48960    7.40950
 8700.00000    -999.25  184.57450  162.10080    6.16900    -999.25    -999.25    -999.25    6.16900    -999.25    6.52880  -58.30300  -34.13720    6.52880
 8750.00000    -999.25  162.14160  145.14840    6.88950    -999.25    -999.25    -999.25    6.88950    -999.25    7.27260  -67.92930  -42.99010    7.27260
