~Version ---------------------------------------------------
VERS.      2.0 : CWLS log ASCII Standard -VERSION 2.0
WRAP.       NO : One line per depth step
CREA. 08/04/17 : LAS Creation Date
~Well ------------------------------------------------------
STRT.FT                       1050.0 : START DEPTH
STOP.FT                      11000.0 : STOP DEPTH
STEP.FT                     50.00000 : STEP LENGTH
NULL.                        -999.25 : NULL VALUE
COMP.           PETROFINA CANADA LTD : COMPANY
WELL. FINA AMOCO HB GROAT 10-9-58-16 : WELL
FLD .                             WC : FIELD
LOC .                                : LOCATION
CTRY.                         CANADA : COUNTRY
SRVC.         Schlumberger of Canada : SERVICE COMPANY
DATE.                    08-Apr-1977 : LOGDATE
PROV.                        Alberta : PROVINCE
UWI .               100100905816W500 : UNIQUE WELL ID
SLAT.WGS84                  54.00097 : SURFACE LATITUDE
SLON.WGS84                 -116.3132 : SURFACE LONGITUDE
~Curve Information -----------------------------------------
DEPT    .FT    : Depth Curve
CALDED  .IN    : CALIPER FROM COMPENSATED NEUTRON FORMATION DENSITY LOG
CALSED  .IN    : CALIPER FROM BOREHOLE COMPENSATED SONIC LOG [ADJ. TO ILDED/CALDED]
CALWS   .IN    : CALIPER [CALSED SPL. TO CALDED @ 6213']
CONDWS  .MMHO  : CONDUCTIVITY [1000/DRESWS]
DCORED  .G/C3  : DENSITY CORRECTION FROM COMPENSATED NEUTRON FORMATION DENSITY LOG
DCORWS  .G/C3  : DENSITY CORRECTION [DCORED]
DENWS   .G/C3  : FORMATION BULK DENSITY [RHOBED]
DPHILSED.V/V   : DENSITY POROSITY LIMESTONE [M=2.71 F=1.0] FROM COMPENSATED NEUTRON FORMATION DENSITY LOG [ADJ. TO RHOBED]
DPHISSED.V/V   : DENSITY POROSITY SANDSTONE [M=2.65 F=1.0] FROM COMPENSATED NEUTRON FORMATION DENSITY LOG [ADJ. TO RHOBED]
DPOLSWS .V/V   : DENSITY POROSITY LIMESTONE [M=2.71 F=1.0 CALCULATED FROM DENWS]
DRESWS  .OHMM  : DEEP RESISTIVITY [ILDED]
DTED    .US/F  : DELTA-T (INTERVAL TRANSIT TIME)  FROM BOREHOLE COMPENSATED SONIC LOG [ADJ. TO ILDED]
DTWS    .US/F  : COMPRESSIONAL SONIC [DTED]
GRDED   .GAPI  : GAMMA RAY FROM COMPENSATED NEUTRON FORMATION DENSITY LOG
GRSED   .GAPI  : GAMMA RAY  FROM BOREHOLE COMPENSATED SONIC LOG [GRSED IN CASING FROM 1045 - 1158.5'] [ADJ. TO ILDED]
GRWS    .GAPI  : GAMMA RAY [GRSED]
ILDED   .OHMM  : DEEP INDUCTION RESISTIVITY  FROM DUAL INDUCTION-LATEROLOG
ILMED   .OHMM  : MEDIUM INDUCTION RESISTIVITY  FROM DUAL INDUCTION-LATEROLOG
LL8ED   .OHMM  : LATEROLOG 8 FROM DUAL INDUCTION-LATEROLOG
MRESWS  .OHMM  : MEDIUM RESISTIVITY [ILMED]
NPHILSED.V/V   : NEUTRON POROSITY LIMESTONE FROM COMPENSATED NEUTRON FORMATION DENSITY LOG [ADJ. TO RHOBED]
NPHISSED.V/V   : NEUTRON POROSITY SANDSTONE FROM COMPENSATED NEUTRON FORMATION DENSITY LOG [ADJ. TO RHOBED]
NPOLSWS .V/V   : NEUTRON POROSITY LIMESTONE [NPHISSED MATRIX CONVERTED TO LIMESTONE AND SPL. TO NPHILSED FROM 2478 - 7249']
RHOBED  .G/C3  : FORMATION BULK DENSITY FROM COMPENSATED NEUTRON FORMATION DENSITY LOG
SPRED   .MV    : SPONTANEOUS POTENTIAL FROM DUAL INDUCTION-LATEROLOG
SPWS    .MV    : SPONTANEOUS POTENTIAL [BASELINE 0 MV, SPRED]
SRESWS  .OHMM  : SHALLOW RESISTIVITY [LL8ED]
~Params ----------------------------------------------------
PD  .                     GL : PERMANENT DATUM
EPD .FT               3310.2 : ELEVATION PERMANENT DATUM
LMF .                     KB : LOG MEASURED FROM
DAPD.FT                 13.5 : FEET ABOVE PERMANENT DATUM
EKB .FT                 3324 : KELLY BUSHING
EGL .FT               3310.2 : GROUND LEVEL
DATE.               04/08/77 : RUN DATE
RUN .                      1 : RUN NUMBER
DD  .FT                11000 : DEPTH DRILLER
DL  .FT                11005 : DEPTH LOGGER
BLI .FT                10999 : BOTTOM LOG INTERVAL
TLI .FT                 1159 : TOP LOG INTERVAL
CBD .FT                 1159 : CASING BOTTOM DRILLER
CBL .FT                 1159 : CASING BOTTOM LOGGER
BS  .IN                 8.75 : BIT SIZE
BSD .FT                11000 : BIT SIZE AT DEPTH
DFT .                    GEL : DRILLING FLUID TYPE
DFD .                    9.2 : DRILLING FLUID DENSITY
DFV .                    245 : DRILLING FLUID VISCOSITY
DFPH.                     10 : DRILLING FLUID PH
DFL .                    7.2 : DRILLING FLUID LOSS
MSS .               FLOWLINE : MUD SAMPLE SOURCE
RMS .OHMM               2.52 : RESISTIVITY MUD SAMPLE
MST .DEGF                 56 : MUD SAMPLE TEMPERATURE
RMF .OHMM               2.35 : RESISTIVITY MUD FILTRATE SAMPLE
MFST.DEGF                 50 : MUD FILTRATE SAMPLE TEMPERATURE
TCS .HRS                 3.5 : TIME CIRCULATED STOPPED
LUN .                   7809 : LOGGING UNIT NUMBER
LUL .                    EDM : LOGGING UNIT LOCATION
ENGI.               BERNISKY : RECORDING ENGINEER
WITN.                 HALKOW : WITNESSED BY
CLNT.                A2DTECH : CLIENT CODE
ORIG.            2" 5" PRINT : ORIGIN OF DATA
UWI .       100100905816W500 : UNIQUE WELL ID
DICO. A2D Technologies, Inc. : DIGITIZING COMPANY
~Other -----------------------------------------------------
~ASCII -----------------------------------------------------
# ...
 6250.00000    9.59940    9.26330    9.59940   55.98670    0.10520    0.10520    2.47330    -999.25    0.09520    0.13840   17.86140   71.44730   71.44730   55.89940   53.25140   53.25140   17.86140   15.80450   21.82080   15.80450    -999.25    0.17940    0.13630    2.47330  -86.27320  -31.65520   21.82080
 6300.00000   10.85730    9.68010   10.85730   98.51630    -999.25    -999.25    2.30910    -999.25    0.21560    0.23440   10.15060   76.29370   76.29370   87.66050   88.80840   88.80840   10.15060    9.32840   11.60890    9.32840    -999.25    0.23370    0.18990    2.30910  -59.37280   -5.01770   11.60890
 6350.00000    9.34540    9.21950    9.34540   81.85780    0.02670    0.02670    2.57500    -999.25    0.04010    0.07890   12.21630   67.45940   67.45940   42.92520   44.51330   44.51330   12.21630   13.58960   15.78180   13.58960    -999.25    0.20670    0.16310    2.57500  -72.57630  -18.48410   15.78180
 6400.00000    8.49790    8.39140    8.49790   62.58490    0.13120    0.13120    2.45490    -999.25    0.13600    0.14920   15.97830   77.26780   77.26780   37.93120   39.11280   39.11280   15.97830   18.16910   18.10210   18.16910    -999.25    0.24840    0.20450    2.45490 -106.29970  -52.47050   18.10210
 6450.00000    9.36600    9.89160    9.36600  111.79900    0.19330    0.19330    2.18530    -999.25    0.29730    0.30680    8.99550  104.71000  104.71000   84.78200   82.52780   82.52780    8.99550    8.86090   14.65040    8.86090    -999.25    0.40900    0.36640    2.18530  -61.70280   -8.13770   14.65040
 6500.00000    9.77690    9.76940    9.77690  114.01340    0.02690    0.02690    2.56110    -999.25    0.05500    0.08710    8.77090   70.83310   70.83310   69.41240   64.35350   64.35350    8.77090    9.01770    9.28730    9.01770    -999.25    0.22830    0.18460    2.56110  -61.58310   -8.27970    9.28730
 6550.00000    9.52640    9.64010    9.52640   88.61560    0.01210    0.01210    2.61480    -999.25    0.02590    0.05570   11.28470   68.07080   68.07080   83.20130   80.37460   80.37460   11.28470   12.78880   16.08640   12.78880    -999.25    0.23900    0.19520    2.61480  -68.16860  -15.12810   16.08640
 6600.00000    9.69870    9.50390    9.69870   72.16880    0.01230    0.01230    2.54070    -999.25    0.07140    0.09900   13.85640   68.15110   68.15110   64.03590   61.42120   61.42120   13.85640   15.60170   19.37380   15.60170    -999.25    0.21850    0.17480    2.54070  -87.98220  -35.20460   19.37380
 6650.00000   10.27800   10.00510   10.27800   81.22290    0.00410    0.00410    2.50660    -999.25    0.08150    0.11890   12.31180   71.30890   71.30890   84.32840   84.20840   84.20840   12.31180   13.20890   18.60190   13.20890    -999.25    0.25550    0.21160    2.50660  -56.70540   -4.19070   18.60190
 6700.00000   10.46920    9.94470   10.46920  113.09080    0.04740    0.04740    2.47070    -999.25    0.10650    0.13990    8.84530   75.32170   75.32170   68.77970   65.32120   65.32120    8.84530    9.99760   12.49390    9.99760    -999.25    0.28120    0.23720    2.47070  -65.13320  -12.88280   12.49390
 6750.00000   10.54310   10.01830   10.54310  112.98290    0.07710    0.07710    2.54090    -999.25    0.06910    0.09890    8.85090   75.66730   75.66730   64.03680   54.13140   54.13140    8.85090    9.23060   13.03430    9.23060    -999.25    0.23000    0.18620    2.54090  -60.60780   -8.61890   13.03430
 6800.00000    9.55810    9.77730    9.55810  132.90270    0.08690    0.08690    2.75110    -999.25   -0.07080   -0.02400    7.52430   69.90430   69.90430  121.22140  121.82600  121.82600    7.52430    8.02160   10.87980    8.02160    -999.25    0.30540    0.26140    2.75110  -63.88790  -12.16190   10.87980
 6850.00000    9.67210    9.42650    9.67210   88.46270    0.10820    0.10820    2.71030    -999.25   -0.02290   -0.00020   11.30420   70.55690   70.55690   83.73950   75.23050   75.23050   11.30420   12.98200   19.26830   12.98200    -999.25    0.20570    0.16220    2.71030  -66.56620  -15.10320   19.26830
 6900.00000    9.20240    9.22640    9.20240   57.93040    0.11620    0.11620    2.75380    -999.25   -0.04460   -0.02560   17.26210   58.51060   58.51060   53.23390   53.03490   53.03490   17.26210   23.03400   27.55020   23.03400    -999.25    0.14270    0.10030    2.75380  -60.22520   -9.02510   27.55020
 6950.00000   10.49930    9.96550   10.49930  119.10890    0.26420    0.26420    2.49860    -999.25    0.08070    0.12370    8.39580   72.11820   72.11820   82.67760   81.13390   81.13390    8.39580    9.44370   12.08410    9.44370    -999.25    0.25920    0.21530    2.49860  -59.75920   -8.82330   12.08410
 7000.00000    9.51190   10.46750    9.51190   79.25630    0.11240    0.11240    2.69430    -999.25   -0.03910    0.00920   12.61730   71.47550   71.47550   97.19570   84.91300   84.91300   12.61730   13.25920   20.23370   13.25920    -999.25    0.27850    0.23450    2.69430  -55.21870   -4.54440   20.23370
 7050.00000    9.05040    9.14610    9.05040   28.15870    0.09280    0.09280    2.72220    -999.25   -0.03490   -0.00710   35.51300   57.77300   57.77300   58.62400   56.95620   56.95620   35.51300   49.92730   49.31470   49.92730    -999.25    0.19580    0.15240    2.72220  -61.51520  -11.10380   49.31470
 7100.00000   10.63350   10.05740   10.63350   89.63790    0.24770    0.24770    2.42360    -999.25    0.14840    0.16750   11.15600   77.65390   77.65390   96.91840   96.66870   96.66870   11.15600   12.21620   15.20510   12.21620    -999.25    0.39490    0.35190    2.42360  -58.79160   -8.64310   15.20510
 7150.00000    9.72780    9.40240    9.72780   93.53400    0.26090    0.26090    2.55050    -999.25    0.08750    0.09330   10.69130   68.31370   68.31370   71.86460   73.05510   73.05510   10.69130   13.69980   21.27670   13.69980    -999.25    0.26110    0.21710    2.55050  -96.63020  -46.74460   21.27670
 7200.00000   11.42980    9.67290   11.42980  115.00990    0.26170    0.26170    2.44440    -999.25    0.12580    0.15530    8.69550   74.84470   74.84470   97.68720   99.73290   99.73290    8.69550    9.58660   11.28140    9.58660    -999.25    0.34400    0.30040    2.44440  -53.59860   -4.18420   11.28140
 7250.00000   13.48700   11.34050   13.48700  252.84450    0.26250    0.26250    2.19010    0.31120    -999.25    0.30400    3.95500   77.96540   77.96540   93.00180   97.72310   97.72310    3.95500    4.23200    5.74030    4.23200    0.38830    -999.25    0.38830    2.19010  -55.10960   -6.39970    5.74030
 7300.00000    8.40440    8.35130    8.40440  142.56790    0.15280    0.15280    2.48910    0.13120    -999.25    0.12920    7.01420   64.13550   64.13550   45.24030   42.77440   42.77440    7.01420   11.56550   46.82850   11.56550    0.14430    -999.25    0.14430    2.48910 -170.91320 -122.91130   46.82850
 7350.00000    8.86310    8.82080    8.86310    5.75060    0.07910    0.07910    2.66900    0.02340    -999.25    0.02400  173.89470   53.64880   53.64880   18.78240   22.02440   22.02440  173.89470  530.25050  753.43430  530.25050    0.01830    -999.25    0.01830    2.66900  -92.21010  -44.91620  753.43430
 7400.00000    8.64520    8.85420    8.64520   15.41170    0.03640    0.03640    2.56310    0.08200    -999.25    0.08590   64.88560   54.41510   54.41510   10.83000   12.47440   12.47440   64.88560   83.37390  148.69500   83.37390    0.04160    -999.25    0.04160    2.56310 -114.26840  -67.68250  148.69500
 7450.00000    9.04740    8.85180    9.04740    2.13790    0.02390    0.02390    2.61310    0.05260    -999.25    0.05670  474.76410   55.35820   55.35820   55.55810   53.02150   53.02150  474.76410  399.29640  938.99740  399.29640    0.08060    -999.25    0.08060    2.61310  -96.35650  -50.48210  938.99740
 7500.00000    9.25690    9.08230    9.25690   95.03990    0.00320    0.00320    2.56280    0.09130    -999.25    0.08610   10.52190   63.49340   63.49340   89.03170   86.98520   86.98520   10.52190   11.66020   15.05850   11.66020    0.10070    -999.25    0.10070    2.56280  -82.41290  -37.24300   15.05850
