~Version ---------------------------------------------------
VERS.      2.0 : CWLS log ASCII Standard -VERSION 2.0
WRAP.       NO : One line per depth step
CREA. 08/31/13 : LAS Creation Date
~Well ------------------------------------------------------
STRT.M                           300.0 : START DEPTH
STOP.M                          2850.0 : STOP DEPTH
STEP.M                        50.00000 : STEP LENGTH
NULL.                          -999.25 : NULL VALUE
COMP.          PETROREP CANADA LIMITED : COMPANY
WELL. PETROREP ET AL SUNSET 4-35-69-19 : WELL
FLD .                                  : FIELD
LOC .                                  : LOCATION
CTRY.                           CANADA : COUNTRY
SRVC.                          Unknown : SERVICE COMPANY
DATE.                      05-May-1981 : LOGDATE
PROV.                          Alberta : PROVINCE
UWI .                 100043506919W500 : UNIQUE WELL ID
SLAT.WGS84                    55.01115 : SURFACE LATITUDE
SLON.WGS84                    -116.792 : SURFACE LONGITUDE
~Curve Information -----------------------------------------
DEPT    .M      : DEPTH METER
CALDED  .MM     : CALIPER FROM DENSITY LOG [ADJ. WITH RESISTIVITY LOG]
CALSED  .MM     : CALIPER FROM SONIC LOG
CALWS   .MM     : CALIPER [CALSED]
CONDWS  .MMHO   : CONDUCTIVITY [1000/DRESWS]
DCORWS  .KG/M3  : DENSITY CORRECTION [DRHOED]
DENWS   .KG/M3  : FORMATION BULK DENSITY [CALC. FROM DPOLSWS, M= 2710, F= 1000]
DPHILSED.V/V    : DENSITY POROSITY LIMESTONE [M= 2710, F= 1000] FROM DENSITY LOG [ADJ. WITH RESISTIVITY LOG]
DPHISSED.V/V    : DENSITY POROSITY SANDSTONE [M= 2650, F= 1000] FROM DENSITY LOG [ADJ. WITH RESISTIVITY LOG]
DPOLSWS .V/V    : DENSITY POROSITY LIMESTONE [DPHISSED CONVERTED TO LIMESTONE MATRIX, M= 2710, F= 1000, SPL. TO DPHILSED @ 1450.3']
DRESWS  .OHMM   : DEEP RESISTIVITY [ILDED]
DRHOED  .KG/M3  : BULK DENSITY CORRECTION FROM DENSITY LOG [ADJ. WITH RESISTIVITY LOG]
DTED    .US/M   : SONIC INTERVAL TRANSIT TIME FROM SONIC LOG
DTWS    .US/M   : COMPRESSIONAL SONIC [DTED]
GRDED   .GAPI   : GAMMA RAY FROM DENSITY LOG [ADJ. WITH RESISTIVITY LOG]
GRSED   .GAPI   : GAMMA RAY FROM SONIC LOG
GRWS    .GAPI   : GAMMA RAY [GRSED]
ILDED   .OHMM   : DEEP INDUCTION RESISTIVITY FROM RESISTIVITY LOG
ILMED   .OHMM   : INDUCTION MEDIUM RESISTIVITY FROM RESISTIVITY LOG
MRESWS  .OHMM   : MEDIUM RESISTIVITY [ILMED]
NPHILSED.V/V    : NEUTRON POROSITY LIMESTONE FROM DENSITY LOG [ADJ. WITH RESISTIVITY LOG]
NPHISSED.V/V    : NEUTRON POROSITY SANDSTONE FROM DENSITY LOG [ADJ. WITH RESISTIVITY LOG]
NPOLSWS .V/V    : NEUTRON POROSITY LIMESTONE [NPHISSED MATRIX CONVERSION FOR LIMESTONE, SPL. TO NPHILSED @ 1451.9' ]
RHOBED  .KG/M3  : BULK DENSITY FROM DENSITY LOG [ADJ. WITH RESISTIVITY LOG]
SFLED   .OHMM   : SHALLOW FOCUSED LOG FROM RESISTIVITY LOG
SPRED   .MV     : SPONTANEOUS POTENTIAL FROM RESISTIVITY LOG
SPWS    .MV     : SPONTANEOUS POTENTIAL [BASELINE 0 MV, SPRED]
SRESWS  .OHMM   : SHALLOW RESISTIVITY [SFLED]
~Params ----------------------------------------------------
PD  .                         GL : PERMANENT DATUM
EPD .M                     832.7 : ELEVATION PERMANENT DATUM
LMF .                         KB : LOG MEASURED FROM
DAPD.M                       6.7 : FEET ABOVE PERMANENT DATUM
DMF .                         KB : DRILLING MEASURED FROM
EKB .M                     839.4 : KELLY BUSHING
EGL .M                     832.7 : GROUND LEVEL
DATE.                   05/05/81 : RUN DATE
RUN .                          1 : RUN NUMBER
DD  .M                      2860 : DEPTH DRILLER
DL  .M                      2861 : DEPTH LOGGER
BLI .M                      2860 : BOTTOM LOG INTERVAL
TLI .M                       298 : TOP LOG INTERVAL
CS  .MM                    244.5 : CASING SIZE
CBD .M                       298 : CASING BOTTOM DRILLER
CBL .M                       298 : CASING BOTTOM LOGGER
BS  .MM                      222 : BIT SIZE
BSD .M                      2860 : BIT SIZE AT DEPTH
DFT .                   GEL CHEM : DRILLING FLUID TYPE
DFD .                       1140 : DRILLING FLUID DENSITY
DFV .                         91 : DRILLING FLUID VISCOSITY
DFPH.                         10 : DRILLING FLUID PH
DFL .                        8.2 : DRILLING FLUID LOSS
MSS .                CIRCULATION : MUD SAMPLE SOURCE
RMS .OHMM                   1.81 : RESISTIVITY MUD SAMPLE
MST .DEGC                     11 : MUD SAMPLE TEMPERATURE
RMF .OHMM                   1.51 : RESISTIVITY MUD FILTRATE SAMPLE
MFST.DEGC                     14 : MUD FILTRATE SAMPLE TEMPERATURE
MFSS.                 WATER LOSS : MUD FILTRATE SAMPLE SOURCE
MCSS.                 WATER LOSS : MUD CAKE SAMPLE SOURCE
RMB .OHMM                   0.57 : RESISTIVITY MUD AT BHT
TCS .HRS                     300 : TIME CIRCULATED STOPPED
TLAB.HRS                    1100 : TIME LOGGER AT BOTTOM
LUN .                       1301 : LOGGING UNIT NUMBER
LUL .                        EDM : LOGGING UNIT LOCATION
ENGI.                  BRANSTROM : RECORDING ENGINEER
WITN.                     TUCKER : WITNESSED BY
CLNT.                    A2DTECH : CLIENT CODE
ORIG. 6.5"/100M 16.5"/100M PRINT : ORIGIN OF DATA
UWI .           100043506919W500 : UNIQUE WELL ID
DICO.     A2D Technologies, Inc. : DIGITIZING COMPANY
~Other -----------------------------------------------------
DIL-CNFD & BHC LOG RAN
~ASCII -----------------------------------------------------
# ...
 1600.00000  209.47540  205.92750  205.92750  439.17440  117.48680 2374.11840    0.20660    0.16390    0.20660    2.27700  117.48680  242.46310  242.46310   33.07150   21.84760   21.84760    2.27700    4.14890    4.14890    0.25030    0.27970    0.25030 2374.11840   16.11900 -156.86030 -112.71670   16.11900
 1650.00000  247.72380  240.24290  240.24290   12.21270   -7.21530 2682.72090    0.00540    -999.25    0.00540   81.88170   -7.21530  162.36800  162.36800   32.75990   20.98570   20.98570   81.88170  114.96690  114.96690    0.00990    -999.25    0.00990 2682.72090  331.22440  -74.48350  -38.65630  331.22440
 1700.00000  255.81330  259.33870  259.33870   80.95330   16.25230 2708.99680    0.00790    -999.25    0.00790   12.35280   16.25230  213.72140  213.72140  119.13570   68.52690   68.52690   12.35280   13.30900   13.30900    0.06640    -999.25    0.06200 2708.99680   14.62270  -32.91930   -4.16710   14.62270
 1750.00000  240.58450  249.58350  249.58350  476.62170   83.91470 2672.22220    0.03290    -999.25    0.03290    2.09810   83.91470  182.90610  182.90610   29.39850   21.88400   21.88400    2.09810    2.69370    2.69370    0.11130    -999.25    0.08480 2672.22220   28.69550 -127.43170 -100.09980   28.69550
 1800.00000  256.27180  252.16070  252.16070   85.84720   41.28620 2487.62990    0.11620    -999.25    0.11620   11.64860   41.28620  178.48680  178.48680   27.60820   22.40030   22.40030   11.64860   18.70780   18.70780    0.08210    -999.25    0.08210 2487.62990  105.80110 -142.37000 -116.45830  105.80110
 1850.00000  248.13550  257.85080  257.85080  255.91810   30.31610 2718.61230   -0.00550    -999.25   -0.00550    3.90750   30.31610  207.07040  207.07040   92.29890   59.11440   59.11440    3.90750    4.88050    4.88050    0.11090    -999.25    0.11090 2718.61230    7.91360  -74.76860  -50.27710    7.91360
 1900.00000  276.61170  266.70300  266.70300   56.21580  103.47430 2631.15770    0.01880    -999.25    0.01880   17.78860  103.47430  171.59660  171.59660   40.03220   24.50410   24.50410   17.78860   25.43760   25.43760    0.03490    -999.25    0.03490 2631.15770   31.81090  -41.45300  -18.38180   31.81090
 1950.00000  231.43540  234.46300  234.46300   38.04770   22.65760 2720.46920   -0.00990    -999.25   -0.00990   26.28280   22.65760  189.06440  189.06440   74.72260   44.36530   44.36530   26.28280   29.02790   29.02790    0.05450    -999.25    0.05450 2720.46920   33.69780  -28.58090   -7.38630   33.69780
 2000.00000  233.43760  234.85170  234.85170   26.64960    5.12360 2711.84200   -0.00510    -999.25   -0.00510   37.52400    5.12360  182.03380  182.03380   58.17660   31.49800   31.49800   37.52400   43.10620   43.10620    0.03400    -999.25    0.03400 2711.84200   54.01080  -39.00210  -20.89320   54.01080
 2050.00000  234.72970  234.49280  234.49280    8.84750   16.66980 2225.02420    0.28420    -999.25    0.28420  113.02640   16.66980  312.16810  312.16810  300.74510  238.99600  238.99600  113.02640 1890.91350 1890.91350    0.34590    -999.25    0.34590 2225.02420 1373.30750  -33.63820  -18.48920 1373.30750
 2100.00000  263.49090  253.60450  253.60450    7.85680    4.75110 2680.57200    0.01300    -999.25    0.01300  127.27800    4.75110  166.76780  166.76780   24.11690   19.29190   19.29190  127.27800  107.91160  107.91160    0.00060    -999.25    0.00060 2680.57200  139.50890 -110.22260  -90.29030  139.50890
 2150.00000  277.86010  242.68450  242.68450    9.89780   51.91950 2722.46580    0.00180    -999.25    0.00180  101.03300   51.91950  164.90090  164.90090   18.59910   14.81710   14.81710  101.03300  108.29510  108.29510    0.00280    -999.25    0.00280 2722.46580  154.71020 -139.26430 -114.54870  154.71020
 2200.00000  251.09140  243.61050  243.61050   10.41510    3.31990 2713.17240   -0.02030    -999.25   -0.02030   96.01490    3.31990  166.28150  166.28150   19.40510   15.59410   15.59410   96.01490   80.25680   80.25680    0.00450    -999.25    0.00450 2713.17240  107.43490 -131.56950 -102.07060  107.43490
 2250.00000  246.75450  236.38860  236.38860   13.23810   10.57540 2691.23170    0.01360    -999.25    0.01360   75.53950   10.57540  160.89650  160.89650   17.39110   13.59750   13.59750   75.53950   99.62400   99.62400    0.00800    -999.25    0.00800 2691.23170  198.92620 -167.72680 -133.44460  198.92620
 2300.00000  247.18700  236.19330  236.19330  101.74800   43.25120 2652.85690    0.01940    -999.25    0.01940    9.82820   43.25120  167.85190  167.85190   60.63540   36.29630   36.29630    9.82820   24.04160   24.04160    0.03810    -999.25    0.03810 2652.85690   40.24120 -116.17430  -77.10880   40.24120
 2350.00000  238.42200  242.50310  242.50310   15.63460    4.68340 2754.01100   -0.03660    -999.25   -0.03660   63.96090    4.68340  171.02090  171.02090   52.07040   32.52430   32.52430   63.96090   69.04690   69.04690    0.02420    -999.25    0.02420 2754.01100   75.95150  -77.43070  -33.58190   75.95150
 2400.00000  278.64690  255.37060  255.37060   90.20710  101.88100 2659.41430    0.02790    -999.25    0.02790   11.08560  101.88100  212.49630  212.49630   94.98190   53.04800   53.04800   11.08560   11.87460   11.87460    0.14800    -999.25    0.14800 2659.41430   15.52950  -53.44630   -5.02070   15.52950
 2450.00000  375.00010  337.18770  337.18770  271.36310   54.55720 2368.04790    0.20030    -999.25    0.20030    3.68510   54.55720  263.53010  263.53010  155.75470   89.30080   89.30080    3.68510    3.88100    3.88100    0.31480    -999.25    0.31480 2368.04790    4.40630  -68.33880  -23.73340    4.40630
 2500.00000  374.93750  323.87690  323.87690  216.41270  137.34420 2433.76980    0.16720    -999.25    0.16720    4.62080  137.34420  258.20570  258.20570  125.36480   78.57270   78.57270    4.62080    4.84390    4.84390    0.31810    -999.25    0.31810 2433.76980    5.49360  -73.84950  -33.06430    5.49360
 2550.00000  230.49870  233.62060  233.62060  111.33870   50.73390 2747.98800   -0.01430    -999.25   -0.01430    8.98160   50.73390  217.82210  217.82210  119.70710   69.50770   69.50770    8.98160    9.96850    9.96850    0.15670    -999.25    0.15670 2747.98800   11.86540  -48.40190  -11.43700   11.86540
 2600.00000  235.17360  237.65210  237.65210  130.90720   28.47090 2698.50660    0.01590    -999.25    0.01590    7.63900   28.47090  230.34020  230.34020  130.01660   77.85480   77.85480    7.63900    8.61190    8.61190    0.19550    -999.25    0.19550 2698.50660   10.33840  -53.57080  -20.42610   10.33840
 2650.00000  258.85100  248.69990  248.69990  173.10920  205.57380 2564.13280    0.07970    -999.25    0.07970    5.77670  205.57380  238.77490  238.77490  140.84260   75.91950   75.91950    5.77670    6.94570    6.94570    0.16650    -999.25    0.16650 2564.13280    9.17080  -55.86750  -26.54300    9.17080
 2700.00000  244.96780  249.70280  249.70280  137.68040  169.02560 2662.03540    0.03900    -999.25    0.03900    7.26320  169.02560  249.95580  249.95580  129.32230   74.90990   74.90990    7.26320    8.08080    8.08080    0.20970    -999.25    0.20970 2662.03540    9.33460  -47.29820  -21.79390    9.33460
 2750.00000  236.46890  227.86670  227.86670    6.09390   22.71500 2733.37740   -0.01630    -999.25   -0.01630  164.09880   22.71500  162.46770  162.46770   20.49960   17.46790   17.46790  164.09880  229.01570  229.01570    0.00420    -999.25    0.00420 2733.37740  204.81380  -81.52150  -56.02230  204.81380
 2800.00000  235.52350  230.80830  230.80830    0.64750    4.66170 2724.11620   -0.01830    -999.25   -0.01830 1544.35250    4.66170  162.98200  162.98200   18.85000   15.74610   15.74610 1544.35250 1395.20510 1395.20510   -0.00130    -999.25   -0.00130 2724.11620 1334.71960 -100.84870  -70.83970 1334.71960
 2850.00000  225.63130  220.28020  220.28020  142.53340   26.18810 2666.79390    0.01740    0.00090    0.01740    7.01590   26.18810  227.64490  227.64490  254.46650  130.71820  130.71820    7.01590    7.81630    7.81630    0.17270    0.22430    0.17270 2666.79390   10.20750  -41.15400   -6.63520   10.20750
