~Version ---------------------------------------------------
VERS.      2.0 : CWLS log ASCII Standard -VERSION 2.0
WRAP.       NO : One line per depth step
CREA. 11/20/17 : LAS Creation Date
~Well ------------------------------------------------------
STRT.FT                         1000.0 : START DEPTH
STOP.FT                         9950.0 : STOP DEPTH
STEP.FT                       50.00000 : STEP LENGTH
NULL.                          -999.25 : NULL VALUE
COMP. SOCONY MOBIL OIL OF CANADA, LTD. : COMPANY
WELL.      MOBIL CS MCLEOD 12-29-55-13 : WELL
FLD .                                  : FIELD
LOC .                                  : LOCATION
CTRY.                           CANADA : COUNTRY
SRVC.                     Schlumberger : SERVICE COMPANY
DATE.                      23-Jan-1964 : LOGDATE
PROV.                          Alberta : PROVINCE
UWI .                 100122905513W500 : UNIQUE WELL ID
SLAT.WGS84                    53.78322 : SURFACE LATITUDE
SLON.WGS84                   -115.9046 : SURFACE LONGITUDE
~Curve Information -----------------------------------------
DEPT    .FT    : Depth Curve
CALWS   .IN    : CALIPER [MCALED]
CILDED  .MMHO  : DEEP INDUCTION CONDUCTIVITY FROM RESISTIVITY LOG
CONDWS  .MMHO  : CONDUCTIVITY [1000/DRESWS]
DRESWS  .OHMM  : DEEP RESISTIVITY [1000/CILDED, IF ILDED < 2, ILDED]
DTED    .US/F  : DELTA-TIME (SPAN 3'-1') FROM SONIC LOG
DTWS    .US/F  : COMPRESSIONAL SONIC [DTED]
GRSED   .GAPI  : GAMMA RAY FROM SONIC LOG
GRWS    .GAPI  : GAMMA RAY [GRSED]
ILDED   .OHMM  : DEEP INDUCTION LOG RESISTIVITY FROM RESISTIVITY LOG
MCALED  .IN    : MLT (MICROLOG) CALIPER FROM MICROLOG
SNED    .OHMM  : 16 INCH SHORT NORMAL RESISTIVITY FROM RESISTIVITY LOG
SPHILSED.V/V   : SONIC POROSITY LIMESTONE [DTM=47.6, DTF= 189] FROM SONIC LOG
SPOLSWS .V/V   : SONIC POROSITY LIMESTONE [SPHILSED]
SPRED   .MV    : SPONTANEOUS POTENTIAL FROM RESISTIVITY LOG
SPWS    .MV    : SPONTANEOUS POTENTIAL [BASELINE 0 MV] [SPRED]
SRESWS  .OHMM  : SHALLOW RESISTIVITY [SNED]
~Params ----------------------------------------------------
PD  .                     GL : PERMANENT DATUM
EPD .FT                 2602 : ELEVATION PERMANENT DATUM
LMF .                     KB : LOG MEASURED FROM
DAPD.FT                   13 : FEET ABOVE PERMANENT DATUM
EKB .FT                 2615 : KELLY BUSHING
EGL .FT                 2602 : GROUND LEVEL
DATE.               01/23/64 : RUN DATE
RUN .                      2 : RUN NUMBER
DD  .FT                 9957 : DEPTH DRILLER
DL  .FT                 9957 : DEPTH LOGGER
BLI .FT                 9956 : BOTTOM LOG INTERVAL
TLI .FT                 4000 : TOP LOG INTERVAL
CBD .FT                 1006 : CASING BOTTOM DRILLER
CBL .FT                 1004 : CASING BOTTOM LOGGER
BS  .IN                    9 : BIT SIZE
BSD .FT                 9957 : BIT SIZE AT DEPTH
DFT .              LIME BASE : DRILLING FLUID TYPE
DFD .                   10.3 : DRILLING FLUID DENSITY
DFV .                    189 : DRILLING FLUID VISCOSITY
DFPH.                   13.5 : DRILLING FLUID PH
DFL .                    4.4 : DRILLING FLUID LOSS
RMS .OHMM               0.59 : RESISTIVITY MUD SAMPLE
MST .DEGF                 62 : MUD SAMPLE TEMPERATURE
RMF .OHMM               0.32 : RESISTIVITY MUD FILTRATE SAMPLE
MFST.DEGF                 61 : MUD FILTRATE SAMPLE TEMPERATURE
RMC .OHMM               0.87 : RESISTIVITY MUD CAKE
MCST.DEGF                 66 : MUD CAKE SAMPLE TEMPERATURE
RMB .OHMM               0.24 : RESISTIVITY MUD AT BHT
TCS .HRS                   2 : TIME CIRCULATED STOPPED
LUN .                   1576 : LOGGING UNIT NUMBER
LUL .                     DV : LOGGING UNIT LOCATION
ENGI.          WILLIAMS HALE : RECORDING ENGINEER
WITN.          WHEELER CLARK : WITNESSED BY
CLNT.                A2DTECH : CLIENT CODE
ORIG.            2" 5" PRINT : ORIGIN OF DATA
UWI .       100122905513W500 : UNIQUE WELL ID
DICO. A2D Technologies, Inc. : DIGITIZING COMPANY
~Other -----------------------------------------------------
~ASCII -----------------------------------------------------
 1000.00000    -999.25    -999.25    -999.25    -999.25    -999.25    -999.25   40.99270   40.99270    -999.25    -999.25    -999.25    -999.25    -999.25    -999.25    -999.25    -999.25
 1050.00000   10.33720   94.70710   97.01580   10.30800  103.21240  103.21240   48.49420   48.49420   10.30800   10.33720   10.03050    -999.25    -999.25  -64.09730   -0.77830   10.03050
 1100.00000   10.01530   82.62320   85.27620   11.72660  103.15700  103.15700   51.18520   51.18520   11.72660   10.01530   12.08750    -999.25    -999.25  -67.68240   -4.60250   12.08750
 1150.00000   10.23560  147.04110  138.18260    7.23680   98.50070   98.50070   77.92420   77.92420    7.23680   10.23560    8.67260    -999.25    -999.25  -70.11460   -7.27210    8.67260
 1200.00000   10.78640  158.25850  154.62640    6.46720  107.83480  107.83480   89.05600   89.05600    6.46720   10.78640    9.07120    -999.25    -999.25  -66.90820   -4.30480    9.07120
 1250.00000   10.53690  207.00340  223.88390    4.46660  100.04420  100.04420   80.98380   80.98380    4.46660   10.53690    5.16670    -999.25    -999.25  -68.30020   -5.93430    5.16670
 1300.00000    9.55750  133.26570  130.25850    7.67890   95.21730   95.21730   63.48600   63.48600    7.67890    9.55750    7.95230    -999.25    -999.25  -69.40710   -7.27870    7.95230
 1350.00000    9.88600  170.14910  164.84780    6.06620   99.47270   99.47270   72.28040   72.28040    6.06620    9.88600    6.69930    -999.25    -999.25  -66.16510   -4.27570    6.69930
 1400.00000    9.56440  151.62860  151.49220    6.60100   96.11180   96.11180   84.87860   84.87860    6.60100    9.56440    6.85760    -999.25    -999.25  -66.85530   -5.20340    6.85760
 1450.00000   11.70690  246.78010  271.31890    3.68570   97.70780   97.70780   80.40430   80.40430    3.68570   11.70690    4.61070    -999.25    -999.25  -65.43560   -4.02270    4.61070
 1500.00000    9.63860  118.16030  121.12400    8.25600  115.95750  115.95750   99.37870   99.37870    8.25600    9.63860    8.38220    -999.25    -999.25  -63.89390   -2.71850    8.38220
 1550.00000   11.00140  219.09620  236.00620    4.23800  116.52280  116.52280   67.38790   67.38790    4.23800   11.00140    5.38770    -999.25    -999.25  -65.66680   -4.72890    5.38770
 1600.00000   10.18260  157.53070  162.84260    6.14090   90.93120   90.93120   58.01500   58.01500    6.14090   10.18260    9.16350    -999.25    -999.25  -67.51340   -6.81450    9.16350
 1650.00000    9.66060  131.55920  128.90580    7.75760   99.78850   99.78850   68.57270   68.57270    7.75760    9.66060    7.58000    -999.25    -999.25  -67.72750   -7.26610    7.58000
 1700.00000   10.97170  265.13390  286.60690    3.48910  117.24350  117.24350   85.77030   85.77030    3.48910   10.97170    4.77690    -999.25    -999.25  -66.05710   -5.83470    4.77690
 1750.00000   10.48680  258.11000  282.39810    3.54110  108.09320  108.09320   68.45010   68.45010    3.54110   10.48680    5.63110    -999.25    -999.25  -65.04820   -5.06330    5.63110
 1800.00000   11.87870  341.81970  385.58270    2.59760  126.01390  126.01390   76.36220   76.36220    2.59760   11.87870    3.45390    -999.25    -999.25  -63.21600   -3.46860    3.45390
 1850.00000    9.98560  134.85310  137.34190    7.28110   79.58100   79.58100   54.19740   54.19740    7.28110    9.98560    7.62900    -999.25    -999.25  -67.79100   -8.28260    7.62900
 1900.00000   10.02360  155.35030  137.14790    7.29140   99.27930   99.27930   64.15210   64.15210    7.29140   10.02360    6.91720    -999.25    -999.25  -66.68200   -7.41110    6.91720
 1950.00000    9.76450  210.25490  220.19640    4.54140  116.99680  116.99680   88.59680   88.59680    4.54140    9.76450    6.45940    -999.25    -999.25  -63.84510   -4.81330    6.45940
 2000.00000   11.57710  425.58920  426.65200    2.34380  113.34930  113.34930   83.09010   83.09010    1.83800   11.57710    3.52790    -999.25    -999.25  -62.26800   -3.47370    3.52790
 2050.00000    9.94180  203.67730  216.30800    4.62310  102.42910  102.42910   74.95920   74.95920    4.62310    9.94180    5.51040    -999.25    -999.25  -62.64480   -4.08790    5.51040
 2100.00000   11.05560  237.90210  245.73650    4.06940  105.92650  105.92650   85.93290   85.93290    4.06940   11.05560    4.80930    -999.25    -999.25  -60.90380   -2.58600    4.80930
 2150.00000   10.70300  382.70980  479.77740    2.08430  117.27500  117.27500   75.99300   75.99300    2.08430   10.70300    3.21290    -999.25    -999.25  -61.33760   -3.25730    3.21290
 2200.00000    9.56180  139.76550  136.74280    7.31300   90.75050   90.75050   85.81670   85.81670    7.31300    9.56180    8.39660    -999.25    -999.25  -64.75290   -6.91160    8.39660
 2250.00000   10.34010  178.35960  181.95710    5.49580   88.05730   88.05730   66.98060   66.98060    5.49580   10.34010    6.55270    -999.25    -999.25  -64.48700   -6.88320    6.55270
 2300.00000   10.48880  192.46710  182.78270    5.47450   91.90800   91.90800   80.14120   80.14120    5.47450   10.48880    6.06830    -999.25    -999.25  -63.90260   -6.53630    6.06830
 2350.00000   10.89910  157.12420  159.01030    6.28890   99.45980   99.45980   75.67840   75.67840    6.28890   10.89910    7.19600    -999.25    -999.25  -63.26840   -6.14110    7.19600
 2400.00000   10.63440  120.50520  120.81380    8.27720   87.92320   87.92320   85.13060   85.13060    8.27720   10.63440    9.52150    -999.25    -999.25  -60.62830   -3.73850    9.52150
 2450.00000   10.31570  337.03850  393.23630    2.54300   97.45300   97.45300   87.72810   87.72810    2.54300   10.31570    3.72230    -999.25    -999.25  -62.01310   -5.36230    3.72230
 2500.00000   10.92970  207.09210  192.22640    5.20220   95.29550   95.29550   95.10690   95.10690    5.20220   10.92970    6.01290    -999.25    -999.25  -61.32500   -4.91170    6.01290
 2550.00000    9.24870   97.43380   94.00720   10.64440   89.10190   89.10190   54.10020   54.10020   10.64440    9.24870    9.06210    -999.25    -999.25  -60.37230   -4.19650    9.06210
 2600.00000   10.14930  235.98320  236.14420    4.23470   97.61880   97.61880   82.85750   82.85750    4.23470   10.14930    5.00200    -999.25    -999.25  -60.27120   -4.28130    5.00200
 2650.00000   10.13570  116.30470  116.02410    8.61890   89.84100   89.84100   54.50270   54.50270    8.61890   10.13570    8.50990    -999.25    -999.25  -57.09940   -1.13970    8.50990
 2700.00000    9.99950  186.61900  195.71390    5.10950   97.81200   97.81200   64.45900   64.45900    5.10950    9.99950    7.34950    -999.25    -999.25  -57.63430   -1.70500    7.34950
 2750.00000    9.60980  117.57940  111.15560    8.99640   89.13550   89.13550   47.69070   47.69070    8.99640    9.60980    9.46790    -999.25    -999.25  -61.40560   -5.50660    9.46790
 2800.00000    9.59700  106.35930  107.42100    9.31840   86.25230   86.25230   59.56560   59.56560    9.31840    9.59700    9.72560    -999.25    -999.25  -59.74670   -3.87790    9.72560
 2850.00000    9.27020   61.54430   63.55910   15.73340   91.52380   91.52380   37.82710   37.82710   15.73340    9.27020   13.75370    -999.25    -999.25  -47.63630    8.20210   13.75370
 2900.00000   10.69590  219.30640  222.94060    4.48550   98.87000   98.87000   71.95710   71.95710    4.48550   10.69590    5.36660    -999.25    -999.25  -58.16230   -2.35420    5.36660
 2950.00000   10.58830  225.82300  236.51290    4.22810   91.93950   91.93950   66.44110   66.44110    4.22810   10.58830    5.52090    -999.25    -999.25  -59.50390   -3.72620    5.52090
 3000.00000   12.20300  178.17540  180.92340    5.52720   95.42500   95.42500   49.10090   49.10090    5.52720   12.20300    7.90200    -999.25    -999.25  -61.49000   -5.74250    7.90200
 3050.00000   10.48880  194.36710  195.14550    5.12480   90.13300   90.13300   54.15660   54.15660    5.12480   10.48880    5.81590    -999.25    -999.25  -59.47300   -3.75580    5.81590
 3100.00000    9.48440   68.62560   67.08890   14.90560   83.42870   83.42870   60.55540   60.55540   14.90560    9.48440   14.78550    -999.25    -999.25  -62.23000   -6.54320   14.78550
