~Version ---------------------------------------------------
VERS.      2.0 : CWLS log ASCII Standard -VERSION 2.0
WRAP.       NO : One line per depth step
CREA. 07/10/13 : LAS Creation Date
~Well ------------------------------------------------------
STRT.FT                         55.3 : START DEPTH
STOP.FT                      11119.8 : STOP DEPTH
STEP.FT                      0.50000 : STEP LENGTH
NULL.                        -999.25 : NULL VALUE
COMP.         PACIFIC PETROLEUMS LTD : COMPANY
WELL. PACIFIC ET AL TONY 10-18-63-21 : WELL
FLD .                     TONY TOWER : FIELD
LOC .                                : LOCATION
CTRY.                         CANADA : COUNTRY
SRVC.                   Schlumberger : SERVICE COMPANY
DATE.                    24-Sep-1975 : LOGDATE
PROV.                        Alberta : PROVINCE
UWI .               100101806321W500 : UNIQUE WELL ID
SLAT.WGS84                  54.45338 : SURFACE LATITUDE
SLON.WGS84                 -117.1585 : SURFACE LONGITUDE
~Curve Information -----------------------------------------
DEPT   .FT    : DEPTH FEET
CALD   .IN    : CALIPER FROM DENSITY LOG
DCOR   .G/C3  : DENSITY CORRECTION FROM DENSITY LOG
DPHI_LS.DEC   : DENSITY POROSITY LIMESTONE [M=2.71,F=1.0] FROM DENSITY LOG
DPHI_SS.DEC   : DENSITY POROSITY SANDSTONE [M=2.65,F=1.0] FROM DENSITY LOG
GRD    .GAPI  : GAMMA RAY FROM DENSITY LOG
ILD    .OHMM  : DEEP INDUCTION FROM RESISTIVITY LOG
ILM    .OHMM  : MEDIUM INDUCTION FROM RESISTIVITY LOG
LL8    .OHMM  : LATEROLOG FROM RESISTIVITY LOG
NPHI_LS.DEC   : NEUTRON POROSITY LIMESTONE FROM DENSITY LOG
NPHI_SS.DEC   : NEUTRON POROSITY SANDSTONE FROM DENSITY LOG
RHOB   .G/C3  : BULK DENSITY FROM DENSITY LOG
SPR    .MV    : SPONTANEOUS POTENTIAL FROM RESISTIVITY LOG
~Params ----------------------------------------------------
PD  .                     GL : PERMANENT DATUM
EPD .FT                 2714 : ELEVATION PERMANENT DATUM
LMF .                     KB : LOG MEASURED FROM
DAPD.FT                 13.7 : FEET ABOVE PERMANENT DATUM
EKB .FT               2727.7 : KELLY BUSHING
EGL .FT                 2714 : GROUND LEVEL
DATE.               09/24/75 : RUN DATE
RUN .                      1 : RUN NUMBER
DD  .FT                11125 : DEPTH DRILLER
DL  .FT                11121 : DEPTH LOGGER
BLI .FT                11115 : BOTTOM LOG INTERVAL
TLI .FT                 1125 : TOP LOG INTERVAL
CBD .FT                 1125 : CASING BOTTOM DRILLER
CBL .FT                 1125 : CASING BOTTOM LOGGER
BS  .IN                 8.75 : BIT SIZE
BSD .FT                11125 : BIT SIZE AT DEPTH
DFT .               GEL CHEM : DRILLING FLUID TYPE
DFD .                    9.3 : DRILLING FLUID DENSITY
DFV .                    147 : DRILLING FLUID VISCOSITY
DFPH.                    9.5 : DRILLING FLUID PH
DFL .                    9.2 : DRILLING FLUID LOSS
MSS .               FLOWLINE : MUD SAMPLE SOURCE
RMS .OHMM               1.62 : RESISTIVITY MUD SAMPLE
MST .DEGF                 72 : MUD SAMPLE TEMPERATURE
RMF .OHMM               1.26 : RESISTIVITY MUD FILTRATE SAMPLE
MFST.DEGF                 68 : MUD FILTRATE SAMPLE TEMPERATURE
RMB .OHMM               0.41 : RESISTIVITY MUD AT BHT
TCS .HRS                 3.5 : TIME CIRCULATED STOPPED
LUN .                   7691 : LOGGING UNIT NUMBER
LUL .                    EDM : LOGGING UNIT LOCATION
ENGI.              CROCKFORD : RECORDING ENGINEER
WITN.                   ROSS : WITNESSED BY
CLNT.                A2DTECH : CLIENT CODE
ORIG.            2" 5" PRINT : ORIGIN OF DATA
UWI .       100101806321W500 : UNIQUE WELL ID
DICO. A2D Technologies, Inc. : DIGITIZING COMPANY
~Other -----------------------------------------------------
~ASCII -----------------------------------------------------
# ...
 3107.30000   10.12870    0.10340    -999.25    0.14530   45.18480   15.93190   15.23040   14.66090    -999.25    0.25770    2.42540  -97.95660
 3107.80000   10.14840    0.09900    -999.25    0.13730   45.73520   14.62300   13.90450   16.69620    -999.25    0.26020    2.42090  -98.96790
 3108.30000   10.08150    0.12150    -999.25    0.13100   46.32710   13.42170   12.56080   17.39950    -999.25    0.26050    2.43830  -99.44150
 3108.80000   10.02780    0.15510    -999.25    0.13360   47.02920   12.31910   10.86040   14.43830    -999.25    0.26200    2.44650  -98.56370
 3109.30000   10.01300    0.18210    -999.25    0.14000   48.21340   11.40360    9.24480   11.36280    -999.25    0.26400    2.44350  -96.95890
 3109.80000   10.06800    0.17280    -999.25    0.13460   49.54270   10.66690    8.25700    8.94250    -999.25    0.26640    2.43040  -95.86920
 3110.30000   10.16760    0.15280    -999.25    0.12580   51.14090   10.28990    7.95160    8.29690    -999.25    0.26980    2.44360  -95.00290
 3110.80000   10.32510    0.13310    -999.25    0.11860   51.07330   10.04200    7.91940    8.24370    -999.25    0.27410    2.46300  -94.66670
 3111.30000   10.40040    0.11510    -999.25    0.13190   50.01590    9.92350    8.03470    8.64270    -999.25    0.28270    2.46730  -94.27010
 3111.80000   10.42650    0.09200    -999.25    0.14310   48.61910   10.07290    8.47350    9.47420    -999.25    0.29400    2.45070  -94.64570
 3112.30000   10.44200    0.05730    -999.25    0.17190   47.53280   10.40720    9.06780   10.36350    -999.25    0.30140    2.40250  -94.96260
 3112.80000   10.35830    0.05610    -999.25    0.18050   47.10670   10.63100    9.70380   11.33620    -999.25    0.29750    2.37520  -95.40100
 3113.30000   10.25040    0.08380    -999.25    0.18770   47.78370   10.67370   10.23020   12.25250    -999.25    0.30080    2.36250  -95.38270
 3113.80000   10.13840    0.11250    -999.25    0.20160   49.28560   10.10640    8.71090   12.66400    -999.25    0.30600    2.34680  -94.73470
 3114.30000   10.06790    0.12030    -999.25    0.20760   52.18090    9.01780    7.11460   11.08390    -999.25    0.31570    2.32290  -93.56100
 3114.80000   10.16160    0.14060    -999.25    0.20130   54.60520    7.94640    5.99040    8.16950    -999.25    0.33140    2.32190  -93.13340
 3115.30000   10.35040    0.16650    -999.25    0.20990   57.04090    7.00220    5.25480    6.02140    -999.25    0.35230    2.33390  -92.74660
 3115.80000   10.57720    0.18990    -999.25    0.22800   59.14050    6.17020    4.60950    4.97140    -999.25    0.38470    2.31180  -92.43060
 3116.30000   10.69180    0.20130    -999.25    0.27120   60.36220    5.47350    4.18270    4.49170    -999.25    0.42490    2.26610  -92.45400
 3116.80000   10.96160    0.20120    -999.25    0.30880   60.62550    4.99290    3.95890    4.53320    -999.25    0.45100    2.16690  -92.49370
 3117.30000   11.35950    0.19650    -999.25    0.32560   60.58820    4.87860    3.85480    4.54140    -999.25    0.43860    2.11970  -92.21410
 3117.80000   11.30750    0.18400    -999.25    0.30070   59.99940    4.90770    3.81110    4.42060    -999.25    0.42370    2.13450  -91.79880
 3118.30000   10.80940    0.19780    -999.25    0.28690   58.98060    4.99940    3.79950    4.41290    -999.25    0.41220    2.18040  -92.18960
 3118.80000   10.41220    0.19970    -999.25    0.26930   57.96180    4.99940    3.79830    4.52430    -999.25    0.39390    2.19730  -92.13650
 3119.30000   10.36590    0.18780    -999.25    0.21910   57.04180    5.01710    3.99230    4.77720    -999.25    0.36930    2.23040  -92.23760
 3119.80000   10.33960    0.16600    -999.25    0.19150   56.35060    5.36760    4.59410    5.07300    -999.25    0.34960    2.30970  -92.45420
 3120.30000   10.54250    0.14480    -999.25    0.16690   55.48450    6.16400    5.32890    5.94310    -999.25    0.33770    2.33930  -92.73350
 3120.80000   10.61750    0.15520    -999.25    0.13350   54.44360    7.07850    6.10420    9.15860    -999.25    0.33110    2.39830  -92.92430
 3121.30000   10.63690    0.18630    -999.25    0.14600   52.53080    8.23550    6.99220   13.02580    -999.25    0.31790    2.44640  -93.27730
 3121.80000   10.62420    0.11640    -999.25    0.15320   50.90830    9.71560    8.00950   13.04600    -999.25    0.30670    2.41950  -93.60350
 3122.30000   10.60330    0.06150    -999.25    0.13250   49.23510   11.35870    9.17470   12.31950    -999.25    0.30620    2.40660  -94.46860
 3122.80000   10.60450    0.04140    -999.25    0.12880   48.57590   12.59180   10.50950   12.68960    -999.25    0.30940    2.44110  -95.38120
 3123.30000   10.60610    0.04250    -999.25    0.11680   47.97670   13.75850   11.41830   12.79940    -999.25    0.30280    2.45620  -96.13940
 3123.80000   10.60300    0.04820    -999.25    0.11280   47.61440   15.03330   12.18610   12.68580    -999.25    0.29540    2.47630  -96.43780
 3124.30000   10.60300    0.05390    -999.25    0.11860   47.69580   16.07400   13.09700   13.55670    -999.25    0.29300    2.47590  -96.85890
 3124.80000   10.60430    0.05840    -999.25    0.12280   47.24610   16.36330   14.19760   15.33530    -999.25    0.29660    2.46730  -97.36680
 3125.30000   10.60640    0.05470    -999.25    0.13280   46.02830   16.60370   15.39060   18.28440    -999.25    0.29030    2.45590  -97.87470
 3125.80000   10.61160    0.05100    -999.25    0.13560   44.65130   17.30010   16.68400   21.80080    -999.25    0.27940    2.44350  -98.38260
 3126.30000   10.61870    0.03990    -999.25    0.14320   43.24490   18.48240   17.65450   22.74920    -999.25    0.27250    2.43740  -98.93640
 3126.80000   10.63940    0.05750    -999.25    0.15360   42.06660   19.91560   18.42290   21.94580    -999.25    0.27030    2.42580  -99.37090
 3127.30000   10.52890    0.07940    -999.25    0.15120   41.13000   21.46010   18.77220   20.94240    -999.25    0.26880    2.40950  -99.44380
 3127.80000   10.28970    0.10720    -999.25    0.14680   40.81260   22.23340   18.47640   19.90200    -999.25    0.27040    2.41040  -99.74910
 3128.30000   10.14910    0.14490    -999.25    0.14950   40.43710   22.33380   17.77210   18.74400    -999.25    0.27650    2.41730  -99.81150
 3128.80000   10.07000    0.14820    -999.25    0.15150   40.15320   22.17360   17.09460   17.78930    -999.25    0.28370    2.41850 -100.15410
 3129.30000   10.05940    0.14490    -999.25    0.15290   40.02420   21.59010   16.97400   17.57180    -999.25    0.29290    2.41660 -100.49020
 3129.80000   10.02600    0.13520    -999.25    0.16100   40.09340   21.02190   16.87380   17.78380    -999.25    0.30160    2.40560 -101.16950
 3130.30000   10.09520    0.12690    -999.25    0.17910   40.45280   20.46870   16.57720   17.58830    -999.25    0.30990    2.37940 -101.85910
 3130.80000   10.27800    0.11400    -999.25    0.17670   41.25660   19.93000   15.86130   17.17260    -999.25    0.30580    2.36730 -101.89440
 3131.30000   10.45710    0.09730    -999.25    0.16860   41.41640   19.40550   15.17630   16.72700    -999.25    0.29690    2.38600 -101.99940
 3131.80000   10.52920    0.08990    -999.25    0.17560   41.56490   18.89480   14.61270   16.29300    -999.25    0.28690    2.38190 -102.10440
 3132.30000   10.55210    0.07780    -999.25    0.17740   41.53420   18.39760   14.39050   15.98620    -999.25    0.27790    2.37480 -102.20940
 3132.80000   10.54300    0.06760    -999.25    0.18360   41.33290   18.00720   14.46250   15.87000    -999.25    0.27690    2.36850 -102.31440
 3133.30000   10.51550    0.05970    -999.25    0.18890   40.58240   17.80100   14.53480   15.91830    -999.25    0.27810    2.36250 -102.41940
 3133.80000   10.49380    0.05130    -999.25    0.18500   39.59190   17.83580   14.72060   16.25440    -999.25    0.27770    2.35740 -102.67880
 3134.30000   10.46360    0.05890    -999.25    0.19010   38.72060   18.02870   14.91440   16.67870    -999.25    0.27270    2.35220 -102.95700
 3134.80000   10.44150    0.04040    -999.25    0.19930   38.29130   18.41780   15.11090   16.78210    -999.25    0.27490    2.34360 -103.14370
