~Version ---------------------------------------------------
VERS.      2.0 : CWLS log ASCII Standard -VERSION 2.0
WRAP.       NO : One line per depth step
CREA. 01/05/18 : LAS Creation Date
~Well ------------------------------------------------------
STRT.FT                              300.0 : START DEPTH
STOP.FT                            15450.0 : STOP DEPTH
STEP.FT                           50.00000 : STEP LENGTH
NULL.                              -999.25 : NULL VALUE
COMP.                        BANFF OIL LTD : COMPANY
WELL. BANFF AQUIT CHIEFCO WAWA 11-20-42-13 : WELL
FLD .                                      : FIELD
LOC .                                      : LOCATION
CTRY.                               CANADA : COUNTRY
SRVC.               Schlumberger of Canada : SERVICE COMPANY
DATE.                          07-Apr-1970 : LOGDATE
PROV.                              Alberta : PROVINCE
UWI .                     100112004213W500 : UNIQUE WELL ID
SLAT.WGS84                        52.63304 : SURFACE LATITUDE
SLON.WGS84                       -115.8375 : SURFACE LONGITUDE
~Curve Information -----------------------------------------
DEPT    .FT    : Depth Curve
CALDED  .IN    : CALIPER FROM DENSITY LOG [ADJ. TO RESISTIVITY LOG]
CALNED  .IN    : CALIPER FROM SNP LOG [ADJ. TO RESISTIVITY LOG]
CALSED  .IN    : CALIPER FROM SONIC LOG [ADJ. TO RESISTIVITY LOG]
CALWS   .IN    : CALIPER [CALSED]
CONDWS  .MMHO  : CONDUCTIVITY [1000/DRESWS]
CORRED  .G/C3  : DENSITY CORRECTION FROM DENSITY LOG [ADJ. TO RESISTIVITY LOG]
DCORWS  .G/C3  : DENSITY CORRECTION [CORRED]
DENWS   .G/C3  : FORMATION BULK DENSITY [RHOBED]
DPHILSED.V/V   : DENSITY POROSITY LIMESTONE FROM DENSITY LOG [ADJ. TO RESISTIVITY LOG]
DPOLSWS .V/V   : DENSITY POROSITY LIMESTONE [CALC. FROM DENWS, M=2.71 F=1.00]
DRESWS  .OHMM  : DEEP RESISTIVITY [ILDED]
DTED    .US/F  : DELTA T FROM SONIC LOG [ADJ. TO RESISTIVITY LOG]
DTWS    .US/F  : COMPRESSIONAL SONIC [DTED]
GRDED   .GAPI  : GAMMA RAY FROM DENSITY LOG [ADJ. TO RESISTIVITY LOG]
GRDRED  .GAPI  : GAMMA RAY (REPEAT) FROM DENSITY LOG
GRNED   .GAPI  : GAMMA RAY FROM SNP LOG [ADJ. TO RESISTIVITY LOG]
GRSED   .GAPI  : GAMMA RAY FROM SONIC LOG [ADJ. TO RESISTIVITY LOG]
GRWS    .GAPI  : GAMMA RAY [GRSED]
ILDED   .OHMM  : DEEP INDUCTION RESISTIVITY FROM RESISTIVITY LOG
ILMED   .OHMM  : MEDIUM INDUCTION RESISTIVITY FROM RESISTIVITY LOG
ILMRED  .OHMM  : MEDIUM INDUCTION RESISTIVITY(REPEAT) FROM RESISTIVITY LOG [ADJ. TO ILDED]
LL8ED   .OHMM  : LATEROLOG 8 RESISTIVITY FROM RESISTIVITY LOG
MRESWS  .OHMM  : MEDIUM RESISTIVITY [ILMED SPL. TO ILMRED @ 15233']
NPOLSWS .V/V   : NEUTRON POROSITY LIMESTONE [SNPLSED]
RHOBED  .G/C3  : BULK DENSITY FROM DENSITY LOG [ADJ. TO RESISTIVITY LOG]
SNPLSED .V/V   : SIDEWALL NEUTRON POROSITY LIMESTONE FROM SNP LOG [ADJ. TO RESISTIVITY LOG]
SPRED   .MV    : SPONTANEOUS POTENTIAL FROM RESISTIVITY LOG
SPRRED  .MV    : SPONTANEOUS POTENTIAL(REPEAT) FROM RESISTIVITY LOG [ADJ. TO ILDED]
SPWS    .MV    : SPONTANEOUS POTENTIAL [BASELINE 0 MV, SPRED SPL. TO SPRRED @ 15223']
SRESWS  .OHMM  : SHALLOW RESISTIVITY [LL8ED]
~Params ----------------------------------------------------
PD  .                     GL : PERMANENT DATUM
EPD .FT                 4345 : ELEVATION PERMANENT DATUM
LMF .                     KB : LOG MEASURED FROM
DAPD.FT                   14 : FEET ABOVE PERMANENT DATUM
EKB .FT                 4359 : KELLY BUSHING
EGL .FT                 4345 : GROUND LEVEL
DATE.               06/04/70 : RUN DATE
RUN .                      3 : RUN NUMBER
DD  .FT                15476 : DEPTH DRILLER
DL  .FT                15473 : DEPTH LOGGER
BLI .FT                15471 : BOTTOM LOG INTERVAL
TLI .FT                14327 : TOP LOG INTERVAL
CBD .FT                12360 : CASING BOTTOM DRILLER
CBL .FT                12355 : CASING BOTTOM LOGGER
BS  .IN                    6 : BIT SIZE
BSD .FT                15476 : BIT SIZE AT DEPTH
DFT .               GEL CHEM : DRILLING FLUID TYPE
DFD .                    8.9 : DRILLING FLUID DENSITY
DFV .                     47 : DRILLING FLUID VISCOSITY
DFPH.                     11 : DRILLING FLUID PH
DFL .                   12.4 : DRILLING FLUID LOSS
MSS .               FLOWLINE : MUD SAMPLE SOURCE
RMS .OHMM               2.62 : RESISTIVITY MUD SAMPLE
TCS .HRS                   4 : TIME CIRCULATED STOPPED
LUN .                  CSU C : LOGGING UNIT NUMBER
LUL .                 364 RD : LOGGING UNIT LOCATION
ENGI.                 MEGSON : RECORDING ENGINEER
WITN.                BRINKER : WITNESSED BY
CLNT.                A2DTECH : CLIENT CODE
ORIG.        2" 5" 10" PRINT : ORIGIN OF DATA
UWI .       100112004213W500 : UNIQUE WELL ID
DICO. A2D Technologies, Inc. : DIGITIZING COMPANY
~Other -----------------------------------------------------
~ASCII -----------------------------------------------------
# ...
 7500.00000    -999.25    -999.25    9.59470    9.59470   67.95420    -999.25    -999.25    -999.25    -999.25    -999.25   14.71580   69.58810   69.58810    -999.25    -999.25    -999.25   48.91560   48.91560   14.71580   12.87800    -999.25   11.40540   12.87800    -999.25    -999.25    -999.25 -719.56380    -999.25  -18.25250   11.40540
 7550.00000    -999.25    -999.25    9.56720    9.56720   86.82660    -999.25    -999.25    -999.25    -999.25    -999.25   11.52770   77.35500   77.35500    -999.25    -999.25    -999.25   54.14870   54.14870   11.52770   10.46740    -999.25    9.48830   10.46740    -999.25    -999.25    -999.25 -715.98940    -999.25  -16.49250    9.48830
 7600.00000    -999.25    -999.25    8.74890    8.74890   22.61310    -999.25    -999.25    -999.25    -999.25    -999.25   44.22220   64.38430   64.38430    -999.25    -999.25    -999.25   30.23030   30.23030   44.22220   47.71360    -999.25   39.05180   47.71360    -999.25    -999.25    -999.25 -743.52650    -999.25  -45.86200   39.05180
 7650.00000    -999.25    -999.25    9.86880    9.86880  117.53640    -999.25    -999.25    -999.25    -999.25    -999.25    8.50800   84.82490   84.82490    -999.25    -999.25    -999.25   53.75060   53.75060    8.50800    9.00290    -999.25   10.78020    9.00290    -999.25    -999.25    -999.25 -712.11180    -999.25  -16.27050   10.78020
 7700.00000    -999.25    -999.25    9.81800    9.81800  101.49190    -999.25    -999.25    -999.25    -999.25    -999.25    9.85300   75.36660   75.36660    -999.25    -999.25    -999.25   47.57950   47.57950    9.85300    8.83300    -999.25    8.39660    8.83300    -999.25    -999.25    -999.25 -711.82810    -999.25  -17.81030    8.39660
 7750.00000    -999.25    -999.25   10.82230   10.82230  107.61370    -999.25    -999.25    -999.25    -999.25    -999.25    9.29250   80.15460   80.15460    -999.25    -999.25    -999.25   53.79990   53.79990    9.29250    8.23750    -999.25    9.24020    8.23750    -999.25    -999.25    -999.25 -710.94910    -999.25  -18.75470    9.24020
 7800.00000    -999.25    -999.25    9.58070    9.58070   82.57140    -999.25    -999.25    -999.25    -999.25    -999.25   12.11130   76.76100   76.76100    -999.25    -999.25    -999.25   54.93970   54.93970   12.11130   14.53450    -999.25   13.14080   14.53450    -999.25    -999.25    -999.25 -713.33240    -999.25  -22.95220   13.14080
 7850.00000    -999.25    -999.25    9.19300    9.19300  136.66990    -999.25    -999.25    -999.25    -999.25    -999.25    7.31690   80.31890   80.31890    -999.25    -999.25    -999.25   60.57400   60.57400    7.31690    7.74680    -999.25    7.72790    7.74680    -999.25    -999.25    -999.25 -710.92770    -999.25  -22.38000    7.72790
 7900.00000    -999.25    -999.25    9.55700    9.55700   99.87320    -999.25    -999.25    -999.25    -999.25    -999.25   10.01270   81.26180   81.26180    -999.25    -999.25    -999.25   54.37230   54.37230   10.01270   10.90470    -999.25    9.50410   10.90470    -999.25    -999.25    -999.25 -711.07980    -999.25  -24.35530    9.50410
 7950.00000    -999.25    -999.25    9.58030    9.58030   76.00050    -999.25    -999.25    -999.25    -999.25    -999.25   13.15780   76.07140   76.07140    -999.25    -999.25    -999.25   55.10210   55.10210   13.15780   15.29790    -999.25   15.59680   15.29790    -999.25    -999.25    -999.25 -710.78760    -999.25  -25.88660   15.59680
 8000.00000    -999.25    -999.25    9.15120    9.15120   93.25750    -999.25    -999.25    -999.25    -999.25    -999.25   10.72300   84.88280   84.88280    -999.25    -999.25    -999.25   58.13650   58.13650   10.72300   11.61330    -999.25   10.90080   11.61330    -999.25    -999.25    -999.25 -709.65840    -999.25  -26.58080   10.90080
 8050.00000    -999.25    -999.25    9.25820    9.25820   61.97770    -999.25    -999.25    -999.25    -999.25    -999.25   16.14700   71.22580   71.22580    -999.25    -999.25    -999.25   48.13470   48.13470   16.14700   14.75010    -999.25   18.01470   14.75010    -999.25    -999.25    -999.25 -709.32670    -999.25  -28.06340   18.01470
 8100.00000    -999.25    -999.25    9.29890    9.29890   64.82480    -999.25    -999.25    -999.25    -999.25    -999.25   15.42620   70.41050   70.41050    -999.25    -999.25    -999.25   51.35910   51.35910   15.42620   14.09200    -999.25   14.28900   14.09200    -999.25    -999.25    -999.25 -708.81420    -999.25  -29.38330   14.28900
 8150.00000    -999.25    -999.25    9.25640    9.25640   79.16720    -999.25    -999.25    -999.25    -999.25    -999.25   12.63150   78.22170   78.22170    -999.25    -999.25    -999.25   76.27170   76.27170   12.63150   11.52170    -999.25   11.84240   11.52170    -999.25    -999.25    -999.25 -705.81060    -999.25  -28.20300   11.84240
 8200.00000    -999.25    -999.25    9.75630    9.75630   81.76080    -999.25    -999.25    -999.25    -999.25    -999.25   12.23080   76.77880   76.77880    -999.25    -999.25    -999.25   91.79350   91.79350   12.23080   10.18800    -999.25   10.81180   10.18800    -999.25    -999.25    -999.25 -704.11910    -999.25  -27.98440   10.81180
 8250.00000    -999.25    -999.25    9.85960    9.85960   83.63580    -999.25    -999.25    -999.25    -999.25    -999.25   11.95660   72.03910   72.03910    -999.25    -999.25    -999.25   79.23380   79.23380   11.95660   13.05190    -999.25   14.29170   13.05190    -999.25    -999.25    -999.25 -706.93890    -999.25  -31.37510   14.29170
 8300.00000    -999.25    -999.25    9.76040    9.76040   97.97290    -999.25    -999.25    -999.25    -999.25    -999.25   10.20690   76.20880   76.20880    -999.25    -999.25    -999.25   85.55530   85.55530   10.20690   10.90240    -999.25   11.71440   10.90240    -999.25    -999.25    -999.25 -698.35040    -999.25  -23.35490   11.71440
 8350.00000    -999.25    -999.25    9.58800    9.58800   82.56820    -999.25    -999.25    -999.25    -999.25    -999.25   12.11120   73.58120   73.58120    -999.25    -999.25    -999.25   83.87620   83.87620   12.11120   13.00150    -999.25   13.81610   13.00150    -999.25    -999.25    -999.25 -696.01770    -999.25  -21.59610   13.81610
 8400.00000    -999.25    -999.25    9.51310    9.51310   91.68680    -999.25    -999.25    -999.25    -999.25    -999.25   10.90670   74.15500   74.15500    -999.25    -999.25    -999.25   86.34820   86.34820   10.90670   11.69960    -999.25   12.58080   11.69960    -999.25    -999.25    -999.25 -691.38460    -999.25  -17.53410   12.58080
 8450.00000    -999.25    -999.25    9.40710    9.40710   96.78670    -999.25    -999.25    -999.25    -999.25    -999.25   10.33200   75.55960   75.55960    -999.25    -999.25    -999.25   83.40370   83.40370   10.33200   11.13890    -999.25   12.38050   11.13890    -999.25    -999.25    -999.25 -693.51720    -999.25  -26.23790   12.38050
 8500.00000    -999.25    -999.25    9.68280    9.68280  103.11720    -999.25    -999.25    -999.25    -999.25    -999.25    9.69770   82.57110   82.57110    -999.25    -999.25    -999.25   91.87540   91.87540    9.69770   10.33470    -999.25   11.21160   10.33470    -999.25    -999.25    -999.25 -690.70780    -999.25  -23.99950   11.21160
 8550.00000    -999.25    -999.25    9.35410    9.35410   74.29840    -999.25    -999.25    -999.25    -999.25    -999.25   13.45930   76.57870   76.57870    -999.25    -999.25    -999.25   83.42430   83.42430   13.45930   14.71410    -999.25   16.77380   14.71410    -999.25    -999.25    -999.25 -690.27010    -999.25  -24.13010   16.77380
 8600.00000    -999.25    -999.25    9.16980    9.16980   57.19810    -999.25    -999.25    -999.25    -999.25    -999.25   17.48310   73.31280   73.31280    -999.25    -999.25    -999.25   81.03220   81.03220   17.48310   19.07150    -999.25   22.54680   19.07150    -999.25    -999.25    -999.25 -688.45730    -999.25  -22.89130   22.54680
 8650.00000    -999.25    -999.25    9.27220    9.27220   74.85030    -999.25    -999.25    -999.25    -999.25    -999.25   13.36000   79.32920   79.32920    -999.25    -999.25    -999.25   90.33870   90.33870   13.36000   14.85720    -999.25   17.87320   14.85720    -999.25    -999.25    -999.25 -685.75960    -999.25  -20.76450   17.87320
