~Version ---------------------------------------------------
VERS.      2.0 : CWLS log ASCII Standard -VERSION 2.0
WRAP.       NO : One line per depth step
CREA. 08/31/17 : LAS Creation Date
~Well ------------------------------------------------------
STRT.FT                          850.0 : START DEPTH
STOP.FT                        11250.0 : STOP DEPTH
STEP.FT                       50.00000 : STEP LENGTH
NULL.                          -999.25 : NULL VALUE
COMP.        ATLANTIC REFINING COMPANY : COMPANY
WELL. ATLANTIC CROOKED LAKE 4-27-63-22 : WELL
FLD .                               WC : FIELD
LOC .                                  : LOCATION
CTRY.                           CANADA : COUNTRY
SRVC.           Schlumberger of Canada : SERVICE COMPANY
DATE.                      08-Mar-1961 : LOGDATE
PROV.                          Alberta : PROVINCE
UWI .                 100042706322W500 : UNIQUE WELL ID
SLAT.WGS84                    54.47412 : SURFACE LATITUDE
SLON.WGS84                   -117.2467 : SURFACE LONGITUDE
~Curve Information -----------------------------------------
DEPT  .FT    : Depth Curve
CALWS .IN    : CALIPER [MCALED]
CILDED.MMHO  : CONDUCTIVITY FROM IEL LOG
CONDWS.MMHO  : CONDUCTIVITY [1000/DRESWS]
DRESWS.OHMM  : DEEP RESISTIVITY [CALCULATED FROM 1000/CILDED, IF ILDED<1, ILDED]
DT1ED .US/F  : DELTA-T FROM SONIC LOG [ADJ.TO ILDED]
DTED  .US/F  : DELTA-T FROM SONIC LOG [ADJ.TO ILDED]
DTWS  .US/F  : COMPRESSIONAL SONIC [DTED SPL.TO DT1ED @ 11232']
GRSED .GAPI  : GAMMA RAY FROM SONIC LOG [ADJ.TO ILDED]
GRWS  .GAPI  : GAMMA RAY [GRSED*16.50]
ILDED .OHMM  : DEEP INDUCTION FROM IEL LOG
MCALED.IN    : MICRO CALIPER FROM MICRO LOG [ADJ.TO ILDED]
SNED  .OHMM  : SHORT NORMAL FROM IEL LOG
SPRED .MV    : SPONTANEOUS POTENTIAL FROM IEL LOG
SPWS  .MV    : SPONTANEOUS POTENTIAL [BASELINE 0 MV, SPRED]
SRESWS.OHMM  : SHALLOW RESISTIVITY [SNED]
~Params ----------------------------------------------------
LMF .                     KB : LOG MEASURED FROM
DMF .                     KB : DRILLING MEASURED FROM
EKB .FT                 2751 : KELLY BUSHING
EGL .FT               2736.1 : GROUND LEVEL
DATE.               03/08/61 : RUN DATE
RUN .                      1 : RUN NUMBER
DD  .FT                11255 : DEPTH DRILLER
DL  .FT                11257 : DEPTH LOGGER
BLI .FT                11256 : BOTTOM LOG INTERVAL
TLI .FT                 1146 : TOP LOG INTERVAL
CBD .FT                 1146 : CASING BOTTOM DRILLER
CBL .FT                 1146 : CASING BOTTOM LOGGER
BS  .IN                    9 : BIT SIZE
BSD .FT                11255 : BIT SIZE AT DEPTH
DFT .                GEL OIL : DRILLING FLUID TYPE
DFD .                    9.9 : DRILLING FLUID DENSITY
DFV .                    119 : DRILLING FLUID VISCOSITY
DFPH.                    9.5 : DRILLING FLUID PH
DFL .                    6.4 : DRILLING FLUID LOSS
RMS .OHMM               1.35 : RESISTIVITY MUD SAMPLE
MST .DEGF                 68 : MUD SAMPLE TEMPERATURE
RMF .OHMM               3.04 : RESISTIVITY MUD FILTRATE SAMPLE
MFST.DEGF                 68 : MUD FILTRATE SAMPLE TEMPERATURE
TCS .HRS                   4 : TIME CIRCULATED STOPPED
LUN .                  15730 : LOGGING UNIT NUMBER
LUL .                     WC : LOGGING UNIT LOCATION
ENGI.              HAUSEGGER : RECORDING ENGINEER
WITN.                  COWAN : WITNESSED BY
CLNT.                A2DTECH : CLIENT CODE
ORIG.            2" 5" PRINT : ORIGIN OF DATA
UWI .       100042706322W500 : UNIQUE WELL ID
DICO. A2D Technologies, Inc. : DIGITIZING COMPANY
~Other -----------------------------------------------------
~ASCII -----------------------------------------------------
# ...
 10050.00000    8.86360   34.69900   34.16690   29.26810    -999.25   59.77450   59.77450   54.74530   54.74530   29.26810    8.86360   37.20590    5.78950  -15.50620   37.20590
 10100.00000    8.88130   25.76150   26.10820   38.30210    -999.25   58.93890   58.93890   51.78110   51.33810   38.30210    8.88130   42.95670    7.06850  -15.77780   42.95670
 10150.00000    9.11380   76.79320   83.80190   11.93290    -999.25   64.64520   64.64520   75.26310   75.26310   11.93290    9.11380   20.94840   11.43990  -12.94680   20.94840
 10200.00000    9.79680  168.50130  175.08540    5.71150    -999.25   83.36030   83.36030  117.49650  119.29330    5.71150    9.79680    9.42340   11.50560  -14.43170    9.42340
 10250.00000    9.28830  151.78220  159.70100    6.26170    -999.25   73.35220   73.35220   92.01230   92.01230    6.26170    9.28830    9.81190   10.84040  -16.63730    9.81190
 10300.00000   11.25440  230.45330  226.56730    4.41370    -999.25   77.34920   77.34920  106.24190  106.24100    4.41370   11.25440    6.51460    6.05390  -22.96430    6.51460
 10350.00000   13.07420  285.44540  277.22330    3.60720    -999.25   83.20320   83.20320  114.04140  113.79390    3.60720   13.07420    5.78660   -1.69080  -32.25950    5.78660
 10400.00000    9.46700   81.39000   86.06150   11.61960    -999.25   73.80080   73.80080  112.67520  112.67520   11.61960    9.46700   18.48990   19.57230  -12.53690   18.48990
 10450.00000    8.86060  108.61540  114.00690    8.77140    -999.25   68.79020   68.79020  108.52050  108.44960    8.77140    8.86060   13.58150   24.60390   -9.05590   13.58150
 10500.00000    8.91000  112.80220  117.09740    8.53990    -999.25   65.92790   65.92790  102.56730  102.56730    8.53990    8.91000   13.04990   33.54100   -1.65920   13.04990
 10550.00000    8.93400   99.58810  101.36230    9.86560    -999.25   65.97220   65.97220  103.36260  103.36260    9.86560    8.93400   14.65830   33.05950   -2.12520   14.65830
 10600.00000    8.94620  136.65650  141.02180    7.09110    -999.25   74.51300   74.51300  119.68690  120.13320    7.09110    8.94620   11.08050   28.86400   -5.78300   11.08050
 10650.00000    8.76650  125.44190  128.64380    7.77340    -999.25   72.93870   72.93870   97.22790   97.22790    7.77340    8.76650   12.27150   32.29920   -1.81370   12.27150
 10700.00000    9.84080  157.66420  156.47490    6.39080    -999.25   83.07000   83.07000  121.17520  119.25700    6.39080    9.84080   10.37000   21.88010  -11.69520   10.37000
 10750.00000    8.84020   10.28540    7.85370  127.32930    -999.25   73.35490   73.35490  118.64650  118.64650  127.32930    8.84020   99.30220   12.28130  -20.75980   99.30220
 10800.00000    8.92200   26.76000   25.76220   38.81660    -999.25   94.41580   94.41580  147.39620  147.39620   38.81660    8.92200   59.87100   27.58220   -4.92480   59.87100
 10850.00000    8.93380   14.40620   14.21130   70.36640    -999.25   78.96570   78.96570  150.56580  149.38440   70.36640    8.93380   87.14100   17.41120  -14.55810   87.14100
 10900.00000   10.43990   35.19300   35.68120   28.02600    -999.25   99.89400   99.89400  125.22350  125.22350   28.02600   10.43990   46.71750   10.80430  -20.63090   46.71750
 10950.00000    8.90980   12.99800   11.30610   88.44770   57.02650   59.88390   59.88390   62.85010   63.87320   88.44770    8.90980   98.91250   15.82770  -15.06990   98.91250
 11000.00000    8.93180    5.72930    5.53300  180.73470   60.49480   54.97320   54.97320   34.59390   34.59310  180.73470    8.93180  104.10000   15.86970  -14.49370  104.10000
 11050.00000    8.97030   32.22170   30.84230   32.42300   58.39360   58.92100   58.92100   76.61610   76.61610   32.42300    8.97030   41.70850   27.62560   -2.20720   41.70850
 11100.00000    8.97180    3.36380    2.05980  485.47290   49.04830   51.15380   51.15380   29.09110   28.76770  485.47290    8.97180  225.83290    3.45950  -26.37330  225.83290
 11150.00000    9.06540    1.83960    1.73220  577.31560   49.25200   52.13940   52.13940   29.53340   29.53340  577.31560    9.06540  227.53560    3.49790  -26.33490  227.53560
 11200.00000    9.01500    2.85860    1.73440  576.57360   48.61720   50.99990   50.99990   31.19740   31.39460  576.57360    9.01500  218.06600  -33.14460  -62.97740  218.06600
 11250.00000    -999.25    -999.25    -999.25    -999.25    -999.25    -999.25    -999.25    -999.25    -999.25    -999.25    -999.25    -999.25  -75.17370 -105.00650    -999.25
