~Version ---------------------------------------------------
VERS.      2.0 : CWLS log ASCII Standard -VERSION 2.0
WRAP.       NO : One line per depth step
CREA. 09/23/14 : LAS Creation Date
~Well ------------------------------------------------------
STRT.M                           500.0 : START DEPTH
STOP.M                          4800.0 : STOP DEPTH
STEP.M                        50.00000 : STEP LENGTH
NULL.                          -999.25 : NULL VALUE
COMP. AMOCO CANADA PETROLEUM CO., LTD. : COMPANY
WELL.      AMOCO BLACKSTONE 3-12-45-17 : WELL
FLD .                                  : FIELD
LOC .                                  : LOCATION
CTRY.                           CANADA : COUNTRY
SRVC.           Schlumberger of Canada : SERVICE COMPANY
DATE.                      19-Sep-1980 : LOGDATE
PROV.                          Alberta : PROVINCE
UWI .                 100031204517W500 : UNIQUE WELL ID
SLAT.WGS84                    52.86072 : SURFACE LATITUDE
SLON.WGS84                    -116.338 : SURFACE LONGITUDE
~Curve Information -----------------------------------------
DEPT    .M      : DEPTH METER
CALDED  .MM     : CALIPER FROM DENSITY LOG [ADJ. TO DIL LOG]
CALRED  .MM     : CALIPER FROM DLL LOG
CALSED  .MM     : CALIPER FROM SONIC LOG
CALWS   .MM     : CALIPER [CALSED SPL. TO CALRED @ 4812.5 M]
CONDWS  .MMHO   : CONDUCTIVITY [1000/DRESWS]
DCORWS  .KG/M3  : DENSITY  CORRECTION [DRHOED]
DENWS   .KG/M3  : FORMATION BULK DENSITY [CALC. FROM DPOLSWS, M=2710, F=1000]
DPHILSED.V/V    : DENSITY POROSITY LIMESTONE [M=2710, F=1000] FROM DENSITY LOG [ADJ. TO DIL LOG]
DPHISSED.V/V    : DENSITY POROSITY SANDSTONE [M=2650, F=1000] FROM DENSITY LOG [ADJ. TO DPHILSED/DIL LOG]
DPOLSWS .V/V    : DENSITY POROSITY LIMESTONE [DPHISSSED CONVERTED TO LIMESTONE MATRIX , M=2710, F=1000, SPL. TO DPHILSED @ 3731.7 M]
DRESWS  .OHMM   : DEEP RESISTIVITY [ILDED]
DRHOED  .KG/M3  : DENSITY CORRECTION FROM DENSITY LOG [ADJ. TO DPHISSED/DPHILSED/DIL LOG]
DTED    .US/M   : DELTA TIME FROM SONIC LOG
DTWS    .US/M   : COMPRESSIONAL SONIC [DTED]
GRDED   .GAPI   : GAMMA RAY FROM DENSITY LOG [ADJ. TO DIL LOG]
GRRED   .GAPI   : GAMMA RAY FROM DLL LOG
GRSED   .GAPI   : GAMMA RAY FROM SONIC LOG
GRWS    .GAPI   : GAMMA RAY [GRSED SPL. TO GRRED @ 4811.2 M]
ILDED   .OHMM   : DEEP INDUCTION LOG RESISTIVITY FROM DIL LOG
ILMED   .OHMM   : MEDIUM  INDUCTION LOG RESISTIVITY FROM DIL LOG
LLDED   .OHMM   : DEEP LATEROLOG RESISTIVITY FROM DLL LOG
LLSED   .OHMM   : SHALLOW LATEROLOG RESISTIVITY FROM DLL LOG
MRESWS  .OHMM   : MEDIUM RESISTIVITY [ILMED]
MSFLED  .OHMM   : MICROSPHERICALLY FOCUSED LOG RESISTIVITY FROM DLL LOG
NPHILSED.V/V    : NEUTRON POROSITY LIMESTONE FROM DENSITY LOG [ADJ. TO DIL LOG]
NPHISSED.V/V    : NEUTRON POROSITY SANDSTONE FROM DENSITY LOG [ADJ. TO DPHILSED/DIL LOG]
NPOLSWS .V/V    : NEUTRON POROSITY LIMESTONE [NPHISSED MATRIX CONVERSION FOR LIMESTONE, SPL. TO NPHILSED @ 3733 M]
RHOBED  .KG/M3  : BULK DENSITY FROM DENSITY LOG [ADJ. TO DPHISSED/DPHILSED/DIL LOG]
SFLED   .OHMM   : SHALLOW FOCUSED LOG RESISTIVITY FROM DIL LOG
SPRED   .MV     : SPONTANEOUS POTENTIAL FROM DIL LOG
SPWS    .MV     : SPONTANEOUS POTENTIAL [BASELINE  0 MV, SPRED]
SRESWS  .OHMM   : SHALLOW RESISTIVITY [SFLED]
~Params ----------------------------------------------------
PD  .                         GL : PERMANENT DATUM
EPD .M                    1169.9 : ELEVATION PERMANENT DATUM
LMF .                         KB : LOG MEASURED FROM
DAPD.M                       8.3 : FEET ABOVE PERMANENT DATUM
DMF .                         KB : DRILLING MEASURED FROM
EKB .M                    1178.2 : KELLY BUSHING
EGL .M                    1169.9 : GROUND LEVEL
DATE.                   09/19/80 : RUN DATE
RUN .                          2 : RUN NUMBER
DD  .M                      4833 : DEPTH DRILLER
DL  .M                      4829 : DEPTH LOGGER
BLI .M                      4828 : BOTTOM LOG INTERVAL
TLI .M                      2931 : TOP LOG INTERVAL
CS  .MM                      244 : CASING SIZE
CBD .M                      2934 : CASING BOTTOM DRILLER
CBL .M                      2931 : CASING BOTTOM LOGGER
BS  .MM                      216 : BIT SIZE
BSD .M                      4833 : BIT SIZE AT DEPTH
DFT .                   GEL CHEM : DRILLING FLUID TYPE
DFD .                       1115 : DRILLING FLUID DENSITY
DFV .                         70 : DRILLING FLUID VISCOSITY
DFPH.                       10.5 : DRILLING FLUID PH
DFL .                          6 : DRILLING FLUID LOSS
MSS .                CIRCULATION : MUD SAMPLE SOURCE
RMF .OHMM                   1.16 : RESISTIVITY MUD FILTRATE SAMPLE
MFST.DEGC                   14.4 : MUD FILTRATE SAMPLE TEMPERATURE
RMC .OHMM                   1.96 : RESISTIVITY MUD CAKE
MCST.DEGC                     10 : MUD CAKE SAMPLE TEMPERATURE
MFSS.                     FILTER : MUD FILTRATE SAMPLE SOURCE
MCSS.                      PRESS : MUD CAKE SAMPLE SOURCE
RMB .OHMM                   0.34 : RESISTIVITY MUD AT BHT
TCS .HRS                     245 : TIME CIRCULATED STOPPED
TLAB.HRS                     115 : TIME LOGGER AT BOTTOM
LUN .                       8125 : LOGGING UNIT NUMBER
LUL .                         RD : LOGGING UNIT LOCATION
ENGI.                   GONNASON : RECORDING ENGINEER
WITN.                     NEWELL : WITNESSED BY
CLNT.                    A2DTECH : CLIENT CODE
ORIG. 6.5"/100M 16.5"/100M PRINT : ORIGIN OF DATA
UWI .           100031204517W500 : UNIQUE WELL ID
DICO.     A2D Technologies, Inc. : DIGITIZING COMPANY
~Other -----------------------------------------------------
DIL-DLL-BHC RUN IN COMBO & FDC-CNL-LOG RUN
RHOB AND DRHO CURVES DATA VERIFY FROM SMALL SECTION
~ASCII -----------------------------------------------------
# ...
 3800.00000  227.10110  211.88030  212.10880  212.10880    8.29940   93.36310 2798.92000   -0.05200    -999.25   -0.05200  120.49030   93.36310  171.91600  171.91600   72.04650   74.21600   70.65940   70.65940  120.49030  141.70250  245.06820  289.93910  141.70250   21.82990    0.01200    -999.25    0.01200 2796.27660  356.63770 -118.93610  -19.46100  356.63770
 3850.00000  229.96330  199.92040  199.97420  199.97420   13.65050   29.77570 2921.01400   -0.12340    -999.25   -0.12340   73.25740   29.77570  164.84890  164.84890   15.51100   16.41830   17.67320   17.67320   73.25740  110.76700  699.72330  544.03270  110.76700   93.79830    0.00220    -999.25    0.00220 2922.58740  312.96540 -104.20380  -15.43550  312.96540
 3900.00000  230.00810  202.84990  202.76780  202.76780    2.30540   -1.47800 2669.64400    0.02360    -999.25    0.02360  433.75810   -1.47800  163.73970  163.73970    7.13680    7.75820    7.83010    7.83010  433.75810  572.14000 1805.60020 1556.53430  572.14000  145.94200    0.00030    -999.25    0.00030 2669.57080 1010.37260 -127.50130  -49.43990 1010.37260
 3950.00000  267.43190  209.10910  209.11950  209.11950   17.06380  227.53270 2657.33200    0.03080    -999.25    0.03080   58.60370  227.53270  208.74050  208.74050   74.36030   81.77140   83.02810   83.02810   58.60370   75.26030   79.59810   83.09230   75.26030   89.53280    0.05660    -999.25    0.05660 2646.93040   90.12300  -71.40600   -4.46690   90.12300
 4000.00000  237.51800  206.58410  206.96290  206.96290    8.14420  161.06780 2791.90900   -0.04790    -999.25   -0.04790  122.78650  161.06780  161.21460  161.21460   10.05570    7.98050    8.06300    8.06300  122.78650  135.73710  209.66330  223.81710  135.73710  108.89350    0.01140    -999.25    0.01140 2794.01440  287.19860 -133.25080  -78.21240  287.19860
 4050.00000  272.39180  209.22180  209.35520  209.35520   46.55300  171.37240 2414.51200    0.17280    -999.25    0.17280   21.48090  171.37240  221.25720  221.25720   77.23120   68.15820   67.78090   67.78090   21.48090   23.01820   35.85090   30.51910   23.01820   27.29660    0.10690    -999.25    0.10690 2429.20430   30.86480  -85.37280  -42.23510   30.86480
 4100.00000  336.11150  210.69500  210.77780  210.77780    3.83850  185.43910 2435.03200    0.16080    -999.25    0.16080  260.51630  185.43910  172.27140  172.27140    9.12290   10.69790   10.85170   10.85170  260.51630  295.42620 2027.54990  351.18140  295.42620   14.85150    0.01520    -999.25    0.01520 2472.38280  971.09670 -158.27260 -127.03560  971.09670
 4150.00000  271.03110  205.71160  204.78910  204.78910    2.89160  249.02870 2613.89800    0.05620    -999.25    0.05620  345.83460  249.02870  157.41500  157.41500   13.93920   16.81650   16.98480   16.98480  345.83460  893.80730 1870.53970  650.14750  893.80730   84.28390    0.01420    -999.25    0.01420 2640.34740 1476.39580 -162.11360 -142.77730 1476.39580
 4200.00000  226.67200  201.85600  201.43150  201.43150   18.30180    8.24790 2707.43500    0.00150    -999.25    0.00150   54.63950    8.24790  162.62360  162.62360    9.74000    9.76030    9.83700    9.83700   54.63950   99.13290  383.70820  187.65810   99.13290  123.62610    0.00310    -999.25    0.00310 2706.43240  182.38770  -66.13610  -58.70050  182.38770
 4250.00000  259.26150  229.66460  229.77160  229.77160    1.49410  250.24750 2739.07000   -0.01700    -999.25   -0.01700  669.28470  250.24750  153.57960  153.57960   10.26980    9.20000    9.19470    9.19470  669.28470  516.22910 3759.82740  903.75630  516.22910    9.77940    0.03950    -999.25    0.03950 2736.49580 1580.52210 -118.19200 -122.65700 1580.52210
 4300.00000  239.03750  202.02840  201.49910  201.49910    1.65970  192.63120 2744.20000   -0.02000    -999.25   -0.02000  602.51560  192.63120  168.02600  168.02600   65.02790   59.10770   58.71070   58.71070  602.51560 2000.00000 1262.28220 1065.80090 2000.00000  127.11500    0.02370    -999.25    0.02370 2747.54860 1604.00570 -107.06530 -123.43100 1604.00570
 4350.00000  270.95490  203.70500  203.58760  203.58760    3.14080    -999.25 2691.36100    0.01090    -999.25    0.01090  318.38990    -999.25  159.09320  159.09320   14.20880   17.34330   17.28510   17.28510  318.38990  828.98090  630.93330  681.29870  828.98090   93.26450    0.00500    -999.25    0.00500 2688.34250  901.43190  -98.35290 -126.61930  901.43190
 4400.00000  238.77000  206.20770  206.23100  206.23100   16.93980  115.72800 2727.10000   -0.01000    -999.25   -0.01000   59.03240  115.72800  167.51420  167.51420   25.13490   31.01410   29.68010   29.68010   59.03240   96.81180  110.18360  132.77790   96.81180   58.48740    0.01020    -999.25    0.01020 2728.28130  139.66660  -88.43440 -128.60150  139.66660
 4450.00000  235.40010  206.38200  206.31110  206.31110  191.90170   22.96520 2702.98900    0.00410    -999.25    0.00410    5.21100   22.96520  222.91290  222.91290   87.06310   72.09780   70.96580   70.96580    5.21100    5.84530   10.49650   10.09880    5.84530    7.06430    0.12780    -999.25    0.12780 2703.36080    5.56810 -117.51430 -169.58210    5.56810
 4500.00000  238.00220  206.19810  205.95340  205.95340  226.98380   16.20370 2708.63200    0.00080    -999.25    0.00080    4.40560   16.20370  249.40280  249.40280  109.76060  116.14200  115.57470  115.57470    4.40560    4.24240    6.14310    5.38930    4.24240    7.04740    0.19960    -999.25    0.19960 2708.58890    5.63070  -18.17000  -82.13850    5.63070
 4550.00000  237.89090  205.81830  205.99360  205.99360  217.88870    5.22750 2731.03300   -0.01230    -999.25   -0.01230    4.58950    5.22750  233.20920  233.20920   97.58630   92.64880   93.60090   93.60090    4.58950    4.85610    6.10660    6.03460    4.85610    8.13740    0.17220    -999.25    0.17220 2729.66820    6.18440   68.94220   -5.90790    6.18440
 4600.00000  237.72150  205.43310  205.35510  205.35510   61.81310   -5.85320 2699.91100    0.00590    -999.25    0.00590   16.17780   -5.85320  190.12610  190.12610   44.42030   46.65630   46.68250   46.68250   16.17780   21.22190   26.21410   30.70250   21.22190   43.54390    0.04750    -999.25    0.04750 2700.97830   31.13820  -79.24590 -153.56910   31.13820
 4650.00000  238.05760  211.31330  210.90040  210.90040   25.23410   22.62200 2642.96800    0.03920    -999.25    0.03920   39.62890   22.62200  221.71780  221.71780  129.67190  144.28230  154.33430  154.33430   39.62890   57.49900   37.35820   46.70300   57.49900   30.17910    0.08560    -999.25    0.08560 2643.92290   94.08370  -14.81800  -88.61430   94.08370
 4700.00000  236.34770  213.26240  214.02290  214.02290   56.18390    4.33090 2717.01100   -0.00410    -999.25   -0.00410   17.79870    4.33090  197.96030  197.96030   70.27000   75.62650   75.27260   75.27260   17.79870   19.61330   19.59190   20.41880   19.61330   21.55190    0.07900    -999.25    0.07900 2715.28030   24.23680   17.25030  -56.01910   24.23680
 4750.00000  233.13370  207.74150  207.78220  207.78220    1.91710   11.80290 2733.76900   -0.01390    -999.25   -0.01390  521.63120   11.80290  158.62640  158.62640   10.46800    8.66080    8.71550    8.71550  521.63120  442.67820 37230.39060 16661.38670  442.67820  133.85070   -0.00000    -999.25   -0.00000 2730.37300 1712.77770   52.91800  -19.82450 1712.77770
 4800.00000  223.45500  203.01520  202.38380  202.38380    5.03690   25.68070 2584.31500    0.07350    -999.25    0.07350  198.53390   25.68070  197.52430  197.52430   13.38360   13.91140   13.61290   13.61290  198.53390  154.59180  736.38560  104.86070  154.59180   12.71770    0.00440    -999.25    0.00440 2583.27000  180.70780  -45.22450 -117.44020  180.70780
