~Version ---------------------------------------------------
VERS.      2.0 : CWLS log ASCII Standard -VERSION 2.0
WRAP.       NO : One line per depth step
CREA. 12/20/12 : LAS Creation Date
~Well ------------------------------------------------------
STRT.M                          450.0 : START DEPTH
STOP.M                         3100.0 : STOP DEPTH
STEP.M                       50.00000 : STEP LENGTH
NULL.                         -999.25 : NULL VALUE
COMP.     NORCEN ENERGY RESOURCES LTD : COMPANY
WELL. NORCEN ET AL STURLS 16-14-68-21 : WELL
FLD .                                 : FIELD
LOC .                                 : LOCATION
CTRY.                          CANADA : COUNTRY
SRVC.                    Schlumberger : SERVICE COMPANY
DATE.                     30-Aug-1985 : LOGDATE
PROV.                         Alberta : PROVINCE
UWI .                100161406821W500 : UNIQUE WELL ID
SLAT.WGS84                   54.89229 : SURFACE LATITUDE
SLON.WGS84                  -117.0813 : SURFACE LONGITUDE
~Curve Information -----------------------------------------
DEPT    .M      : DEPTH METER
CALDED  .MM     : CALIPER FROM CNFD LOG
CALSED  .MM     : CALIPER FROM BCS LOG [ADJ.TO GRDED]
CALWS   .MM     : CALIPER [CALDED]
CONDWS  .MMHO   : CONDUCTIVITY [1000/DRESWS]
DCORWS  .KG/M3  : DENSITY CORRECTION [DRHOED]
DENWS   .KG/M3  : FORMATION BULK DENSITY [RHOBED]
DPHILSED.V/V    : DENSITY POROSITY LIMESTONE [M=2.71, F=1] FROM CNFD LOG
DPHISSED.V/V    : DENSITY POROSITY SANDSTONE [M=2.65, F=1] FROM CNFD LOG
DPOLSWS .V/V    : DENSITY POROSITY LIMESTONE [CALCULATED FROM DENWS, M=2.71, F=1.0]
DRESWS  .OHMM   : DEEP RESISTIVITY [ILDED]
DRHOED  .KG/M3  : DENSITY CORRECTION FROM CNFD LOG
DTED    .US/M   : DELTA-T FROM BCS LOG [ADJ.TO GRDED]
DTWS    .US/M   : COMPRESSIONAL SONIC [DTED]
GRDED   .GAPI   : GAMMA RAY FROM CNFD LOG
GRSED   .GAPI   : GAMMA RAY FROM BCS LOG [ADJ.TO GRDED]
GRWS    .GAPI   : GAMMA RAY [GRSED]
ILDED   .OHMM   : DEEP INDUCTION FROM DIL-SFL LOG
ILMED   .OHMM   : MEDIUM INDUCTION FROM DIL-SFL LOG
MRESWS  .OHMM   : MEDIUM RESISTIVITY [ILMED]
NPHILSED.V/V    : NEUTRON POROSITY LIMESTONE FROM CNFD LOG
NPHISSED.V/V    : NEUTRON POROSITY SANDSTONE FROM CNFD LOG
NPOLSWS .V/V    : NEUTRON POROSITY LIMESTONE [NPHISSED CONVERTED TO LIMESTONE MATRIX & SPL. TO NPHILSED @ 1688.9M]
RHOBED  .KG/M3  : FORMATION BULK DENSITY FROM CNFD LOG
SFLUED  .OHMM   : SHALLOW FOCUSED FROM DIL-SFL LOG
SPRED   .MV     : SPONTANEOUS POTENTIAL FROM DIL-SFL LOG
SPWS    .MV     : SPONTANEOUS POTENTIAL [BASELINE 0 MV, SPRED]
SRESWS  .OHMM   : SHALLOW RESISTIVITY [SFLUED]
TENDED  .N      : TENSION FROM CNFD LOG
TENRED  .N      : TENSION FROM DIL-SFL LOG
TENSED  .N      : TENSION FROM BCS LOG [ADJ.TO GRDED]
~Params ----------------------------------------------------
PD  .                         GL : PERMANENT DATUM
EPD .M                     704.4 : ELEVATION PERMANENT DATUM
LMF .                         KB : LOG MEASURED FROM
DAPD.M                       6.4 : FEET ABOVE PERMANENT DATUM
DMF .                         KB : DRILLING MEASURED FROM
EKB .M                     710.8 : KELLY BUSHING
EDF .M                     710.4 : DRILLING FLOOR
EGL .M                     704.4 : GROUND LEVEL
DATE.                   08/30/85 : RUN DATE
RUN .                          1 : RUN NUMBER
DD  .M                      3145 : DEPTH DRILLER
DL  .M                      3149 : DEPTH LOGGER
BLI .M                      3148 : BOTTOM LOG INTERVAL
TLI .M                       447 : TOP LOG INTERVAL
CS  .MM                      245 : CASING SIZE
CBD .M                       447 : CASING BOTTOM DRILLER
CBL .M                       447 : CASING BOTTOM LOGGER
BS  .MM                      222 : BIT SIZE
BSD .M                      3145 : BIT SIZE AT DEPTH
DFT .                  FRESH GEL : DRILLING FLUID TYPE
DFD .                       1155 : DRILLING FLUID DENSITY
DFV .                         83 : DRILLING FLUID VISCOSITY
DFPH.                          9 : DRILLING FLUID PH
DFL .                          9 : DRILLING FLUID LOSS
MSS .                   FLOWLINE : MUD SAMPLE SOURCE
RMS .OHMM                   1.58 : RESISTIVITY MUD SAMPLE
MST .DEGC                     17 : MUD SAMPLE TEMPERATURE
RMF .OHMM                   1.22 : RESISTIVITY MUD FILTRATE SAMPLE
MFST.DEGC                     19 : MUD FILTRATE SAMPLE TEMPERATURE
RMC .OHMM                  0.436 : RESISTIVITY MUD CAKE
MCST.DEGC                     92 : MUD CAKE SAMPLE TEMPERATURE
MFSS.                       MEAS : MUD FILTRATE SAMPLE SOURCE
MCSS.                       MEAS : MUD CAKE SAMPLE SOURCE
RMB .OHMM                  0.537 : RESISTIVITY MUD AT BHT
TCS .HRS                    1930 : TIME CIRCULATED STOPPED
TLAB.HRS                     820 : TIME LOGGER AT BOTTOM
LUN .                       8370 : LOGGING UNIT NUMBER
LUL .                         GP : LOGGING UNIT LOCATION
ENGI.                     LOHNES : RECORDING ENGINEER
WITN.                    CROWDIS : WITNESSED BY
CLNT.                    A2DTECH : CLIENT CODE
ORIG. 6.5"/100M 16.5"/100M PRINT : ORIGIN OF DATA
UWI .           100161406821W500 : UNIQUE WELL ID
DICO.     A2D Technologies, Inc. : DIGITIZING COMPANY
~Other -----------------------------------------------------
~ASCII -----------------------------------------------------
# ...
 1650.00000  272.64740  254.73360  272.64740  318.28890   -0.72960 2400.70650    -999.25    0.15370    0.18090    3.14180   -0.72960  246.04310  246.04310   85.16900   86.73660   86.73660    3.14180    4.93410    4.93410    -999.25    0.28050    0.23650 2400.70650    9.47760 -151.25110  -69.68910    9.47760 3315.13280 11868.38110 12572.70310
 1700.00000  254.91160  278.69500  254.91160   81.42060    3.27110 2725.55420   -0.00120    -999.25   -0.00910   12.28190    3.27110  181.07470  181.07470   38.25240   34.76500   34.76500   12.28190   11.02400   11.02400    0.16210    -999.25    0.16210 2725.55420   12.73890 -108.75390  -18.89820   12.73890 3373.75200 12332.41950 12971.44530
 1750.00000  240.26280  234.16140  240.26280   76.74180  138.73560 2738.35450   -0.01340    -999.25   -0.01660   13.03070  138.73560  173.86240  173.86240   23.51570   24.69680   24.69680   13.03070   23.55030   23.55030    0.10310    -999.25    0.10310 2738.35450   89.04090 -161.05010  -88.14060   89.04090 3546.60450 12553.86850 13014.50410
 1800.00000  270.93510  263.01820  270.93510   54.38030  -12.65200 2675.63500    0.02000    -999.25    0.02010   18.38900  -12.65200  190.68300  190.68300   60.46710   58.57960   58.57960   18.38900   17.76130   17.76130    0.08660    -999.25    0.08660 2675.63500   28.05220  -76.43780  -21.34780   28.05220 3574.45390 12899.33250 13436.70920
 1850.00000  262.29880  286.16550  262.29880  389.97000   -1.63060 2611.93020    0.05760    -999.25    0.05740    2.56430   -1.63060  195.24550  195.24550   42.55530   41.00840   41.00840    2.56430    2.94430    2.94430    0.15800    -999.25    0.15800 2611.93020   11.11970 -110.21270  -60.53480   11.11970 3636.63090 12899.81020 13823.47410
 1900.00000  267.71120  289.34740  267.71120   46.50950   -7.97590 2650.88180    0.03480    -999.25    0.03460   21.50100   -7.97590  170.14920  170.14920   18.75060   20.10120   20.10120   21.50100   27.48950   27.48950    0.04760    -999.25    0.04760 2650.88180  114.00070 -141.64580  -91.49140  114.00070 3752.12210 13166.32320 14099.72330
 1950.00000  258.75330  268.09320  258.75330   85.77290    1.01230 2604.77860    0.10220    -999.25    0.06150   11.65870    1.01230  164.37620  164.37620   38.55300   42.66460   42.66460   11.65870   14.90640   14.90640    0.05990    -999.25    0.05990 2604.77860   83.99430  -65.25740  -14.62650   83.99430 3833.94140 13542.92250 14475.95080
 2000.00000  287.16450  292.13130  287.16450   41.83510  -14.50050 2693.16820    0.00950    -999.25    0.00980   23.90340  -14.50050  187.37570  187.37570   47.84100   50.70560   50.70560   23.90340   21.52060   21.52060    0.10850    -999.25    0.10850 2693.16820   29.15190  -57.43520   -6.32780   29.15190 3854.13160 13589.46250 14562.56750
 2050.00000  250.05340  272.34990  250.05340   31.03090   -9.88950 2680.10030    0.01660    -999.25    0.01750   32.24610   -9.88950  187.97960  187.97960   51.44130   50.13770   50.13770   32.24610   27.39510   27.39510    0.10550    -999.25    0.10550 2680.10030   44.44090  -57.77840   -6.19460   44.44090 3943.63280 13928.88310 14996.51620
 2100.00000  236.87220  239.17900  236.87220   12.84180  -14.33470 2690.96450    0.01060    -999.25    0.01120   77.88830  -14.33470  179.10640  179.10640   39.02260   35.48770   35.48770   77.88830   74.14870   74.14870    0.06780    -999.25    0.06780 2690.96450   99.44060  -66.48870  -14.42830   99.44060 4008.29980 14100.41810 15071.69580
 2150.00000  249.24560  261.33810  249.24560    5.77040  -14.70110 2706.76600    0.00210    -999.25    0.00190  173.44560  -14.70110  165.58180  165.58180   28.52880   23.63280   23.63280  173.44560  165.94850  165.94850    0.06600    -999.25    0.06600 2706.76600  282.19340  -86.26120  -33.72430  282.19340 4087.41220 14237.02530 15274.96660
 2200.00000  235.87420  255.23860  235.87420    0.51960    9.12870 2687.34150    0.01200    -999.25    0.01320 1924.63020    9.12870  170.81720  170.81720   16.13240   18.39270   18.39270 1924.63020  246.52120  246.52120    0.01070    -999.25    0.01070 2687.34150  889.23670 -125.99730  -71.44830  889.23670 4087.86040 14645.87330 15632.71400
 2250.00000  225.20980  243.22210  225.20980   16.64720    5.12140 2633.40140    0.04500    -999.25    0.04480   60.07010    5.12140  172.21030  172.21030   13.95440   13.77330   13.77330   60.07010   66.71500   66.71500    0.03130    -999.25    0.03130 2633.40140  145.94540 -141.69710  -84.78780  145.94540 4084.39380 14778.61140 15751.93790
 2300.00000  227.29250  246.96910  227.29250    1.35790  -20.10900 2694.66110    0.00840    -999.25    0.00900  736.41780  -20.10900  160.80910  160.80910   16.86680   15.15170   15.15170  736.41780  249.36490  249.36490    0.00910    -999.25    0.00910 2694.66110  340.44170 -150.46450  -91.19490  340.44170 4158.58150 15219.88250 16144.15450
 2350.00000  225.07090  243.05920  225.07090    2.43150   -0.37960 2701.10640    0.00580    -999.25    0.00520  411.26920   -0.37960  161.90210  161.90210   13.94360   16.23250   16.23250  411.26920  195.44300  195.44300    0.00620    -999.25    0.00620 2701.10640  239.40320 -188.91070 -127.28080  239.40320 4227.20610 15430.01870 16352.96020
 2400.00000  229.65420  247.25690  229.65420   66.17390    5.50500 2752.95040   -0.02540    -999.25   -0.02510   15.11170    5.50500  164.87720  164.87720   30.74130   31.58300   31.58300   15.11170   17.32600   17.32600    0.12190    -999.25    0.12190 2752.95040   34.03370 -150.60700  -86.61680   34.03370 4245.18360 15790.40610 16289.93290
 2450.00000  239.33440  243.05690  239.33440    2.70260  -23.63940 2676.35280    0.01870    -999.25    0.01970  370.00740  -23.63940  166.02750  166.02750   31.91440   28.01100   28.01100  370.00740  242.74450  242.74450    0.01600    -999.25    0.01600 2676.35280  293.02870 -109.47620  -43.12570  293.02870 4392.40630 16206.92820 16888.01010
 2500.00000  247.07760  257.89880  247.07760   38.50920  -15.93580 2675.50930    0.02070    -999.25    0.02020   25.96780  -15.93580  185.08780  185.08780   45.28010   39.40180   39.40180   25.96780   28.86660   28.86660    0.08560    -999.25    0.08560 2675.50930   38.55450  -70.24010   -1.52930   38.55450 4460.52930 16399.87960 17101.15330
 2550.00000  328.95150  351.89230  328.95150  175.99440   94.36110 2445.29470    0.15680    -999.25    0.15480    5.68200   94.36110  248.91900  248.91900   88.90930   85.78280   85.78280    5.68200    5.00810    5.00810    0.38280    -999.25    0.38280 2445.29470    5.95470  -70.04200  -11.34760    5.95470 4488.23000 16446.82790 16904.65710
 2600.00000  348.60060  365.07070  348.60060  178.79810  114.30900 2423.01100    0.16550    -999.25    0.16780    5.59290  114.30900  254.11000  254.11000   82.40630   75.73840   75.73840    5.59290    4.34460    4.34460    0.40540    -999.25    0.40540 2423.01100    5.60920  -64.44060  -15.93830    5.60920 4453.46970 16746.65540 17097.36300
 2650.00000  240.55980  246.98390  240.55980   64.65890   69.48550 2433.50230    0.15040    -999.25    0.16170   15.46640   69.48550  229.98920  229.98920   94.15510   91.87600   91.87600   15.46640   19.01680   19.01680    0.19650    -999.25    0.19650 2433.50230   22.84920  -44.56070   -5.87470   22.84920 4582.44270 17097.41590 17419.73980
 2700.00000  238.34660  251.40260  238.34660   84.93170    9.92150 2691.33390    0.01130    -999.25    0.01090   11.77430    9.92150  223.07230  223.07230   81.12060   77.26510   77.26510   11.77430   12.92830   12.92830    0.18960    -999.25    0.18960 2691.33390   14.91700  -42.36870   -8.13760   14.91700 4749.49680 17362.07130 17869.42390
 2750.00000  230.63950  251.30800  230.63950   92.20230    7.65860 2596.43830    0.06800    -999.25    0.06640   10.84580    7.65860  227.49120  227.49120   87.27450   77.84360   77.84360   10.84580   11.15950   11.15950    0.20460    -999.25    0.20460 2596.43830   16.66470  -36.65860   -5.96030   16.66470 4791.12870 17603.45810 18061.23990
 2800.00000  245.39980  249.23300  245.39980   25.97930   81.25650 2685.25500    0.00770    -999.25    0.01450   38.75320   81.25650  202.68320  202.68320   64.90100   66.03190   66.03190   38.75320   41.88880   41.88880    0.13520    -999.25    0.13520 2685.25500   53.30430  -42.00070   -6.76320   53.30430 4777.17600 17929.95710 18422.83650
