~Version ---------------------------------------------------
VERS.      2.0 : CWLS log ASCII Standard -VERSION 2.0
WRAP.       NO : One line per depth step
CREA. 08/04/17 : LAS Creation Date
~Well ------------------------------------------------------
STRT.FT                       1050.0 : START DEPTH
STOP.FT                      11000.0 : STOP DEPTH
STEP.FT                     50.00000 : STEP LENGTH
NULL.                        -999.25 : NULL VALUE
COMP.           PETROFINA CANADA LTD : COMPANY
WELL. FINA AMOCO HB GROAT 10-9-58-16 : WELL
FLD .                             WC : FIELD
LOC .                                : LOCATION
CTRY.                         CANADA : COUNTRY
SRVC.         Schlumberger of Canada : SERVICE COMPANY
DATE.                    08-Apr-1977 : LOGDATE
PROV.                        Alberta : PROVINCE
UWI .               100100905816W500 : UNIQUE WELL ID
SLAT.WGS84                  54.00097 : SURFACE LATITUDE
SLON.WGS84                 -116.3132 : SURFACE LONGITUDE
~Curve Information -----------------------------------------
DEPT    .FT    : Depth Curve
CALDED  .IN    : CALIPER FROM COMPENSATED NEUTRON FORMATION DENSITY LOG
CALSED  .IN    : CALIPER FROM BOREHOLE COMPENSATED SONIC LOG [ADJ. TO ILDED/CALDED]
CALWS   .IN    : CALIPER [CALSED SPL. TO CALDED @ 6213']
CONDWS  .MMHO  : CONDUCTIVITY [1000/DRESWS]
DCORED  .G/C3  : DENSITY CORRECTION FROM COMPENSATED NEUTRON FORMATION DENSITY LOG
DCORWS  .G/C3  : DENSITY CORRECTION [DCORED]
DENWS   .G/C3  : FORMATION BULK DENSITY [RHOBED]
DPHILSED.V/V   : DENSITY POROSITY LIMESTONE [M=2.71 F=1.0] FROM COMPENSATED NEUTRON FORMATION DENSITY LOG [ADJ. TO RHOBED]
DPHISSED.V/V   : DENSITY POROSITY SANDSTONE [M=2.65 F=1.0] FROM COMPENSATED NEUTRON FORMATION DENSITY LOG [ADJ. TO RHOBED]
DPOLSWS .V/V   : DENSITY POROSITY LIMESTONE [M=2.71 F=1.0 CALCULATED FROM DENWS]
DRESWS  .OHMM  : DEEP RESISTIVITY [ILDED]
DTED    .US/F  : DELTA-T (INTERVAL TRANSIT TIME)  FROM BOREHOLE COMPENSATED SONIC LOG [ADJ. TO ILDED]
DTWS    .US/F  : COMPRESSIONAL SONIC [DTED]
GRDED   .GAPI  : GAMMA RAY FROM COMPENSATED NEUTRON FORMATION DENSITY LOG
GRSED   .GAPI  : GAMMA RAY  FROM BOREHOLE COMPENSATED SONIC LOG [GRSED IN CASING FROM 1045 - 1158.5'] [ADJ. TO ILDED]
GRWS    .GAPI  : GAMMA RAY [GRSED]
ILDED   .OHMM  : DEEP INDUCTION RESISTIVITY  FROM DUAL INDUCTION-LATEROLOG
ILMED   .OHMM  : MEDIUM INDUCTION RESISTIVITY  FROM DUAL INDUCTION-LATEROLOG
LL8ED   .OHMM  : LATEROLOG 8 FROM DUAL INDUCTION-LATEROLOG
MRESWS  .OHMM  : MEDIUM RESISTIVITY [ILMED]
NPHILSED.V/V   : NEUTRON POROSITY LIMESTONE FROM COMPENSATED NEUTRON FORMATION DENSITY LOG [ADJ. TO RHOBED]
NPHISSED.V/V   : NEUTRON POROSITY SANDSTONE FROM COMPENSATED NEUTRON FORMATION DENSITY LOG [ADJ. TO RHOBED]
NPOLSWS .V/V   : NEUTRON POROSITY LIMESTONE [NPHISSED MATRIX CONVERTED TO LIMESTONE AND SPL. TO NPHILSED FROM 2478 - 7249']
RHOBED  .G/C3  : FORMATION BULK DENSITY FROM COMPENSATED NEUTRON FORMATION DENSITY LOG
SPRED   .MV    : SPONTANEOUS POTENTIAL FROM DUAL INDUCTION-LATEROLOG
SPWS    .MV    : SPONTANEOUS POTENTIAL [BASELINE 0 MV, SPRED]
SRESWS  .OHMM  : SHALLOW RESISTIVITY [LL8ED]
~Params ----------------------------------------------------
PD  .                     GL : PERMANENT DATUM
EPD .FT               3310.2 : ELEVATION PERMANENT DATUM
LMF .                     KB : LOG MEASURED FROM
DAPD.FT                 13.5 : FEET ABOVE PERMANENT DATUM
EKB .FT                 3324 : KELLY BUSHING
EGL .FT               3310.2 : GROUND LEVEL
DATE.               04/08/77 : RUN DATE
RUN .                      1 : RUN NUMBER
DD  .FT                11000 : DEPTH DRILLER
DL  .FT                11005 : DEPTH LOGGER
BLI .FT                10999 : BOTTOM LOG INTERVAL
TLI .FT                 1159 : TOP LOG INTERVAL
CBD .FT                 1159 : CASING BOTTOM DRILLER
CBL .FT                 1159 : CASING BOTTOM LOGGER
BS  .IN                 8.75 : BIT SIZE
BSD .FT                11000 : BIT SIZE AT DEPTH
DFT .                    GEL : DRILLING FLUID TYPE
DFD .                    9.2 : DRILLING FLUID DENSITY
DFV .                    245 : DRILLING FLUID VISCOSITY
DFPH.                     10 : DRILLING FLUID PH
DFL .                    7.2 : DRILLING FLUID LOSS
MSS .               FLOWLINE : MUD SAMPLE SOURCE
RMS .OHMM               2.52 : RESISTIVITY MUD SAMPLE
MST .DEGF                 56 : MUD SAMPLE TEMPERATURE
RMF .OHMM               2.35 : RESISTIVITY MUD FILTRATE SAMPLE
MFST.DEGF                 50 : MUD FILTRATE SAMPLE TEMPERATURE
TCS .HRS                 3.5 : TIME CIRCULATED STOPPED
LUN .                   7809 : LOGGING UNIT NUMBER
LUL .                    EDM : LOGGING UNIT LOCATION
ENGI.               BERNISKY : RECORDING ENGINEER
WITN.                 HALKOW : WITNESSED BY
CLNT.                A2DTECH : CLIENT CODE
ORIG.            2" 5" PRINT : ORIGIN OF DATA
UWI .       100100905816W500 : UNIQUE WELL ID
DICO. A2D Technologies, Inc. : DIGITIZING COMPANY
~Other -----------------------------------------------------
~ASCII -----------------------------------------------------
# ...
 4950.00000   10.46940    9.54350    9.54350  155.77340    0.26070    0.26070    2.05070    -999.25    0.36360    0.38550    6.41960   82.68190   82.68190  104.75780  101.12590  101.12590    6.41960    6.64280    7.14800    6.64280    -999.25    0.34020    0.29640    2.05070  -65.54600   -3.51590    7.14800
 5000.00000   11.75690   10.08430   10.08430  159.91050    0.21540    0.21540    1.95060    -999.25    0.42020    0.44410    6.25350   88.07920   88.07920  103.67680  105.88430  105.88430    6.25350    6.51030    6.68560    6.51030    -999.25    0.39280    0.34980    1.95060  -67.65610   -5.92260    6.68560
 5050.00000   10.19740    9.85190    9.85190  136.33080    0.26480    0.26480    2.07810    -999.25    0.35020    0.36950    7.33510   85.75820   85.75820   96.71090   94.85730   94.85730    7.33510    7.59270    7.61590    7.59270    -999.25    0.33730    0.29350    2.07810  -67.35720   -5.92180    7.61590
 5100.00000   10.62700    9.33730    9.33730  100.97950    0.23170    0.23170    2.15940    -999.25    0.28730    0.32200    9.90300   73.58800   73.58800   90.31520   81.88600   81.88600    9.90300   10.24750   11.52200   10.24750    -999.25    0.29250    0.24850    2.15940  -67.72810   -6.59070   11.52200
 5150.00000   10.51400    9.59250    9.59250  126.61110    0.26280    0.26280    2.12290    -999.25    0.32370    0.34330    7.89820   81.38340   81.38340  102.66060   96.60710   96.60710    7.89820    8.17580    8.24780    8.17580    -999.25    0.33620    0.29240    2.12290  -65.22800   -4.38870    8.24780
 5200.00000   11.00530    9.50070    9.50070  109.23240    -999.25    -999.25    2.20830    -999.25    0.27640    0.29340    9.15530   76.76800   76.76800   98.83540   97.43110   97.43110    9.15530    9.48760    9.66990    9.48760    -999.25    0.29560    0.25160    2.20830  -66.49350   -5.95370    9.66990
 5250.00000   11.32960    9.87350    9.87350  138.91400    0.23570    0.23570    2.26070    -999.25    0.24460    0.26270    7.19870   79.64360   79.64360   99.89110  104.89740  104.89740    7.19870    7.45140    8.16530    7.45140    -999.25    0.35940    0.31590    2.26070  -65.30100   -5.05780    8.16530
 5300.00000   11.50100    9.84650    9.84650  150.82050    0.26120    0.26120    2.13870    -999.25    0.30230    0.33410    6.63040   86.70930   86.70930   99.71010  107.87390  107.87390    6.63040    6.86040    7.59400    6.86040    -999.25    0.35740    0.31380    2.13870  -64.44020   -4.49510    7.59400
 5350.00000   12.14900   10.46760   10.46760  164.75280    0.25990    0.25990    2.02670    -999.25    0.39470    0.39960    6.06970   89.13420   89.13420   99.45380  109.51490  109.51490    6.06970    6.28110    7.24770    6.28110    -999.25    0.40970    0.36700    2.02670  -63.16720   -3.52020    7.24770
 5400.00000   12.09080    9.80660    9.80660  148.18770    0.24370    0.24370    2.03010    -999.25    0.38240    0.39760    6.74820   90.90790   90.90790  105.09150  113.27370  113.27370    6.74820    6.99180    8.24550    6.99180    -999.25    0.42720    0.38490    2.03010  -61.24690   -1.89790    8.24550
 5450.00000   10.73610    9.97420    9.97420  127.10080    -999.25    -999.25    2.18770    -999.25    0.28020    0.30540    7.86810   87.76570   87.76570  114.38650  123.56090  123.56090    7.86810    8.15010    9.45610    8.15010    -999.25    0.37020    0.32690    2.18770  -63.92830   -4.86370    9.45610
 5500.00000   10.98760    9.93900    9.93900  137.37770    -999.25    -999.25    2.11610    -999.25    0.33690    0.34730    7.27920   85.33220   85.33220  114.65270  113.76440  113.76440    7.27920    7.56210    9.24830    7.56210    -999.25    0.36880    0.32540    2.11610  -62.78910   -4.00510    9.24830
 5550.00000   10.33850    9.35740    9.35740  103.71290    0.17450    0.17450    2.42670    -999.25    0.12780    0.16570    9.64200   91.84320   91.84320  128.52980  130.13930  130.13930    9.64200   10.12350   11.88560   10.12350    -999.25    0.39150    0.34850    2.42670  -62.35510   -3.85300   11.88560
 5600.00000   10.51250    9.34910    9.34910   92.33700    0.22810    0.22810    2.44980    -999.25    0.13410    0.15220   10.82990   87.69290   87.69290  121.95860  106.57880  106.57880   10.82990   11.36280   13.21460   11.36280    -999.25    0.34000    0.29630    2.44980  -63.89320   -5.67310   13.21460
 5650.00000   11.26200    9.50420    9.50420  116.27100    0.26390    0.26390    2.31090    -999.25    0.21470    0.23340    8.60060   89.24000   89.24000  118.96520  120.71250  120.71250    8.60060    8.91810   11.13740    8.91810    -999.25    0.35820    0.31470    2.31090  -61.57950   -3.64140   11.13740
 5700.00000    9.26570    9.14620    9.14620   64.35760    0.02650    0.02650    2.41150    -999.25    0.15170    0.17460   15.53830  103.64280  103.64280  142.81230  142.02990  142.02990   15.53830   16.60050   26.44640   16.60050    -999.25    0.44340    0.40150    2.41150  -63.01360   -5.35890   26.44640
 5750.00000   12.94880   10.03670   10.03670  141.83990    0.26400    0.26400    1.98420    -999.25    0.41460    0.42440    7.05020   78.97330   78.97330   93.39410   91.93440   91.93440    7.05020    7.30080    7.60870    7.30080    -999.25    0.34120    0.29750    1.98420  -61.30420   -3.93010    7.60870
 5800.00000   12.97530   10.87120   10.87120  184.26390    0.26440    0.26440    1.87740    -999.25    0.44890    0.48690    5.42700   85.92150   85.92150   97.61800  103.61680  103.61680    5.42700    5.61520    6.27010    5.61520    -999.25    0.42940    0.38720    1.87740  -63.43230   -6.34020    6.27010
 5850.00000   11.15270    9.95090    9.95090  132.88680    0.18860    0.18860    1.82410    -999.25    0.45030    0.51810    7.52520   80.68890   80.68890   94.90590   95.90390   95.90390    7.52520    7.79140    8.69510    7.79140    -999.25    0.34970    0.30610    1.82410  -64.40250   -7.59230    8.69510
 5900.00000   11.88300    9.73280    9.73280  142.70630    0.25430    0.25430    2.06660    -999.25    0.36170    0.37630    7.00740   82.42880   82.42880  105.99480  114.17190  114.17190    7.00740    7.25060    7.92100    7.25060    -999.25    0.37250    0.32920    2.06660  -62.92920   -6.40100    7.92100
 5950.00000   12.24030   10.03520   10.03520  165.02550    0.26340    0.26340    2.13070    -999.25    0.31910    0.33880    6.05970   84.13100   84.13100  103.68010  105.10030  105.10030    6.05970    6.37130    7.36720    6.37130    -999.25    0.38250    0.33930    2.13070  -61.41140   -5.16660    7.36720
 6000.00000    -999.25   11.27440   11.27440  144.22730    0.19780    0.19780    1.83160    -999.25    0.45110    0.51370    6.93350   83.30590   83.30590   99.80690  106.20970  106.20970    6.93350    7.17150    7.58970    7.17150    -999.25    0.40290    0.36010    1.83160  -61.26480   -5.30060    7.58970
 6050.00000    -999.25   13.23140   13.23140  165.75780    0.14650    0.14650    1.56180    -999.25    -999.25    0.67150    6.03290   79.92590   79.92590  109.53400  107.82770  107.82770    6.03290    6.78250    6.25890    6.78250    -999.25    0.52460    0.48290    1.56180  -59.54960   -3.86740    6.25890
 6100.00000    -999.25   14.48590   14.48590  397.23520    0.15170    0.15170    1.57160    -999.25    -999.25    0.66570    2.51740   96.32130   96.32130   83.36270   84.09150   84.09150    2.51740    2.79920    3.34770    2.79920    -999.25    0.53010    0.48840    1.57160  -58.31570   -2.90900    3.34770
 6150.00000    -999.25   13.74450   13.74450  249.81260    0.20230    0.20230    1.70490    -999.25    0.45020    0.58780    4.00300   87.97060   87.97060   76.82810   81.29470   81.29470    4.00300    4.30370    5.67700    4.30370    -999.25    0.51020    0.46850    1.70490  -58.81110   -3.66730    5.67700
 6200.00000   15.17900   12.40700   12.40700  185.27040    0.16570    0.16570    1.58590    -999.25    0.45090    0.65740    5.39810   88.61750   88.61750   97.98180   89.92660   89.92660    5.39810    5.60490    6.72620    5.60490    -999.25    0.44400    0.40210    1.58590  -60.71960   -5.84010    6.72620
