~Version ---------------------------------------------------
VERS. 2.0 : CWLS log ASCII Standard -VERSION 2.0
WRAP.  NO : ONE LINE PER DEPTH STEP
~Well ------------------------------------------------------
STRT.F                                   347.3 : START DEPTH
STOP.F                                  9458.8 : STOP DEPTH
STEP.F                                 0.50000 : STEP LENGTH
NULL.                                  -999.25 : NULL VALUE
COMP. THE BRITISH AMERICAN OIL COMPANY LIMITED : COMPANY
WELL.              B.A. GOOSE RIVER 4-32-66-18 : WELL
FLD .                                          : FIELD
LOC .                                          : LOCATION
CTRY.                                   CANADA : COUNTRY
SRVC.                             Schlumberger : SERVICE COMPANY
DATE.                              02-Dec-1964 : LOGDATE
PROV.                                  Alberta : PROVINCE
UWI .                         100043206618W500 : UNIQUE WELL ID
SLAT.WGS84                            54.75185 : SURFACE LATITUDE
SLON.WGS84                           -116.6939 : SURFACE LONGITUDE
~Curve Information -----------------------------------------
DEPT.F    0   1   0  0 : 1 MEASURED DEPTH
GRN .GAPI 35 310 01 00 : GAMMA RAY FROM GRN LOG
NEUT.NAPI 35 330 01 00 : NEUTRON
GR  .GAPI 30 310 00 00 : GAMMA RAY
CILD.MMHO 05 110 46 00 : INDUCTION DEEP CONDUCTIVITY
ILD .OHMM 05 120 46 00 : INDUCTION DEEP RESISTIVITY
SN  .OHMM 05 040 16 00 : SHORT NORMAL RESISTIVITY
SPR .MV   05 010 01 00 : SPONTANEOUS POTENTIAL FROM RESISTIVITY LOG
GRS .GAPI 60 310 01 00 : GAMMA RAY FROM SONIC LOG
DT  .US/F 60 500 00 00 : DELTA-T (INTERVAL TRANSIT TIME)
CALS.IN   60 280 50 00 : CALIPER FROM SONIC LOG
DT_1.US/F 60 500 31 00 : DELTA-T (INTERVAL TRANSIT TIME)
~Params ----------------------------------------------------
PD  .                     GL : PERMANENT DATUM
EPD .FT                 2485 : ELEVATION PERMANENT DATUM
LMF .                     KB : LOG MEASURED FROM
DAPD.FT                   15 : FEET ABOVE PERMANENT DATUM
EKB .FT                 2500 : KELLY BUSHING
EGL .FT                 2485 : GROUND LEVEL
DATE.               12/02/64 : RUN DATE
RUN .                      1 : RUN NUMBER
DD  .FT                 9461 : DEPTH DRILLER
DL  .FT                 9460 : DEPTH LOGGER
BLI .FT                 9459 : BOTTOM LOG INTERVAL
TLI .FT                  781 : TOP LOG INTERVAL
CBD .FT                  784 : CASING BOTTOM DRILLER
CBL .FT                  781 : CASING BOTTOM LOGGER
BS  .IN                7.625 : BIT SIZE
BSD .FT                 9461 : BIT SIZE AT DEPTH
DFT .               GEL CHEM : DRILLING FLUID TYPE
DFD .                    9.8 : DRILLING FLUID DENSITY
DFV .                     95 : DRILLING FLUID VISCOSITY
DFPH.                    9.5 : DRILLING FLUID PH
DFL .                    7.4 : DRILLING FLUID LOSS
RMS .OHMM               2.38 : RESISTIVITY MUD SAMPLE
MST .DEGF                 64 : MUD SAMPLE TEMPERATURE
RMF .OHMM                2.1 : RESISTIVITY MUD FILTRATE SAMPLE
MFST.DEGF                 66 : MUD FILTRATE SAMPLE TEMPERATURE
RMC .OHMM               2.32 : RESISTIVITY MUD CAKE
MCST.DEGF                 66 : MUD CAKE SAMPLE TEMPERATURE
RMB .OHMM               0.84 : RESISTIVITY MUD AT BHT
TCS .HRS                   6 : TIME CIRCULATED STOPPED
LUN .                   3534 : LOGGING UNIT NUMBER
LUL .                    V V : LOGGING UNIT LOCATION
ENGI.               CHENOSKY : RECORDING ENGINEER
WITN.                  WEISS : WITNESSED BY
CLNT.                A2DTECH : CLIENT CODE
ORIG.            2" 5" PRINT : ORIGIN OF DATA
UWI .       100043206618W500 : UNIQUE WELL ID
DICO. A2D Technologies, Inc. : DIGITIZING COMPANY
~Other -----------------------------------------------------
~ASCII -----------------------------------------------------
# ...
 4251.30000    -999.25    -999.25    -999.25   97.78090    9.94010   13.90290  -51.07490   66.56240   78.77720    8.92070    -999.25
 4251.80000    -999.25    -999.25    -999.25   98.91890    9.88850   14.20300  -51.95140   63.58670   79.67460    8.96430    -999.25
 4252.30000    -999.25    -999.25    -999.25  100.05700    9.85240   14.28500  -53.91690   63.71590   80.37300    8.99060    -999.25
 4252.80000    -999.25    -999.25    -999.25  101.19500    9.81630   14.27210  -55.84430   64.31460   81.06610    9.01610    -999.25
 4253.30000    -999.25    -999.25    -999.25  102.82280    9.51410   13.76570  -56.55230   62.32490   82.14020    9.04420    -999.25
 4253.80000    -999.25    -999.25    -999.25  105.29420    9.28640   13.13330  -55.66050   62.80150   83.07240    9.09560    -999.25
 4254.30000    -999.25    -999.25    -999.25  107.99940    9.05690   12.30770  -54.39680   66.55480   82.83520    9.14700    -999.25
 4254.80000    -999.25    -999.25    -999.25  110.93980    8.77570   11.49390  -52.03580   65.93660   82.46970    9.18870    -999.25
 4255.30000    -999.25    -999.25    -999.25  114.35360    8.50710   10.80290  -49.42460   66.59050   82.33870    9.19800    -999.25
 4255.80000    -999.25    -999.25    -999.25  118.26770    8.24240   10.24180  -47.09480   69.43580   82.30350    9.20080    -999.25
 4256.30000    -999.25    -999.25    -999.25  122.78660    7.91610    9.83240  -45.19490   72.05480   82.25390    9.19750    -999.25
 4256.80000    -999.25    -999.25    -999.25  126.34070    7.72660    9.57100  -43.89790   74.53000   83.25620    9.22070    -999.25
 4257.30000    -999.25    -999.25    -999.25  129.61880    7.53520    9.31620  -43.34380   77.15760   84.36490    9.22590    -999.25
 4257.80000    -999.25    -999.25    -999.25  133.62510    7.27700    8.98530  -42.33020   82.51660   85.11720    9.27220    -999.25
 4258.30000    -999.25    -999.25    -999.25  138.82040    6.97110    8.81570  -41.49060   89.77230   87.35230    9.32250    -999.25
 4258.80000    -999.25    -999.25    -999.25  145.76550    6.57350    8.60240  -41.39070   88.24170   89.69500    9.43580    -999.25
 4259.30000    -999.25    -999.25    -999.25  155.65700    6.14210    8.36600  -41.22130   78.81730   90.85810    9.49110    -999.25
 4259.80000    -999.25    -999.25    -999.25  157.68900    6.24490    8.10610  -40.77960   79.93760   91.40280    9.64870    -999.25
 4260.30000    -999.25    -999.25    -999.25  153.10400    6.57490    8.11210  -41.13700   78.27150   97.03370   10.10830    -999.25
 4260.80000    -999.25    -999.25    -999.25  144.20460    7.09340    9.25200  -41.11220   72.27080  107.46820   10.44390    -999.25
 4261.30000    -999.25    -999.25    -999.25  135.19350    7.49930   10.52250  -40.86220   69.13720  120.37150    9.88890    -999.25
 4261.80000    -999.25    -999.25    -999.25  129.28480    7.54270   10.83660  -40.90500   65.41070  138.76820   10.52580    -999.25
 4262.30000    -999.25    -999.25    -999.25  132.06830    7.43580   10.34480  -40.93600   60.20540  144.44120   11.60800    -999.25
 4262.80000    -999.25    -999.25    -999.25  131.57250    7.66130    9.92680  -40.95010   60.68170  150.78120   14.33340    -999.25
 4263.30000    -999.25    -999.25    -999.25  123.75360    8.28120    9.77690  -40.90280   66.22140  144.77250   12.92640    -999.25
 4263.80000    -999.25    -999.25    -999.25  115.76750    8.60140    9.77510  -40.68100   67.01980  130.30050   10.58900    -999.25
 4264.30000    -999.25    -999.25    -999.25  113.53000    8.66030    9.88470  -40.36970   70.88480  119.59490   10.93230    -999.25
 4264.80000    -999.25    -999.25    -999.25  114.41440    8.55730   10.03290  -40.00410   73.87350  105.47520    9.97250    -999.25
 4265.30000    -999.25    -999.25    -999.25  119.33840    8.06900    9.99560  -39.62360   75.22540   92.07800    9.57950    -999.25
 4265.80000    -999.25    -999.25    -999.25  127.42600    7.69870    9.81830  -39.46870   79.28430   87.59670    9.60850    -999.25
 4266.30000    -999.25    -999.25    -999.25  133.17170    7.25290    9.62270  -39.65140   77.48880   85.88880    9.50920    -999.25
 4266.80000    -999.25    -999.25    -999.25  137.33380    7.09690    9.31080  -39.70560   76.19210   87.22660    9.52210    -999.25
 4267.30000    -999.25    -999.25    -999.25  140.13850    6.98540    9.17870  -39.73350   77.30670   91.20070    9.76240    -999.25
 4267.80000    -999.25    -999.25    -999.25  141.23320    6.99130    8.98410  -39.73230   76.51970   94.70660    9.57880    -999.25
 4268.30000    -999.25    -999.25    -999.25  140.96100    6.96760    8.74320  -39.71070   80.91770   95.70780    9.65190    -999.25
 4268.80000    -999.25    -999.25    -999.25  139.72920    7.03750    8.71930  -39.72360   83.52530   93.02340   10.26580    -999.25
 4269.30000    -999.25    -999.25    -999.25  139.39000    7.05690    8.99550  -39.88170   85.54900   91.96880   10.68810    -999.25
 4269.80000    -999.25    -999.25    -999.25  139.80620    7.03520    9.23530  -39.99100   88.82040   90.13840    9.96220    -999.25
 4270.30000    -999.25    -999.25    -999.25  140.54030    6.99510    9.43080  -40.05720   90.13010   83.22310    9.49980    -999.25
 4270.80000    -999.25    -999.25    -999.25  141.07030    6.97400    9.41090  -40.12400   84.48990   78.38780    9.42500    -999.25
 4271.30000    -999.25    -999.25    -999.25  140.98140    7.01860    9.26300  -40.17620   79.89720   77.91650    9.44150    -999.25
 4271.80000    -999.25    -999.25    -999.25  139.54410    7.08150    9.11240  -40.40440   82.88350   81.24070    9.43870    -999.25
 4272.30000    -999.25    -999.25    -999.25  137.48610    7.16280    9.09640  -40.51280   81.78120   84.02130    9.40530    -999.25
 4272.80000    -999.25    -999.25    -999.25  136.24850    7.25560    9.12210  -40.51280   81.15330   90.45900    9.39370    -999.25
 4273.30000    -999.25    -999.25    -999.25  134.82790    7.34970    9.05980  -40.51280   80.78950   92.62550    9.39320    -999.25
 4273.80000    -999.25    -999.25    -999.25  131.91000    7.54620    9.01140  -40.49850   75.05290   90.15520    9.53040    -999.25
 4274.30000    -999.25    -999.25    -999.25  128.42610    7.84270    9.22800  -40.75020   76.20300   88.71430    9.87540    -999.25
 4274.80000    -999.25    -999.25    -999.25  122.46740    8.24670    9.69830  -41.09520   78.71410   86.75350    9.45940    -999.25
 4275.30000    -999.25    -999.25    -999.25  116.86280    8.73310   10.23870  -41.39070   82.02220   85.56020    9.34120    -999.25
 4275.80000    -999.25    -999.25    -999.25  111.59050    8.99790   10.73230  -41.83270   77.79520   77.29140    9.30040    -999.25
 4276.30000    -999.25    -999.25    -999.25  107.92900    9.28020   11.00800  -42.50240   76.03380   76.11890    9.27910    -999.25
 4276.80000    -999.25    -999.25    -999.25  105.91310    9.35910   11.28050  -43.41790   75.00390   77.92730    9.26990    -999.25
 4277.30000    -999.25    -999.25    -999.25  105.91740    9.28250   11.31920  -44.07670   71.09490   78.72460    9.26530    -999.25
 4277.80000    -999.25    -999.25    -999.25  108.21210    9.12830   11.31860  -44.44650   67.12800   78.47490    9.26260    -999.25
 4278.30000    -999.25    -999.25    -999.25  111.43480    8.76240   11.23240  -44.50370   67.12880   77.79880    9.25570    -999.25
 4278.80000    -999.25    -999.25    -999.25  114.10370    8.55440   11.03230  -44.37020   66.93530   79.10860    9.25550    -999.25
 4279.30000    -999.25    -999.25    -999.25  116.10170    8.45000   10.72240  -44.00730   64.87040   79.26120    9.24080    -999.25
 4279.80000    -999.25    -999.25    -999.25  117.59040    8.42220   10.53320  -43.12500   62.41440   79.42150    9.23430    -999.25
 4280.30000    -999.25    -999.25    -999.25  116.85170    8.44460   10.40410  -42.44110   63.28770   79.63110    9.21900    -999.25
 4280.80000    -999.25    -999.25    -999.25  116.15100    8.48980   10.40670  -42.00650   66.03200   80.00510    9.19510    -999.25
 4281.30000    -999.25    -999.25    -999.25  116.41110    8.53050   10.51790  -41.63270   72.40440   80.79250    9.18490    -999.25
