~Version ---------------------------------------------------
VERS.      2.0 : CWLS log ASCII Standard -VERSION 2.0
WRAP.       NO : ONE LINE PER DEPTH STEP
CREA. 07/10/13 : LAS CREATION DATE
~Well ------------------------------------------------------
STRT.M                           450.0 : START DEPTH
STOP.M                          3700.0 : STOP DEPTH
STEP.M                        50.00000 : STEP LENGTH
NULL.                          -999.25 : NULL VALUE
COMP. AMOCO CANADA PETROLEUM CO., LTD. : COMPANY
WELL.        AMOCO BIGSTONE 16-1-61-22 : WELL
FLD .                        BIGSTONSE : FIELD
LOC .                                  : LOCATION
CTRY.                           CANADA : COUNTRY
SRVC.                    Dresser Atlas : SERVICE COMPANY
DATE.                      30-Apr-1982 : LOGDATE
PROV.                          Alberta : PROVINCE
UWI .                 100160106122W500 : UNIQUE WELL ID
SLAT.WGS84                    54.25341 : SURFACE LATITUDE
SLON.WGS84                   -117.1518 : SURFACE LONGITUDE
~Curve Information -----------------------------------------
DEPT    .M                                                                               : DEPTH METERS
ACED    .US/M                                                                            : ACOUSTIC FROM SONIC LOG
CALDED  .MM                                                                              : CALIPER FROM DENSITY LOG [DEPTH SHIFTED TO RES.]
CALSED  .MM                                                                              : CALIPER FROM SONIC LOG
CALWS   .MM                                                                              : CALIPER [CALSED]
CONDWS  .MMHO                                                                            : CONDUCTIVITY [1000/DRESWS]
CORRED  .KG/M3                                                                           : DENSITY CORRECTION FROM DENSITY LOG [DEPTH SHIFTED TO RES.]
DCORWS  .KG/M3                                                                           : DENSITY CORRECTION [CORRED]
DENED   .KG/M3                                                                           : BULK DESNITY FROM DENSITY LOG [DEPTH SHIFTED TO RES.]
DENWS   .KG/M3 :   BULK DENSITY [SPLICE:DEN2/DENED@2425.9. DEN2 CALCULATED FROM DPHISSED : M=2650, F=1000]
DPHILSED.V/V                                                                             : DENSITY POROSITY LIMESTONE FROM DENSITY LOG [DEPTH SHIFTED TO RES.]
DPHISSED.V/V                                                                             : DENSITY POROSITY SANDSTONE FROM DENSITY LOG [DEPTH SHIFTED TO RES.]
DPOLSWS .V/V                       :   DENSITY POROSITY LIMESTONE [CALCULATED FROM DENWS : M=2710, F=1000]
DRESWS  .OHMM                                               :   DEEP RESISTIVITY [SPLICE : ILD_1ED/LLDED@2427.7]
DTWS    .US/M                                                                            : DELTA TIME [ACED]
GRDED   .GAPI                                                                            : GAMMA RAY FROM DENSITY LOG [DEPTH SHIFTED TO RES.]
GRR_1ED .GAPI                                                                            : GAMMA RAY FROM DILSFL LOG
GRRED   .GAPI                                                                            : GAMMA RAY FROM DUAL LATEROLOG
GRSED   .GAPI                                                                            : GAMMA RAY FROM SONIC LOG
GRWS    .GAPI                                                      :   GAMMA RAY [SPLICE : GRDED/GRRED@3091.8. CASED FROM 2420.5 TO 2429.5, AND ABOVE 434]
ILD_1ED .OHMM                                                                            : DEEP INDUCTION RESISTIVITY
ILM_1ED .OHMM                                                                            : MEDIUM INDUCTION RESISTIVITY
LLDED   .OHMM                                                                            : LATEROLOG DEEP RESISTIVITY [DEPTH SHIFTED TO RES.]
LLSED   .OHMM                                                                            : LATEROLOG SHALLOW RESISTIVITY [DEPTH SHIFTED TO RES.]
MRESWS  .OHMM                                                                            : MEDIUM RESISTIVITY [ILM_1ED]
NPHILSED.V/V                                                                             : NEUTRON POROSITY LIMESTONE FROM DENSITY LOG [DEPTH SHIFTED TO RES.]
NPHISSED.V/V                                                                             : NEUTRON POROSITY SANDSTONE FROM DENSITY LOG [DEPTH SHIFTED TO RES.]
NPOLSWS .V/V                                      :   NEUTRON POROSITY LIMESTONE [SPLICE : NPHI2/NPHILSED@2421.8. SEE BELOW REMARKS IN OTEHR INFORMATION REGARDING TEMPORARY CURVE NPHI2]
SFL_1ED .OHMM                                                                            : SPHERICALLY FOCUSED LOG RESISTIVITY
SPR_1ED .MV                                                                              : SPONTANEOUS POTENTIAL FROM DILSFL LOG
SPRED   .MV                                                                              : SPONTANEOUS POTENTIAL FROM DUAL LATEROLOG [DEPTH SHIFTED TO RES.]
SPWS    .MV                                                                              : SPONTANEOUS POTENTIAL [BASELINE 0 MV] [SPR_1ED]
SRESWS  .OHMM                                            :   SHALLOW RESISTIVITY [SPLICE : SFL_1ED/LLSED@2427.9, SFL_1ED@3697.8]
TENDED  .LBF                                                                             : TENSION FROM DENSITY LOG [DEPTH SHIFTED TO RES.]
TENRED  .LBF                                                                             : TENSION FROM DUAL LATEROLOG [DEPTH SHIFTED TO RES.]
TENSED  .LBF                                                                             : TENSION FROM SONIC LOG
~Params ----------------------------------------------------
PD  .                         GL : PERMANENT DATUM
EPD .M                     956.1 : ELEVATION PERMANENT DATUM
LMF .                         KB : LOG MEASURED FROM
DAPD.M                       7.7 : FEET ABOVE PERMANENT DATUM
DMF .                         KB : DRILLING MEASURED FROM
EKB .M                     963.8 : KELLY BUSHING
EGL .M                     956.1 : GROUND LEVEL
DATE.                   04/30/82 : RUN DATE
RUN .                          3 : RUN NUMBER
DD  .M                      3700 : DEPTH DRILLER
DL  .M                      3704 : DEPTH LOGGER
BLI .M                      3703 : BOTTOM LOG INTERVAL
TLI .M                      2429 : TOP LOG INTERVAL
CBD .M                      2430 : CASING BOTTOM DRILLER
CBL .M                      2429 : CASING BOTTOM LOGGER
BS  .MM                      216 : BIT SIZE
BSD .M                      3700 : BIT SIZE AT DEPTH
DFT .                  GEL BENEX : DRILLING FLUID TYPE
DFD .                       1100 : DRILLING FLUID DENSITY
DFV .                         55 : DRILLING FLUID VISCOSITY
DFPH.                        9.5 : DRILLING FLUID PH
DFL .                        8.5 : DRILLING FLUID LOSS
MSS .                   FLOWLINE : MUD SAMPLE SOURCE
RMS .OHMM                    1.1 : RESISTIVITY MUD SAMPLE
MST .DEGC                     20 : MUD SAMPLE TEMPERATURE
RMF .OHMM                    1.0 : RESISTIVITY MUD FILTRATE SAMPLE
MFST.DEGC                     20 : MUD FILTRATE SAMPLE TEMPERATURE
RMC .OHMM                    1.8 : RESISTIVITY MUD CAKE
MCST.DEGC                     20 : MUD CAKE SAMPLE TEMPERATURE
MFSS.                       MEAS : MUD FILTRATE SAMPLE SOURCE
MCSS.                       MEAS : MUD CAKE SAMPLE SOURCE
RMB .OHMM                   0.34 : RESISTIVITY MUD AT BHT
TCS .HRS                      20 : TIME CIRCULATED STOPPED
LUN .                    HL 6265 : LOGGING UNIT NUMBER
LUL .                        EDM : LOGGING UNIT LOCATION
ENGI.               MURRY WERNER : RECORDING ENGINEER
WITN.            PHILLIPS WILSON : WITNESSED BY
CLNT.                    A2DTECH : CLIENT CODE
ORIG. 6.5"/100M 16.5"/100M PRINT : ORIGIN OF DATA
UWI .           100160106122W500 : UNIQUE WELL ID
DICO.     A2D Technologies, Inc. : DIGITIZING COMPANY
~Other -----------------------------------------------------
1. CNLD TOOL DEPTH SHFITED TO RES. VIA SPLICE OF NPHISS AND NPHILS TO SFL_1. SHIFT APPLIED TO REST OF TOOL.
2. TEMPORARY CURVE NPHI2 (LIMESTONE) CALCULATED FROM NPHISSED, COMPANY=BAKER-HUGHES, TOOL TYPE=2420. INPUT MATRIX=QUARTZ, OUTPUT MATRIX=LIME. SPLICED NPHI2 TO NPHILSED TO MAKE NPOLSWS.
3. CALCUALTED DEN2 FROM DPHISSED M=2650, F=1000. SPLICED DEN2/DENED TO MAKE DENWS. CALUCLATED DPOLSWS FROM DENWS (M=2710, F=1000).
4. OTHER SHIFTING IN WELL WAS SLIGHT, WITH DUAL LATEROLOG TOOL SHFITED VIA LLS TO SFL_1.
5. WSR GAMMA RAY AND NEUTRON POROSITY CURVES TAKEN INTO CASING AS FAR AS POSSIBLE AS PER SPECS.
~ASCII -----------------------------------------------------
# ...
 1500.00000  243.43280  396.59750  322.33570  322.33570   59.00780  127.70000  127.70000 2296.26340 2294.26000    -999.25    0.21560    0.24310   16.94690  243.43280   68.79170   59.34300    -999.25   58.86940   68.79170   16.94690   19.20770    -999.25    -999.25   19.20770    -999.25    0.21850    0.17850   15.26700  -51.12420    -999.25   -4.02730   15.26700    3.36800    -999.25  -28.99580
 1550.00000  257.85440  416.79750  329.90540  329.90540  103.83140   80.85000   80.85000 1972.52490 1946.60500    -999.25    0.42630    0.44640    9.63100  257.85440   97.23620   81.69760    -999.25   82.21020   97.23620    9.63100   10.31850    -999.25    -999.25   10.31850    -999.25    0.33640    0.29640    9.62390  -47.50140    -999.25    0.19480    9.62390  -12.81320    -999.25   31.04300
 1600.00000  247.54300  395.07750  328.45280  328.45280   80.45120   69.20000   69.20000 1871.44380 1926.80500    -999.25    0.43830    0.45800   12.42990  247.54300   96.27570   78.44980    -999.25   78.69360   96.27570   12.42990   12.89850    -999.25    -999.25   12.89850    -999.25    0.32100    0.28100   12.04200  -48.64770    -999.25   -0.95150   12.04200   47.72080    -999.25   13.08400
 1650.00000  255.59450  409.63000  331.75790  331.75790   88.46430   81.35000   81.35000 1956.29470 1966.73500    -999.25    0.41410    0.43470   11.30400  255.59450   98.09480   81.76070    -999.25   81.71560   98.09480   11.30400   11.92950    -999.25    -999.25   11.92950    -999.25    0.31160    0.27160   11.12120  -51.95600    -999.25   -4.25980   11.12120   36.81350    -999.25   20.53180
 1700.00000  286.78110  381.14000  333.14310  333.14310   86.54190   90.25000   90.25000 2035.86780 2047.58500    -999.25    0.36510    0.38740   11.55510  286.78110  110.87930   93.59150    -999.25   94.04650  110.87930   11.55510   12.58700    -999.25    -999.25   12.58700    -999.25    0.33850    0.29850   13.14190  -51.04380    -999.25   -3.34760   13.14190   22.25230    -999.25    6.85920
 1750.00000  275.41410  390.81000  330.28730  330.28730   78.13970  113.65000  113.65000 2106.24710 2098.90000    -999.25    0.33400    0.35740   12.79760  275.41410  105.14600   85.30560    -999.25   86.47160  105.14600   12.79760   13.91150    -999.25    -999.25   13.91150    -999.25    0.31920    0.27920   15.52300  -49.68970    -999.25   -2.32520   15.52300    2.53240    -999.25   33.38140
 1800.00000  304.54240  343.07250  322.34950  322.34950   72.24440   22.70000   22.70000 2380.29350 2390.45500    -999.25    0.15730    0.18690   13.84190  304.54240  114.48890   96.07050    -999.25   96.51510  114.48890   13.84190   15.90570    -999.25    -999.25   15.90570    -999.25    0.32120    0.28120   17.54170  -49.64890    -999.25   -3.30170   17.54170   32.71980    -999.25   12.37660
 1850.00000  321.23670  359.09500  324.53420  324.53420  100.75160  102.15000  102.15000 2224.36180 2243.27500    -999.25    0.24650    0.27290    9.92540  321.23670   99.00550   80.59960    -999.25   80.61880   99.00550    9.92540   10.51470    -999.25    -999.25   10.51470    -999.25    0.30780    0.26780    9.71720  -54.36250    -999.25   -9.03260    9.71720   -0.53590    -999.25   12.82540
 1900.00000  248.50610  361.72000  329.74640  329.74640   96.98940  110.50000  110.50000 2554.37080 2549.02000    -999.25    0.06120    0.09410   10.31040  248.50610  101.97990   80.81870    -999.25   82.01760  101.97990   10.31040   10.74630    -999.25    -999.25   10.74630    -999.25    0.31060    0.27060   11.23650  -52.82450    -999.25   -8.51200   11.23650   -4.18380    -999.25   16.99600
 1950.00000  324.59030  393.15750  327.09840  327.09840  127.09060   84.70000   84.70000 2391.12260 2389.13500    -999.25    0.15810    0.18760    7.86840  324.59030  225.83670  184.48720    -999.25  184.24340  225.83670    7.86840    8.68460    -999.25    -999.25    8.68460    -999.25    0.30240    0.26240   11.10390  -48.42570    -999.25   -5.13050   11.10390  399.69860    -999.25   13.66520
 2000.00000  228.56390  334.50250  331.57680  331.57680   55.01490   36.20000   36.20000 2563.54420 2554.79500    -999.25    0.05770    0.09080   18.17690  228.56390   74.83670   64.51040    -999.25   64.30900   74.83670   18.17690   21.32790    -999.25    -999.25   21.32790    -999.25    0.25080    0.21080   20.20540  -45.09840    -999.25   -2.82060   20.20540   -9.17360    -999.25  -63.77280
 2050.00000  307.47430  425.40750  345.91080  345.91080   99.62440   32.30000   32.30000 1714.18260 1755.70000    -999.25    0.54200    0.55810   10.03770  307.47430   83.88750   65.84220    -999.25   64.92420   83.88750   10.03770   10.51000    -999.25    -999.25   10.51000    -999.25    0.36560    0.32560   11.73080  -42.89760    -999.25   -2.84780   11.73080   -8.14470    -999.25  -21.35700
 2100.00000  226.99610  368.68250  339.87500  339.87500   65.51580    2.50000    2.50000 2556.73360 2540.11000    -999.25    0.06660    0.09940   15.26350  226.99610   65.40400   52.72160    -999.25   51.37760   65.40400   15.26350   15.63250    -999.25    -999.25   15.63250    -999.25    0.24530    0.20530   16.65620  -46.03090    -999.25   -9.17520   16.65620    5.52400    -999.25  -12.45660
 2150.00000  236.55110  367.17500  346.78240  346.78240   77.43230   65.60000   65.60000 2637.16700 2662.21000    -999.25   -0.00740    0.02790   12.91450  236.55110   75.66430   66.91700    -999.25   66.19690   75.66430   12.91450   13.64930    -999.25    -999.25   13.64930    -999.25    0.29140    0.25140   14.88430  -56.25020    -999.25  -22.58860   14.88430   20.83080    -999.25   -6.70880
 2200.00000  220.82300  366.79750  340.86340  340.86340   51.65180   81.20000   81.20000 2456.49020 2454.31000    -999.25    0.11860    0.14950   19.36040  220.82300   72.34830   57.65150    -999.25   57.20870   72.34830   19.36040   20.76600    -999.25    -999.25   20.76600    -999.25    0.28990    0.24990   22.45840  -48.78440    -999.25  -18.31690   22.45840   28.68360    -999.25    5.96060
 2250.00000  259.65800  423.58750  346.84410  346.84410  127.98530   49.65000   49.65000 1883.87400 1922.68000    -999.25    0.44080    0.46040    7.81340  259.65800   92.89750   78.20940    -999.25   78.11630   92.89750    7.81340    8.12750    -999.25    -999.25    8.12750    -999.25    0.37090    0.33090    9.83380  -41.50310    -999.25  -14.22970    9.83380  -27.87160    -999.25   -0.72420
 2300.00000  229.21690  331.74500  335.61990  335.61990   54.04730    3.20000    3.20000 2594.88500 2579.05000    -999.25    0.04300    0.07660   18.50230  229.21690   89.77880   79.45620    -999.25   82.59680   89.77880   18.50230   24.41220    -999.25    -999.25   24.41220    -999.25    0.23910    0.19910   29.21210  -35.09110    -999.25  -11.52170   29.21210  244.18710    -999.25  406.42400
 2350.00000  224.08340  353.13500  344.91350  344.91350   38.64870   -2.95000   -2.95000 2494.90920 2497.37500    -999.25    0.09250    0.12430   25.87410  224.08340   43.82440   32.47200    -999.25   32.15410   43.82440   25.87410   29.41250    -999.25    -999.25   29.41250    -999.25    0.20160    0.16160   27.30750  -58.62060    -999.25  -43.64490   27.30750   17.56560    -999.25  -36.55460
 2400.00000  292.34110  416.79190  343.70980  343.70980  146.04940  100.85010  100.85010 2182.79350 2195.59000    -999.25    0.27540    0.30080    6.84700  292.34110   88.36440   71.75840   59.41320   71.27050   88.36440    6.84700    7.74510    -999.25    -999.25    7.74510    0.45050    0.34140    0.30140    9.90540  -40.82550    -999.25  -34.44340    9.90540   53.06080    -999.25  366.50600
 2450.00000  172.88680  260.87750  236.29680  236.29680   22.38800   52.50000   52.50000 2765.26860 2765.26860   -0.02990    -999.25   -0.03230   44.66680  172.88680   54.41810    -999.25   63.57860   53.21050   54.41810   61.58750   74.38460   44.66680   54.02550   74.38460    0.15070    -999.25    0.15070   81.76530  -74.72750  -74.42660   -8.22090   54.02550   34.79350    7.43690   11.75380
 2500.00000  187.25490  252.93250  216.75950  216.75950   58.30630   88.35000   88.35000 2704.61450 2704.61450    0.00210    -999.25    0.00310   17.15080  187.25490  110.45760    -999.25  122.36730  112.01980  110.45760   19.11670   21.35880   17.15080   25.98480   21.35880    0.10640    -999.25    0.10640   25.81980  -86.68600  -85.50940  -33.72230   25.98480    7.82420   -7.30200   10.53820
