~Version ---------------------------------------------------
VERS.      2.0 : CWLS log ASCII Standard -VERSION 2.0
WRAP.       NO : One line per depth step
CREA. 11/17/17 : LAS Creation Date
~Well ------------------------------------------------------
STRT.FT                         1100.0 : START DEPTH
STOP.FT                        10550.0 : STOP DEPTH
STEP.FT                       50.00000 : STEP LENGTH
NULL.                          -999.25 : NULL VALUE
COMP.          MIDWEST OIL CORPORATION : COMPANY
WELL. MIDWEST CANKEE PEERS 10-28-54-14 : WELL
FLD .                                  : FIELD
LOC .                                  : LOCATION
CTRY.                           CANADA : COUNTRY
SRVC.                     Schlumberger : SERVICE COMPANY
DATE.                      15-Jul-1970 : LOGDATE
PROV.                          Alberta : PROVINCE
UWI .                 100102805414W500 : UNIQUE WELL ID
SLAT.WGS84                     53.6964 : SURFACE LATITUDE
SLON.WGS84                   -115.9982 : SURFACE LONGITUDE
~Curve Information -----------------------------------------
DEPT  .FT    : Depth Curve
CALSED.IN    : CALIPER FROM SONIC LOG
CALWS .IN    : CALIPER [CALSED]
CILDED.MMHO  : DEEP INDUCTION CONDUCTIVITY FROM RESISTIVITY LOG
CONDWS.MMHO  : CONDUCTIVITY [1000/DRESWS]
DRESWS.OHMM  : DEEP RESISTIVITY [1000/CILDED, IF ILDED < 1, ILDED]
DTED  .US/F  : DELTA-TRANSIT TIME FROM SONIC LOG
DTWS  .US/F  : COMPRESSIONAL SONIC [DTED]
GRSED .GAPI  : GAMMA RAY FROM SONIC LOG
GRWS  .GAPI  : GAMMA RAY [GRSED]
ILDED .OHMM  : DEEP INDUCTION FROM RESISTIVITY LOG
SNED  .OHMM  : SHORT NORMAL 16" FROM RESISTIVITY LOG
SPRED .MV    : SPONTANEOUS POTENTIAL FROM RESISTIVITY LOG
SPWS  .MV    : SPONTANEOUS POTENTIAL [BASELINE 0 MV, SPRED]
SRESWS.OHMM  : SHALLOW RESISTIVITY [SNED]
~Params ----------------------------------------------------
PD  .                     GL : PERMANENT DATUM
EPD .FT               2798.5 : ELEVATION PERMANENT DATUM
LMF .                     KB : LOG MEASURED FROM
DAPD.FT                 13.5 : FEET ABOVE PERMANENT DATUM
EKB .FT                 2812 : KELLY BUSHING
EGL .FT               2798.5 : GROUND LEVEL
DATE.               07/15/70 : RUN DATE
RUN .                      1 : RUN NUMBER
DD  .FT                10576 : DEPTH DRILLER
DL  .FT                10576 : DEPTH LOGGER
BLI .FT                10575 : BOTTOM LOG INTERVAL
TLI .FT                 1090 : TOP LOG INTERVAL
CBD .FT                 1090 : CASING BOTTOM DRILLER
CBL .FT                 1090 : CASING BOTTOM LOGGER
BS  .IN                 8.75 : BIT SIZE
BSD .FT                10576 : BIT SIZE AT DEPTH
DFT .              GEL BENEX : DRILLING FLUID TYPE
DFD .                    9.2 : DRILLING FLUID DENSITY
DFV .                    102 : DRILLING FLUID VISCOSITY
DFPH.                    8.5 : DRILLING FLUID PH
DFL .                    9.4 : DRILLING FLUID LOSS
RMS .OHMM               2.18 : RESISTIVITY MUD SAMPLE
MST .DEGF                 93 : MUD SAMPLE TEMPERATURE
RMF .OHMM               1.81 : RESISTIVITY MUD FILTRATE SAMPLE
MFST.DEGF                 93 : MUD FILTRATE SAMPLE TEMPERATURE
RMC .OHMM               2.63 : RESISTIVITY MUD CAKE
MCST.DEGF                 93 : MUD CAKE SAMPLE TEMPERATURE
RMB .OHMM               1.14 : RESISTIVITY MUD AT BHT
TCS .HRS                 2.5 : TIME CIRCULATED STOPPED
LUN .                   7501 : LOGGING UNIT NUMBER
LUL .                    EDM : LOGGING UNIT LOCATION
ENGI.                 HADDOW : RECORDING ENGINEER
WITN.              BURROUGHS : WITNESSED BY
CLNT.                A2DTECH : CLIENT CODE
ORIG.            2" 5" PRINT : ORIGIN OF DATA
UWI .       100102805414W500 : UNIQUE WELL ID
DICO. A2D Technologies, Inc. : DIGITIZING COMPANY
~Other -----------------------------------------------------
~ASCII -----------------------------------------------------
 1100.00000   10.35370   10.35370  186.24030  228.37000    4.40470  111.31930  111.31930   65.50510   65.50510    4.40470    7.03500  -70.32990   -6.55870    7.03500
 1150.00000    9.95640    9.95640    8.14680  193.58460    5.16570  141.56660  141.56660   56.72580   56.72580    5.16570   28.97050  -66.06840   -2.40250   28.97050
 1200.00000   11.04770   11.04770  185.24370  213.58380    4.68290  104.38910  104.38910   70.21690   70.21690    4.68290    4.95660 -106.28650  -43.28250    4.95660
 1250.00000   10.05540   10.05540  287.95850  338.96010    2.95020  122.55270  122.55270   75.37950   75.37950    2.95020    4.61200  -65.40320   -3.05450    4.61200
 1300.00000   12.80180   12.80180  216.95650  246.79780    4.05190  127.30190  127.30190   65.13820   65.13820    4.05190    4.76390  -63.48080   -1.87750    4.76390
 1350.00000   10.09600   10.09600  365.79690  409.30520    2.44320  150.81300  150.81300   89.61680   89.61680    2.44320    3.28250  -64.24080   -2.72020    3.28250
 1400.00000    9.92450    9.92450  116.98090  137.62350    7.26620   93.89600   93.89600   70.74880   70.74880    7.26620    7.97400  -66.51800   -3.21300    7.97400
 1450.00000    9.66620    9.66620   87.29360  101.40020    9.86740  101.67990  101.67990   45.36220   45.36220    9.86740   11.19230  -76.26860  -11.16120   11.19230
 1500.00000    9.96820    9.96820  168.97710  192.55580    5.19330  115.54830  115.54830   83.50510   83.50510    5.19330    7.41190  -69.01850   -2.54080    7.41190
 1550.00000   10.55510   10.55510  166.70790  203.74900    4.90800  106.86940  106.86940   70.91760   70.91760    4.90800    5.27870  -70.22870   -4.39440    5.27870
 1600.00000    9.58040    9.58040  166.36090  195.59260    5.11360  102.56680  102.56680   89.93530   89.93530    5.11360    6.22170  -70.24260   -5.05500    6.22170
 1650.00000    9.95330    9.95330  160.06170  182.87550    5.46820   95.70790   95.70790   83.53270   83.53270    5.46820    6.42310  -68.76300   -4.21560    6.42310
 1700.00000    9.47710    9.47710  117.83570  133.22530    7.50760   83.61050   83.61050   63.85280   63.85280    7.50760    7.94810  -68.15940   -4.25860    7.94810
 1750.00000   10.37500   10.37500  164.90730  195.43850    5.11670   93.43580   93.43580   75.04980   75.04980    5.11670    5.69930  -66.48980   -3.22920    5.69930
 1800.00000   10.40390   10.40390  184.68320  220.32260    4.53880   95.91800   95.91800   78.64060   78.64060    4.53880    4.93660  -66.14600   -3.52880    4.93660
 1850.00000   11.26500   11.26500  220.52580  256.89130    3.89480  113.59570  113.59570   82.90350   82.90350    3.89480    5.02610  -65.28940   -3.31880    5.02610
 1900.00000   10.41960   10.41960   94.32220  106.25520    9.41130  116.90800  116.90800   46.58930   46.58930    9.41130   12.17090  -65.45070   -4.12030   12.17090
 1950.00000   10.19080   10.19080   49.35090   57.14730   17.49870   81.57680   81.57680   57.26900   57.26900   17.49870   19.09750  -72.89280  -12.20900   19.09750
 2000.00000   10.05050   10.05050  100.26130  120.81820    8.27690   80.67130   80.67130   58.65780   58.65780    8.27690   11.15130  -70.20730  -10.16370   11.15130
 2050.00000   10.60960   10.60960  231.42950  281.46810    3.55280   98.68020   98.68020   79.32640   79.32640    3.55280    4.61000  -63.13630   -3.73610    4.61000
 2100.00000   10.41170   10.41170  200.80690  236.72380    4.22830   99.18750   99.18750   83.45250   83.45250    4.22830    6.19550  -62.60360   -3.55580    6.19550
 2150.00000   10.78240   10.78240  184.42200  213.32880    4.68760  109.58360  109.58360   83.61160   83.61160    4.68760    5.49180  -62.98450   -3.99720    5.49180
 2200.00000    9.18750    9.18750   67.60470   78.48110   12.74690   76.54550   76.54550   49.48140   49.48140   12.74690   13.75950  -65.91570   -6.98950   13.75950
 2250.00000   10.14230   10.14230  141.75390  156.52640    6.38870   89.20140   89.20140   69.10600   69.10600    6.38870    7.33390  -63.19600   -4.33030    7.33390
 2300.00000   10.75740   10.75740  429.30570  614.66590    1.62690  122.19600  122.19600   75.20250   75.20250    1.62690    2.90340  -61.15010   -2.34520    2.90340
 2350.00000   10.19230   10.19230  186.26960  225.00480    4.44440   92.07520   92.07520   75.52780   75.52780    4.44440    4.68180  -61.09340   -2.34970    4.68180
 2400.00000   10.20840   10.20840  173.21080  197.55820    5.06180   95.77550   95.77550   71.11090   71.11090    5.06180    7.10570  -62.45800   -3.77480    7.10570
 2450.00000   11.01430   11.01430  299.72950  345.73470    2.89350  106.67410  106.67410   79.35510   79.35510    2.89350    3.33190  -62.53810   -3.91590    3.33190
 2500.00000   10.22550   10.22550  204.90860  240.84200    4.15210   94.45120   94.45120   82.06610   82.06610    4.15210    4.73520  -62.53400   -3.97240    4.73520
 2550.00000    9.27880    9.27880   79.81490   87.18620   11.46970   72.74670   72.74670   59.24640   59.24640   11.46970   13.31080  -65.77290   -7.27210   13.31080
 2600.00000   10.73870   10.73870  175.41600  190.83370    5.25140   93.61280   93.61280   78.20620   78.20620    5.25140    6.75300  -61.38980   -2.95010    6.75300
 2650.00000    9.87870    9.87870  183.35130  207.66280    4.81550   93.86440   93.86440   84.21280   84.21280    4.81550    5.70950  -61.98510   -3.60590    5.70950
 2700.00000    9.63080    9.63080  109.39130  125.58750    7.96310   85.84490   85.84490   75.32160   75.32160    7.96310    9.41020  -63.38230   -5.06420    9.41020
 2750.00000   10.31390   10.31390  228.51650  273.26140    3.65950   91.19940   91.19940   89.84330   89.84330    3.65950    4.63530  -61.21680   -2.95920    4.63530
 2800.00000   10.12670   10.12670  213.77490  261.74580    3.82050   99.02970   99.02970   93.18560   93.18560    3.82050    4.31700  -60.45430   -2.25750    4.31700
 2850.00000   10.41270   10.41270  116.98160  129.43360    7.72760   93.00390   93.00390   88.74110   88.74110    7.72760    8.68940  -61.36670   -3.23100    8.68940
 2900.00000    9.85690    9.85690  205.68970  238.94290    4.18510   86.01060   86.01060   86.49890   86.49890    4.18510    5.77670  -61.29850   -3.22330    5.77670
 2950.00000   10.61640   10.61640  239.37290  281.30180    3.55770  124.49570  124.49570   87.74050   87.74050    3.55770    3.94460  -59.18970   -1.17570    3.94460
 3000.00000   10.21120   10.21120   91.75630  109.41760    9.13930   85.38710   85.38710   58.15010   58.15010    9.13930    9.70930  -61.19480   -3.24130    9.70930
 3050.00000   10.57460   10.57460  179.73320  216.29100    4.62340   88.44030   88.44030   71.36470   71.36470    4.62340    5.05980  -58.99400   -1.10130    5.05980
 3100.00000   10.41040   10.41040   92.29870   99.17940   10.08280   83.30520   83.30520   64.21770   64.21770   10.08280    8.09740  -59.56680   -1.73520    8.09740
 3150.00000   10.18960   10.18960  122.10100  135.55090    7.37730   95.48300   95.48300   59.67160   59.67160    7.37730    9.39590  -61.21830   -3.44720    9.39590
 3200.00000   10.53770   10.53770  247.14800  273.53020    3.66040  104.89950  104.89950   88.01900   88.01900    3.66040    4.29180  -59.98620   -2.27620    4.29180
 3250.00000   10.60240   10.60240  179.24010  195.75600    5.10840   89.53090   89.53090   56.52880   56.52880    5.10840    6.48750  -60.15210   -2.50260    6.48750
 3300.00000    9.89710    9.89710   55.64830   46.48850   21.51070   61.91810   61.91810   46.29590   46.29590   21.51070   19.27760  -61.61350   -4.02480   19.27760
 3350.00000    9.64670    9.64670   39.22890   41.35970   24.31380   62.62310   62.62310   40.85200   40.85200   24.31380   31.40040  -61.91770   -4.39020   31.40040
 3400.00000   10.23250   10.23250  180.51010  198.75580    5.03130  104.59730  104.59730   61.62870   61.62870    5.03130    6.43280  -59.16260   -1.69550    6.43280
 3450.00000   10.60140   10.60140  184.61360  209.11950    4.78240   95.24930   95.24930   73.27710   73.27710    4.78240    5.69670  -59.07810   -1.67210    5.69670
 3500.00000   10.57390   10.57390   84.17030   97.86270   10.21840   79.61120   79.61120   57.43400   57.43400   10.21840   12.90410  -60.36400   -3.01850   12.90410
