~Version ---------------------------------------------------
VERS.      2.0 : CWLS log ASCII Standard -VERSION 2.0
WRAP.       NO : One line per depth step
CREA. 09/27/17 : LAS Creation Date
~Well ------------------------------------------------------
STRT.FT                    300.0 : START DEPTH
STOP.FT                  13950.0 : STOP DEPTH
STEP.FT                 50.00000 : STEP LENGTH
NULL.                    -999.25 : NULL VALUE
COMP.   PENN WEST PETROLEUM LTD. : COMPANY
WELL. CONOCO WEB PECO 6-26-47-15 : WELL
FLD .                       PECO : FIELD
LOC .                            : LOCATION
CTRY.                     CANADA : COUNTRY
SRVC.     Schlumberger of Canada : SERVICE COMPANY
DATE.                03-May-1960 : LOGDATE
PROV.                    Alberta : PROVINCE
UWI .           100062604715W500 : UNIQUE WELL ID
SLAT.WGS84         53.0817985535 : SURFACE LATITUDE
SLON.WGS84       -116.0888900757 : SURFACE LONGITUDE
~Curve Information -----------------------------------------
DEPT  .FT         : Depth Curve
CALMED.IN         : CALIPER FROM MICRO LOG [ADJ. TO EL LOG]
CALWS .IN         : CALIPER [MCALED SPL. TO CALMED @ 9383']
CILDED.MMHO       : CONDUCTIVITY FROM IL LOG
CONDWS.MMHO       : CONDUCTIVITY [1000/DRESWS]
DRESWS.OHMM       : DEEP RESISTIVITY [LNED]
DT1ED .US/F       : DELTA-T 1 FEET SPACING FROM SONIC LOG [ADJ. TO EL LOG/DTED]
DTED  .US/F       : DELTA-T 3 FEET SPACING FROM SONIC LOG [ADJ. TO EL LOG]
DTWS  .US/F       : COMPRESSIONAL SONIC [DTED]
GRSED .UgRa-Eq/T  : GAMMA RAY FROM SONIC LOG [ADJ. TO EL LOG]
GRWS  .GAPI       : GAMMA RAY [GRSED*16.50, GRWS (CSG+15) @ 9354'-9407']
ILDED .OHMM       : DEEP INDUCTION FROM IL LOG
LNED  .OHMM       : LONG NORMAL FROM EL LOG
LT18ED.OHMM       : LATERAL 18 FROM EL LOG
MCALED.IN         : CALIPER FROM MICRO LOG [ADJ. TO EL LOG]
MLLED .OHMM       : CALIPER FROM MICRO LOG [ADJ. TO EL LOG]
SNED  .OHMM       : SHORT NORMAL FROM EL LOG
SPR1ED.MV         : SPONTANEOUS POTENTIAL FROM IL LOG
SPRED .MV         : SPONTANEOUS POTENTIAL FROM EL LOG
SPWS  .MV         : SPONTANEOUS POTENTIAL [SPRED SPL. TO SPR1ED @ 9383', BASELINE 0 MV]
SRESWS.OHMM       : SHALLOW RESISTIVITY [SNED]
~Params ----------------------------------------------------
PD  .                    GND : PERMANENT DATUM
LMF .                    GND : LOG MEASURED FROM
DMF .                    GND : DRILLING MEASURED FROM
EGL .FT                 3857 : GROUND LEVEL
DATE.               05/03/60 : RUN DATE
RUN .                      2 : RUN NUMBER
DD  .FT                13975 : DEPTH DRILLER
DL  .FT                13965 : DEPTH LOGGER
BLI .FT                13960 : BOTTOM LOG INTERVAL
TLI .FT                 9389 : TOP LOG INTERVAL
CBD .FT                 9386 : CASING BOTTOM DRILLER
CBL .FT                 9389 : CASING BOTTOM LOGGER
BS  .IN                8.875 : BIT SIZE
BSD .FT                13975 : BIT SIZE AT DEPTH
DFT .                   LIME : DRILLING FLUID TYPE
DFD .                     10 : DRILLING FLUID DENSITY
DFV .                     96 : DRILLING FLUID VISCOSITY
DFPH.                     13 : DRILLING FLUID PH
RMS .OHMM               0.69 : RESISTIVITY MUD SAMPLE
MST .DEGF                 58 : MUD SAMPLE TEMPERATURE
RMF .OHMM                0.4 : RESISTIVITY MUD FILTRATE SAMPLE
MFST.DEGF                 70 : MUD FILTRATE SAMPLE TEMPERATURE
RMC .OHMM                0.7 : RESISTIVITY MUD CAKE
MCST.DEGF                 70 : MUD CAKE SAMPLE TEMPERATURE
RMB .OHMM               0.16 : RESISTIVITY MUD AT BHT
TCS .HRS                   5 : TIME CIRCULATED STOPPED
LUN .               DSU C 72 : LOGGING UNIT NUMBER
ENGI.                  JAMES : RECORDING ENGINEER
WITN.               SHERRIFF : WITNESSED BY
CLNT.                A2DTECH : CLIENT CODE
ORIG.            2" 5" PRINT : ORIGIN OF DATA
UWI .       100062604715W500 : UNIQUE WELL ID
DICO. A2D Technologies, Inc. : DIGITIZING COMPANY
~Other -----------------------------------------------------
TOOL RAN: IL-EL-SONIC-ML-MLL LOG RAN.
EL LOG ARE FROM SMALL SECTION @FR-5350'& 680'0-7600',8200'-8900'
SONIC LOG ARE FROM SMALL SECTION @ FR-5000'& 6800'-7900',8200'-9000'
~ASCII -----------------------------------------------------
# ...
 9050.00000    8.77200   14.42750  152.80770   76.38260   13.09200    -999.25   80.79930   80.79930    5.21300   86.01530    7.00450   13.09200   13.39670   14.42750    -999.25    7.86590  -40.12380  -40.84510   -6.46620    7.86590
 9100.00000    8.81470   13.01930  243.47940  117.42880    8.51580   97.94710   99.27050   99.27050    6.87880  113.50020    4.01000    8.51580    9.74120   13.01930    -999.25    5.69350  -36.35220  -37.28400   -3.48950    5.69350
 9150.00000    8.71880   15.25190  249.06550  164.28080    6.08850   91.08130   91.23760   91.23760    5.24670   86.57140    4.03690    6.08850    4.46440   15.25190    -999.25    4.52830  -33.79760  -34.85380   -2.50580    4.52830
 9200.00000    8.73770   13.41940  214.11860  114.13960    8.76120   90.24490   88.23220   88.23220    5.36270   88.48450    4.85580    8.76120    7.21620   13.41940    -999.25    5.91450  -34.58250  -35.05830   -4.16620    5.91450
 9250.00000    8.81730   10.01460  104.16460   59.35770   16.84700   70.66530   68.64710   68.64710    5.15530   85.06250    9.99380   16.84700   25.09710   10.01460    -999.25   10.65590  -39.66020  -39.59680  -10.15120   10.65590
 9300.00000    8.73910    8.88200  259.10160  122.01820    8.19550  106.32860   96.12920   96.12920    4.92340   81.23610    3.75940    8.19550   12.62490    8.88200    -999.25    5.95980  -34.25380  -38.51590  -10.51670    5.95980
 9350.00000    8.77070    9.17930  144.47290   94.13890   10.62260   72.99040   73.24960   73.24960    5.64150   93.08480    7.40510   10.62260    7.59650    9.17930    -999.25    8.27190  -40.82790  -41.26400  -14.72080    8.27190
 9400.00000   10.59350   10.59350   63.58820   50.61220   19.76300   71.92590   70.62760   70.62760    1.51010   39.91750   15.29180   19.76300    -999.25    -999.25   13.38400   11.48500  -54.26010    -999.25  -29.16340   11.48500
 9450.00000   11.61430   11.61430  111.19810   57.62830   17.35260   85.50130   78.69070   78.69070    3.52250   58.12120    8.90360   17.35260   21.49710    -999.25   26.19940    7.38980  -30.05540    -999.25   -6.41460    7.38980
 9500.00000   12.57400   12.57400  151.67240   82.82670   12.07340   80.24270   75.15560   75.15560    4.00840   66.13860    7.22770   12.07340   20.91290    -999.25    3.82640    6.21580  -26.19050    -999.25   -3.34580    6.21580
 9550.00000   12.02790   12.02790   99.31080   50.70210   19.72320   74.78230   68.23980   68.23980    3.76720   62.15800   10.38440   19.72320   24.37340    -999.25    3.65740    8.89790  -37.18730    -999.25  -14.45320    8.89790
 9600.00000   10.80310   10.80310   83.15530   42.68980   23.42480   77.81940   76.90610   76.90610    3.82730   63.15040   12.11640   23.42480   17.29880    -999.25   10.47110    9.86770  -43.10750    -999.25  -20.48470    9.86770
 9650.00000   11.24670   11.24670   85.64880   37.50660   26.66220   69.66370   69.35250   69.35250    3.86440   63.76340   11.90350   26.66220   24.84810    -999.25    7.33910   10.28330  -39.99450    -999.25  -17.48220   10.28330
 9700.00000   12.21640   12.21640  101.76130   29.60250   33.78090   72.95940   73.83290   73.83290    1.40820   23.23530    9.85180   33.78090   59.18440    -999.25    4.50120   11.71890  -36.45300    -999.25  -14.05200   11.71890
 9750.00000   11.51850   11.51850   93.11500   43.01960   23.24520   72.26350   77.63290   77.63290    4.17470   68.88250   10.55190   23.24520   24.65150    -999.25    5.37030    9.39930  -34.68720    -999.25  -12.39680    9.39930
 9800.00000    9.91780    9.91780   31.63980   32.64470   30.64060   59.33120   60.05370   60.05370    2.08430   34.39180   28.83950   30.64060   39.96660    -999.25   83.85740   14.98630  -50.73160    -999.25  -28.55180   14.98630
 9850.00000   10.58670   10.58670   76.41890   46.66640   21.42870   71.03450   73.89080   73.89080    3.47210   57.28970   12.88670   21.42870   22.99420    -999.25    6.81490   10.35100  -33.16520    -999.25  -11.09670   10.35100
 9900.00000   10.03340   10.03340   45.14790   28.30990   35.32420   69.01990   69.47950   69.47950    2.01710   33.28300   24.03850   35.32420   68.15780    -999.25   11.38520   14.81120  -38.14020    -999.25  -16.18220   14.81120
 9950.00000   10.92190   10.92190   17.30950   24.33270   41.09700   61.34490   74.18960   74.18960    5.21530   86.05250   48.94040   41.09700   38.16640    -999.25    4.66550   16.59030  -47.33900    -999.25  -24.78660   16.59030
 10000.00000    9.96410    9.96410   31.77140   17.07010   58.58210   74.06470   73.48380   73.48380    3.66370   60.45110   33.72740   58.58210  135.82550    -999.25    6.19800   18.58660  -45.21860    -999.25  -21.93880   18.58660
 10050.00000    9.97830    9.97830   16.46110    9.18120  108.91820   66.93820   66.82790   66.82790    5.17610   85.40650   68.20070  108.91820  121.70290    -999.25   40.05280   32.28330  -65.19250    -999.25  -41.18520   32.28330
 10100.00000    9.57900    9.57900   17.05520   16.40640   60.95200   62.52540   61.29230   61.29230    5.86970   96.85000   82.33630   60.95200   44.18590    -999.25   12.05920   21.06780  -53.52400    -999.25  -28.78450   21.06780
 10150.00000   13.07530   13.07530   35.20610   18.39620   54.37370   75.39140   71.84280   71.84280    3.78900   62.51850   29.38480   54.37370   99.68860    -999.25  105.66330   17.71740  -50.44370    -999.25  -24.97680   17.71740
 10200.00000   12.49690   12.49690  162.33530   28.99050   34.49410   78.62130   90.69250   90.69250    7.51280  123.96120    8.11850   34.49410   33.20820    -999.25    2.42180    7.96260  -47.48600    -999.25  -21.28690    7.96260
 10250.00000    8.16500    8.16500   10.25670   10.72800   93.21420   55.89760   58.56440   58.56440    1.44920   23.91180  104.84740   93.21420  132.80780    -999.25   19.54490   30.47180  -74.85210    -999.25  -47.92550   30.47180
 10300.00000   12.31330   12.31330  104.11480   43.34570   23.07210   76.36970   78.89100   78.89100    5.05280   83.37200    9.70730   23.07210   24.70120    -999.25    2.72070    8.76340  -38.20940    -999.25  -10.55540    8.76340
 10350.00000    8.54990    8.54990    3.00970    4.76120  210.03130   59.25060   57.53240   57.53240    4.86760   80.31540  254.13500  210.03130  204.31140    -999.25  114.77490   63.44540  -92.29420    -999.25  -64.77930   63.44540
 10400.00000    8.38080    8.38080    7.69400    2.52750  395.65480   55.68910   56.68280   56.68280    1.77920   29.35600  232.21380  395.65480  513.16330    -999.25  117.66390   62.67370  -84.16530    -999.25  -56.83640   62.67370
 10450.00000    8.71560    8.71560    2.91370    2.65240  377.01190   57.26220   57.07540   57.07540    1.86560   30.78240  339.97110  377.01190  484.98770    -999.25  129.22980   60.60790  -82.41490    -999.25  -55.27310   60.60790
 10500.00000    9.20020    9.20020   11.05650    7.41790  134.80870   53.74460   52.14740   52.14740    4.84330   79.91450  102.27240  134.80870  417.80960    -999.25    5.29710   28.18080  -67.02330    -999.25  -40.06750   28.18080
 10550.00000    9.55910    9.55910   32.66430    8.47230  118.04350   55.17000   55.89960   55.89960    2.56650   42.34640   31.71930  118.04350  130.05170    -999.25    3.60650   33.51320  -79.47110    -999.25  -52.70130   33.51320
 10600.00000   10.03120   10.03120   29.81030    6.00590  166.50180   55.61690   54.03040   54.03040    1.43190   23.62630   34.09160  166.50180  242.35130    -999.25    7.17660   39.78270  -76.07510    -999.25  -49.49250   39.78270
 10650.00000    9.97700    9.97700   35.01020    8.95880  111.62260   60.15040   57.34480   57.34480    0.71360   11.77440   29.07280  111.62260  416.48930    -999.25    6.25940   21.25410  -64.67070    -999.25  -38.27400   21.25410
 10700.00000    9.66910    9.66910   33.05850    9.88660  101.14690   57.29010   57.98510   57.98510    3.68310   60.77110   32.17730  101.14690  177.02870    -999.25  140.94420   29.93000  -71.44460    -999.25  -45.23510   29.93000
 10750.00000   10.13200   10.13200   12.96730    2.51540  397.54900   50.25590   51.63940   51.63940    0.42060    6.93990   91.78690  397.54900  456.43610    -999.25  303.66450   60.73640 -132.48890    -999.25 -106.46540   60.73640
