~Version ---------------------------------------------------
VERS. 2.0 : CWLS log ASCII Standard -VERSION 2.0
WRAP.  NO : ONE LINE PER DEPTH STEP
~Well ------------------------------------------------------
STRT.M                             300.0 : START DEPTH
STOP.M                            3600.0 : STOP DEPTH
STEP.M                          50.00000 : STEP LENGTH
NULL.                            -999.25 : NULL VALUE
COMP.             EXXONMOBIL CANADA LTD. : COMPANY
WELL. MOBIL ET AL PEMBINA 11-27-49-8 #11 : WELL
FLD .                                    : FIELD
LOC .                                    : LOCATION
CTRY.                             CANADA : COUNTRY
SRVC.                      Dresser Atlas : SERVICE COMPANY
DATE.                        27-May-1980 : LOGDATE
PROV.                            Alberta : PROVINCE
UWI .                   100112704908W500 : UNIQUE WELL ID
SLAT.WGS84                      53.26067 : SURFACE LATITUDE
SLON.WGS84                     -115.0887 : SURFACE LONGITUDE
~Curve Information -----------------------------------------
DEPT   .M                  : 
GRS    .GAPI  60 310 01 00 : GAMMA RAY FROM SONIC LOG
TENS   .N     60 635 00 00 : TENSION FROM SONIC LOG
AC     .MS/M  60 500 00 00 : ACOUSTIC
CALS   .MM    60 280 50 00 : CALIPER FROM SONIC LOG
CALD   .MM    45 280 60 00 : CALIPER FROM DENSITY LOG
CORR   .KG/M3 45 356 01 00 : DENSITY CORRECTION
TEND   .N     45 635 00 00 : TENSION FROM DENSITY LOG
GRD    .GAPI  45 310 01 00 : GAMMA RAY FROM DENSITY LOG
ILD    .OHMM  07 120 46 00 : INDUCTION DEEP RESISTIVITY
ILM    .OHMM  07 120 44 00 : INDUCTION MEDIUM RESISTIVITY
SFL    .OHMM  07 220 06 00 : SPHERICALLY FOCUSED LOG
SPR    .MV    07 010 01 00 : SPONTANEOUS POTENTIAL FROM RESISTIVITY LOG
RHOB   .KG/M3 45 350 01 00 : BULK DENSITY
NPHI_SS.DEC   42 890 03 00 : NEUTRON POROSITY SANDSTONE
DPHI_SS.DEC   45 890 12 00 : DENSITY POROSITY SANDSTONE
NPHI_LS.DEC   42 890 01 00 : NEUTRON POROSITY LIMESTONE
DPHI_LS.DEC   45 890 01 00 : DENSITY POROSITY LIMESTONE
~Params ----------------------------------------------------
PD  .                         GL : PERMANENT DATUM
EPD .FT                    869.6 : ELEVATION PERMANENT DATUM
LMF .                         KB : LOG MEASURED FROM
DAPD.FT                     5.15 : FEET ABOVE PERMANENT DATUM
DMF .                         KB : DRILLING MEASURED FROM
EKB .FT                   874.75 : KELLY BUSHING
EGL .FT                    869.6 : GROUND LEVEL
DATE.                   05/27/80 : RUN DATE
RUN .                          1 : RUN NUMBER
DD  .FT                     3590 : DEPTH DRILLER
DL  .FT                   3590.6 : DEPTH LOGGER
BLI .FT                     3590 : BOTTOM LOG INTERVAL
TLI .FT                      510 : TOP LOG INTERVAL
CS  .IN                      245 : CASING SIZE
CBD .FT                   511.82 : CASING BOTTOM DRILLER
CBL .FT                      510 : CASING BOTTOM LOGGER
BS  .IN                      222 : BIT SIZE
BSD .FT                     3590 : BIT SIZE AT DEPTH
DFT .                  GEL BENEX : DRILLING FLUID TYPE
DFD .                       1200 : DRILLING FLUID DENSITY
DFV .                         82 : DRILLING FLUID VISCOSITY
DFPH.                       10.5 : DRILLING FLUID PH
DFL .                          8 : DRILLING FLUID LOSS
MSS .                       CIRC : MUD SAMPLE SOURCE
RMS .OHMM                    1.5 : RESISTIVITY MUD SAMPLE
MST .DEGF                     26 : MUD SAMPLE TEMPERATURE
RMF .OHMM                    1.3 : RESISTIVITY MUD FILTRATE SAMPLE
MFST.DEGF                     21 : MUD FILTRATE SAMPLE TEMPERATURE
RMC .OHMM                    1.9 : RESISTIVITY MUD CAKE
MCST.DEGF                     21 : MUD CAKE SAMPLE TEMPERATURE
MFSS.                       MEAS : MUD FILTRATE SAMPLE SOURCE
MCSS.                       MEAS : MUD CAKE SAMPLE SOURCE
RMB .OHMM                   0.73 : RESISTIVITY MUD AT BHT
TCS .HRS                      11 : TIME CIRCULATED STOPPED
LUN .                    HL 6214 : LOGGING UNIT NUMBER
LUL .                        EDM : LOGGING UNIT LOCATION
ENGI.                     BRODDY : RECORDING ENGINEER
WITN.              DICKIE LEPAGE : WITNESSED BY
CLNT.                    A2DTECH : CLIENT CODE
ORIG. 6.5"/100M 16.5"/100M PRINT : ORIGIN OF DATA
UWI .           100112704908W500 : UNIQUE WELL ID
DICO.     A2D Technologies, Inc. : DIGITIZING COMPANY
~Other -----------------------------------------------------
~ASCII -----------------------------------------------------
# ...
 2350.00000   24.09620 1170.83200  170.69610  222.43350  225.22890   68.64830 1077.48630   17.15380   18.86430   29.35160   51.55370 -226.67680 2592.01460    -999.25    -999.25    0.14560    0.07780
 2400.00000   20.19310 1059.13670  159.02790  236.12910  230.85210   32.69680 1034.45800    9.81910   94.90970  150.13630  144.56120 -341.03220 2719.89210    -999.25    -999.25    0.13770   -0.00190
 2450.00000   30.74750 1051.90720  153.27650  249.24570  271.45230  122.10080  996.30470   18.87060  139.52100  150.22200  234.00330 -337.46240 2520.56150    -999.25    -999.25    0.16940    0.14270
 2500.00000   63.89540 1091.48830  172.56440  233.49780  232.72900    9.40110 1134.10450   55.79970  149.20660  327.81090  452.39400 -289.68340 2620.97560    -999.25    -999.25    0.11320    0.03940
 2550.00000   72.91010 1074.32130  206.16320  257.54550  251.09180   35.70380 1028.83790   74.72750   11.64460   11.11650   19.04690 -252.03410 2601.63110    -999.25    -999.25    0.21950    0.05220
 2600.00000   81.53450 1091.30960  216.49180  282.26690  249.37780   89.80260  993.19630   62.11310   10.86450   10.08210   11.91520 -287.31000 2582.69260    -999.25    -999.25    0.28420    0.33470
 2650.00000  100.21840 1115.21190  257.25910  333.76600  338.97680   73.81390 1027.97750   84.49270    6.03800    5.59480    7.40540 -301.87980 2338.90310    -999.25    -999.25    0.35610    0.21930
 2700.00000   91.41750 1127.44240  261.19630  342.70010  338.27770   57.22070 1058.15720   87.46600    6.19990    5.80040    7.88980 -282.19550 2232.18550    -999.25    -999.25    0.36940    0.29040
 2750.00000   56.62830 1084.10160  195.51940  258.35420  252.00280  -53.44460 1261.40720   59.54380   14.85210   13.13240   15.24350 -271.09590 2387.45920    -999.25    -999.25    0.19500    0.10370
 2800.00000  153.01690 1106.42190  301.40610  259.76260  269.46260   86.88450 1272.44340  116.10040    7.63980    5.80990   13.15290 -277.94190 2167.04390    -999.25    -999.25    0.31160    0.21470
 2850.00000   43.35380 1039.10940  187.15210  280.97200  255.09700   39.74920 1143.67870   44.95930   46.05240   32.66880   41.50790 -273.67930 2642.40750    -999.25    -999.25    0.14150    0.04470
 2900.00000   50.66610 1076.14840  192.48150  287.02870  256.02600   25.66900 1054.06350   35.58430   30.99070   24.59650   36.70540 -268.87230 2640.35160    -999.25    -999.25    0.11520    0.02180
 2950.00000   53.99480 1058.14450  202.53580  303.32290  296.16890  109.75910 1096.84570   58.16700    7.84470    7.82410   12.09040 -275.74430 2114.26980    -999.25    -999.25    0.25030    0.29910
 3000.00000   30.18040 1077.72270  163.22650  274.04890  265.31610   41.62550 1216.89550   31.57930   83.43920   81.20070  170.95920 -267.98580 2647.77730    -999.25    -999.25    0.08500    0.02830
 3050.00000   78.39560 1056.12700  196.25460  258.10230  241.06650   14.09690 1144.63570   79.40210   12.68090   11.64760   33.15890 -294.06040 2633.83670    -999.25    -999.25    0.21320    0.02670
 3100.00000   93.42900 1115.56540  168.48920  250.10990  234.98270   54.98990 1095.66020   96.24330   63.92260   57.30410   70.31330 -269.97110 2653.49440    -999.25    -999.25    0.17780    0.02050
 3150.00000   45.85510 1091.94040  185.29280  224.07170  237.16570   87.43040 1051.15720  101.96830    5.98880   10.97360   41.14490 -362.75450 2510.35420    -999.25    -999.25    0.16940    0.09730
 3200.00000   59.65060 1060.43260  195.78300  274.18630  281.59590   62.34050 1167.07320   97.73800    7.79930    6.56620   15.49750 -273.16800 2252.44310    -999.25    -999.25    0.25660    0.24250
 3250.00000  146.45820 1100.46880  210.81580  257.78510  251.57140   58.24240 1068.94630  114.27070   25.23400   27.39560   57.44870 -269.76300 2592.72460    -999.25    -999.25    0.14450    0.11150
 3300.00000  144.97570 1027.88670  233.95460  272.36430  270.68150  133.27890 1114.84770  102.89350    4.35520    3.94010    8.17400 -261.94880 2172.80860    -999.25    -999.25    0.37710    0.30470
 3350.00000   26.13010 1174.54200  161.67330  253.13920  248.79440  127.80100 1097.69340   16.58380   74.82220   70.57550  160.02290 -239.20070 2682.79370    -999.25    -999.25    0.07950    0.02970
 3400.00000  100.41030 1060.97750  278.48060  270.19580  246.46570    0.93020 1133.25680  101.96860    7.08380    5.05510    7.66630 -238.46460 1638.05490    -999.25    -999.25    0.42950    0.64180
 3450.00000  143.38580 1057.44240  246.22010  307.52760  300.94590   94.30130  970.86430  104.85390    8.07490    4.65360   12.51560 -269.60300 1978.89360    -999.25    -999.25    0.45040    0.34840
 3500.00000  142.46060 1110.94140  237.83210  260.69890  281.15040  141.49800  996.74120  119.01140   13.11700    9.57600   22.06020 -243.19150 2234.04740    -999.25    -999.25    0.42160    0.27990
 3550.00000   41.95860 1102.66890  203.10150  231.13400  224.48130   55.42990 1094.92290   23.23480    7.37910    8.76570   25.77800 -288.37890 2548.97460    -999.25    -999.25    0.10600    0.09240
 3600.00000    -999.25 1100.70310    -999.25    -999.25    -999.25    -999.25    -999.25    -999.25    -999.25    -999.25    -999.25    -999.25    -999.25    -999.25    -999.25    -999.25    -999.25
