~Version ---------------------------------------------------
VERS.      2.0 : CWLS log ASCII Standard -VERSION 2.0
WRAP.       NO : One line per depth step
CREA. 12/29/17 : LAS Creation Date
~Well ------------------------------------------------------
STRT.FT                        1050.0 : START DEPTH
STOP.FT                       10000.0 : STOP DEPTH
STEP.FT                      50.00000 : STEP LENGTH
NULL.                         -999.25 : NULL VALUE
COMP.        SKELLY OIL OF CANADA LTD : COMPANY
WELL. SKELLY B-1 TWO CREEK 11-9-62-16 : WELL
FLD .                                 : FIELD
LOC .                                 : LOCATION
CTRY.                          CANADA : COUNTRY
SRVC.                    Schlumberger : SERVICE COMPANY
DATE.                     07-Nov-1976 : LOGDATE
PROV.                         Alberta : PROVINCE
UWI .                100110906216W500 : UNIQUE WELL ID
SLAT.WGS84                   54.35197 : SURFACE LATITUDE
SLON.WGS84                  -116.3434 : SURFACE LONGITUDE
~Curve Information -----------------------------------------
DEPT    .FT    : Depth Curve
CALDED  .IN    : CALIPER  FROM DENSITY LOG [ADJ. TO RESISTIVITY LOG]
CALSED  .IN    : CALIPER FROM SONIC LOG
CALWS   .IN    : CALIPER [CALDED]
CILDED  .MMHO  : DEEP INDUCTION CONDUCTIVITY FROM RESISTIVITY LOG
CONDWS  .MMHO  : CONDUCTIVITY [1000/DRESWS]
DCORWS  .G/C3  : DENSITY CORRECTION [DRHOED]
DENWS   .G/C3  : FORMATION BULK DENSITY [CALC. FROM DPOLSWS,M=2.71 F=1.00]
DPHILSED.V/V   : DENSITY POROSITY LIMESTONE [M=2.71 F=1.00 ASSUMED] FROM DENSITY LOG
DPHISSED.V/V   : DENSITY POROSITY SANDSTONE [M=2.65 F=1.00 ASSUMED] FROM DENSITY LOG
DPOLSWS .V/V   : DENSITY POROSITY LIMESTONE [DPHISSED CONVERTED TO LIMESTONE MATRIX,M=2.71 F=1.00 & SPL. TO DPHILSED @ 6444']
DRESWS  .OHMM  : DEEP RESISTIVITY [ILDED] FROM START TO 1365.5' [1000/CILDED,IF ILDED<2,ELSE ILDED]
DRHOED  .G/C3  : DENSITY CORRECTION FROM DENSITY LOG
DTED    .US/F  : DELTA TIME FROM SONIC LOG
DTWS    .US/F  : COMPRESSIONAL SONIC [DTED]
GRDED   .GAPI  : GAMMA RAY FROM DENSITY LOG [ADJ. TO RESISTIVITY LOG]
GRSED   .GAPI  : GAMMA RAY FROM SONIC LOG
GRWS    .GAPI  : GAMMA RAY [GRSED SPL. TO GRDED @ 9980']
ILDED   .OHMM  : DEEP INDUCTION RESISTIVITY FROM RESISTIVITY LOG
ILMED   .OHMM  : MEDIUM INDUCTION RESISTIVITY FROM RESISTIVITY LOG
LL8ED   .OHMM  : LATEROLOG 8 FROM RESISTIVITY LOG
MRESWS  .OHMM  : MEDIUM RESISTIVITY [ILMED]
NEUTED  .NAPI  : NEUTRON FROM GRN LOG [ADJ. TO RESISTIVITY LOG]
NEUTWS  .NAPI  : NEUTRON [NEUTED]
NPHILSED.V/V   : NEUTRON POROSITY LIMESTONE FROM DENSITY LOG
NPHISSED.V/V   : NEUTRON POROSITY SANDSTONE FROM DENSITY LOG
NPOLSWS .V/V   : NEUTRON POROSITY LIMESTONE [NPHISSED MATRIX CONVERSION FOR LIMESTONE & SPL. TO NPHILSED @ 6446']
RHOBED  .G/C3  : BULK DENSITY FROM DENSITY LOG
SPRED   .MV    : SPONTANEOUS POTENTIAL FROM RESISTIVITY LOG
SPWS    .MV    : SPONTANEOUS POTENTIAL [BASELINE 0 MV,SPRED]
SRESWS  .OHMM  : SHALLOW RESISTIVITY [LL8ED]
~Params ----------------------------------------------------
PD  .                     GL : PERMANENT DATUM
EPD .FT                 2996 : ELEVATION PERMANENT DATUM
LMF .                     KB : LOG MEASURED FROM
DAPD.FT                   15 : FEET ABOVE PERMANENT DATUM
EKB .FT                 3011 : KELLY BUSHING
EGL .FT                 2996 : GROUND LEVEL
DATE.             11/07/1976 : RUN DATE
RUN .                      1 : RUN NUMBER
DD  .FT                10019 : DEPTH DRILLER
DL  .FT                10020 : DEPTH LOGGER
BLI .FT                10019 : BOTTOM LOG INTERVAL
TLI .FT                 5150 : TOP LOG INTERVAL
CBD .FT                 1041 : CASING BOTTOM DRILLER
CBL .FT                 1040 : CASING BOTTOM LOGGER
BS  .IN                7.875 : BIT SIZE
BSD .FT                10020 : BIT SIZE AT DEPTH
DFT .               GEL-CHEM : DRILLING FLUID TYPE
DFD .                    9.2 : DRILLING FLUID DENSITY
DFV .                     86 : DRILLING FLUID VISCOSITY
DFPH.                    9.0 : DRILLING FLUID PH
DFL .                    5.4 : DRILLING FLUID LOSS
RMS .OHMM               2.02 : RESISTIVITY MUD SAMPLE
MST .DEGF                 51 : MUD SAMPLE TEMPERATURE
RMF .OHMM               1.54 : RESISTIVITY MUD FILTRATE SAMPLE
MFST.DEGF                 65 : MUD FILTRATE SAMPLE TEMPERATURE
RMC .OHMM                2.1 : RESISTIVITY MUD CAKE
MCST.DEGF                 51 : MUD CAKE SAMPLE TEMPERATURE
RMB .OHMM               0.49 : RESISTIVITY MUD AT BHT
MRT .DEGF                206 : MAXIMUM RECORDED TEMPERATURE
LUN .                   7691 : LOGGING UNIT NUMBER
LUL .                    WCT : LOGGING UNIT LOCATION
ENGI.               ROCKFORD : RECORDING ENGINEER
WITN.                   BALL : WITNESSED BY
CLNT.                A2DTECH : CLIENT CODE
ORIG.               5" PRINT : ORIGIN OF DATA
UWI .       100110906216W500 : UNIQUE WELL ID
DICO. A2D Technologies, Inc. : DIGITIZING COMPANY
~Other -----------------------------------------------------
~ASCII -----------------------------------------------------
# ...
 5850.00000    -999.25    8.80790    8.80790    -999.25  124.71160    -999.25    -999.25    -999.25    -999.25    -999.25    8.01850    -999.25   74.01150   74.01150    -999.25   81.21630   81.21630    8.01850    7.40060   10.59450    7.40060  561.02370  561.02370    -999.25    -999.25    -999.25    -999.25  -18.51810   -9.67950   10.59450
 5900.00000    -999.25    8.85750    8.85750    -999.25   80.22400    -999.25    -999.25    -999.25    -999.25    -999.25   12.46510    -999.25   73.31430   73.31430    -999.25   85.61140   85.61140   12.46510   12.98110   17.39290   12.98110  556.46260  556.46260    -999.25    -999.25    -999.25    -999.25  -12.29720   -3.17800   17.39290
 5950.00000   10.91080    9.74910    9.74910    -999.25  133.84190    0.16430    2.11360    -999.25    0.32510    0.34880    7.47150    0.16430   79.60990   79.60990   88.03690   80.00320   80.00320    7.47150    7.09400   10.31250    7.09400  505.82940  505.82940    -999.25    0.34710    0.29810    2.11520  -11.93270   -3.76240   10.31250
 6000.00000    8.60930    8.86160    8.86160    -999.25   54.82190    0.00440    2.52430    -999.25    0.07620    0.10860   18.24090    0.00440   69.44980   69.44980   61.15780   56.22580   56.22580   18.24090   16.23610   21.07690   16.23610  603.08460  603.08460    -999.25    0.19050    0.14040    2.53160  -25.10380  -18.18980   21.07690
 6050.00000    8.63290    8.49840    8.49840    -999.25  179.04140    0.10950    2.37820    -999.25    0.16470    0.19400    5.58530    0.10950   80.49120   80.49120   31.42910   33.34790   33.34790    5.58530    8.00740   19.97260    8.00740  762.24070  762.24070    -999.25    0.16760    0.11950    2.37650  -85.69570  -80.03790   19.97260
 6100.00000   13.61690   11.28300   11.28300    -999.25  221.44960    0.13870    2.06130    -999.25    0.35680    0.37940    4.51570    0.13870   90.53770   90.53770  100.33440  105.01250  105.01250    4.51570    4.05000    5.68840    4.05000  442.12880  442.12880    -999.25    0.43810    0.39690    2.04890   -7.38390   -2.15140    5.68840
 6150.00000    -999.25    8.73670    8.73670    -999.25   64.25620    -999.25    -999.25    -999.25    -999.25    -999.25   15.56270    -999.25   72.26430   72.26430    -999.25   69.58000   69.58000   15.56270   17.67530   18.74800   17.67530  592.33310  592.33310    -999.25    -999.25    -999.25    -999.25  -10.26120   -2.67210   18.74800
 6200.00000    -999.25   12.29820   12.29820    -999.25  200.44900    -999.25    -999.25    -999.25    -999.25    -999.25    4.98880    -999.25   88.94770   88.94770    -999.25   88.74090   88.74090    4.98880    4.62030    6.71430    4.62030  424.57620  424.57620    -999.25    -999.25    -999.25    -999.25  -12.26250   -2.30250    6.71430
 6250.00000    -999.25    8.68090    8.68090    -999.25   47.65130    -999.25    -999.25    -999.25    -999.25    -999.25   20.98580    -999.25   67.61720   67.61720    -999.25   46.47830   46.47830   20.98580   23.05010   35.85200   23.05010  728.41600  728.41600    -999.25    -999.25    -999.25    -999.25  -24.96810  -12.29480   35.85200
 6300.00000    8.06790    7.99370    7.99370    -999.25    2.63320    0.00750    2.55910    -999.25    0.05510    0.08830  379.76400    0.00750   61.80410   61.80410  177.00910  169.19420  169.19420  379.76400  352.13160 1019.87590  352.13160  821.51040  821.51040    -999.25    0.15280    0.10630    2.55960  -16.86190   -0.98190 1019.87590
 6350.00000    8.43560    8.33710    8.33710    -999.25    1.18460   -0.00480    2.45410    -999.25    0.11870    0.14960  844.13450   -0.00480   71.88830   71.88830  300.40410  300.00000  300.00000  844.13450  906.42550 1280.36320  906.42550  680.26620  680.26620    -999.25    0.23730    0.18480    2.45570  -39.82220  -19.33120 1280.36320
 6400.00000    7.69750    7.52380    7.52380    -999.25  294.17820    0.08050    2.49750    -999.25    0.09240    0.12420    3.39930    0.08050   65.42000   65.42000   33.75330   36.48710   36.48710    3.39930    5.98090   42.30690    5.98090  735.80870  735.80870    -999.25    0.22420    0.17210    2.50570 -137.71600 -115.48720   42.30690
 6450.00000    7.66320    7.88410    7.88410    -999.25  231.05360    0.12610    2.53040    0.10500    -999.25    0.10500    4.32800    0.12610   57.39890   57.39890   14.42240   15.96320   15.96320    4.32800    5.26390   28.70030    5.26390  738.90590  738.90590    0.17260    -999.25    0.17260    2.56570 -109.16760  -87.82080   28.70030
 6500.00000    8.73850    8.73930    8.73930    -999.25  165.77700    0.00920    2.63560    0.04350    -999.25    0.04350    6.03220    0.00920   60.00250   60.00250   42.70920   44.97310   44.97310    6.03220    5.20120   13.21000    5.20120  710.88090  710.88090    0.16080    -999.25    0.16080    2.65540  -64.55580  -44.09110   13.21000
 6550.00000    8.53260    8.78900    8.78900    -999.25   33.77350    0.01610    2.93300   -0.13040    -999.25   -0.13040   29.60900    0.01610   51.04000   51.04000   11.10930   13.68260   13.68260   29.60900   39.56290  760.16740   39.56290 1021.75280 1021.75280    0.00000    -999.25    0.00000    2.89230  -71.79480  -52.21210  760.16740
 6600.00000    8.44070    8.55290    8.55290    -999.25   89.38230    0.01770    2.69050    0.01140    -999.25    0.01140   11.18790    0.01770   57.45010   57.45010   49.32860   47.13390   47.13390   11.18790   11.59850   19.55760   11.59850  863.72090  863.72090    0.10020    -999.25    0.10020    2.68510  -55.26410  -36.56350   19.55760
 6650.00000    8.11940    8.18100    8.18100    -999.25   88.02890    0.00060    2.66190    0.02810    -999.25    0.02810   11.35990    0.00060   50.81200   50.81200   12.51720   12.38570   12.38570   11.35990   16.55620  213.87290   16.55620    -999.25    -999.25    0.01350    -999.25    0.01350    2.65200 -163.32130 -145.50270  213.87290
 6700.00000    8.21610    8.33520    8.33520    -999.25   38.87530    0.00860    2.68470    0.01480    -999.25    0.01480   25.72330    0.00860   50.17850   50.17850   13.20100   13.94030   13.94030   25.72330   38.81080  387.24450   38.81080    -999.25    -999.25    0.01630    -999.25    0.01630    2.68700 -169.33110 -152.39450  387.24450
 6750.00000    8.41240    8.58540    8.58540    -999.25   32.65680    0.01740    2.71410   -0.00240    -999.25   -0.00240   30.62150    0.01740   50.84570   50.84570   21.80860   21.59080   21.59080   30.62150   42.38150  171.09530   42.38150    -999.25    -999.25    0.02710    -999.25    0.02710    2.72060  -86.44190  -70.38740  171.09530
 6800.00000    8.61140    8.75100    8.75100    -999.25  345.87710    0.00940    2.66010    0.02920    -999.25    0.02920    2.89120    0.00940   68.64570   68.64570   82.66750   81.98390   81.98390    2.89120    3.13910    4.07490    3.13910    -999.25    -999.25    0.21390    -999.25    0.21390    2.66140  -35.25840  -20.08590    4.07490
 6850.00000    8.18270    8.33050    8.33050    -999.25   98.25210    0.02240    2.73100   -0.01230    -999.25   -0.01230   10.17790    0.02240   61.75660   61.75660   90.09880   88.22150   88.22150   10.17790   11.22670   18.12860   11.22670    -999.25    -999.25    0.11860    -999.25    0.11860    2.73830  -25.28990  -11.54820   18.12860
 6900.00000    8.39880    8.58440    8.58440    -999.25   44.87710    0.00800    2.67560    0.02010    -999.25    0.02010   22.28310    0.00800   57.19900   57.19900   37.13880   34.54910   34.54910   22.28310   21.77960   73.23450   21.77960    -999.25    -999.25    0.03040    -999.25    0.03040    2.66340  -31.06800  -21.85170   73.23450
 6950.00000    8.28810    8.31260    8.31260    -999.25   15.79420   -0.00740    2.67750    0.01900    -999.25    0.01900   63.31440   -0.00740   49.56270   49.56270   26.06690   24.26820   24.26820   63.31440   52.53730  181.38250   52.53730    -999.25    -999.25    0.01080    -999.25    0.01080    2.67460  -13.41710   -7.38180  181.38250
 7000.00000    8.08970    8.22730    8.22730    -999.25   19.59770    0.00840    2.66110    0.02860    -999.25    0.02860   51.02640    0.00840   55.54260   55.54260   32.62030   29.11070   29.11070   51.02640   50.99930   71.64920   50.99930    -999.25    -999.25    0.02360    -999.25    0.02360    2.67050   -7.94910   -2.79270   71.64920
