~Version ---------------------------------------------------
VERS.      2.0 : CWLS log ASCII Standard -VERSION 2.0
WRAP.       NO : One line per depth step
CREA. 08/23/13 : LAS Creation Date
~Well ------------------------------------------------------
STRT.m                               400.0 : START DEPTH
STOP.m                              2500.0 : STOP DEPTH
STEP.m                            50.00000 : STEP LENGTH
NULL.                              -999.25 : NULL VALUE
COMP.                DEVON ARL CORPORATION : COMPANY
WELL. DEVON ARL ETAL 7D GVILLEE 7-25-76-23 : WELL
FLD .                                      : FIELD
LOC .                                      : LOCATION
CTRY.                               CANADA : COUNTRY
SRVC.                         Schlumberger : SERVICE COMPANY
DATE.                          06-Mar-2003 : LOGDATE
PROV.                              Alberta : PROVINCE
UWI .                     100072507623W500 : UNIQUE WELL ID
SLAT.WGS84                        55.61368 : SURFACE LATITUDE
SLON.WGS84                       -117.4224 : SURFACE LONGITUDE
~Curve Information -----------------------------------------
DEPT    .m      : Depth meter
AF20ED  .OHMM   : ARRAY INDUCTION FOUR FOOT RESISTIVITY A20
AF30ED  .OHMM   : ARRAY INDUCTION FOUR FOOT RESISTIVITY A30
AF60ED  .OHMM   : ARRAY INDUCTION FOUR FOOT RESISTIVITY A60
CALWS   .MM     : CALIPER [HCALSED]
CONDWS  .MMHO   : CONDUCTIVITY [1000/DRESWS]
DCORWS  .KG/M3  : DENSITY CORRECTION [DRHOED]
DENWS   .KG/M3  : BUCK DENSITY  M=2.65 F=1.0] [RHOZED]
DPHILSED.V/V    : DENSITY POROSITY LIMESTONE FROM FDC LOG
DPHISSED.V/V    : DENSITY POROSITY SANDSTONE FROM FDC LOG
DPOLSWS .V/V    : DENSITY POROSITY [M=2.71 F=1.0] [DENWS]
DRESWS  .OHMM   : DEEP RESISTIVITY [AF60ED]
DTED    .US/M   : DELTA TIME FROM SONIC LOG
DTWS    .US/M   : DELTA TIME [DTED]
GRDED   .GAPI   : GAMMA RAY FROM FDC LOG
GRRED   .GAPI   : GAMMA RAY FROM RESISTIVITY LOG
GRSED   .GAPI   : GAMMA RAY FROM SONIC LOG
GRWS    .GAPI   : GAMMA RAY [GRRED]
HCALDED .MM     : HRCC CALIPER CALIBRATED FROM DENSITY LOG
HCALSED .MM     : HRCC CALIPER CALIBRATED FROM SONIC LOG
HDDED   .MM     : HOLE DIAMETER
HDRAED  .KG/M3  : DENSITY CORRECTION FROM DENSITY LOG
HDSED   .MM     : HOLE DIAMETER FROM SONIC
MRESWS  .OHMM   : SHALLOW LATERAL RESISTIVITY [AF60ED]
NPOLSWS .V/V    : NEUTRON POROSITY[CONVERTED FROM [NPORSSED,SPLICED NPORLSED AT 1149.5 M]
NPORLSED.V/V    : ENCHANCED THERMAL NEUTRON POROSITY IN SELECTED LITHOLOGY SANDSTONE
NPORSSED.V/V    : NEUTRON POROSITY SANDSTONE FROM DENSITY LOG
PEFWS   .B/E    : PHOTO ELECTROL [PEFED]
PEFZED  .B/E    : PHOTOELECTRIC FACTOR STANDARD RESOLUTION FROM DENSITY LOG
RHOZED  .KG/M3  : BULK DENSITY HRDD STANDARD RESOLUTION
RXOZED  .OHMM   : INVADED FORMATION RESISTIVITY FILTERED
SPRED   .MV     : SPONTANEOUS POTENTIAL FROM RESISTIVITY LOG
SPWS    .MV     : SPONTANEOUS POTENTIAL [BASELINE 0 MV] [SPRED]
SRESWS  .OHMM   : SHALLOW RESISTIVITY [AF20ED]
TENDED  .N      : TENSION FROM FDC LOG
TENRED  .N      : TENSION FROM RESISTIVITY LOG
TENSED  .N      : TENSTION FROM SONIC
~Params ----------------------------------------------------
PD  .                                  GL : PERMANENT DATUM
EPD .M                              551.9 : ELEVATION PERMANENT DATUM
LMF .                                  KB : LOG MEASURED FROM
DAPD.M                                4.7 : FEET ABOVE PERMANENT DATUM
DMF .                                  KB : DRILLING MEASURED FROM
EKB .M                              556.6 : KELLY BUSHING
EDF .M                              556.3 : DRILLING FLOOR
EGL .M                              551.9 : GROUND LEVEL
DATE.                            03/06/03 : RUN DATE
RUN .                                   1 : RUN NUMBER
DD  .M                               2545 : DEPTH DRILLER
DL  .M                               2544 : DEPTH LOGGER
BLI .M                             2538.3 : BOTTOM LOG INTERVAL
TLI .M                                421 : TOP LOG INTERVAL
CS  .MM                             219.1 : CASING SIZE
CBD .M                                421 : CASING BOTTOM DRILLER
CBL .M                              420.5 : CASING BOTTOM LOGGER
BS  .MM                               200 : BIT SIZE
BSD .M                               2545 : BIT SIZE AT DEPTH
DFT .                            GEL CHEM : DRILLING FLUID TYPE
DFD .                                1050 : DRILLING FLUID DENSITY
DFV .                                  83 : DRILLING FLUID VISCOSITY
DFPH.                                10.5 : DRILLING FLUID PH
DFL .                                   7 : DRILLING FLUID LOSS
MSS .                            FLOWLINE : MUD SAMPLE SOURCE
RMS .OHMM                            1.27 : RESISTIVITY MUD SAMPLE
MST .DEGC                              17 : MUD SAMPLE TEMPERATURE
RMF .OHMM                            0.98 : RESISTIVITY MUD FILTRATE SAMPLE
MFST.DEGC                              18 : MUD FILTRATE SAMPLE TEMPERATURE
RMC .OHMM                            1.55 : RESISTIVITY MUD CAKE
MCST.DEGC                              18 : MUD CAKE SAMPLE TEMPERATURE
MFSS.                            MEASURED : MUD FILTRATE SAMPLE SOURCE
MCSS.                             MEAURED : MUD CAKE SAMPLE SOURCE
RMB .OHMM                           0.566 : RESISTIVITY MUD AT BHT
TCS .HRS                              640 : TIME CIRCULATED STOPPED
TLAB.HRS                             1645 : TIME LOGGER AT BOTTOM
LUN .                                2133 : LOGGING UNIT NUMBER
LUL .                      GRANDE PRAIRIE : LOGGING UNIT LOCATION
ENGI.                            STIRLING : RECORDING ENGINEER
WITN.                              MCLEAY : WITNESSED BY
CLNT.                             A2DTECH : CLIENT CODE
ORIG. 6.5"/100M 16.5"/100M 33"/100M PRINT : ORIGIN OF DATA
UWI .                    100072507623W500 : UNIQUE WELL ID
DICO.              A2D Technologies, Inc. : DIGITIZING COMPANY
~Other -----------------------------------------------------
1. ALL CURVES APPEAR ON DEPTH, 1050 PPM
~ASCII -----------------------------------------------------
  400.00000    -999.25    -999.25    -999.25    -999.25    -999.25    -999.25    -999.25    -999.25    -999.25    -999.25    -999.25    -999.25    -999.25    -999.25   76.35010   77.76640   76.35010    -999.25    -999.25    -999.25    -999.25    -999.25    -999.25    -999.25    -999.25    -999.25    -999.25    -999.25    -999.25    -999.25    -999.25    -999.25    -999.25    -999.25    -999.25    -999.25
  450.00000    2.53750    2.78270    3.20390  332.46130  312.14090  -48.64380 1682.37190    -999.25    0.57640    0.60100    3.20390  453.20180  453.20180   90.89830   90.90830   90.21790   90.90830  338.03030  332.46130  357.10190  -48.64380  355.84640    2.78270    0.56930    -999.25    0.56930    3.25870    3.25870 1682.37190    1.83460  -33.49310   -2.30520    2.53750 8669.70060 8782.71040 8661.72710
  500.00000    3.12030    3.40320    3.74330  256.35050  267.21520  145.94140 2058.77870    -999.25    0.36320    0.38080    3.74330  392.11020  392.11020  109.97730  111.18920  108.84210  111.18920  247.72110  256.35050  246.86340  145.94140  248.30530    3.40320    0.50650    -999.25    0.50650    2.97770    2.97770 2058.77870    2.39200  -31.22640   -1.45770    3.12030 9429.86180 9534.66010 9418.72220
  550.00000    4.06030    4.43730    4.91720  225.53580  203.37340   92.85530 2230.48720    -999.25    0.24970    0.28040    4.91720  350.82660  350.82660  114.79670  113.23100  114.68120  113.23100  226.07520  225.53580  252.88030   92.85530  254.90490    4.43730    0.39420    -999.25    0.39420    2.80610    2.80610 2230.48720    3.46840  -30.74540   -2.39590    4.06030 9529.43840 9825.08540 9615.35450
  600.00000    3.86780    4.00290    4.22470  201.54080  236.80750   -7.00160 2354.56290    -999.25    0.17870    0.20790    4.22470  346.21200  346.21200   80.76390   81.02620   80.51960   81.02620  199.79980  201.54080  201.66940   -7.00160  199.77210    4.00290    0.37910    -999.25    0.37910    3.20810    3.20810 2354.56290    4.96340  -34.73420   -7.43840    3.86780 10146.39650 10335.24660 10206.41890
  650.00000    4.93940    5.02430    5.17150  217.92500  193.38120   -1.23860 2270.05600    -999.25    0.23230    0.25730    5.17150  330.90270  330.90270   79.88500   79.45060   79.55060   79.45060  217.87370  217.92500  213.35520   -1.23860  212.06880    5.02430    0.40480    -999.25    0.40480    3.31630    3.31630 2270.05600    7.01850  -36.47360   -8.67360    4.93940 10252.05570 10315.30370 10156.17040
  700.00000    6.12550    5.57340    4.81770  234.99460  207.57210   39.56720 2232.74240    -999.25    0.25330    0.27910    4.81770  321.45520  321.45520   58.65350   59.03520   60.26760   59.03520  234.53460  234.99460  226.04920   39.56720  225.66750    5.57340    0.39660    -999.25    0.39660    3.01080    3.01080 2232.74240    7.42090  -48.74490  -20.44070    6.12550 10923.91450 10977.32430 10879.91410
  750.00000    4.62640    4.47680    4.35010  230.79680  229.94280   47.89900 2278.34280    -999.25    0.22270    0.25240    4.35010  332.11190  332.11190   73.39350   74.60740   73.30820   74.60740  229.84810  230.79680  241.19550   47.89900  240.88410    4.47680    0.39290    -999.25    0.39290    2.94460    2.94460 2278.34280    7.00320  -46.12460  -17.31620    4.62640 11201.31600 11227.10590 11170.30860
  800.00000    4.63510    4.75990    5.03960  230.46040  198.42970   -5.36390 2416.88600    -999.25    0.14280    0.17140    5.03960  330.28750  330.28750   85.14770   87.01180   85.51890   87.01180  230.46300  230.46040  239.17980   -5.36390  239.31010    4.75990    0.40480    -999.25    0.40480    3.27830    3.27830 2416.88600    5.45640  -30.85480   -1.54220    4.63510 11408.71530 11481.26710 11397.49370
  850.00000    6.55670    6.67690    6.96040  233.96520  143.67420   -4.06750 2459.23140    -999.25    0.11660    0.14660    6.96040  302.76130  302.76130   80.39380   83.26460   79.65810   83.26460  234.12540  233.96520  257.98660   -4.06750  258.06270    6.67690    0.34720    -999.25    0.34720    3.10870    3.10870 2459.23140    8.39220  -37.02090   -7.20410    6.55670 11817.04390 11802.49070 11918.77000
  900.00000   14.28360   15.51550   16.28890  224.46840   61.58040    0.84520 2389.54260    -999.25    0.14990    0.18740   16.28890  301.61710  301.61710   86.72210   88.23940   86.63500   88.23940  223.84260  224.46840  222.21930    0.84520  221.78430   15.51550    0.30010    -999.25    0.30010    2.73070    2.73070 2389.54260   23.58830  -37.15630   -7.83100   14.28360 12125.96430 12096.06110 12150.62750
  950.00000    2.71490    3.06560    3.43180  268.55900  291.87130  145.37980 2010.24170    -999.25    0.29580    0.40920    3.43180  338.60760  338.60760   79.89450   79.99020   79.58620   79.99020  270.15120  268.55900  400.46340  145.37980  400.66860    3.06560    0.54450    -999.25    0.54450    2.73200    2.73200 2010.24170    2.58110  -33.41480   -5.66850    2.71490 12556.00590 12472.15240 12538.89750
 1000.00000  175.26960  209.52350  245.29280  204.81830    4.28220   -9.51910 2256.91910    -999.25    0.23130    0.26500  245.29280  291.89100  291.89100  230.81320  233.42610  230.43640  233.42610  206.31850  204.81830  204.63420   -9.51910  205.60140  209.52350    0.38140    -999.25    0.38140    3.77880    3.77880 2256.91910  569.52830  -26.55380   -1.42840  175.26960 12560.18120 12563.77050 12539.03170
 1050.00000    6.45350    6.12240    5.93850  250.45300  168.40680   -6.72950 2582.69780    -999.25    0.03940    0.07440    5.93850  244.42230  244.42230   84.62120   84.12240   84.65720   84.12240  250.19110  250.45300  243.91510   -6.72950  243.99230    6.12240    0.27850    -999.25    0.27850    3.24770    3.24770 2582.69780   12.87750  -39.38410   -5.13870    6.45350 12599.07760 12615.17780 12718.73880
 1100.00000    5.58600    4.78520    3.71740  230.42390  269.02520   31.51900 2372.47220    -999.25    0.17070    0.19740    3.71740  267.76910  267.76910  299.95170  366.99140  361.75660  366.99140  230.21120  230.42390  215.69260   31.51900  214.73620    4.78520    0.27680    -999.25    0.27680    2.67300    2.67300 2372.47220   26.20860  -91.63180  -48.26640    5.58600 13045.41700 13109.20750 13112.60990
 1150.00000    2.91270    3.24240    3.85460  243.67330  259.58200   47.31820 2474.79910    0.14940    0.11080    0.13750    3.85460  291.63600  291.63600  129.25700  129.42620  129.66050  129.42620  245.77400  243.67330  344.94730   47.31820  343.35800    3.24240    0.39210    0.39210    0.42030    2.93280    2.93280 2474.79910    3.54910  -39.93570    1.32410    2.91270 12591.49020 12791.54780 12704.33890
 1200.00000    0.88790    0.83030    0.79480  306.09430 1262.22430   42.08840 2321.88790    0.20900    -999.25    0.22700    0.79480  258.58090  258.58090   42.65680   43.14440   42.66380   43.14440  305.30310  306.09430  291.58160   42.08840  291.53470    0.83030    0.38760    0.38760    -999.25    2.97400    2.97400 2321.88790    6.05970  -92.52420  -69.69880    0.88790 13997.99960 13937.08110 13872.07620
 1250.00000    1.37580    1.34780    1.32490  287.04310  755.16800    5.19790 2421.00570    0.15980    -999.25    0.16900    1.32490  237.03650  237.03650   42.24000   43.77130   42.99350   43.77130  286.42540  287.04310  301.65500    5.19790  305.20030    1.34780    0.33360    0.33360    -999.25    2.88860    2.88860 2421.00570    6.02070  -52.49350  -34.21060    1.37580 14167.83350 14196.07710 14177.23390
 1300.00000    9.56320    9.01260    8.20340  244.21400  122.40100   64.68190 2553.77600    0.09000    -999.25    0.09140    8.20340  191.68030  191.68030   32.80280   32.35290   32.55900   32.35290  243.84640  244.21400  253.59780   64.68190  250.64150    9.01260    0.12290    0.12290    -999.25    4.49580    4.49580 2553.77600   48.78760  -59.37360  -46.97240    9.56320 14597.22470 14537.02740 14488.86910
 1350.00000    3.24550    3.07190    2.88250  250.04770  347.03400    6.92030 2528.01700    0.11260    -999.25    0.10640    2.88250  217.32980  217.32980   42.54040   42.50030   42.85240   42.50030  248.64130  250.04770  264.49640    6.92030  259.41320    3.07190    0.21010    0.21010    -999.25    3.71800    3.71800 2528.01700    4.06410  -34.10790  -38.42310    3.24550 14408.50730 14414.27100 14505.99610
