~Version ---------------------------------------------------
VERS.      2.0 : CWLS log ASCII Standard -VERSION 2.0
WRAP.       NO : One line per depth step
CREA. 11/20/17 : LAS Creation Date
~Well ------------------------------------------------------
STRT.FT                            1200.0 : START DEPTH
STOP.FT                           11350.0 : STOP DEPTH
STEP.FT                          50.00000 : STEP LENGTH
NULL.                             -999.25 : NULL VALUE
COMP.       AMOCO CANADA PETROLEUM CO LTD : COMPANY
WELL. AMOCO MOBIL L-2 WAHIGAN 10-16-64-23 : WELL
FLD .                                     : FIELD
LOC .                                     : LOCATION
CTRY.                              CANADA : COUNTRY
SRVC.                             Unknown : SERVICE COMPANY
DATE.                         06-Feb-1976 : LOGDATE
PROV.                             Alberta : PROVINCE
UWI .                    100101606423W500 : UNIQUE WELL ID
SLAT.WGS84                       54.53986 : SURFACE LATITUDE
SLON.WGS84                      -117.4124 : SURFACE LONGITUDE
~Curve Information -----------------------------------------
DEPT    .FT    : Depth Curve
ACED    .US/F  : ACOUSTIC TIME FROM SONIC LOG [ADJ. TO RESISTIVITY LOG]
CALDED  .IN    : CALIPER FROM DENSITY LOG
CALSED  .IN    : CALIPER FROM SONIC LOG [ADJ. TO RESISTIVITY LOG]
CALWS   .IN    : CALIPER [CALDED]
CONDWS  .MMHO  : CONDUCTIVITY [1000/DRESWS]
CORRED  .G/C3  : DENSITY CORRECTION FROM DENSITY LOG [ADJ. TO RESISTIVITY LOG]
DCORWS  .G/C3  : DENSITY CORRECTION [CORRED]
DENWS   .G/C3  : FORMATION BULK DENSITY [RHOBED]
DPHILSED.V/V   : DENSITY POROSITY LIMESTONE [M=2.71, F=1.00] FROM DENSITY LOG [ADJ. TO RESISTIVITY LOG]
DPHISSED.V/V   : DENSITY POROSITY SANDSTONE [M=2.65, F=1.00]FROM DENSITY LOG [ADJ. TO RESISTIVITY LOG]
DPOLSWS .V/V   : DENSITY POROSITY LIMESTONE [CALC. FROM DENWS, M=2.71, F=1.00]
DRESWS  .OHMM  : DEEP RESISTIVITY [ILDED]
DTWS    .US/F  : COMPRESSIONAL SONIC [ACED]
GRDED   .GAPI  : GAMMA RAY FROM DENSITY LOG
GRSED   .GAPI  : GAMMA RAY FROM SONIC LOG [ADJ. TO RESISTIVITY LOG]
GRWS    .GAPI  : GAMMA RAY [GRSED SPL. TO GRDED @ 11348']
ILDED   .OHMM  : DEEP INDUCTION LOG RESISTIVITY FROM RESISTIVITY LOG
ILMED   .OHMM  : MEDIUM INDUCTION LOG RESISTIVITY FROM RESISTIVITY LOG
MRESWS  .OHMM  : MEDIUM RESISTIVITY [ILMED]
NPHILSED.V/V   : NEUTRON POROSITY LIMESTONE FROM DENSITY LOG [ADJ. TO RESISTIVITY LOG]
NPHISSED.V/V   : NEUTRON POROSITY SANDSTONE FROM DENSITY LOG [ADJ. TO RESISTIVITY LOG]
NPOLSWS .V/V   : NEUTRON POROSITY LIMESTONE [NPHISSED MATRIX CONVERSION FOR LIMESTONE & SPL. TO NPHILSED @ 6845']
RHOBED  .G/C3  : BULK DENSITY FROM DENSITY LOG [ADJ. TO RESISTIVITY LOG]
SFLED   .OHMM  : SPHERICALLY FOCUSED RESISTIVITY FROM RESISTIVITY LOG
SPRED   .MV    : SPONTANEOUS POTENTIAL FROM RESISTIVITY LOG
SPWS    .MV    : SPONTANEOUS POTENTIAL [BASELINE 0 MV, SPRED]
SRESWS  .OHMM  : SHALLOW RESISTIVITY [SFLED]
~Params ----------------------------------------------------
PD  .                     GL : PERMANENT DATUM
EPD .FT               2628.5 : ELEVATION PERMANENT DATUM
LMF .                     KB : LOG MEASURED FROM
DAPD.FT                 13.5 : FEET ABOVE PERMANENT DATUM
DMF .                     KB : DRILLING MEASURED FROM
EKB .FT                 2642 : KELLY BUSHING
EGL .FT               2628.5 : GROUND LEVEL
DATE.               02/06/76 : RUN DATE
RUN .                      1 : RUN NUMBER
DD  .FT                11378 : DEPTH DRILLER
DL  .FT                11410 : DEPTH LOGGER
BLI .FT                11408 : BOTTOM LOG INTERVAL
TLI .FT                 1219 : TOP LOG INTERVAL
CS  .IN                9.625 : CASING SIZE
CBD .FT                 1208 : CASING BOTTOM DRILLER
CBL .FT                 1219 : CASING BOTTOM LOGGER
BS  .IN                 8.75 : BIT SIZE
BSD .FT                11378 : BIT SIZE AT DEPTH
DFT .           MUD GEL CHEM : DRILLING FLUID TYPE
DFD .                    9.3 : DRILLING FLUID DENSITY
DFV .                    135 : DRILLING FLUID VISCOSITY
DFPH.                     10 : DRILLING FLUID PH
DFL .                    8.1 : DRILLING FLUID LOSS
MSS .                   CIRC : MUD SAMPLE SOURCE
RMS .OHMM                3.5 : RESISTIVITY MUD SAMPLE
MST .DEGF                 67 : MUD SAMPLE TEMPERATURE
RMF .OHMM                3.5 : RESISTIVITY MUD FILTRATE SAMPLE
MFST.DEGF                 62 : MUD FILTRATE SAMPLE TEMPERATURE
RMC .OHMM                2.8 : RESISTIVITY MUD CAKE
MCST.DEGF                 67 : MUD CAKE SAMPLE TEMPERATURE
MFSS.                   MEAS : MUD FILTRATE SAMPLE SOURCE
MCSS.                   MEAS : MUD CAKE SAMPLE SOURCE
RMB .OHMM               1.21 : RESISTIVITY MUD AT BHT
TCS .HRS                   7 : TIME CIRCULATED STOPPED
LUN .                   6155 : LOGGING UNIT NUMBER
LUL .                    EDM : LOGGING UNIT LOCATION
ENGI.                    GAU : RECORDING ENGINEER
WITN.                  KAREL : WITNESSED BY
CLNT.                A2DTECH : CLIENT CODE
ORIG.            2" 5" PRINT : ORIGIN OF DATA
UWI .       100101606423W500 : UNIQUE WELL ID
DICO. A2D Technologies, Inc. : DIGITIZING COMPANY
~Other -----------------------------------------------------
~ASCII -----------------------------------------------------
# ...
 9000.00000   50.09410   10.69410    9.29550   10.69410    0.60850    0.29510    0.29510    2.44280    0.12430    -999.25    0.15630 1643.47230   50.09410   40.86190   21.68790   21.68790 1643.47230 2646.59380 2646.59380    0.03390    -999.25    0.03390    2.44280 2276.67970 -127.17080 -128.85540 2276.67970
 9050.00000   54.03230   10.43550    9.31950   10.43550    1.03010    0.30900    0.30900    2.45710    0.14810    -999.25    0.14790  970.79180   54.03230   43.63340   28.84760   28.84760  970.79180 1373.99220 1373.99220    0.04880    -999.25    0.04880    2.45710 2264.78980  -98.69360 -102.32600 2264.78980
 9100.00000   51.78800   10.26840    9.29120   10.26840    0.47270    0.28460    0.28460    2.31010    0.24640    -999.25    0.23390 2115.63330   51.78800   46.40710   24.30120   24.30120 2115.63330 2432.12620 2432.12620    0.04150    -999.25    0.04150    2.31010 2178.37260 -150.53010 -156.12320 2178.37260
 9150.00000   52.03910   10.00130    9.31630   10.00130    4.42030    0.28680    0.28680    2.55370    0.08680    -999.25    0.09140  226.23010   52.03910   34.45470   22.77020   22.77020  226.23010  231.05620  231.05620    0.03010    -999.25    0.03010    2.55370  443.76610 -178.80060 -186.34160  443.76610
 9200.00000   52.89930   10.68010    9.34630   10.68010    1.13160    0.29540    0.29540    2.36450    0.18900    -999.25    0.20200  889.43060   52.89930   45.58510   26.35050   26.35050  889.43060 2233.79230 2233.79230    0.06480    -999.25    0.06480    2.36450 2149.47970 -186.51190 -196.01350 2149.47970
 9250.00000   51.13180   10.11060    9.23660   10.11060    1.77890    0.29250    0.29250    2.54470    0.09470    -999.25    0.09670  562.15670   51.13180   42.36640   21.25220   21.25220  562.15670  863.25690  863.25690   -0.00540    -999.25   -0.00540    2.54470 2249.55830 -189.68000 -201.12950 2249.55830
 9300.00000   51.30590   10.45930    9.35650   10.45930    1.02010    0.32890    0.32890    2.61060    0.05620    -999.25    0.05810  980.27740   51.30590   46.30480   22.99440   22.99440  980.27740  773.19270  773.19270    0.00840    -999.25    0.00840    2.61060 2220.56230 -197.35800 -210.75530 2220.56230
 9350.00000   51.75290   10.43350    9.22030   10.43350    1.85920    0.24190    0.24190    2.51300    0.11360    -999.25    0.11520  537.85140   51.75290   44.89420   21.71150   21.71150  537.85140 1806.72960 1806.72960    0.00430    -999.25    0.00430    2.51300 2235.18020    -999.25    -999.25 2235.18020
 9400.00000   51.46990   10.14230    9.37290   10.14230    2.66800    0.26230    0.26230    2.40090    0.19740    -999.25    0.18080  374.81110   51.46990   42.11290   22.83820   22.83820  374.81110  495.36690  495.36690    0.01270    -999.25    0.01270    2.40090  930.42440    -999.25    -999.25  930.42440
 9450.00000   52.63730   10.61340    9.33680   10.61340    1.51720    0.29390    0.29390    2.58330    0.07600    -999.25    0.07410  663.41030   52.63730   41.49130   23.16600   23.16600  663.41030  869.58400  869.58400    0.00230    -999.25    0.00230    2.58330 1244.94620    -999.25    -999.25 1244.94620
 9500.00000   52.89150    9.82570    9.29300    9.82570    2.50740    0.27140    0.27140    2.64580    0.02930    -999.25    0.03750  398.82500   52.89150   44.71810   26.89630   26.89630  398.82500  456.98790  456.98790    0.02470    -999.25    0.02470    2.64580 1398.47640    -999.25    -999.25 1398.47640
 9550.00000   50.95480    8.74080    8.88140    8.74080   13.63210    0.02660    0.02660    2.67510    0.01640    -999.25    0.02040   73.35620   50.95480   36.98060   20.19690   20.19690   73.35620  111.83690  111.83690   -0.00120    -999.25   -0.00120    2.67510  310.28070    -999.25    -999.25  310.28070
 9600.00000   51.36930    8.78340    8.88630    8.78340   17.00770    0.20630    0.20630    2.44210    0.14670    -999.25    0.15670   58.79700   51.36930   56.53940   33.10420   33.10420   58.79700   65.84910   65.84910    0.07780    -999.25    0.07780    2.44210  111.01580    -999.25    -999.25  111.01580
 9650.00000   55.09090    8.54680    8.31950    8.54680   48.71560    0.17240    0.17240    2.62770    0.04870    -999.25    0.04810   20.52730   55.09090   49.94480   29.18470   29.18470   20.52730   29.50200   29.50200    0.10950    -999.25    0.10950    2.62770  108.05890    -999.25    -999.25  108.05890
 9700.00000   49.32780    8.65790    8.42960    8.65790   11.62530    0.14750    0.14750    2.73830   -0.01630    -999.25   -0.01650   86.78440   49.32780   35.79920   28.53780   28.53780   86.78440  263.42700  263.42700    0.04910    -999.25    0.04910    2.73830 1890.76390    -999.25    -999.25 1890.76390
 9750.00000   51.46540    9.24690    9.18520    9.24690    1.20070    0.29780    0.29780    2.70970    0.00080    -999.25    0.00020  832.84680   51.46540   60.00340   35.23780   35.23780  832.84680 1404.24940 1404.24940   -0.01700    -999.25   -0.01700    2.70970 2208.25980    -999.25    -999.25 2208.25980
 9800.00000   50.29550    9.09560    9.12560    9.09560    0.54260    0.28380    0.28380    2.70290   -0.00030    -999.25    0.00420 1842.94740   50.29550   59.96160   31.34130   31.34130 1842.94740 2398.27660 2398.27660   -0.02220    -999.25   -0.02220    2.70290 2235.40230    -999.25    -999.25 2235.40230
 9850.00000   49.41750    8.71170    8.84060    8.71170    0.54060    0.01990    0.01990    2.70200    0.00190    -999.25    0.00470 1849.81070   49.41750   53.55630   33.77030   33.77030 1849.81070 1763.55940 1763.55940   -0.00260    -999.25   -0.00260    2.70200 2256.05370    -999.25    -999.25 2256.05370
 9900.00000   50.49870    8.67820    8.77160    8.67820    0.73820    0.03260    0.03260    2.68220    0.01510    -999.25    0.01630 1354.66860   50.49870   60.21900   33.77750   33.77750 1354.66860 2652.96390 2652.96390   -0.01770    -999.25   -0.01770    2.68220 2211.86820    -999.25    -999.25 2211.86820
 9950.00000   51.59660    8.82890    8.79530    8.82890    1.78890    0.00960    0.00960    2.67190    0.02040    -999.25    0.02230  560.20530   51.59660   65.41670   49.17690   49.17690  560.20530 2611.90810 2611.90810   -0.00190    -999.25   -0.00190    2.67190 2200.65490    -999.25    -999.25 2200.65490
 10000.00000   51.14600    8.33990    8.80070    8.33990    0.55730    0.28140    0.28140    2.71680   -0.01370    -999.25   -0.00400 1794.25760   51.14600   63.56150   39.89480   39.89480 1794.25760 2278.34890 2278.34890   -0.01290    -999.25   -0.01290    2.71680 2242.19290    -999.25    -999.25 2242.19290
 10050.00000   50.93790    8.52110    8.88660    8.52110    1.49950    0.23920    0.23920    2.70910   -0.00510    -999.25    0.00050  666.90910   50.93790   56.33680   29.60590   29.60590  666.90910 2131.09960 2131.09960   -0.01560    -999.25   -0.01560    2.70910 2220.75120    -999.25    -999.25 2220.75120
 10100.00000   51.71510    8.72430    8.86970    8.72430    1.52860    0.13290    0.13290    2.59980    0.05040    -999.25    0.06440  654.19210   51.71510   48.46560   32.83720   32.83720  654.19210 1962.00050 1962.00050   -0.01670    -999.25   -0.01670    2.59980 2218.07450    -999.25    -999.25 2218.07450
 10150.00000   52.71400    8.70600    8.80280    8.70600    6.83910    0.00910    0.00910    2.66080    0.02450    -999.25    0.02880  146.21730   52.71400   56.25220   32.25710   32.25710  146.21730 2644.36160 2644.36160   -0.01420    -999.25   -0.01420    2.66080 1470.37230 -149.23020 -195.83070 1470.37230
 10200.00000   55.05540    8.96690    8.86030    8.96690   22.29810    0.01700    0.01700    2.66220    0.02630    -999.25    0.02800   44.85250   55.05540   58.81650   37.42430   37.42430   44.85250   68.87350   68.87350   -0.00560    -999.25   -0.00560    2.66220  168.06950  -47.26060  -95.82180  168.06950
 10250.00000   63.47200    9.65340    8.97940    9.65340   88.99960    0.01220    0.01220    2.61960    0.05150    -999.25    0.05290   11.23600   63.47200   90.44880   65.47000   65.47000   11.23600   14.12190   14.12190    0.08100    -999.25    0.08100    2.61960   25.90280   15.85850  -34.65060   25.90280
