~Version ---------------------------------------------------
VERS.      2.0 : CWLS log ASCII Standard -VERSION 2.0
WRAP.       NO : One line per depth step
CREA. 08/02/17 : LAS Creation Date
~Well ------------------------------------------------------
STRT.FT                       300.0 : START DEPTH
STOP.FT                     10150.0 : STOP DEPTH
STEP.FT                    50.00000 : STEP LENGTH
NULL.                       -999.25 : NULL VALUE
COMP.          MOBIL OIL CANADA LTD : COMPANY
WELL. MOBIL MCLEOD RIVER 11-1-57-14 : WELL
FLD .                               : FIELD
LOC .                               : LOCATION
CTRY.                        CANADA : COUNTRY
SRVC.        Schlumberger of Canada : SERVICE COMPANY
DATE.                   02-May-1978 : LOGDATE
PROV.                       Alberta : PROVINCE
UWI .              100110105714W500 : UNIQUE WELL ID
SLAT.WGS84                 53.89809 : SURFACE LATITUDE
SLON.WGS84                -115.9478 : SURFACE LONGITUDE
~Curve Information -----------------------------------------
DEPT    .FT    : Depth Curve
CALDED  .IN    : CALIPER FROM CNL-FDC LOG [ADJ. TO ILDED/CALSED]
CALSED  .IN    : CALIPER FROM BCS LOG
CALWS   .IN    : CALIPER [CALSED]
CONDWS  .MMHO  : CONDUCTIVITY [1000/DRESWS]
DCORED  .G/C3  : DENSITY CORRECTION FROM CNL-FDC LOG [ADJ. TO ILDED]
DCORWS  .G/C3  : DENSITY CORRECTION [DCORED]
DENWS   .G/C3  : FORMATION BULK DENSITY [RHOBED]
DPHILSED.V/V   : DENSITY POROSITY LIMESTONE [M=2.71, F=1.0] FROM CNL-FDC LOG [ADJ. TO ILDED]
DPHISSED.V/V   : DENSITY POROSITY SANDSTONE [M=2.65, F=1.0] FROM CNL-FDC LOG [ADJ. TO ILDED]
DPOLSWS .V/V   : DENSITY POROSITY LIMESTONE [CALCULATED FROM DENWS, M=2.71, F=1.0]
DRESWS  .OHMM  : DEEP RESISTIVITY [ILDED]
DTED    .US/F  : DELTA-T (INTERVAL TRANSIT TIME) FROM BCS LOG
DTWS    .US/F  : COMPRESSIONAL SONIC [DTED]
GRDED   .GAPI  : GAMMA RAY FROM CNL-FDC LOG  [ADJ. TO ILDED]
GRSED   .GAPI  : GAMMA RAY FROM BCS LOG
GRWS    .GAPI  : GAMMA RAY [GRDED SPL. TO GRSED @ 10161']
ILDED   .OHMM  : DEEP INDUCTION FROM DIL-LL LOG
ILMED   .OHMM  : MEDIUM INDUCTION FROM DIL-LL LOG
LL8ED   .OHMM  : LATEROLOG 8 FROM DIL-LL LOG
MRESWS  .OHMM  : MEDIUM RESISTIVITY [ILMED]
NPHILSED.V/V   : NEUTRON POROSITY LIMESTONE FROM CNL-FDC LOG [ADJ. TO ILDED]
NPHISSED.V/V   : NEUTRON POROSITY SANDSTONE FROM CNL-FDC LOG [ADJ. TO ILDED]
NPOLSWS .V/V   : NEUTRON POROSITY LIMESTONE [NPHISSED CONVERTED TO LIMESTONE MATRIX & SPL. TO NPHILSED @ 6700']
RHOBED  .G/C3  : BULK DENSITY FROM CNL-FDC LOG [ADJ. TO ILDED]
SPRED   .MV    : SPONTANEOUS POTENTIAL FROM DIL-LL LOG
SPWS    .MV    : SPONTANEOUS POTENTIAL [BASELINE 0 MV, SPRED]
SRESWS  .OHMM  : SHALLOW RESISTIVITY [LL8ED]
~Params ----------------------------------------------------
PD  .                     GL : PERMANENT DATUM
EPD .FT               2845.4 : ELEVATION PERMANENT DATUM
LMF .                     KB : LOG MEASURED FROM
DAPD.FT                   20 : FEET ABOVE PERMANENT DATUM
EKB .FT               2865.2 : KELLY BUSHING
EGL .FT               2845.4 : GROUND LEVEL
DATE.               05/02/78 : RUN DATE
RUN .                      1 : RUN NUMBER
DD  .FT                10200 : DEPTH DRILLER
DL  .FT                10189 : DEPTH LOGGER
BLI .FT                10183 : BOTTOM LOG INTERVAL
TLI .FT                 1217 : TOP LOG INTERVAL
CBD .FT                 1217 : CASING BOTTOM DRILLER
CBL .FT                 1217 : CASING BOTTOM LOGGER
BS  .IN                 8.75 : BIT SIZE
BSD .FT                10200 : BIT SIZE AT DEPTH
DFT .                    GEL : DRILLING FLUID TYPE
DFD .                    9.4 : DRILLING FLUID DENSITY
DFV .                    205 : DRILLING FLUID VISCOSITY
DFPH.                   10.0 : DRILLING FLUID PH
DFL .                    8.5 : DRILLING FLUID LOSS
MSS .               FLOWLINE : MUD SAMPLE SOURCE
RMS .OHMM               2.27 : RESISTIVITY MUD SAMPLE
MST .DEGF                 66 : MUD SAMPLE TEMPERATURE
RMF .OHMM               1.96 : RESISTIVITY MUD FILTRATE SAMPLE
MFST.DEGF                 65 : MUD FILTRATE SAMPLE TEMPERATURE
TCS .HRS                   4 : TIME CIRCULATED STOPPED
LUN .                   7800 : LOGGING UNIT NUMBER
LUL .                    EDM : LOGGING UNIT LOCATION
ENGI.                 KUBICA : RECORDING ENGINEER
WITN.                   RUSH : WITNESSED BY
CLNT.                A2DTECH : CLIENT CODE
ORIG.            2" 5" PRINT : ORIGIN OF DATA
UWI .       100110105714W500 : UNIQUE WELL ID
DICO. A2D Technologies, Inc. : DIGITIZING COMPANY
~Other -----------------------------------------------------
~ASCII -----------------------------------------------------
# ...
 5500.00000   11.23780    9.97630    9.97630  381.43190    0.05550    0.05550    2.35530    -999.25    0.18010    0.20740    2.62170   67.75860   67.75860  110.47050  101.71790  110.47050    2.62170    2.71320    3.95460    2.71320    -999.25    0.39590    0.35290    2.35530  -64.61820   -3.47160    3.95460
 5550.00000   11.84230   10.34310   10.34310  290.17470    0.10830    0.10830    2.50910    -999.25    0.09100    0.11750    3.44620   87.83160   87.83160  117.49010  107.77340  117.49010    3.44620    3.71900    5.08200    3.71900    -999.25    0.41440    0.37180    2.50910  -64.36710   -3.96630    5.08200
 5600.00000    8.07760    7.58920    7.58920  383.72050    0.09170    0.09170    2.46590    -999.25    0.08610    0.14280    2.63980  105.28640  105.28640   92.52400   94.38480   92.52400    2.63980    3.89020   19.03480    3.89020    -999.25    0.35470    0.31130    2.46590  -85.86670  -26.22270   19.03480
 5650.00000    8.95850    8.87450    8.87450   96.16030    0.05470    0.05470    2.54510    -999.25    0.06980    0.09640   10.39930   71.90590   71.90590   56.28350   50.23050   56.28350   10.39930   13.44470   18.46980   13.44470    -999.25    0.20230    0.15880    2.54510  -98.40120  -39.50610   18.46980
 5700.00000   10.16670    9.77950    9.77950  192.31670    0.02200    0.02200    2.45360    -999.25    0.14150    0.15000    5.30680   75.40610   75.40610  100.05870   98.06230  100.05870    5.30680    6.52790    8.59840    6.52790    -999.25    0.26870    0.22470    2.45360  -68.22970  -10.09150    8.59840
 5750.00000    9.31760    9.94450    9.94450  117.60420    0.00100    0.00100    2.37280    -999.25    0.15580    0.19720    8.50310  100.23230  100.23230   94.19450   86.20280   94.19450    8.50310    9.56250   17.23680    9.56250    -999.25    0.44790    0.40620    2.37280  -67.87490  -10.48550   17.23680
 5800.00000   10.81140   10.92450   10.92450  153.60980    0.13220    0.13220    2.11020    -999.25    0.30430    0.35080    6.51000   99.23870   99.23870   90.97130   75.30600   90.97130    6.51000    7.78010   11.37760    7.78010    -999.25    0.49360    0.45190    2.11020  -67.98500  -11.34880   11.37760
 5850.00000   10.16000    9.53860    9.53860   80.10480    0.05120    0.05120    2.61370    -999.25    0.00750    0.05630   12.49560   72.84980   72.84980   76.44310   70.38980   76.44310   12.49560   13.21540   17.97560   13.21540    -999.25    0.23850    0.19470    2.61370  -80.74020  -24.86100   17.97560
 5900.00000   11.15410   10.44630   10.44630   79.56150    0.10320    0.10320    2.00640    -999.25    0.39070    0.41150   12.56890   97.40050   97.40050   92.51850   87.81470   92.51850   12.56890   13.51910   23.41430   13.51910    -999.25    0.43480    0.39270    2.00640  -72.66070  -17.53020   23.41430
 5950.00000   10.54890   11.04050   11.04050   41.63320    0.05020    0.05020    1.49880    -999.25    0.45130    0.70830   24.26100  128.37110  128.37110   49.87300   52.21880   49.87300   24.26100   29.00690   70.09300   29.00690    -999.25    0.60580    0.56410    1.49880  -70.66790  -16.46780   70.09300
 6000.00000    9.61360    9.89950    9.89950  113.88480    0.06040    0.06040    2.55050    -999.25    0.04910    0.09330    8.78080   69.57150   69.57150   73.54190   67.20880   73.54190    8.78080   10.40120   16.02560   10.40120    -999.25    0.23050    0.18670    2.55050  -82.80950  -29.92480   16.02560
 6050.00000   10.24170   10.51400   10.51400  114.55410    0.00390    0.00390    2.48880    -999.25    0.09830    0.12940    8.72950   71.79820   71.79820   91.08060   78.81070   91.08060    8.72950   10.12340   13.80630   10.12340    -999.25    0.24380    0.19990    2.48880  -73.73660  -22.17450   13.80630
 6100.00000    8.83760    9.30300    9.30300  109.83460    0.14180    0.14180    2.47600    -999.25    0.13170    0.13680    9.15080   92.67320   92.67320   54.21200   57.41560   54.21200    9.15080   13.37390   19.69260   13.37390    -999.25    0.28430    0.24040    2.47600 -114.01990  -63.78670   19.69260
 6150.00000    8.93270    8.34570    8.34570  142.52530    0.09630    0.09630    2.51430    -999.25    0.08390    0.11440    7.01630   74.53070   74.53070   48.98200   46.39350   48.98200    7.01630   11.87590   21.58970   11.87590    -999.25    0.26230    0.21830    2.51430 -125.05700  -76.13910   21.58970
 6200.00000    9.91410   10.13810   10.13810  112.03700    0.02530    0.02530    2.59970    -999.25    0.02860    0.06450    8.92560   75.49120   75.49120  105.14310  102.01660  105.14310    8.92560   10.02790   12.43620   10.02790    -999.25    0.27860    0.23460    2.59970  -50.01220   -2.42840   12.43620
 6250.00000   10.34520   10.48600   10.48600   94.25340    0.12360    0.12360    2.49880    -999.25    0.08450    0.12350   10.60970   78.43610   78.43610   98.95550   96.67940   98.95550   10.60970   11.99750   11.20420   11.99750    -999.25    0.28090    0.23690    2.49880  -56.34340  -10.20230   11.20420
 6300.00000   10.03710    9.99440    9.99440   92.87210    0.00560    0.00560    2.61620    -999.25    0.02330    0.05490   10.76750   73.19850   73.19850  106.22720  103.00600  106.22720   10.76750   12.49520   15.61670   12.49520    -999.25    0.25910    0.21520    2.61620  -56.98470  -11.01600   15.61670
 6350.00000   10.20880   10.08740   10.08740   50.17190    0.13310    0.13310    2.61570    -999.25    0.02750    0.05520   19.98140   62.64290   62.64290   59.22130   62.20950   59.22130   19.98140   21.89700   43.24690   21.89700    -999.25    0.18340    0.14030    2.61570  -58.99980  -12.68000   43.24690
 6400.00000    9.87520    9.81260    9.81260   50.36260    0.01300    0.01300    2.59050    -999.25    0.03980    0.06990   19.85600   65.25610   65.25610   98.38690   85.39140   98.38690   19.85600   22.30430   29.46650   22.30430    -999.25    0.20130    0.15780    2.59050  -57.68570  -11.01830   29.46650
 6450.00000    9.88410    9.73200    9.73200   67.57250    0.02250    0.02250    2.62980    -999.25    0.01540    0.04690   14.80920   68.44830   68.44830  101.22440   99.96550  101.22440   14.80920   15.94490   17.02430   15.94490    -999.25    0.21620    0.17260    2.62980  -59.63020  -12.61170   17.02430
 6500.00000    9.72580   10.00120   10.00120   62.62050    0.03710    0.03710    2.56600    -999.25    0.05800    0.08420   15.96920   68.55890   68.55890  101.57370   90.96260  101.57370   15.96920   18.36650   21.59000   18.36650    -999.25    0.21170    0.16810    2.56600  -54.38830   -7.02210   21.59000
 6550.00000   10.28850   11.28080   11.28080  200.01600    0.16880    0.16880    2.61450    -999.25    0.03070    0.05580    4.99960   82.78770   82.78770  111.40190  107.82810  111.40190    4.99960    5.76960    7.31760    5.76960    -999.25    0.37620    0.33290    2.61450  -56.97810   -9.33150    7.31760
 6600.00000    9.18750    8.97640    8.97640   51.26370    0.03690    0.03690    2.59740    -999.25    0.02720    0.06580   19.58220   58.05830   58.05830   43.70520   42.33160   43.70520   19.58220   32.15680   73.88870   32.15680    -999.25    0.09930    0.05800    2.59740 -127.53590  -79.82030   73.88870
 6650.00000    8.89710    9.15650    9.15650    4.80810    0.04250    0.04250    2.65060    -999.25    0.00300    0.03470  207.98100   52.21440   52.21440   22.90360   21.68130   22.90360  207.98100  320.58910  540.11210  320.58910    -999.25    0.04590    0.01280    2.65060 -112.67990  -64.89580  540.11210
 6700.00000    8.99270    9.23940    9.23940    3.90050    0.03020    0.03020    2.62320    0.06210    0.01430    0.05080  256.41850   58.38150   58.38150   52.18730   45.89370   52.18730  256.41850  291.91190  472.87610  291.91190    0.07620    0.13340    0.07620    2.62320  -91.52410  -43.67110  472.87610
 6750.00000    9.22350    9.48030    9.48030    6.37210   -0.00120   -0.00120    2.52000    0.13110    -999.25    0.11110  156.93460   73.31810   73.31810  304.15350  304.75460  304.15350  156.93460  186.36450  343.02310  186.36450    0.23160    -999.25    0.23160    2.52000  -92.54420  -44.62260  343.02310
