~Version ---------------------------------------------------
VERS.      2.0 : CWLS log ASCII Standard -VERSION 2.0
WRAP.       NO : One line per depth step
CREA. 06/26/13 : LAS Creation Date
~Well ------------------------------------------------------
STRT.M                           500.0 : START DEPTH
STOP.M                          3700.0 : STOP DEPTH
STEP.M                        50.00000 : STEP LENGTH
NULL.                          -999.25 : NULL VALUE
COMP. AMOCO CANADA PETROLEUM CO., LTD. : COMPANY
WELL.            AMOCO TONY 10-9-62-23 : WELL
FLD .                                  : FIELD
LOC .                                  : LOCATION
CTRY.                           CANADA : COUNTRY
SRVC.                    Dresser Atlas : SERVICE COMPANY
DATE.                      10-Aug-1978 : LOGDATE
PROV.                          Alberta : PROVINCE
UWI .                 100100906223W500 : UNIQUE WELL ID
SLAT.WGS84                    54.35109 : SURFACE LATITUDE
SLON.WGS84                   -117.3832 : SURFACE LONGITUDE
~Curve Information -----------------------------------------
DEPT    .M      : DEPTH METER
ACED    .US/M   : ACOUSTIC FROM SONIC LOG [ADJ. TO RESISTIVITY LOG]
CALDED  .MM     : CALIPER FROM DENSITY LOG [ADJ. TO RESISTIVITY LOG]
CALSED  .MM     : CALIPER FROM SONIC LOG [ADJ. TO RESISTIVITY LOG]
CALWS   .MM     : CALIPER [CALED]
CONDWS  .MMHO   : CONDUCTIVITY [1000/DRESWS]
CORRED  .KG/M3  : DENSITY CORRECTION FROM DENSITY LOG [ADJ. TO RESISTIVITY LOG]
DCORWS  .KG/M3  : DENSITY CORRECTION [CORRED]
DENWS   .KG/M3  : FORMATION BULK DENSITY [RHOBED]
DPHILSED.V/V    : DENSITY POROSITY LIMESTONE [M=2710,F=1000] FROM DENSITY LOG [ADJ. TO RESISTIVITY LOG]
DPHISSED.V/V    : DENSITY POROSITY SANDSTONE [M=2650,F=1000FROM DENSITY LOG [ADJ. TO RESISTIVITY LOG]
DPOLSWS .V/V    : DENSITY POROSITY LIMESTONE [CALC FROM DENWS,M=2710,F=1000]
DRESWS  .OHMM   : DEEP RESISTIVITY [ILDED]
DTWS    .US/M   : COMPRESSIONAL SONIC [ACED]
GRDED   .GAPI   : GAMMA RAY FROM DENSITY LOG
GRSED   .GAPI   : GAMMA RAY FROM SONIC LOG [ADJ. TO RESISTIVITY LOG]
GRWS    .GAPI   : GAMMA RAY [GRSED SPL. TO GRDED @ 458.6 M] GRDED IN CSG 2455-2459 M ADDED 65 GAPI
ILDED   .OHMM   : DEEP INDUCTION RESISTIVITY FROM RESISTIVITY LOG
ILMED   .OHMM   : MEDIUM INDUCTION RESISTIVITY FROM RESISTIVITY LOG
MRESWS  .OHMM   : MEDIUM RESISTIVITY [ILMED]
NPHILSED.V/V    : NEUTRON POROSITY LIMESTONE FROM DENSITY LOG [ADJ. TO RESISTIVITY LOG]
NPHISSED.V/V    : NEUTRON POROSITY SANDSTONE FROM DENSITY LOG [ADJ. TO RESISTIVITY LOG]
NPOLSWS .V/V    : NEUTRON POROSITY LIMESTONE [CNCSSED CONVERTED TO LIMESTONE MATRIX,SPL. TO CNCLSED @ 2459M]
RHOBED  .KG/M3  : BULK DENSITY FROM DENSITY LOG [ADJ. TO RESISTIVITY LOG]
SFLED   .OHMM   : SPHERICALLY FOCUSED RESISTIVITY FROM RESISTIVITY LOG
SPRED   .MV     : SPONTANEOUS POTENTIAL FROM RESISTIVITY LOG
SPWS    .MV     : SPONTANEOUS POTENTIAL [BASELINE 0 MV,SPRED]
SRESWS  .OHMM   : SHALLOW RESISTIVITY [SFLED]
TENDED  .N      : TENSION FROM DENSITY LOG [ADJ. TO RESISTIVITY LOG]
~Params ----------------------------------------------------
PD  .                          GL : PERMANENT DATUM
EPD .M                        977 : ELEVATION PERMANENT DATUM
LMF .                          KB : LOG MEASURED FROM
DAPD.M                          8 : FEET ABOVE PERMANENT DATUM
DMF .                          KB : DRILLING MEASURED FROM
EKB .M                        985 : KELLY BUSHING
EGL .M                        977 : GROUND LEVEL
DATE.                    10/21/78 : RUN DATE
RUN .                           2 : RUN NUMBER
DD  .M                       3747 : DEPTH DRILLER
DL  .M                       3747 : DEPTH LOGGER
BLI .M                     3746.3 : BOTTOM LOG INTERVAL
TLI .M                     2464.5 : TOP LOG INTERVAL
CS  .MM                       244 : CASING SIZE
CBD .M                       2468 : CASING BOTTOM DRILLER
CBL .M                     2464.5 : CASING BOTTOM LOGGER
BS  .MM                       216 : BIT SIZE
BSD .M                       3747 : BIT SIZE AT DEPTH
DFT .                     MUD GEL : DRILLING FLUID TYPE
DFD .                        1090 : DRILLING FLUID DENSITY
DFV .                          71 : DRILLING FLUID VISCOSITY
DFPH.                           9 : DRILLING FLUID PH
DFL .                         9.9 : DRILLING FLUID LOSS
MSS .                    FLOWLINE : MUD SAMPLE SOURCE
RMS .OHMM                    2.82 : RESISTIVITY MUD SAMPLE
MST .DEGC                      24 : MUD SAMPLE TEMPERATURE
RMF .OHMM                    2.64 : RESISTIVITY MUD FILTRATE SAMPLE
MFST.DEGC                      24 : MUD FILTRATE SAMPLE TEMPERATURE
RMC .OHMM                    3.68 : RESISTIVITY MUD CAKE
MCST.DEGC                      24 : MUD CAKE SAMPLE TEMPERATURE
MFSS.                        MEAS : MUD FILTRATE SAMPLE SOURCE
MCSS.                        MEAS : MUD CAKE SAMPLE SOURCE
RMB .OHMM                    0.69 : RESISTIVITY MUD AT BHT
TCS .HRS                       10 : TIME CIRCULATED STOPPED
LUN .                     HL 6163 : LOGGING UNIT NUMBER
LUL .                         EDM : LOGGING UNIT LOCATION
ENGI.                      BURLET : RECORDING ENGINEER
WITN.                      WILSON : WITNESSED BY
CLNT.                     A2DTECH : CLIENT CODE
ORIG. 6.5" /100M 16.5"/100M PRINT : ORIGIN OF DATA
UWI .            100100906223W500 : UNIQUE WELL ID
DICO.      A2D Technologies, Inc. : DIGITIZING COMPANY
~Other -----------------------------------------------------
DIFL-CDL-CNL-ACOUSTIC LOG RAN
SP FLATTOP ON BACK UP GALVO DUE TO PANEL BEING SATURATED
~ASCII -----------------------------------------------------
# ...
 1750.00000  322.05370  348.90940  371.13410  348.90940   49.00350  222.62660  222.62660 2316.37400    -999.25    0.21510    0.23020   20.40670  322.05370  127.27730   59.81150  127.27730   20.40670   17.90910   17.90910    -999.25    0.43650    0.39650 2316.37400   25.38770 -189.56730   -5.04130   25.38770 810981.93450
 1800.00000  238.84360  356.59790  375.18720  356.59790   77.30720   84.73440   84.73440 2592.72410    -999.25    0.03430    0.06860   12.93540  238.84360  102.49030   48.82530  102.49030   12.93540   12.05690   12.05690    -999.25    0.19080    0.15080 2592.72410   14.85870 -194.76680   -9.62110   14.85870 797376.75680
 1850.00000  226.68170  354.38360  356.13420  354.38360   84.20270  293.48700  293.48700 2400.59810    -999.25    0.14610    0.18090   11.87610  226.68170  113.27090   53.69630  113.27090   11.87610   10.77690   10.77690    -999.25    0.25450    0.21450 2400.59810   17.13070 -188.94620   -7.94960   17.13070 782877.80550
 1900.00000  241.37230  336.51440  370.75230  336.51440  130.14730  163.42160  163.42160 2625.75540    -999.25    0.01250    0.04930    7.68360  241.37230  101.88330   54.05110  101.88330    7.68360    7.12300    7.12300    -999.25    0.45050    0.41050 2625.75540    9.48550 -184.97250   -5.58680    9.48550 791281.22030
 1950.00000  316.27690  391.84560  424.14760  391.84560  245.20020  183.82630  183.82630 1787.72780    -999.25    0.51160    0.53930    4.07830  316.27690  103.50700   49.16670  103.50700    4.07830    3.79350    3.79350    -999.25    0.55820    0.52170 1787.72780    7.27350 -185.13800   -5.23700    7.27350 800653.38840
 2000.00000  236.26200  333.75690  361.27470  333.75690   49.17410   89.33310   89.33310 2603.12430    -999.25    0.01900    0.06250   20.33590  236.26200   82.01970   42.18770   82.01970   20.33590   18.17510   18.17510    -999.25    0.22030    0.18030 2603.12430   20.49770 -185.11090   -4.69460   20.49770 795638.15400
 2050.00000  240.98040  353.95710  384.54190  353.95710   95.40620   86.83980   86.83980 2639.22310    -999.25    0.00620    0.04140   10.48150  240.98040   90.64340   39.95240   90.64340   10.48150    9.20130    9.20130    -999.25    0.28670    0.24670 2639.22310   16.32110 -178.21320   -4.82600   16.32110 794006.02590
 2100.00000  288.35610  352.02450  384.78090  352.02450   58.60460   75.96930   75.96930 1942.84640    -999.25    0.38760    0.44860   17.06350  288.35610  104.03370   42.62550  104.03370   17.06350   15.51620   15.51620    -999.25    0.37070    0.33070 1942.84640   25.88820 -165.83910   -2.12640   25.88820 790551.89150
 2150.00000  199.71780  346.84910  362.51400  346.84910   84.78380  196.77010  196.77010 2718.74190    -999.25    0.00140   -0.00510   11.79470  199.71780   75.86240   37.15790   75.86240   11.79470   11.02950   11.02950    -999.25    0.31920    0.27920 2718.74190   14.23650 -162.67100  -10.65830   14.23650 789997.26360
 2200.00000  227.56840  341.13780  360.41210  341.13780  109.78520   60.84510   60.84510 2551.81930    -999.25    0.05250    0.09250    9.10870  227.56840   76.16680   37.37350   76.16680    9.10870    8.41090    8.41090    -999.25    0.28560    0.24560 2551.81930   11.90330 -147.12360   -9.76820   11.90330 786576.19600
 2250.00000  228.16050  329.53680  351.95350  329.53680   72.61580   65.12720   65.12720 2650.48330    -999.25    0.00040    0.03480   13.77110  228.16050   94.70900   43.63810   94.70900   13.77110   12.59180   12.59180    -999.25    0.26990    0.22990 2650.48330   19.54340 -138.38010  -12.44610   19.54340 799316.45480
 2300.00000  214.51370  332.20920  351.72840  332.20920   23.61410  101.03650  101.03650 2677.10570    -999.25   -0.00010    0.01920   42.34750  214.51370   94.77930   46.77690   94.77930   42.34750   38.97160   38.97160    -999.25    0.20290    0.16290 2677.10570   54.61850 -133.54270  -19.03010   54.61850 796079.91290
 2350.00000  242.40430  318.27450  352.26770  318.27450   14.29620  166.95010  166.95010 2583.82030    -999.25    0.03900    0.07380   69.94850  242.40430  120.70220   56.35200  120.70220   69.94850   60.30400   60.30400    -999.25    0.20230    0.16230 2583.82030   63.34190 -128.68020  -27.93230   63.34190 793117.34420
 2400.00000  206.40290  327.44250  334.34920  327.44250   41.66420  125.56280  125.56280 2698.96660    -999.25    0.00060    0.00650   24.00140  206.40290   79.98550   42.55360   79.98550   24.00140   19.74810   19.74810    -999.25    0.24250    0.20250 2698.96660   20.99550 -107.04760  -10.98150   20.99550 794030.66880
 2450.00000  248.60740  317.30150  321.47150  317.30150    8.23420  103.79520  103.79520 2463.31590    -999.25    0.10520    0.14430  121.44420  248.60740  189.36470   81.81210  189.36470  121.44420  135.01370  135.01370    -999.25    0.33110    0.29110 2463.31590 2146.50220  -96.00130    1.94940 2146.50220 760695.30250
 2500.00000  194.47370  226.46870  216.71490  226.46870   33.50620   56.35430   56.35430 2695.13650    0.00080    -999.25    0.00870   29.84520  194.47370   87.84200   81.65300   87.84200   29.84520   32.33290   32.33290    0.06290    -999.25    0.06290 2695.13650   62.04330 -108.89830  -13.98870   62.04330    -999.25
 2550.00000  200.86330  227.22320  221.30710  227.22320   37.47970   53.03390   53.03390 2713.49900   -0.00440    -999.25   -0.00200   26.68110  200.86330  109.40140  105.55920  109.40140   26.68110   28.77020   28.77020    0.07950    -999.25    0.07950 2713.49900   67.52360 -104.00230   -9.54980   67.52360    -999.25
 2600.00000  179.55570  313.59100  225.97870  313.59100   13.46720  214.40200  214.40200 2226.76050    0.28100    -999.25    0.28260   74.25460  179.55570   43.45390   52.12730   43.45390   74.25460   79.09930   79.09930    0.10910    -999.25    0.10910 2226.76050  185.59370 -162.54370  -74.24890  185.59370    -999.25
 2650.00000  184.20990  247.93630  212.02520  247.93630   14.53080  287.31960  287.31960 2320.13450    0.21030    -999.25    0.22800   68.81920  184.20990   59.98330   43.71130   59.98330   68.81920  109.19270  109.19270    0.05730    -999.25    0.05730 2320.13450  588.79580 -164.05580  -85.21230  588.79580    -999.25
 2700.00000  186.09870  248.88620  217.29720  248.88620   66.00050   28.42450   28.42450 2730.31350   -0.01410    -999.25   -0.01190   15.15140  186.09870   33.48260   33.00480   33.48260   15.15140   16.68240   16.68240    0.06990    -999.25    0.06990 2730.31350   34.41890 -169.27350  -99.88130   34.41890    -999.25
 2750.00000  163.50870  243.49420  220.04580  243.49420   29.26900   52.85760   52.85760 2609.86400    0.04870    -999.25    0.05860   34.16580  163.50870   18.40570   11.31290   18.40570   34.16580   81.45750   81.45750    0.02680    -999.25    0.02680 2609.86400  566.97960 -201.37680 -141.43580  566.97960    -999.25
 2800.00000  197.47060  251.63280  214.36330  251.63280  118.07210   17.42820   17.42820 2706.18820   -0.00390    -999.25    0.00220    8.46940  197.47060   83.25220   79.03540   83.25220    8.46940   10.53870   10.53870    0.12200    -999.25    0.12200 2706.18820   37.29700  -71.51250  -23.57800   37.29700    -999.25
 2850.00000  171.09840  267.81730  226.02770  267.81730    9.45570  253.30100  253.30100 2788.17040   -0.04210    -999.25   -0.04570  105.75670  171.09840   23.95060   19.65990   23.95060  105.75670  132.36410  132.36410    0.02730    -999.25    0.02730 2788.17040  354.89050  -61.09260  -22.49200  354.89050    -999.25
 2900.00000  171.39240  255.35120  217.50510  255.35120   11.07360   68.52540   68.52540 2750.67650   -0.02850    -999.25   -0.02380   90.30520  171.39240   39.69050   33.28710   39.69050   90.30520  101.58650  101.58650    0.02250    -999.25    0.02250 2750.67650  365.76920  -89.28200  -52.91040  365.76920    -999.25
 2950.00000  186.49630  256.12760  215.04080  256.12760   27.07460   44.35850   44.35850 2742.71850   -0.02490    -999.25   -0.01910   36.93500  186.49630   65.56490   71.62440   65.56490   36.93500   42.64180   42.64180    0.05410    -999.25    0.05410 2742.71850  101.89010  -87.80990  -53.66730  101.89010    -999.25
