~Version ---------------------------------------------------
VERS. 2.0 : CWLS log ASCII Standard -VERSION 2.0
WRAP.  NO : ONE LINE PER DEPTH STEP
~Well ------------------------------------------------------
STRT.F                          300.0 : START DEPTH
STOP.F                         7450.0 : STOP DEPTH
STEP.F                       50.00000 : STEP LENGTH
NULL.                         -999.25 : NULL VALUE
COMP.         BRALORNE RESOURCES LTD. : COMPANY
WELL. BRALORNE ET AL HEARTR 9-1-77-16 : WELL
FLD .                                 : FIELD
LOC .                                 : LOCATION
CTRY.                          CANADA : COUNTRY
SRVC.                         Unknown : SERVICE COMPANY
DATE.                     01-Apr-1977 : LOGDATE
PROV.                         Alberta : PROVINCE
UWI .                100090107716W500 : UNIQUE WELL ID
SLAT.WGS84                   55.64558 : SURFACE LATITUDE
SLON.WGS84                  -116.3326 : SURFACE LONGITUDE
~Curve Information -----------------------------------------
DEPT   .F    0   1   0  0 : 1 MEASURED DEPTH
GRD    .GAPI 45 310 01 00 : GAMMA RAY FROM DENSITY LOG
NPHI_SS.DEC  42 890 03 00 : NEUTRON POROSITY SANDSTONE
CALD   .IN   45 280 60 00 : CALIPER FROM DENSITY LOG
DPHI_SS.DEC  45 890 12 00 : DENSITY POROSITY SANDSTONE
DPHI_LS.DEC  45 890 10 00 : DENSITY POROSITY LIMESTONE
NPHI_LS.DEC  42 890 01 00 : NEUTRON POROSITY LIMESTONE
DRHO   .G/C3 45 356 01 00 : BULK DENSITY CORRECTION
RHOB   .G/C3 45 350 01 00 : BULK DENSITY
SPR    .MV   07 010 01 00 : SPONTANEOUS POTENTIAL FROM RESISTIVITY LOG
ILM    .OHMM 07 120 44 00 : INDUCTION MEDIUM RESISTIVITY
LL8    .OHMM 07 220 08 00 : LATEROLOG 8
ILD    .OHMM 07 120 46 00 : INDUCTION DEEP RESISTIVITY
~Params ----------------------------------------------------
PD  .                     GL : PERMANENT DATUM
EPD .FT               2310.5 : ELEVATION PERMANENT DATUM
LMF .                     KB : LOG MEASURED FROM
DAPD.FT                 14.4 : FEET ABOVE PERMANENT DATUM
EKB .FT               2324.9 : KELLY BUSHING
EGL .FT               2310.5 : GROUND LEVEL
DATE.               04/01/77 : RUN DATE
RUN .                      1 : RUN NUMBER
DD  .FT                 7520 : DEPTH DRILLER
DL  .FT                 7486 : DEPTH LOGGER
BLI .FT                 7480 : BOTTOM LOG INTERVAL
TLI .FT                  796 : TOP LOG INTERVAL
CBD .FT                  796 : CASING BOTTOM DRILLER
CBL .FT                  796 : CASING BOTTOM LOGGER
BS  .IN                7.875 : BIT SIZE
BSD .FT                 7520 : BIT SIZE AT DEPTH
DFT .              GEL BENEX : DRILLING FLUID TYPE
DFD .                    9.2 : DRILLING FLUID DENSITY
DFV .                     80 : DRILLING FLUID VISCOSITY
DFPH.                   10.5 : DRILLING FLUID PH
DFL .                     12 : DRILLING FLUID LOSS
MSS .             CIRCULATED : MUD SAMPLE SOURCE
RMS .OHMM               0.49 : RESISTIVITY MUD SAMPLE
MST .DEGF                 64 : MUD SAMPLE TEMPERATURE
RMF .OHMM               0.35 : RESISTIVITY MUD FILTRATE SAMPLE
MFST.DEGF                 66 : MUD FILTRATE SAMPLE TEMPERATURE
RMB .OHMM               0.17 : RESISTIVITY MUD AT BHT
TCS .HRS                 2.5 : TIME CIRCULATED STOPPED
LUN .                   7809 : LOGGING UNIT NUMBER
LUL .                    EDM : LOGGING UNIT LOCATION
ENGI.      CROCKFORD BUSHMAN : RECORDING ENGINEER
WITN.      KIRKPATRICK MOORE : WITNESSED BY
CLNT.                A2DTECH : CLIENT CODE
ORIG.            2" 5" PRINT : ORIGIN OF DATA
UWI .       100090107716W500 : UNIQUE WELL ID
DICO. A2D Technologies, Inc. : DIGITIZING COMPANY
~Other -----------------------------------------------------
~ASCII -----------------------------------------------------
# ...
 3100.00000   23.59670    0.00760    8.38420   -0.08530    0.09630    0.12200   -0.00100    2.50770  -98.70390   28.48740   70.36020   27.35810
 3150.00000   34.03110   -0.02560    8.54450   -0.11990    0.06700    0.10140   -0.01200    2.55440  -94.09230   20.60550  110.07980   23.77300
 3200.00000   27.42240    0.23470    8.13100    0.04200    0.20990    0.34310    0.02450    2.36420 -106.04090    5.19020   10.50430    3.50860
 3250.00000   25.88100    -999.25    8.14590    -999.25    0.04700    0.08270    0.01950    2.63010  -98.32380   19.26200   40.44190   15.15830
 3300.00000   28.49490    -999.25    8.72980    -999.25    0.05030    0.14150    0.01880    2.62500  -96.50380    7.37120   15.46930    7.13020
 3350.00000   26.96000    -999.25    8.37660    -999.25    0.07340    0.11220    0.07140    2.58240  -95.88910   21.21020   41.67520   15.62160
 3400.00000   63.43820    -999.25    8.82840    -999.25    0.03300    0.12890    0.00940    2.64560  -74.05270   12.34340   17.32080   10.76270
 3450.00000   67.15510    -999.25    9.78310    -999.25    0.17240    0.26760    0.10010    2.41830  -74.92780   11.43260   16.96660   12.48880
 3500.00000   58.07240    -999.25    8.82870    -999.25    0.01350    0.18860    0.07050    2.68530  -80.81180   11.39320   11.89470   12.69060
 3550.00000   43.07770    -999.25    8.32900    -999.25    0.05110    0.15160    0.06370    2.62030  -74.01390   16.60280   16.43900   20.92250
 3600.00000   28.93320    -999.25    8.54260    -999.25    0.05620    0.12950   -0.00010    2.62400  -77.99170   11.54160   12.17760    9.54730
 3650.00000   51.90880    -999.25    9.02350    -999.25    0.03100    0.24200    0.10420    2.65440  -66.64450    4.88490    4.98640    4.72130
 3700.00000   77.64670    -999.25   10.32570    -999.25    0.21930    0.28390    0.04860    2.30040  -66.55580    2.88140    3.13780    3.05360
 3750.00000   38.32430    -999.25    8.52650    -999.25    0.03530    0.14940    0.00500    2.62470  -58.95180    9.57880   12.21480    8.73690
 3800.00000   73.84330    -999.25    9.44710    -999.25    0.08270    0.21620    0.09550    2.57680  -60.54600    5.25940    6.04270    5.53480
 3850.00000   24.83210    -999.25    8.16170    -999.25    0.03640    0.08320    0.03310    2.64980  -74.37410   19.74180   20.77740   19.05300
 3900.00000   15.92700    -999.25    7.98440    -999.25    0.08080    0.10750    0.02850    2.57290 -106.72200   14.11550   38.86290    9.28650
 3950.00000   15.70750    -999.25    8.22950    -999.25    0.02330    0.03580    0.00510    2.64760  -90.62600   69.61340  204.30350   58.68170
 4000.00000  113.97390    -999.25    9.74880    -999.25    0.24190    0.38640    0.07980    2.27180  -70.37510    1.83560    1.94830    1.72700
 4050.00000   73.49740    -999.25    9.74640    -999.25    0.05390    0.26040    0.08210    2.65990  -67.92990    3.16090    3.65880    3.29530
 4100.00000   56.50720    -999.25    8.64470    -999.25    0.05920    0.21630   -0.01170    2.58190  -65.99520    4.22560    8.34660    4.71330
 4150.00000   72.68480    -999.25    9.16510    -999.25    0.09880    0.15070    0.02560    2.46090  -61.44400    4.50540    8.43000    5.39280
 4200.00000   25.40690    -999.25    8.56990    -999.25    0.06280    0.11970    0.00560    2.59380  -73.94580   10.12820   23.31860   10.61880
 4250.00000   37.96740    -999.25    8.85440    -999.25    0.01740    0.07980    0.01620    2.67640  -57.35210   12.57300   18.56950   11.60100
 4300.00000   53.25440    -999.25    8.94850    -999.25    0.01780    0.11940   -0.00200    2.68780  -68.87370    8.92920   10.54980    7.82800
 4350.00000   71.31320    -999.25    8.46450    -999.25    0.11160    0.20360    0.00500    2.51930  -72.56470    3.51280    4.39270    3.38470
 4400.00000   86.59550    -999.25    9.01930    -999.25    0.06850    0.20310    0.03260    2.57840  -65.68960    3.44080    3.93010    3.31400
 4450.00000   86.50760    -999.25    8.96700    -999.25    0.10840    0.21210   -0.00620    2.55260  -63.92120    3.42740    3.77430    3.33530
 4500.00000   89.42040    -999.25    9.08080    -999.25    0.08240    0.21480    0.01270    2.57640  -59.16980    3.82710    4.49930    3.71460
 4550.00000   69.09820    -999.25    8.52520    -999.25    0.07900    0.18010    0.02380    2.56830  -63.78040    4.32800    7.20590    4.50240
 4600.00000   71.13130    -999.25    8.84570    -999.25    0.04070    0.14830    0.00500    2.63910  -63.48130    7.58430    8.37450    7.32740
 4650.00000   26.23930    -999.25    8.39400    -999.25    0.00490    0.03500   -0.00240    2.68500  -56.87140   24.00980   42.88660   25.23250
 4700.00000   85.64970    -999.25   10.58560    -999.25    0.18830    0.28750    0.14010    2.38790  -53.77530    3.29540    3.52390    3.62500
 4750.00000  138.15780    -999.25   11.38390    -999.25    0.24680    0.36870    0.13140    2.29130  -60.45880    2.16640    2.98470    2.20760
 4800.00000   30.63090    -999.25    8.55990    -999.25   -0.00540    0.03320   -0.01410    2.71750  -64.35570   40.91430   40.96420   35.26410
 4850.00000   17.46410    -999.25    8.62140    -999.25    0.05370    0.05840   -0.00430    2.59950 -101.73460   32.98840   88.67620   25.97060
 4900.00000   16.25860    -999.25    8.35730    -999.25   -0.00830    0.02440    0.00120    2.71480  -96.00400   51.48600   64.41470   58.04980
 4950.00000   18.44510    -999.25    8.52420    -999.25   -0.02800    0.02360   -0.01260    2.74850  -97.49440  134.43070  136.41460   97.75970
 5000.00000   14.53340    -999.25    8.52570    -999.25    0.03800    0.02990    0.00810    2.64630 -105.29810   34.61480   39.11560   38.33550
 5050.00000   14.21520    -999.25    8.53530    -999.25    0.02430    0.04690   -0.00740    2.65810 -103.40730   30.81890   43.43850   28.23990
 5100.00000   20.34480    -999.25    8.40640    -999.25    0.06680    0.06900    0.07570    2.59860 -119.18420   24.69980   71.46930   16.84190
 5150.00000   16.93640    -999.25    8.50130    -999.25    0.05080    0.06970    0.06570    2.60900 -116.84620   22.72420   61.49310   15.41680
 5200.00000   12.59550    -999.25    8.33580    -999.25    0.05570    0.07280    0.04390    2.60150 -114.28530   18.41100   53.89870   12.84760
 5250.00000   18.46330    -999.25    8.42530    -999.25    0.05010    0.06900    0.05010    2.62330 -111.06750   22.21870   61.55130   15.61620
 5300.00000   14.14630    -999.25    8.39760    -999.25   -0.01210    0.01200    0.00650    2.72420 -108.87480  153.86060  143.82980  103.27320
 5350.00000   12.49480    -999.25    8.39520    -999.25    0.00970    0.03320    0.00920    2.69760 -105.85050   36.03500   65.37420   36.33780
 5400.00000   15.73990    -999.25    8.58960    -999.25    0.00170    0.02260    0.00350    2.70650 -105.61980   92.75930  125.28920  104.29860
 5450.00000   19.08380    -999.25    8.39350    -999.25    0.01770    0.03240    0.00710    2.67500 -104.64560   51.32960   80.02420   57.37830
 5500.00000   15.07930    -999.25    8.41110    -999.25   -0.00540    0.01270   -0.01630    2.71560 -107.87520  101.09930  165.70030   75.37190
 5550.00000   13.19660    -999.25    8.16710    -999.25    0.08060    0.07940   -0.00900    2.57620 -115.54340   21.44590   57.14020   14.79350
 5600.00000   12.56840    -999.25    8.35640    -999.25   -0.00380    0.02570    0.00900    2.69270 -108.97080   35.02340  102.11600   25.54700
 5650.00000   16.95180    -999.25    8.11900    -999.25   -0.07990    0.06250    0.03110    2.82590 -103.62180   24.59060  136.02890    7.58970
 5700.00000   45.68010    -999.25    7.95810    -999.25   -0.00710    0.11460    0.02870    2.73100  -94.41470   13.37330   35.14820   10.28250
 5750.00000   54.22850    -999.25    8.32750    -999.25   -0.00850    0.15770    0.01410    2.71870  -79.25290    5.45840    7.00080    7.82350
 5800.00000   30.29770    -999.25    8.23440    -999.25   -0.06200    0.10170    0.01750    2.80660 -100.96640   22.71890   57.21080   19.07730
 5850.00000   33.43540    -999.25    8.24130    -999.25   -0.04440    0.02620   -0.00170    2.77540  -74.65640   92.61930  137.09740   92.46130
