~Version ---------------------------------------------------
VERS.      2.0 : CWLS log ASCII Standard -VERSION 2.0
WRAP.       NO : One line per depth step
CREA. 10/19/17 : LAS Creation Date
~Well ------------------------------------------------------
STRT.FT                     1150.0 : START DEPTH
STOP.FT                    11800.0 : STOP DEPTH
STEP.FT                   50.00000 : STEP LENGTH
NULL.                      -999.25 : NULL VALUE
COMP.         PETROFINA CANADA LTD : COMPANY
WELL. PCI AMMIN ECONOMY 11-15-68-2 : WELL
FLD .                              : FIELD
LOC .                              : LOCATION
CTRY.                       CANADA : COUNTRY
SRVC.                      Unknown : SERVICE COMPANY
DATE.                  01-Jan-1900 : LOGDATE
PROV.                      Alberta : PROVINCE
UWI .             100111506802W600 : UNIQUE WELL ID
SLAT.WGS84                54.88852 : SURFACE LATITUDE
SLON.WGS84               -118.2198 : SURFACE LONGITUDE
~Curve Information -----------------------------------------
DEPT    .FT    : Depth Curve
CALDED  .IN    : CALIPER FROM DENSITY LOG [ADJ.TO RESISTIVITY LOG]
CALSED  .IN    : CALIPER FROM SONIC LOG [ADJ.TO RESISTIVITY LOG]
CALWS   .IN    : CALIPER [CALSED]
CONDWS  .MMHO  : CONDUCTIVITY [1000/DRESWS]
DCORWS  .G/C3  : DENSITY CORRECTION [DRHOED]
DENWS   .G/C3  : FORMATION BULK DENSITY [CALC. FROM DPOLSWS, M=2.71, F=1.00]
DPHILSED.V/V   : DENSITY POROSITY LIMESTONE [ASSUMED, M=2.71, F=1.00] FROM DENSITY LOG [ADJ.TO RESISTIVITY LOG]
DPHISSED.V/V   : DENSITY POROSITY SANDSTONE [ASSUMED, M=2.65, F=1.00] FROM DENSITY LOG [ADJ.TO RESISTIVITY LOG]
DPOLSWS .V/V   : DENSITY POROSITY LIMESTONE [DPHISSED CONVERTED TO LIMESTONE MATRIX, M=2.71, F=1.00 SPL.TO DPHILSED @ 6552']
DRESWS  .OHMM  : DEEP RESISTIVITY [ILDED]
DRHOED  .G/C3  : DENSITY CORRECTION FROM DENSITY LOG [ADJ.TO RESISTIVITY LOG]
DTED    .US/F  : DELTA TIME FROM SONIC LOG [ADJ.TO RESISTIVITY LOG]
DTWS    .US/F  : COMPRESSIONAL SONIC [DTED]
GRDED   .GAPI  : GAMMA RAY FROM DENSITY LOG [ADJ.TO RESISTIVITY LOG]
GRSED   .GAPI  : GAMMA RAY FROM SONIC LOG [ADJ.TO RESISTIVITY LOG]
GRWS    .GAPI  : GAMMA RAY [GRSED SPL.TO GRDED @ 11698']
ILDED   .OHMM  : DEEP INDUCTION FROM RESISTIVITY LOG
ILMED   .OHMM  : MEDIUM INDUCTION FROM RESISTIVITY LOG
LL8ED   .OHMM  : LATEROLOG-8 FROM RESISTIVITY LOG
MRESWS  .OHMM  : MEDIUM RESISTIVITY [ILMED]
NPHILSED.V/V   : NEUTRON POROSITY LIMESTONE FROM DENSITY LOG [ADJ.TO RESISTIVITY LOG]
NPHISSED.V/V   : NEUTRON POROSITY SANDSTONE FROM DENSITY LOG [ADJ.TO RESISTIVITY LOG]
NPOLSWS .V/V   : NEUTRON POROSITY LIMESTONE [NPHISSED MATRIX (SLB) CONVERSION FOR LIMESTONE, SPL.TO NPHILSED @ 6552']
RHOBED  .G/C3  : BULK DENSITY FROM DENSITY LOG [ADJ.TO RESISTIVITY LOG]
SPRED   .MV    : SPONTANEOUS POTENTIAL FROM RESISTIVITY LOG
SPWS    .MV    : SPONTANEOUS POTENTIAL [BASELINE 0 MV, SPRED]
SRESWS  .OHMM  : SHALLOW RESISTIVITY [LL8ED]
~Params ----------------------------------------------------
PD  .                     GL : PERMANENT DATUM
EPD .FT               2259.3 : ELEVATION PERMANENT DATUM
LMF .                     KB : LOG MEASURED FROM
DAPD.FT                 13.7 : FEET ABOVE PERMANENT DATUM
EKB .FT                 2273 : KELLY BUSHING
EGL .FT               2259.3 : GROUND LEVEL
DATE.               10/12/76 : RUN DATE
RUN .                      1 : RUN NUMBER
DD  .FT                11825 : DEPTH DRILLER
DL  .FT                11801 : DEPTH LOGGER
BLI .FT                11795 : BOTTOM LOG INTERVAL
TLI .FT                 1228 : TOP LOG INTERVAL
CBD .FT                 1232 : CASING BOTTOM DRILLER
CBL .FT                 1228 : CASING BOTTOM LOGGER
BS  .IN                 8.75 : BIT SIZE
BSD .FT                11825 : BIT SIZE AT DEPTH
DFT .                    GEL : DRILLING FLUID TYPE
DFD .                    8.9 : DRILLING FLUID DENSITY
DFV .                    150 : DRILLING FLUID VISCOSITY
DFPH.                   10.5 : DRILLING FLUID PH
DFL .                    5.8 : DRILLING FLUID LOSS
MSS .               FLOWLINE : MUD SAMPLE SOURCE
RMF .OHMM               0.71 : RESISTIVITY MUD FILTRATE SAMPLE
MFST.DEGF                 76 : MUD FILTRATE SAMPLE TEMPERATURE
RMB .OHMM               0.28 : RESISTIVITY MUD AT BHT
TCS .HRS                 4.5 : TIME CIRCULATED STOPPED
LUN .                   7803 : LOGGING UNIT NUMBER
LUL .                     OC : LOGGING UNIT LOCATION
ENGI.                STADNYK : RECORDING ENGINEER
WITN.                  CLARK : WITNESSED BY
CLNT.                A2DTECH : CLIENT CODE
ORIG.          1" 2.5" PRINT : ORIGIN OF DATA
UWI .       100111506802W600 : UNIQUE WELL ID
DICO. A2D Technologies, Inc. : DIGITIZING COMPANY
~Other -----------------------------------------------------
DI-LL-FDC-CNL-BHC LOG RUN.
~ASCII -----------------------------------------------------
# ...
 5050.00000   10.37400   10.16620   10.16620   67.85260    0.05030    2.55630    -999.25    0.05680    0.08990   14.73900    0.05030   71.73310   71.73310   97.98800   89.09510   89.09510   14.73900   14.26800   41.94980   14.26800    -999.25    0.23020    0.18650    2.56650 -118.92290  -10.26610   41.94980
 5100.00000    9.72330    9.52910    9.52910   60.03880    0.12150    2.50350    -999.25    0.08880    0.12080   16.65590    0.12150   71.42280   71.42280   58.34560   51.45430   51.45430   16.65590   17.89950   55.28940   17.89950    -999.25    0.20990    0.16630    2.51710 -134.43070  -26.21600   55.28940
 5150.00000   10.01480    9.82990    9.82990   63.70230    0.21660    2.46320    -999.25    0.11320    0.14430   15.69920    0.21660   77.54550   77.54550   98.02850   90.27290   90.27290   15.69920   16.88600   56.50590   16.88600    -999.25    0.26370    0.21980    2.47350 -122.11250  -14.33700   56.50590
 5200.00000    9.03690    9.04540    9.04540  105.87610    0.10760    2.39840    -999.25    0.15250    0.18220    9.44500    0.10760   76.80360   76.80360   37.88920   32.40590   32.40590    9.44500   10.28980   34.79080   10.28980    -999.25    0.18500    0.14180    2.40210 -145.55270  -38.21930   34.79080
 5250.00000   10.08780   10.36530   10.36530   48.24900    0.04590    2.59890    -999.25    0.03100    0.06500   20.72580    0.04590   67.27120   67.27120   73.58390   65.15800   65.15800   20.72580   21.42420   70.77020   21.42420    -999.25    0.18580    0.14260    2.60360 -117.59090  -10.69670   70.77020
 5300.00000    9.88120    9.84270    9.84270   80.37630    0.05690    2.50740    -999.25    0.08640    0.11850   12.44610    0.05690   68.83280   68.83280   68.09890   63.15030   63.15030   12.44610   14.35000   66.31100   14.35000    -999.25    0.19390    0.15060    2.51690 -130.06780  -23.61270   66.31100
 5350.00000   10.54090    9.67400    9.67400   76.64360    0.18380    2.46090    -999.25    0.11460    0.14570   13.04740    0.18380   74.32500   74.32500  110.92690   94.46060   94.46060   13.04740   14.47720   75.10270   14.47720    -999.25    0.28830    0.24430    2.47990 -118.09010  -12.07710   75.10270
 5400.00000    9.91830    9.77380    9.77380   71.40620    0.05010    2.56120    -999.25    0.05380    0.08700   14.00610    0.05010   70.25440   70.25440   73.87230   56.36670   56.36670   14.00610   15.52040   72.52260   15.52040    -999.25    0.21580    0.17220    2.56850 -124.26020  -18.06170   72.52260
 5450.00000    9.01570    8.84560    8.84560   99.79840    0.09140    2.49700    -999.25    0.09270    0.12450   10.02020    0.09140   70.49880   70.49880   53.62000   51.48190   51.48190   10.02020   12.74120   43.56100   12.74120    -999.25    0.18800    0.14470    2.50390 -150.69450  -43.89920   43.56100
 5500.00000    9.72000    9.66530    9.66530   66.97740    0.11480    2.64720    -999.25    0.00170    0.03670   14.93040    0.11480   71.39910   71.39910  116.71150  101.69800  101.69800   14.93040   15.38110   64.69420   15.38110    -999.25    0.26850    0.22450    2.63340 -112.02940   -4.64120   64.69420
 5550.00000    9.76810    9.65130    9.65130   56.16130    0.09310    2.52340    -999.25    0.07670    0.10910   17.81870    0.09310   75.23840   75.23840  124.43310  112.99640  112.99640   17.81870   19.09180   68.50020   19.09180    -999.25    0.22220    0.17850    2.53190 -111.18560   -3.20440   68.50020
 5600.00000    9.56360    9.64070    9.64070   52.70010    0.03170    2.63250    -999.25    0.01060    0.04530   18.97530    0.03170   68.47050   68.47050  111.60950   93.36440   93.36440   18.97530   20.95930   57.27040   20.95930    -999.25    0.19060    0.14730    2.63310 -115.36580   -7.87870   57.27040
 5650.00000    9.02360    9.11900    9.11900   94.12820    0.08840    2.44930    -999.25    0.12160    0.15240   10.62710    0.08840   71.48830   71.48830   77.86620   63.78760   63.78760   10.62710   13.07880   46.19940   13.07880    -999.25    0.22680    0.18310    2.45740 -140.43280  -33.56300   46.19940
 5700.00000   10.53090   10.08500   10.08500   60.72420    0.28160    2.59410    -999.25    0.03390    0.06780   16.46790    0.28160   73.71960   73.71960  115.90310  104.82000  104.82000   16.46790   16.72550   53.66920   16.72550    -999.25    0.21560    0.17200    2.59110 -115.37320   -9.12480   53.66920
 5750.00000   10.29150   10.08990   10.08990   74.69600    0.05920    2.59720    -999.25    0.03200    0.06600   13.38760    0.05920   72.40080   72.40080  114.53620   96.15350   96.15350   13.38760   13.88290   42.42900   13.88290    -999.25    0.21810    0.17450    2.57490 -112.80450   -7.17350   42.42900
 5800.00000   10.47860    9.94860    9.94860   56.29500    0.13120    2.66860    -999.25   -0.01130    0.02420   17.79950    0.13120   66.34120   66.34120  112.00470  101.71500  101.71500   17.79950   19.81490   64.59530   19.81490    -999.25    0.17090    0.12790    2.64560 -111.54540   -6.53180   64.59530
 5850.00000   13.56250   11.45570   11.45570  148.49350    0.17700    2.32990    -999.25    0.19400    0.22230    6.73430    0.17700   81.59000   81.59000  121.70220  106.21960  106.21960    6.73430    6.29130   16.77530    6.29130    -999.25    0.31380    0.26990    2.32120 -107.91210   -3.24640   16.77530
 5900.00000   10.11260    9.99500    9.99500   33.49390    0.12810    2.61420    -999.25    0.02170    0.05600   29.85750    0.12810   65.70590   65.70590   79.22000   67.90690   67.90690   29.85750   30.60840   81.64120   30.60840    -999.25    0.13590    0.09350    2.61190 -120.33330  -15.19970   81.64120
 5950.00000    9.90300    9.83940    9.83940   50.53390    0.06450    2.57450    -999.25    0.04570    0.07920   19.78870    0.06450   67.11890   67.11890   80.45620   77.79980   77.79980   19.78870   21.18740   63.64520   21.18740    -999.25    0.15880    0.11610    2.57710 -117.73020  -12.15840   63.64520
 6000.00000   10.88910   11.26670   11.26670   14.55990    0.04870    1.90750    -999.25    0.45000    0.46930   68.68180    0.04870  123.52270  123.52270   73.86900   67.52390   67.52390   68.68180   79.54290  182.16890   79.54290    -999.25    0.60030    0.56630    1.45770 -114.62010   -8.61300  182.16890
 6050.00000    9.67700   10.11720   10.11720   36.33700    0.05830    2.64690    -999.25    0.00190    0.03690   27.56290    0.05830   66.05560   66.05560  102.04840   83.39210   83.39210   27.56290   27.21030   91.63130   27.21030    -999.25    0.20030    0.15690    2.64600 -111.97470   -5.99670   91.63130
 6100.00000   10.59710   10.72160   10.72160   70.85770    0.13370    2.34140    -999.25    0.18700    0.21560   14.11280    0.13370   82.30090   82.30090  146.45450  122.35890  122.35890   14.11280   12.01850   71.90120   12.01850    -999.25    0.29160    0.24770    2.35170 -110.30140   -4.90040   71.90120
 6150.00000   10.66830   11.06770   11.06770   66.02280    0.12240    2.11650    -999.25    0.32330    0.34710   15.14730    0.12240   97.22220   97.22220  140.00290  121.72460  121.72460   15.14730   20.91300   55.61440   20.91300    -999.25    0.41100    0.36840    2.09420 -108.17930   -3.35140   55.61440
 6200.00000    9.57480    9.83120    9.83120   52.83180    0.05290    2.73880    -999.25   -0.05380   -0.01680   18.92800    0.05290   67.34690   67.34690  122.39930  106.60730  106.60730   18.92800   16.36930   45.88350   16.36930    -999.25    0.20770    0.16420    2.73210 -109.07370   -4.82280   45.88350
 6250.00000    8.85670    9.03590    9.03590  258.13780    0.18510    2.47780    -999.25    0.10440    0.13580    3.87390    0.18510   70.46510   70.46510   38.18520   34.67960   34.67960    3.87390    5.60830   29.56230    5.60830    -999.25    0.20170    0.15820    2.47770 -164.40600  -60.72820   29.56230
 6300.00000   10.85890   10.06970   10.06970   74.23100    0.25450    2.54370    -999.25    0.06440    0.09720   13.49710    0.25450   69.82930   69.82930  114.09280  103.35590  103.35590   13.49710   13.88000   36.12860   13.88000    -999.25    0.21590    0.17230    2.54480 -106.58910   -3.48450   36.12860
