~Version ---------------------------------------------------
VERS.      2.0 : CWLS log ASCII Standard -VERSION 2.0
WRAP.       NO : One line per depth step
CREA. 11/13/17 : LAS Creation Date
~Well ------------------------------------------------------
STRT.FT                       1150.0 : START DEPTH
STOP.FT                      10450.0 : STOP DEPTH
STEP.FT                     50.00000 : STEP LENGTH
NULL.                        -999.25 : NULL VALUE
COMP.            GULF OIL CANADA LTD : COMPANY
WELL. NUMAC ET AL KAYBOBS 6-13-60-18 : WELL
FLD .                             WC : FIELD
LOC .                                : LOCATION
CTRY.                         CANADA : COUNTRY
SRVC.                   Schlumberger : SERVICE COMPANY
DATE.                    01-Mar-1977 : LOGDATE
PROV.                        Alberta : PROVINCE
UWI .               100061306018W500 : UNIQUE WELL ID
SLAT.WGS84                  54.18721 : SURFACE LATITUDE
SLON.WGS84                 -116.5675 : SURFACE LONGITUDE
~Curve Information -----------------------------------------
DEPT    .FT    : Depth Curve
CALDED  .IN    : CALIPER FROM CNFD LOG
CALSED  .IN    : CALIPER FROM BCS LOG [ADJ.TO GRDED]
CALWS   .IN    : CALIPER [CALSED SPL. TO CALDED @ 10498']
CONDWS  .MMHO  : CONDUCTIVITY [1000/DRESWS]
DCORED  .G/C3  : DENSITY CORRECTION FROM CNFD LOG
DCORWS  .G/C3  : DENSITY CORRECTION [DCORED]
DENWS   .G/C3  : FORMATION BULK DENSITY [RHOBED]
DPHILSED.V/V   : DENSITY POROSITY LIMESTONE [M=2.71, F=1.0] FROM CNFD LOG [ADJ.TO RHOBED]
DPHISSED.V/V   : DENSITY POROSITY SANDSTONE [M=2.65, F=1.0] FROM CNFD LOG [ADJ.TO RHOBED]
DPOWS   .V/V   : DENSITY POROSITY LIMESTONE [CALCULATED FROM DENWS, M=2.71, F=1.0]
DRESWS  .OHMM  : DEEP RESISTIVITY [ILDED]
DTED    .US/F  : DELTA-T FROM BCS LOG [ADJ.TO GRDED]
DTWS    .US/F  : COMPRESSIONAL SONIC [DTED]
GRDED   .GAPI  : GAMMA RAY FROM CNFD LOG
GRSED   .GAPI  : GAMMA RAY FROM BCS LOG [ADJ.TO GRDED]
GRWS    .GAPI  : GAMMA RAY [GRSED]
ILDED   .OHMM  : DEEP INDUCTION FROM DIL-LAT LOG
ILMED   .OHMM  : MEDIUM INDUCTION FROM DIL-LAT LOG
LL8ED   .OHMM  : LATEROLOG 8 FROM DIL-LAT LOG
MRESWS  .OHMM  : MEDIUM RESISTIVITY [ILMED]
NPHILSED.V/V   : NEUTRON POROSITY LIMESTONE FROM CNFD LOG [ADJ.TO RHOBED]
NPHISSED.V/V   : NEUTRON POROSITY SANDSTONE FROM CNFD LOG [ADJ.TO RHOBED]
NPOWS   .V/V   : NEUTRON POROSITY LIMESTONE [NPHISSED CONVERTED TO LIMESTONE MATRIX & SPL. TO NPHILSED @ 6970']
RHOBED  .G/C3  : FORMATION BULK DENSITY FROM CNFD LOG
SPRED   .MV    : SPONTANEOUS POTENTIAL FROM DIL-LAT LOG
SPWS    .MV    : SPONTANEOUS POTENTIAL [BASELINE 0 MV, SPRED]
SRESWS  .OHMM  : SHALLOW RESISTIVITY [LL8ED]
~Params ----------------------------------------------------
PD  .                     GL : PERMANENT DATUM
EPD .FT               2750.3 : ELEVATION PERMANENT DATUM
LMF .                     KB : LOG MEASURED FROM
DAPD.FT                 15.7 : FEET ABOVE PERMANENT DATUM
EKB .FT                 2766 : KELLY BUSHING
EGL .FT               2750.3 : GROUND LEVEL
DATE.               03/01/77 : RUN DATE
RUN .                      1 : RUN NUMBER
DD  .FT                10500 : DEPTH DRILLER
DL  .FT                10488 : DEPTH LOGGER
BLI .FT                10494 : BOTTOM LOG INTERVAL
TLI .FT                 1099 : TOP LOG INTERVAL
CBD .FT                 1099 : CASING BOTTOM DRILLER
CBL .FT                 1100 : CASING BOTTOM LOGGER
BS  .IN                 8.75 : BIT SIZE
BSD .FT                10500 : BIT SIZE AT DEPTH
DFT .                    GEL : DRILLING FLUID TYPE
DFD .                    9.1 : DRILLING FLUID DENSITY
DFV .                    115 : DRILLING FLUID VISCOSITY
DFPH.                   10.5 : DRILLING FLUID PH
DFL .                    8.8 : DRILLING FLUID LOSS
MSS .               FLOWLINE : MUD SAMPLE SOURCE
RMS .OHMM                2.6 : RESISTIVITY MUD SAMPLE
MST .DEGF                 60 : MUD SAMPLE TEMPERATURE
RMF .OHMM               2.46 : RESISTIVITY MUD FILTRATE SAMPLE
MFST.DEGF                 59 : MUD FILTRATE SAMPLE TEMPERATURE
RMB .OHMM               0.86 : RESISTIVITY MUD AT BHT
TCS .HRS                   4 : TIME CIRCULATED STOPPED
LUN .                   7669 : LOGGING UNIT NUMBER
LUL .                    EDM : LOGGING UNIT LOCATION
ENGI.                LANGTON : RECORDING ENGINEER
WITN.      ROCKNEY CHOQUETTE : WITNESSED BY
CLNT.                A2DTECH : CLIENT CODE
ORIG.            2" 5" PRINT : ORIGIN OF DATA
UWI .       100061306018W500 : UNIQUE WELL ID
DICO. A2D Technologies, Inc. : DIGITIZING COMPANY
~Other -----------------------------------------------------
~ASCII -----------------------------------------------------
# ...
 7650.00000    8.58110    8.94620    8.94620   24.05650    0.04270    0.04270    2.75390   -0.04140    -999.25   -0.02570   41.56880   55.45600   55.45600   41.90770   44.56130   44.56130   41.56880   55.27520   61.93060   55.27520    0.05100    -999.25    0.05100    2.75390  -67.32210  -10.14550   61.93060
 7700.00000    8.53850    8.96450    8.96450   19.86270   -0.00060   -0.00060    2.69580    0.00080    -999.25    0.00830   50.34550   55.08220   55.08220   46.98750   49.76840   49.76840   50.34550   67.58290   72.42410   67.58290    0.05170    -999.25    0.05170    2.69580  -75.36110  -17.53110   72.42410
 7750.00000    8.61380    8.94230    8.94230    5.60690    0.02550    0.02550    2.69780    0.00120    -999.25    0.00710  178.35200   52.48790   52.48790   33.53660   30.13910   30.13910  178.35200 1306.83480  309.95130 1306.83480    0.02790    -999.25    0.02790    2.69780  -90.69100  -32.21190  309.95130
 7800.00000    8.62290    8.99220    8.99220   25.95440    0.01960    0.01960    2.71180   -0.01840    -999.25   -0.00110   38.52910   58.51480   58.51480   61.36370   64.78700   64.78700   38.52910   54.01900   58.76070   54.01900    0.07200    -999.25    0.07200    2.71180  -66.65750   -7.52920   58.76070
 7850.00000    8.63110    9.06350    9.06350    2.85930    0.01190    0.01190    2.68360    0.00030    -999.25    0.01540  349.73810   58.18160   58.18160   77.29530   81.02900   81.02900  349.73810 1601.33980 1014.46270 1601.33980    0.07350    -999.25    0.07350    2.68360  -86.19130  -26.40960 1014.46270
 7900.00000   10.39480    9.39320    9.39320    0.97240    0.19110    0.19110    2.54890    0.08280    -999.25    0.09420 1028.42350   51.23490   51.23490   11.09850   12.24820   12.24820 1028.42350  361.44640 1442.59970  361.44640    0.02990    -999.25    0.02990    2.54890 -100.11890  -40.16980 1442.59970
 7950.00000    9.38150    9.20040    9.20040    0.65350    0.20040    0.20040    2.65930    0.02710    -999.25    0.02960 1530.16970   48.85620   48.85620   14.39570   13.23180   13.23180 1530.16970 1205.28360  963.04410 1205.28360    0.02060    -999.25    0.02060    2.65930 -172.17390 -113.80490  963.04410
 8000.00000    9.65800    9.31550    9.31550    2.13270    0.16910    0.16910    2.68730    0.00660    -999.25    0.01330  468.88750   49.40240   49.40240   16.83920   20.13930   20.13930  468.88750  305.94530  485.62600  305.94530    0.02190    -999.25    0.02190    2.68730 -150.11020  -93.31110  485.62600
 8050.00000   10.14880    9.45160    9.45160    1.27940    0.20180    0.20180    2.53590    0.09950    -999.25    0.10180  781.63150   48.71560   48.71560   10.22790   10.41000   10.41000  781.63150 1495.91850 1202.30650 1495.91850    0.01270    -999.25    0.01270    2.53590 -181.23090 -126.00160 1202.30650
 8100.00000   10.96650    9.73290    9.73290    1.34660    0.12450    0.12450    2.45780    0.14040    -999.25    0.14750  742.63750   53.37470   53.37470   11.32050   10.64120   10.64120  742.63750  941.40200  660.65560  941.40200    0.02120    -999.25    0.02120    2.45780 -176.10850 -122.45930  660.65560
 8150.00000   11.80100    9.50610    9.50610    2.95920    0.15360    0.15360    2.36170    0.20600    -999.25    0.20370  337.93390   49.03170   49.03170   12.23500   14.18560   14.18560  337.93390  265.06380  603.01680  265.06380    0.03010    -999.25    0.03010    2.36170 -177.10800 -125.02860  603.01680
 8200.00000   13.11670    9.80920    9.80920    0.76790    0.18150    0.18150    2.14150    0.33740    -999.25    0.33250 1302.17640   51.03560   51.03560    8.75130   13.31740   13.31740 1302.17640 1189.60100  463.21890 1189.60100    0.02730    -999.25    0.02730    2.14150 -189.51610 -139.01680  463.21890
 8250.00000   10.50080    9.26040    9.26040    3.52590    0.21400    0.21400    2.49210    0.11220    -999.25    0.12740  283.61940   49.25940   49.25940   10.23870   11.48120   11.48120  283.61940  226.94000  267.35670  226.94000    0.03090    -999.25    0.03090    2.49210 -165.97980 -117.05030  267.35670
 8300.00000   10.55850    9.20840    9.20840    3.34840    0.16130    0.16130    2.41260    0.17340    -999.25    0.17390  298.64790   55.03610   55.03610    7.12270   12.19680   12.19680  298.64790  845.37360  621.20830  845.37360    0.02100    -999.25    0.02100    2.41260 -176.59250 -129.23280  621.20830
 8350.00000   10.89980    9.09750    9.09750    2.35020    0.24460    0.24460    2.42890    0.14190    -999.25    0.16440  425.49810   50.01970   50.01970   10.60950   10.10470   10.10470  425.49810  256.98210  356.73360  256.98210    0.00830    -999.25    0.00830    2.42890 -173.60780 -127.82830  356.73360
 8400.00000   10.51250    9.21890    9.21890    0.64940    0.17900    0.17900    2.47900    0.12350    -999.25    0.13510 1539.90710   50.03520   50.03520   14.06480   18.55190   18.55190 1539.90710 1230.23210 1426.54880 1230.23210    0.01160    -999.25    0.01160    2.47900 -186.03560 -141.82590 1426.54880
 8450.00000   10.51890    9.32740    9.32740    1.93400    0.24430    0.24430    2.50380    0.10820    -999.25    0.12060  517.06010   50.87030   50.87030   14.34730   13.31520   13.31520  517.06010 1199.82730  707.00180 1199.82730    0.00890    -999.25    0.00890    2.50380 -175.50040 -132.87080  707.00180
 8500.00000   10.92490    9.30990    9.30990    0.64840    0.16590    0.16590    2.46540    0.13220    -999.25    0.14300 1542.14720   49.98020   49.98020    9.98820   11.60360   11.60360 1542.14720 1005.36140  528.60780 1005.36140    0.00480    -999.25    0.00480    2.46540 -160.55240 -119.49260  528.60780
 8550.00000   10.26810    9.07310    9.07310    2.30000    0.21850    0.21850    2.56730    0.06990    -999.25    0.08350  434.77340   49.89870   49.89870   11.04180   11.60190   11.60190  434.77340  673.23910  369.75090  673.23910    0.00230    -999.25    0.00230    2.56730 -156.04180 -116.55180  369.75090
 8600.00000    9.96070    9.10630    9.10630    1.28130    0.25550    0.25550    2.74880    0.01570    -999.25   -0.02270  780.47290   49.21660   49.21660   15.43310   15.48470   15.48470  780.47290  478.55210  673.53080  478.55210    0.01760    -999.25    0.01760    2.74880 -146.47300 -108.56320  673.53080
 8650.00000    8.82760    8.74270    8.74270  227.83200    0.02600    0.02600    2.55880    0.08000    -999.25    0.08840    4.38920   65.28480   65.28480   80.87700   79.97700   79.97700    4.38920    4.08990    9.35030    4.08990    0.07300    -999.25    0.07300    2.55880  -98.64930  -62.30930    9.35030
 8700.00000    9.35320    8.83980    8.83980    5.35780    0.21440    0.21440    2.63810    0.03040    -999.25    0.04200  186.64480   51.37860   51.37860   13.72540   14.80150   14.80150  186.64480  235.25510  359.22280  235.25510    0.05600    -999.25    0.05600    2.63810 -155.37990 -120.62000  359.22280
 8750.00000   10.69210    9.26700    9.26700    8.51430    0.14060    0.14060    2.31200    0.22650    -999.25    0.23270  117.44900   51.23020   51.23020   21.48520   19.75700   19.75700  117.44900  277.30180  148.93070  277.30180    0.07640    -999.25    0.07640    2.31200 -136.68020 -103.49010  148.93070
 8800.00000   11.01290    9.19110    9.19110   21.30420    0.24070    0.24070    2.56380    0.07110    -999.25    0.08550   46.93900   52.64090   52.64090   23.96940   25.59510   25.59510   46.93900   86.91660   75.97430   86.91660    0.06900    -999.25    0.06900    2.56380 -116.14700  -84.52670   75.97430
 8850.00000    8.83250    8.93020    8.93020    4.92410    0.00800    0.00800    2.74250   -0.03020    -999.25   -0.01900  203.08220   50.39070   50.39070   31.87310   34.65960   34.65960  203.08220  298.60280  354.18440  298.60280    0.02280    -999.25    0.02280    2.74250  -64.09480  -34.05470  354.18440
 8900.00000    8.65150    8.92810    8.92810    9.85240   -0.00230   -0.00230    2.71230   -0.00330    -999.25   -0.00130  101.49830   52.31070   52.31070   40.73240   39.32150   39.32150  101.49830  127.41930  151.33370  127.41930    0.04590    -999.25    0.04590    2.71230  -46.22240  -17.75210  151.33370
