~Version ---------------------------------------------------
VERS.      2.0 : CWLS log ASCII Standard -VERSION 2.0
WRAP.       NO : One line per depth step
CREA. 11/21/17 : LAS Creation Date
~Well ------------------------------------------------------
STRT.FT                       1200.0 : START DEPTH
STOP.FT                      11400.0 : STOP DEPTH
STEP.FT                     50.00000 : STEP LENGTH
NULL.                        -999.25 : NULL VALUE
COMP.  THE ATLANTIC REFINING COMPANY : COMPANY
WELL. ATLANTIC ANTE CREEK 4-18-65-23 : WELL
FLD .                                : FIELD
LOC .                                : LOCATION
CTRY.                         CANADA : COUNTRY
SRVC.                   Schlumberger : SERVICE COMPANY
DATE.                    22-Mar-1963 : LOGDATE
PROV.                        Alberta : PROVINCE
UWI .               100041806523W500 : UNIQUE WELL ID
SLAT.WGS84                  54.61968 : SURFACE LATITUDE
SLON.WGS84                 -117.4756 : SURFACE LONGITUDE
~Curve Information -----------------------------------------
DEPT  .FT    : Depth Curve
CALMED.IN    : CALIPER FROM MICROLOG
CALWS .IN    : CALIPER [CALMED]
CILDED.MMHO  : CONDUCTIVITY FROM RESISTIVITY LOG
CONDWS.MMHO  : CONDUCTIVITY [1000/DRESWS]
DRESWS.OHMM  : DEEP RESISTIVITY [ILDED]
DTED  .US/F  : DELTA-T FROM SONIC LOG
DTWS  .US/F  : COMPRESSIONAL SONIC [DTED]
GRSED .GAPI  : GAMMA RAY FROM SONIC LOG
GRWS  .GAPI  : GAMMA RAY [GRSED]
ILDED .OHMM  : DEEP INDUCTION RESISTIVITY FROM RESISTIVITY LOG
NEUTED.NAPI  : NEUTRON FROM NEUTRON LOG
NEUTWS.NAPI  : NEUTRON [NEUTED]
SIGMED.CU    : NEUTRON CAPTURE CROSS SECTION FROM TDT LOG
SNED  .OHMM  : 16 INCH SHORT NORMAL RESISTIVITY FROM RESISTIVITY LOG
SPRED .MV    : SPONTANEOUS POTENTIAL FROM RESISTIVITY LOG
SPWS  .MV    : SPONTANEOUS POTENTIAL [BASELINE 0 MV,SPRED]
SRESWS.OHMM  : SHALLOW RESISTIVITY [SNED]
~Params ----------------------------------------------------
PD  .                     GL : PERMANENT DATUM
EPD .FT                 2813 : ELEVATION PERMANENT DATUM
LMF .                     KB : LOG MEASURED FROM
DAPD.FT                   14 : FEET ABOVE PERMANENT DATUM
EKB .FT                 2827 : KELLY BUSHING
EGL .FT                 2813 : GROUND LEVEL
DATE.               03/22/63 : RUN DATE
RUN .                      1 : RUN NUMBER
DD  .FT                11400 : DEPTH DRILLER
DL  .FT                11412 : DEPTH LOGGER
BLI .FT                11411 : BOTTOM LOG INTERVAL
TLI .FT                 1185 : TOP LOG INTERVAL
CBD .FT                 1185 : CASING BOTTOM DRILLER
CBL .FT                 1185 : CASING BOTTOM LOGGER
BS  .IN                8.625 : BIT SIZE
BSD .FT                11400 : BIT SIZE AT DEPTH
DFT .               GEL CHEM : DRILLING FLUID TYPE
DFD .                    9.9 : DRILLING FLUID DENSITY
DFV .                     90 : DRILLING FLUID VISCOSITY
DFPH.                      9 : DRILLING FLUID PH
DFL .                    7.4 : DRILLING FLUID LOSS
RMF .OHMM               2.02 : RESISTIVITY MUD FILTRATE SAMPLE
MFST.DEGF                 78 : MUD FILTRATE SAMPLE TEMPERATURE
RMC .OHMM               2.45 : RESISTIVITY MUD CAKE
MCST.DEGF                 78 : MUD CAKE SAMPLE TEMPERATURE
TCS .HRS                   4 : TIME CIRCULATED STOPPED
LUN .                   1534 : LOGGING UNIT NUMBER
LUL .                     VV : LOGGING UNIT LOCATION
ENGI.                  MILLS : RECORDING ENGINEER
WITN.            SCOTT COWRN : WITNESSED BY
CLNT.                A2DTECH : CLIENT CODE
ORIG.            2" 5" PRINT : ORIGIN OF DATA
UWI .       100041806523W500 : UNIQUE WELL ID
DICO. A2D Technologies, Inc. : DIGITIZING COMPANY
~Other -----------------------------------------------------
IEL-BHC-NEUTRON-TDT-MICRO LOG RUN.
IEL: ALL DATA VERYFIED FROM SMALL SCALE @ TOP TO 3418'
BHC-MICROLOG: ALL DATA VERYFIED FROM SMALL SCALE @ TOP TO 3829'
~ASCII -----------------------------------------------------
# ...
 3250.00000   12.70910   12.70910  163.23060  166.73610    5.99750   88.59770   88.59770   91.16190   91.16190    5.99750    -999.25    -999.25    -999.25    7.10280  -62.13550   -4.12640    7.10280
 3300.00000   14.29980   14.29980  117.69500  115.75020    8.63930   93.05400   93.05400  108.50790  108.50790    8.63930    -999.25    -999.25    -999.25    8.20120  -64.51100   -5.41250    8.20120
 3350.00000   13.35940   13.35940  116.16570  110.59010    9.04240   97.79130   97.79130  113.79930  113.79930    9.04240    -999.25    -999.25    -999.25    8.56740  -64.46690   -4.27200    8.56740
 3400.00000   13.29060   13.29060  110.77920  118.21450    8.45920   99.25860   99.25860  138.14710  138.14710    8.45920    -999.25    -999.25    -999.25    9.49840  -63.96360   -2.67940    9.49840
 3450.00000   13.86260   13.86260   72.66420   84.44160   11.84250   97.98520   97.98520  122.79850  122.79850   11.84250    -999.25    -999.25    -999.25   12.89230  -69.56820   -7.10310   12.89230
 3500.00000   13.27820   13.27820   97.87880  102.82990    9.72480   94.16290   94.16290  116.08240  116.08240    9.72480    -999.25    -999.25    -999.25   10.70610  -69.82020   -6.14250   10.70610
 3550.00000   11.31970   11.31970  122.10290  125.98640    7.93870  102.56960  102.56960  116.45930  116.45930    7.93870    -999.25    -999.25    -999.25    9.25560  -69.46450   -4.57420    9.25560
 3600.00000   10.32070   10.32070  121.57470  125.95730    7.93920   93.98780   93.98780  111.94000  111.94000    7.93920    -999.25    -999.25    -999.25    8.47060  -71.20540   -5.09450    8.47060
 3650.00000   13.22950   13.22950   77.73350   84.42450   11.84490   89.57450   89.57450  100.72750  100.72750   11.84490    -999.25    -999.25    -999.25   10.72060  -70.58640   -3.26290   10.72060
 3700.00000   12.30420   12.30420   94.72240   94.78580   10.55010   95.83430   95.83430  112.60380  112.60380   10.55010    -999.25    -999.25    -999.25   10.28760  -71.38020   -4.07260   10.28760
 3750.00000   13.05660   13.05660  106.25610  110.44720    9.05410   96.40080   96.40080  126.47470  126.47470    9.05410    -999.25    -999.25    -999.25    9.38090  -70.27150   -3.69430    9.38090
 3800.00000   12.32030   12.32030  137.28170  139.06350    7.19200   99.06300   99.06300  131.34490  131.34490    7.19200    -999.25    -999.25    -999.25    8.17420  -70.26110   -4.41430    8.17420
 3850.00000   10.33410   10.33410   96.53110  102.49260    9.75680   85.56640   85.56640  110.52470  110.52470    9.75680    -999.25    -999.25    -999.25    9.23640  -70.55970   -5.44810    9.23640
 3900.00000   15.85380   15.85380  107.94810  113.86020    8.78270   94.67510   94.67510   99.13100   99.13100    8.78270    -999.25    -999.25    -999.25    9.04520  -69.08680   -4.60020    9.04520
 3950.00000   11.94820   11.94820   64.24620   72.68660   13.75770   82.00580   82.00580  107.31400  107.31400   13.75770    -999.25    -999.25    -999.25   12.88420  -71.06820   -5.01200   12.88420
 4000.00000   13.44090   13.44090   72.55610   81.81770   12.22230   84.87480   84.87480  119.61420  119.61420   12.22230    -999.25    -999.25    -999.25   11.84890  -69.79910   -3.74840   11.84890
 4050.00000   14.59450   14.59450   80.91120   88.11060   11.34940   80.41630   80.41630  110.24170  110.24170   11.34940    -999.25    -999.25    -999.25   11.06620  -68.45000   -2.72420   11.06620
 4100.00000   13.17500   13.17500   91.48540   95.34340   10.48840   92.16910   92.16910  127.50080  127.50080   10.48840    -999.25    -999.25    -999.25   10.00000  -69.32340   -3.92470   10.00000
 4150.00000   10.78340   10.78340  107.62030  111.09630    9.00120   90.87150   90.87150  119.14410  119.14410    9.00120    -999.25    -999.25    -999.25    9.23250  -68.88920   -3.81540    9.23250
 4200.00000   11.83430   11.83430  109.80210  111.39210    8.97730   88.26990   88.26990  127.67650  127.67650    8.97730    -999.25    -999.25    -999.25    9.83070  -68.75590   -4.00910    9.83070
 4250.00000   11.78970   11.78970  126.05430  127.25070    7.85850   92.27410   92.27410  130.83430  130.83430    7.85850    -999.25    -999.25    -999.25    9.33060  -68.12400   -3.70210    9.33060
 4300.00000   11.01510   11.01510  117.11010  119.28310    8.38390   97.87430   97.87430  130.82280  130.82280    8.38390    -999.25    -999.25    -999.25    9.76590  -67.03260   -2.93560    9.76590
 4350.00000   12.43350   12.43350  112.18330  115.06820    8.69050   93.48120   93.48120  126.33980  126.33980    8.69050    -999.25    -999.25    -999.25   10.18710  -66.38410   -2.61420   10.18710
 4400.00000   12.47700   12.47700   94.93170   98.85430   10.11590   96.93970   96.93970  125.07040  125.07040   10.11590    -999.25    -999.25    -999.25   12.08060  -66.86450   -3.41950   12.08060
 4450.00000   11.77280   11.77280  108.20500  110.27430    9.06830   90.24360   90.24360  118.99150  118.99150    9.06830    -999.25    -999.25    -999.25   10.19460  -66.77980   -3.66180   10.19460
 4500.00000   11.32550   11.32550   91.30990   94.51970   10.57980   96.93920   96.93920  125.74540  125.74540   10.57980    -999.25    -999.25    -999.25   12.17030  -65.87610   -3.08300   12.17030
 4550.00000   12.26400   12.26400   73.95150   79.51370   12.57660  101.98350  101.98350  165.35860  165.35860   12.57660    -999.25    -999.25    -999.25   16.07640  -64.73270   -2.26450   16.07640
 4600.00000   13.87680   13.87680  107.85400  110.56200    9.04470  102.78630  102.78630  143.12330  143.12330    9.04470    -999.25    -999.25    -999.25   10.94210  -64.07930   -1.93810   10.94210
 4650.00000   15.56470   15.56470   84.59740   86.44240   11.56840   86.99620   86.99620  121.24890  121.24890   11.56840    -999.25    -999.25    -999.25   11.18790  -65.90530   -4.08900   11.18790
 4700.00000   15.57890   15.57890   92.04200   95.46080   10.47550   76.80490   76.80490  105.07620  105.07620   10.47550    -999.25    -999.25    -999.25   10.07150  -66.65600   -5.16680   10.07150
 4750.00000   13.31220   13.31220  148.67700  145.38900    6.87810   91.90150   91.90150  118.83640  118.83640    6.87810    -999.25    -999.25    -999.25    8.02910  -64.58130   -3.41700    8.02910
 4800.00000   15.58520   15.58520  143.04960  136.00920    7.36280   77.11790   77.11790  108.93070  108.93070    7.36280    -999.25    -999.25    -999.25    8.72450  -65.65500   -4.70590    8.72450
 4850.00000   11.08780   11.08780  122.08290  121.06540    8.26000   81.10160   81.10160  132.11420  132.11420    8.26000    -999.25    -999.25    -999.25    9.06560  -64.30080   -3.52340    9.06560
 4900.00000   12.97760   12.97760  119.77740  118.51010    8.43810   69.24830   69.24830  102.56710  102.56710    8.43810    -999.25    -999.25    -999.25    8.73860  -64.24070   -3.63400    8.73860
 4950.00000   13.18650   13.18650  173.62560  168.39550    5.93840   88.59550   88.59550  133.70570  133.70570    5.93840    -999.25    -999.25    -999.25    7.14320  -63.62840   -3.19340    7.14320
 5000.00000   13.73130   13.73130  139.90570  139.21570    7.18310   91.33140   91.33140  122.60760  122.60760    7.18310    -999.25    -999.25    -999.25    8.16610  -63.67730   -3.41290    8.16610
 5050.00000   13.29900   13.29900  163.28890  161.13850    6.20590   90.96910   90.96910  123.97010  123.97010    6.20590    -999.25    -999.25    -999.25    7.35890  -63.28240   -3.18860    7.35890
 5100.00000   12.72780   12.72780  140.77520  139.89340    7.14830   89.94170   89.94170  124.51220  124.51220    7.14830    -999.25    -999.25    -999.25    8.15880  -62.78920   -2.86710    8.15880
 5150.00000   13.36640   13.36640  283.41720  259.32940    3.85610   99.28380   99.28380  132.46820  132.46820    3.85610    -999.25    -999.25    -999.25    5.24470  -63.23310   -3.48160    5.24470
 5200.00000   12.65710   12.65710  312.26460  280.11990    3.56990  104.97990  104.97990  131.58220  131.58220    3.56990    -999.25    -999.25    -999.25    4.85120  -62.72250   -3.14270    4.85120
 5250.00000   12.52930   12.52930  246.03520  228.69690    4.37260  102.05320  102.05320  136.84510  136.84510    4.37260    -999.25    -999.25    -999.25    5.74700  -61.97570   -2.56650    5.74700
