~Version ---------------------------------------------------
VERS. 2.0 : CWLS log ASCII Standard -VERSION 2.0
WRAP.  NO : ONE LINE PER DEPTH STEP
~Well ------------------------------------------------------
STRT.F                      1000.0 : START DEPTH
STOP.F                      9700.0 : STOP DEPTH
STEP.F                    50.00000 : STEP LENGTH
NULL.                      -999.25 : NULL VALUE
COMP. IMPERIAL OIL ENTERPRISES LTD : COMPANY
WELL.    IOE SAKWATAMAU 4-17-62-14 : WELL
FLD .                              : FIELD
LOC .                              : LOCATION
CTRY.                       CANADA : COUNTRY
SRVC.                 Schlumberger : SERVICE COMPANY
DATE.                  08-Dec-1969 : LOGDATE
PROV.                      Alberta : PROVINCE
UWI .             100041706214W500 : UNIQUE WELL ID
SLAT.WGS84                54.35923 : SURFACE LATITUDE
SLON.WGS84               -116.0706 : SURFACE LONGITUDE
~Curve Information -----------------------------------------
DEPT   .F    0   1   0  0 : 1 MEASURED DEPTH
RILD   .OHMM 07 120 46 00 : INDUCTION DEEP RESISTIVITY
RILM   .OHMM 07 120 44 00 : INDUCTION MEDIUM RESISTIVITY
RLL8   .OHMM 07 220 08 00 : RAW LATEROLOG 8
SPR    .MV   07 010 01 00 : SPONTANEOUS POTENTIAL FROM RESISTIVITY LOG
CALS   .IN   60 280 50 00 : CALIPER FROM SONIC LOG
DT     .US/F 60 500 00 00 : DELTA-T (INTERVAL TRANSIT TIME)
GRS    .GAPI 60 310 01 00 : GAMMA RAY FROM SONIC LOG
SNP_LS .DEC  41 890 01 00 : SIDEWALL NEUTRON POROSITY [LIMESTONE]
CALD_1 .IN   45 280 60 00 : CALIPER FROM DENSITY LOG
DPHI_LS.DEC  45 890 10 00 : DENSITY POROSITY LIMESTONE
GRD_1  .GAPI 45 310 01 00 : GAMMA RAY FROM DENSITY LOG
CALD   .IN   45 280 60 00 : CALIPER FROM DENSITY LOG
DRHO   .G/C3 45 356 01 00 : BULK DENSITY CORRECTION
GRD    .GAPI 45 310 01 00 : GAMMA RAY FROM DENSITY LOG
RHOB   .G/C3 45 350 01 00 : BULK DENSITY
CALN   .IN   41 280 60 00 : CALIPER FROM NEUTRON LOG
GRN    .GAPI 41 310 01 00 : GAMMA RAY FROM GRN LOG
~Params ----------------------------------------------------
PD  .                     GL : PERMANENT DATUM
EPD .FT               3124.9 : ELEVATION PERMANENT DATUM
LMF .                     KB : LOG MEASURED FROM
DAPD.FT                 14.5 : FEET ABOVE PERMANENT DATUM
EKB .FT               3139.4 : KELLY BUSHING
EGL .FT               3124.9 : GROUND LEVEL
DATE.               12/08/69 : RUN DATE
RUN .                      1 : RUN NUMBER
DD  .FT                 9730 : DEPTH DRILLER
DL  .FT                 9730 : DEPTH LOGGER
BLI .FT                 9126 : BOTTOM LOG INTERVAL
TLI .FT                 1007 : TOP LOG INTERVAL
CBD .FT                 1007 : CASING BOTTOM DRILLER
CBL .FT                 1007 : CASING BOTTOM LOGGER
BS  .IN                 8.75 : BIT SIZE
BSD .FT                 9730 : BIT SIZE AT DEPTH
DFT .            GEL CAUSTIC : DRILLING FLUID TYPE
DFD .                      9 : DRILLING FLUID DENSITY
DFV .                     85 : DRILLING FLUID VISCOSITY
DFPH.                     10 : DRILLING FLUID PH
DFL .                      9 : DRILLING FLUID LOSS
MSS .               FLOWLINE : MUD SAMPLE SOURCE
RMS .OHMM               2.56 : RESISTIVITY MUD SAMPLE
MST .DEGF                 72 : MUD SAMPLE TEMPERATURE
RMF .OHMM               2.38 : RESISTIVITY MUD FILTRATE SAMPLE
MFST.DEGF                 65 : MUD FILTRATE SAMPLE TEMPERATURE
RMC .OHMM               2.19 : RESISTIVITY MUD CAKE
MCST.DEGF                 72 : MUD CAKE SAMPLE TEMPERATURE
RMB .OHMM               0.84 : RESISTIVITY MUD AT BHT
TCS .HRS                   5 : TIME CIRCULATED STOPPED
LUN .                   7501 : LOGGING UNIT NUMBER
LUL .                    EDM : LOGGING UNIT LOCATION
ENGI.                JOHNSON : RECORDING ENGINEER
WITN.               KRAWCHUK : WITNESSED BY
CLNT.                A2DTECH : CLIENT CODE
ORIG.        2" 5" 25" PRINT : ORIGIN OF DATA
UWI .       100041706214W500 : UNIQUE WELL ID
DICO. A2D Technologies, Inc. : DIGITIZING COMPANY
~Other -----------------------------------------------------
~ASCII -----------------------------------------------------
# ...
 7150.00000   90.25260   95.27990  153.76420 -143.49940    9.76940   57.44050    8.78440    -999.25    -999.25    -999.25    -999.25    -999.25    -999.25    -999.25    -999.25    -999.25    -999.25
 7200.00000  160.27870  187.97870  362.00130 -139.68990   10.03800   56.42140    8.94060    -999.25    -999.25    -999.25    -999.25    -999.25    -999.25    -999.25    -999.25    -999.25    -999.25
 7250.00000  119.42060  170.15180  243.99720 -154.90720    9.98580   53.59190   11.14190    -999.25    -999.25    -999.25    -999.25    -999.25    -999.25    -999.25    -999.25    -999.25    -999.25
 7300.00000   53.95750   84.21870  239.63210 -173.55860    9.54470   58.34150    7.06180    -999.25    -999.25    -999.25    -999.25    -999.25    -999.25    -999.25    -999.25    -999.25    -999.25
 7350.00000  139.57150  184.84150  356.77600 -166.11290    9.28850   57.81430    8.05960    -999.25    -999.25    -999.25    -999.25    -999.25    -999.25    -999.25    -999.25    -999.25    -999.25
 7400.00000  115.08390  127.37700  168.56820 -157.08750    9.60770   54.64090    7.92140    -999.25    -999.25    -999.25    -999.25    -999.25    -999.25    -999.25    -999.25    -999.25    -999.25
 7450.00000  123.22630  139.21600  161.27270 -147.67380    9.70250   54.06850    9.55370    -999.25    -999.25    -999.25    -999.25    -999.25    -999.25    -999.25    -999.25    -999.25    -999.25
 7500.00000  213.56570  226.45280  253.19330 -143.54710    9.80970   54.26160   10.89890    -999.25    -999.25    -999.25    -999.25    -999.25    -999.25    -999.25    -999.25    -999.25    -999.25
 7550.00000  114.34740  150.05560  205.16830 -157.11750   10.00350   53.51470   10.69710    -999.25    -999.25    -999.25    -999.25    -999.25    -999.25    -999.25    -999.25    -999.25    -999.25
 7600.00000   62.23260   81.90170  180.30050 -174.72710   10.01220   53.42160   12.44070    -999.25    -999.25    -999.25    -999.25    -999.25    -999.25    -999.25    -999.25    -999.25    -999.25
 7650.00000   38.69830   62.08610  220.88080 -191.99830    9.75620   53.88150   11.43150    -999.25    -999.25    -999.25    -999.25    -999.25    -999.25    -999.25    -999.25    -999.25    -999.25
 7700.00000   82.50970   97.03510  198.03770 -158.34220    9.46590   55.31200    7.83140    -999.25    -999.25    -999.25    -999.25    -999.25    -999.25    -999.25    -999.25    -999.25    -999.25
 7750.00000   33.41690   37.30380   66.23620 -115.51440    9.56750   61.34470   44.56540    -999.25    -999.25    -999.25    -999.25    -999.25    -999.25    -999.25    -999.25    -999.25    -999.25
 7800.00000   11.36120   13.08510   26.40340 -139.51370    9.97350   56.66830   24.26000    -999.25    -999.25    -999.25    -999.25    -999.25    -999.25    -999.25    -999.25    -999.25    -999.25
 7850.00000  204.00440  316.12210  446.04830 -145.24990   10.11620   53.24230   12.65520    -999.25    -999.25    -999.25    -999.25    -999.25    -999.25    -999.25    -999.25    -999.25    -999.25
 7900.00000   20.06070   22.66780   24.36760 -120.72320   10.07030   58.22580   35.66140    -999.25    -999.25    -999.25    -999.25    -999.25    -999.25    -999.25    -999.25    -999.25    -999.25
 7950.00000   17.33910   18.20140   23.30530  -97.39360    9.76130   62.82320   27.61930    -999.25    -999.25    -999.25    -999.25    -999.25    -999.25    -999.25    -999.25    -999.25    -999.25
 8000.00000   87.84550   93.67230  185.66410  -58.42970   10.68310   58.99460   23.67520    -999.25    -999.25    -999.25    -999.25    -999.25    -999.25    -999.25    -999.25    -999.25    -999.25
 8050.00000   49.75480   52.75490   82.63930  -49.94260   10.51560   62.88400   30.51770    -999.25    -999.25    -999.25    -999.25    -999.25    -999.25    -999.25    -999.25    -999.25    -999.25
 8100.00000   61.77740   64.92560  115.12680  -58.02210   10.32690   61.97780   30.05920    -999.25    -999.25    -999.25    -999.25    -999.25    -999.25    -999.25    -999.25    -999.25    -999.25
 8150.00000   28.90280   30.45930   37.08450  -52.55100   10.97120   64.75270   28.06240    -999.25    -999.25    -999.25    -999.25    -999.25    -999.25    -999.25    -999.25    -999.25    -999.25
 8200.00000   12.04440   12.94430   14.85580  -47.95810   10.93550   74.81890   45.54300    -999.25    -999.25    -999.25    -999.25    -999.25    -999.25    -999.25    -999.25    -999.25    -999.25
 8250.00000    8.66810    9.54730   11.55730  -46.11620   11.21090   80.99260   45.37240    0.19140   11.11440    0.01900   48.10620   12.62920   -0.00810   47.92020    2.66620   11.49970   45.11670
 8300.00000    8.89600    9.79140   11.26630  -50.86420   10.71450   78.37500   50.68190    0.05740   10.86410    0.01820   45.16450   11.51890    0.00930   49.56160    2.68990   10.99020   45.69520
 8350.00000    6.98000    7.65560    9.83970  -53.47390   10.61530   88.23030   55.86880    0.16580   11.45020    0.05900   57.03840   11.99650    0.15720   56.94940    2.51680   11.59040   55.86110
 8400.00000    3.65380    3.30810    5.10230  -72.23010   12.27280  115.19600   72.14410    0.44460   14.37990    0.57940   67.39470   15.47020    0.17050   65.04520    1.81960   14.89760   67.42550
 8450.00000    5.81750    6.28760    7.50360  -52.52650   10.67350  102.58630   76.57190    0.18130   11.65250    0.08780   79.88740   12.09610    0.24840   77.94260    2.54750   10.29490   73.82600
 8500.00000   13.93590   16.11150   23.47760  -47.10230    9.62740   74.54100   38.50310    0.10230   10.57050    0.01370   35.49020   10.49640    0.03950   37.03220    2.66420    9.46030   35.78500
 8550.00000    5.69010    6.22760    7.43360  -70.37760   10.89180   91.08630   56.48790    0.22440   11.96610    0.28070   59.48500   13.73920    0.19880   57.90380    2.35180   11.45510   53.20970
 8600.00000    4.98260    4.34450    6.14520  -83.23020   10.73890   89.80170   64.17040    0.30040   12.47060    0.32400   65.58050   13.06760    0.20980   64.44280    2.22480   12.14300   71.62290
 8650.00000   10.99680   12.60100   16.82920  -53.13770    9.74820   79.40310   55.63900    0.07280   10.63230    0.00340   51.67530   10.76320    0.05030   52.79630    2.70570   10.45440   55.94320
 8700.00000    6.21250    6.56590    8.23810  -65.17490   10.96310   93.43830   75.33570    0.26580   12.24190    0.15660   68.08180   12.51210    0.24920   66.68200    2.41560   11.78320   71.56050
 8750.00000   12.20130   13.54770   17.05070  -49.53660    9.64610   79.20190   63.34740    0.05060   10.14460    0.00590   58.18710   10.24640   -0.00450   62.40470    2.71220   10.04900   59.19440
 8800.00000    7.34490    8.43180   11.39120  -52.92840    9.77570   91.61430   76.93430    0.17960   10.42120    0.06990   77.19610   10.96700    0.23770   77.79940    2.63510   10.71320   77.51740
 8850.00000    7.39050    8.12590   10.04150  -48.54340    9.67630   92.59510   80.28290    0.18160   10.43400    0.13470   77.25680   11.03970    0.24340   78.53890    2.51270   10.63850   74.46120
 8900.00000    6.02550    6.56750    8.54700  -47.50510    9.91970   96.89780   76.85080    0.22480   10.98730    0.15100   70.59020   11.51870    0.20130   71.56580    2.42690   10.74720   73.92780
 8950.00000    4.88080    5.13250    6.97750  -61.62110   10.97430   95.04160   80.99450    0.24940   11.84790    0.16630   79.46280   12.05930    0.16630   78.41450    2.40200   11.37430   79.22750
 9000.00000    5.44580    5.62380    7.48200  -70.85980   10.58100  106.80980   92.13990    0.30010   11.08350    0.22340   95.62150   11.28910    0.10620   95.26310    2.36340   10.91650   84.12780
 9050.00000    5.93390    7.29100    9.91650  -50.40110   10.76020  107.44230   79.92750    0.30070   10.55150    0.22990   93.38260   10.73190    0.18590   91.64680    2.33060   10.86470   79.11160
 9100.00000  121.36280  227.96290  905.00500  -39.01290    8.91710   96.53650  135.90650    0.11740    9.03910    0.08530  141.11110    9.08280    0.01390  139.06030    2.58150    9.21030  134.62360
 9150.00000   31.40630   35.98970   50.22210  -35.80580    8.94380   68.19970   45.71840    0.03620    9.09110    0.01180   36.12600    9.08640   -0.00260   38.93690    2.68190    9.23450   37.51560
