~Version ---------------------------------------------------
VERS.      2.0 : CWLS log ASCII Standard -VERSION 2.0
WRAP.       NO : One line per depth step
CREA. 11/21/17 : LAS Creation Date
~Well ------------------------------------------------------
STRT.FT                             1050.0 : START DEPTH
STOP.FT                            10400.0 : STOP DEPTH
STEP.FT                           50.00000 : STEP LENGTH
NULL.                              -999.25 : NULL VALUE
COMP.               CHEVRON CANADA LIMITED : COMPANY
WELL. CHEVRON GULF ET AL FOXCK 10-21-62-18 : WELL
FLD .                                      : FIELD
LOC .                                      : LOCATION
CTRY.                               CANADA : COUNTRY
SRVC.                         Schlumberger : SERVICE COMPANY
DATE.                          28-Apr-1976 : LOGDATE
PROV.                              Alberta : PROVINCE
UWI .                     102102106218W500 : UNIQUE WELL ID
SLAT.WGS84                        54.37974 : SURFACE LATITUDE
SLON.WGS84                       -116.6321 : SURFACE LONGITUDE
~Curve Information -----------------------------------------
DEPT    .FT    : Depth Curve
CALDED  .IN    : CALIPER FROM DENSITY LOG
CALSED  .IN    : CALIPER FROM SONIC LOG
CALWS   .IN    : CALIPER [CALSED SPL. TO CALDED @ 10384']
CONDWS  .MMHO  : CONDUCTIVITY [1000/DRESWS]
DCORED  .G/C3  : DENSITY CORRECTION FROM DENSITY LOG
DCORWS  .G/C3  : DENSITY CORRECTION [DCORED]
DENWS   .G/C3  : FORMATION BULK DENSITY [RHOBED]
DPHILSED.V/V   : DENSITY POROSITY LIMESTONE [M=2.71, F=1.00] FROM DENSITY LOG
DPHISSED.V/V   : DENSITY POROSITY SANDSTONE [M=2.65, F=1.00] FROM DENSITY LOG
DPOLSWS .V/V   : DENSITY POROSITY LIMESTONE [CALC. FROM DENWS M=2.71, F=1.00]
DRESWS  .OHMM  : DEEP RESISTIVITY [ILDED]
DTED    .US/F  : DELTA-T FROM SONIC LOG
DTWS    .US/F  : COMPRESSIONAL SONIC [DTED]
GRDED   .GAPI  : GAMMA RAY FROM DENSITY LOG
GRSED   .GAPI  : GAMMA RAY FROM SONIC LOG
GRWS    .GAPI  : GAMMA RAY [GRSED SPL. TO GRDED@3031M]
ILDED   .OHMM  : DEEP INDUCTION FROM RESISTIVITY LOG
ILMED   .OHMM  : MEDIUM INDUCTION FROM RESISTIVITY LOG
LL8ED   .OHMM  : LATEROLOG-8 FROM RESISTIVITY LOG
MRESWS  .OHMM  : MEDIUM RESISTIVITY [ILMED]
NPHILSED.V/V   : NEUTRON POROSITY  SANDSTONE FROM DENSITY LOG
NPHISSED.V/V   : NEUTRON POROSITY SANDSTONE FROM DENSITY LOG
NPOLSWS .V/V   : NEUTRON POROSITY LIMESTONE [NPHISSED MATRIX CONVERSION FOR LIMESTONE, SPL. TO NPHILSED @ 6545']
RHOBED  .G/C3  : BULK DENSITY FROM DENSITY LOG
SPRED   .MV    : SPONTANEOUS POTENTIAL FROM RESISTIVITY LOG
SPWS    .MV    : SPONTANEOUS POTENTIAL [BASELINE 0 MV,SPRED]
SRESWS  .OHMM  : SHALLOW EWSISTIVITY [LL8ED]
TENDED  .LBF   : TENSION FROM DENSITY LOG
TENSED  .LBF   : TENSION FROM SONIC LOG
~Params ----------------------------------------------------
PD  .                     GL : PERMANENT DATUM
EPD .FT               2869.5 : ELEVATION PERMANENT DATUM
LMF .                     KB : LOG MEASURED FROM
DAPD.FT                 14.5 : FEET ABOVE PERMANENT DATUM
EKB .FT                 2884 : KELLY BUSHING
EGL .FT               2869.5 : GROUND LEVEL
DATE.               04/28/76 : RUN DATE
RUN .                      1 : RUN NUMBER
DD  .FT                10415 : DEPTH DRILLER
DL  .FT                10422 : DEPTH LOGGER
BLI .FT                10416 : BOTTOM LOG INTERVAL
TLI .FT                 1107 : TOP LOG INTERVAL
CBD .FT                 1108 : CASING BOTTOM DRILLER
CBL .FT                 1107 : CASING BOTTOM LOGGER
BS  .IN                 8.75 : BIT SIZE
BSD .FT                10415 : BIT SIZE AT DEPTH
DFT .               GEL CHEM : DRILLING FLUID TYPE
DFD .                    9.4 : DRILLING FLUID DENSITY
DFV .                     72 : DRILLING FLUID VISCOSITY
DFPH.                   10.5 : DRILLING FLUID PH
DFL .                   10.8 : DRILLING FLUID LOSS
MSS .             CIRCULATED : MUD SAMPLE SOURCE
RMS .OHMM               1.66 : RESISTIVITY MUD SAMPLE
MST .DEGF                 60 : MUD SAMPLE TEMPERATURE
RMF .OHMM                1.2 : RESISTIVITY MUD FILTRATE SAMPLE
MFST.DEGF                 60 : MUD FILTRATE SAMPLE TEMPERATURE
RMB .OHMM               0.52 : RESISTIVITY MUD AT BHT
TCS .HRS                 3.5 : TIME CIRCULATED STOPPED
LUN .                   7691 : LOGGING UNIT NUMBER
LUL .                    EDM : LOGGING UNIT LOCATION
ENGI.   CROCKFORD KREZANOSKI : RECORDING ENGINEER
WITN.                   WONG : WITNESSED BY
CLNT.                A2DTECH : CLIENT CODE
ORIG.            2" 5" PRINT : ORIGIN OF DATA
UWI .       102102106218W500 : UNIQUE WELL ID
DICO. A2D Technologies, Inc. : DIGITIZING COMPANY
~Other -----------------------------------------------------
DIL-LL-BHC-CNL-FDC LOG RUN
SCH.- CNL(NPHI) USED FOR NEUTRON MATRIX CONVERSION
~ASCII -----------------------------------------------------
# ...
 9800.00000    9.03310    8.81440    8.81440    1.61600    0.01900    0.01900    2.52580    0.11670    -999.25    0.10770  618.82050   73.87160   73.87160  152.66890  149.63970  149.63970  618.82050 1356.54250 1663.59330 1356.54250    0.12510    -999.25    0.12510    2.52580  -21.86220  -40.52390 1663.59330 1080.13270 1290.95280
 9850.00000    9.05400    9.00840    9.00840    2.74560    0.02170    0.02170    2.70110   -0.00220    -999.25    0.00520  364.21790   51.71770   51.71770   23.97650   25.91820   25.91820  364.21790  433.41360  622.51890  433.41360    0.01050    -999.25    0.01050    2.70110  -36.78530  -54.68220  622.51890 1060.33250 1631.54750
 9900.00000   10.47980    9.32880    9.32880   56.27530    0.19770    0.19770    2.45970    0.14230    -999.25    0.14640   17.76980   72.48780   72.48780   90.10820   90.97440   90.97440   17.76980   18.87040   26.04570   18.87040    0.16350    -999.25    0.16350    2.45970  -51.08270  -68.21980   26.04570 1625.46480 1620.72340
 9950.00000    9.01500    8.80930    8.80930    3.26670    0.02360    0.02360    2.73440   -0.01820    -999.25   -0.01420  306.32030   50.15650   50.15650    7.93560    -999.25    7.93560  306.32030  248.51960  800.62330  248.51960    0.00260    -999.25    0.00260    2.73440  -45.13690  -61.50910  800.62330 1763.69680 1453.45500
 10000.00000    9.48480    8.94370    8.94370    0.84960    0.12730    0.12730    2.74980   -0.02550    -999.25   -0.02320 1177.01610   49.09450   49.09450    7.61700    -999.25    7.61700 1177.01610 1401.93630 1717.44590 1401.93630   -0.00300    -999.25   -0.00300    2.74980  -67.66940  -83.28180 1717.44590 1896.37390 1540.25740
 10050.00000    9.02390    8.79070    8.79070    0.86410    0.01570    0.01570    2.72880   -0.01930    -999.25   -0.01100 1157.32430   48.40940   48.40940    7.98680    -999.25    7.98680 1157.32430 1168.10600 1698.57750 1168.10600   -0.00280    -999.25   -0.00280    2.72880  -75.53230  -90.38490 1698.57750 1238.30570 1760.45240
 10100.00000    8.93230    8.76940    8.76940    6.31720    0.02580    0.02580    2.69230    0.01930    -999.25    0.01040  158.29760   50.82400   50.82400   21.49350   22.24040   21.49350  158.29760  170.07390  438.01700  170.07390   -0.00130    -999.25   -0.00130    2.69230  -57.29150  -71.37920  438.01700 1315.80300  993.31650
 10150.00000    8.89550    8.77200    8.77200   23.25210    0.00900    0.00900    2.69770    0.00250    -999.25    0.00720   43.00690   51.20370   51.20370    6.90110    -999.25    6.90110   43.00690   49.45000  114.16340   49.45000   -0.00160    -999.25   -0.00160    2.69770 -115.50060 -128.82850  114.16340 1135.22440 1140.21830
 10200.00000    9.55590    8.97490    8.97490    3.17600    0.10980    0.10980    2.73730   -0.02040    -999.25   -0.01600  314.93750   47.00660   47.00660   10.18920    -999.25   10.18920  314.93750  214.72930 1039.33940  214.72930   -0.00000    -999.25   -0.00000    2.73730 -100.10670 -112.66980 1039.33940 1160.25130 1045.11300
 10250.00000   14.12790    9.68600    9.68600    2.37440    0.23090    0.23090    2.38890    0.17920    -999.25    0.18770  421.15260   48.13660   48.13660   14.26790   14.73610   14.26790  421.15260   93.53710 1692.18990   93.53710   -0.00330    -999.25   -0.00330    2.38890  -55.63330  -67.43660 1692.18990 1369.21540 1123.45290
 10300.00000    8.85930    8.79320    8.79320    0.84740    0.10390    0.10390    2.72640   -0.00640    -999.25   -0.00960 1180.03560   49.46850   49.46850   12.66150   16.06210   12.66150 1180.03560 1376.00700 1712.75790 1376.00700   -0.00030    -999.25   -0.00030    2.72640  -63.32610  -74.36950 1712.75790 1648.61970 1227.07210
 10350.00000    8.78850    9.02020    9.02020   54.96260    0.14420    0.14420    2.66170    0.02600    -999.25    0.02820   18.19420   67.95010   67.95010  180.15470  147.43040  180.15470   18.19420   19.91350   36.49850   19.91350    0.11830    -999.25    0.11830    2.66170  -34.43730  -44.71590   36.49850 1608.99520 1975.22660
 10400.00000    8.79180    8.80700    8.79180   26.75380    0.04070    0.04070    2.67200    0.03360    -999.25    0.02220   37.37790   60.88490   60.88490    -999.25    -999.25    -999.25   37.37790   44.12670   52.21240   44.12670    0.09040    -999.25    0.09040    2.67200    0.49280   -9.02600   52.21240 1671.27710 1235.34340
