~Version ---------------------------------------------------
VERS.      2.0 : CWLS log ASCII Standard -VERSION 2.0
WRAP.       NO : One line per depth step
CREA. 10/22/19 : LAS Creation Date
~Well ------------------------------------------------------
STRT.ft                                          300.0 : START DEPTH
STOP.ft                                        10300.0 : STOP DEPTH
STEP.ft                                       50.00000 : STEP LENGTH
NULL.                                          -999.25 : NULL VALUE
COMP.                             IMPERIAL OIL LIMITED : COMPANY
WELL. IMPERIAL CANADIAN SUPERIOR BUCK CREEK 14-29-48-6 : WELL
FLD .                                          WILDCAT : FIELD
LOC .                                                  : LOCATION
CTRY.                                           CANADA : COUNTRY
SRVC.                           Schlumberger of Canada : SERVICE COMPANY
DATE.                                      27-May-1954 : LOGDATE
PROV.                                          Alberta : PROVINCE
UWI .                                 100142904806W500 : UNIQUE WELL ID
SLAT.WGS84                                    53.17637 : SURFACE LATITUDE
SLON.WGS84                                   -114.8447 : SURFACE LONGITUDE
~Curve Information -----------------------------------------
DEPT    .ft    : Depth Curve
CONDWS  .MMHO  : CONDUCTIVITY [1000/DRESWS]
DRESWS  .OHMM  : DEEP RESISTIVITY [LNED]
GRDED   .GAPI  : GAMMA RAY FROM CNL
GRNED   .GAPI  : GAMMA RAY FROM CASED HOLE GRN LOG [DEPTH ADJ. TO GRDED]
GRWS    .GAPI  : GAMMA RAY [SPLICED GRNED TO GRDED FROM 790-1109M, GRDED+37]
LATED   .OHMM  : 18 FOOT 8 INCH LATERAL RESISTIVITY FROM EL
LNED    .OHMM  : 64 INCH LONG NORMAL RESISTIVITY FROM EL
NEUTED  .NAPI  : NEUTRON FROM CASED HOLE GRN LOG [DEPTH ADJ. TO GRDED]
NEUTWS  .NAPI  : NEUTRON [NEUTED]
NPHIDMED.V/V   : NEUTRON POROSITY DOLOMITE FROM CNL
NPHILSED.V/V   : NEUTRON POROSITY LIMESTONE FROM CNL
NPHISSED.V/V   : NEUTRON POROSITY SANDSTONE FROM CNL
NPOLSWS .V/V   : NEUTRON POROSITY LIMESTONE [NPHILSED]
SNED    .OHMM  : 16 INCH SHORT NORMAL RESISTIVITY FROM EL
SPRED   .MV    : SPONTANEOUS POTENTIAL FROM EL
SPWS    .MV    : SPONTANEOUS POTENTIAL [BASELINE 0 MV] [SPRED]
SRESWS  .OHMM  : SHALLOW RESISTIVITY [SNED]
~Params ----------------------------------------------------
LMF .                     KB : LOG MEASURED FROM
DMF .                     KB : DRILLING MEASURED FROM
EKB .FT                 2810 : KELLY BUSHING
DATE.               05/27/54 : RUN DATE
RUN .                      4 : RUN NUMBER
DD  .FT                10219 : DEPTH DRILLER
DL  .FT                10221 : DEPTH LOGGER
BLI .FT                10221 : BOTTOM LOG INTERVAL
TLI .FT                 7088 : TOP LOG INTERVAL
BS  .IN                8.625 : BIT SIZE
BSD .FT                10219 : BIT SIZE AT DEPTH
DFT .              LIME BASE : DRILLING FLUID TYPE
DFD .                   10.5 : DRILLING FLUID DENSITY
DFV .                    220 : DRILLING FLUID VISCOSITY
DFPH.                   12.5 : DRILLING FLUID PH
DFL .                    9.5 : DRILLING FLUID LOSS
RMS .OHMM                1.0 : RESISTIVITY MUD SAMPLE
MST .DEGF                 72 : MUD SAMPLE TEMPERATURE
RMB .OHMM               0.42 : RESISTIVITY MUD AT BHT
TCS .HRS                   2 : TIME CIRCULATED STOPPED
LUN .                   1772 : LOGGING UNIT NUMBER
ENGI.              HENDERSON : RECORDING ENGINEER
WITN.               MCKENZIE : WITNESSED BY
CLNT.                A2DTECH : CLIENT CODE
ORIG.            2" 5" PRINT : ORIGIN OF DATA
UWI .       100142904806W500 : UNIQUE WELL ID
DICO. A2D Technologies, Inc. : DIGITIZING COMPANY
~Other -----------------------------------------------------
~ASCII -----------------------------------------------------
# ...
 4400.00000  126.74750    7.88970    -999.25    5.72770   94.50790    7.13040    7.88970  310.72970  310.72970    -999.25    -999.25    -999.25    -999.25   10.86810  -43.56040  -12.75640   10.86810
 4450.00000  128.82280    7.76260    -999.25    5.69920   94.03680    9.92940    7.76260  410.64230  410.64230    -999.25    -999.25    -999.25    -999.25   12.64900  -42.44960  -11.96560   12.64900
 4500.00000  148.98240    6.71220    -999.25    5.65560   93.31820    9.60230    6.71220  318.73010  318.73010    -999.25    -999.25    -999.25    -999.25   10.43880  -43.40480  -13.23880   10.43880
 4550.00000  181.27110    5.51660    -999.25    5.90190   97.38140    8.29690    5.51660  400.79540  400.79540    -999.25    -999.25    -999.25    -999.25    9.69170  -43.09480  -13.24670    9.69170
 4600.00000  121.47270    8.23230    -999.25    5.24380   86.52190    8.76170    8.23230  303.00800  303.00800    -999.25    -999.25    -999.25    -999.25   11.47680  -42.26850  -12.74040   11.47680
 4650.00000   22.72270   44.00890    -999.25    4.41070   72.77650   21.63040   44.00890  830.79330  830.79330    -999.25    -999.25    -999.25    -999.25   36.21990  -37.36270   -8.15250   36.21990
 4700.00000   78.39330   12.75620    -999.25    5.22600   86.22900   18.37830   12.75620  424.54100  424.54100    -999.25    -999.25    -999.25    -999.25   12.47560  -39.60960  -10.71940   12.47560
 4750.00000  108.71340    9.19850    -999.25    6.35590  104.87320   10.75270    9.19850  352.17820  352.17820    -999.25    -999.25    -999.25    -999.25   10.84490  -40.34570  -11.77340   10.84490
 4800.00000   94.68800   10.56100    -999.25    8.79830  145.17190   11.24660   10.56100  139.51020  139.51020    -999.25    -999.25    -999.25    -999.25   11.09310  -42.37530  -14.12090   11.09310
 4850.00000  111.58720    8.96160    -999.25    9.04660  149.26810    9.13760    8.96160  140.87510  140.87510    -999.25    -999.25    -999.25    -999.25    9.81080  -40.49170  -12.55730    9.81080
 4900.00000  106.86040    9.35800    -999.25    9.83810  162.32870    9.68420    9.35800  158.72850  158.72850    -999.25    -999.25    -999.25    -999.25   10.23020  -39.80810  -12.19160   10.23020
 4950.00000  123.47660    8.09870    -999.25   10.59840  174.87360    7.73670    8.09870  164.34860  164.34860    -999.25    -999.25    -999.25    -999.25    9.82240  -36.46330   -9.16680    9.82240
 5000.00000   85.65460   11.67480    -999.25   10.73190  177.07550   10.97730   11.67480  224.15080  224.15080    -999.25    -999.25    -999.25    -999.25   14.31390  -36.34610   -9.36750   14.31390
 5050.00000   87.76240   11.39440    -999.25   11.22750  185.25380   10.41670   11.39440  291.25920  291.25920    -999.25    -999.25    -999.25    -999.25   14.10940  -34.61600   -7.95530   14.10940
 5100.00000   52.31030   19.11670    -999.25    9.73100  160.56070   11.85170   19.11670  180.48730  180.48730    -999.25    -999.25    -999.25    -999.25   21.11920  -30.73710   -4.39640   21.11920
 5150.00000   52.93050   18.89270    -999.25   10.94670  180.61970   15.03860   18.89270  330.17800  330.17800    -999.25    -999.25    -999.25    -999.25   19.77100  -28.78930   -2.76650   19.77100
 5200.00000  111.58720    8.96160    -999.25   10.49750  173.20880    8.42690    8.96160  221.65170  221.65170    -999.25    -999.25    -999.25    -999.25   11.03260  -30.63970   -4.93690   11.03260
 5250.00000   59.29330   16.86530    -999.25   11.93580  196.94150   14.97920   16.86530  193.79500  193.79500    -999.25    -999.25    -999.25    -999.25   26.31060  -28.26460   -2.57590   26.31060
 5300.00000  106.17400    9.41850    -999.25   10.59020  174.73830    9.83650    9.41850  127.74900  127.74900    -999.25    -999.25    -999.25    -999.25   12.29070  -29.42330   -3.48940   12.29070
 5350.00000  117.03570    8.54440    -999.25   10.36060  170.94910    8.67870    8.54440  182.10190  182.10190    -999.25    -999.25    -999.25    -999.25   11.35400  -29.85790   -3.67710   11.35400
 5400.00000  184.73700    5.41310    -999.25   11.67180  192.58550    8.83190    5.41310  124.27590  124.27590    -999.25    -999.25    -999.25    -999.25    7.98120  -29.46970   -3.04370    7.98120
 5450.00000  342.48920    2.91980    -999.25    8.48170  139.94800    5.25420    2.91980  153.54820  153.54820    -999.25    -999.25    -999.25    -999.25    3.84170  -28.51060   -1.83780    3.84170
 5500.00000  306.32560    3.26450    -999.25    9.18190  151.50130    2.86610    3.26450  174.44440  174.44440    -999.25    -999.25    -999.25    -999.25    4.42670  -27.94900   -1.03100    4.42670
 5550.00000  136.11370    7.34680    -999.25    8.65040  142.73160    4.68370    7.34680  342.29100  342.29100    -999.25    -999.25    -999.25    -999.25    9.43980  -27.50860   -0.34530    9.43980
 5600.00000   52.29500   19.12230    -999.25    6.58120  108.58900   18.88370   19.12230  905.37950  905.37950    -999.25    -999.25    -999.25    -999.25   20.95810  -30.82790   -4.59290   20.95810
 5650.00000  116.30070    8.59840    -999.25    8.33850  137.58530   13.13150    8.59840  577.53070  577.53070    -999.25    -999.25    -999.25    -999.25   11.13800  -25.77740   -0.14590   11.13800
 5700.00000  262.41900    3.81070    -999.25   10.00850  165.14030    1.80980    3.81070  192.04680  192.04680    -999.25    -999.25    -999.25    -999.25    4.16470  -34.05940   -8.15510    4.16470
 5750.00000   28.24280   35.40720    -999.25    7.15740  118.09630   44.79940   35.40720  424.72080  424.72080    -999.25    -999.25    -999.25    -999.25   18.45960  -44.91750  -18.74080   18.45960
 5800.00000   25.34080   39.46200    -999.25    8.43890  139.24190   36.96530   39.46200  279.47040  279.47040    -999.25    -999.25    -999.25    -999.25   21.10040  -47.51320  -21.06410   21.10040
 5850.00000   36.54100   27.36650    -999.25    6.61400  109.13180   29.67080   27.36650  556.19310  556.19310    -999.25    -999.25    -999.25    -999.25   18.33710  -55.84710  -29.12560   18.33710
 5900.00000   30.41280   32.88090    -999.25    6.06780  100.11870   56.24480   32.88090  676.97200  676.97200    -999.25    -999.25    -999.25    -999.25   24.53090  -55.04920  -28.05530   24.53090
 5950.00000   42.96820   23.27300    -999.25    5.70220   94.08630   28.92390   23.27300  625.58530  625.58530    -999.25    -999.25    -999.25    -999.25   13.50150  -48.28520  -21.01890   13.50150
 6000.00000   33.64060   29.72600    -999.25    6.81660  112.47390   57.50440   29.72600  229.56840  229.56840    -999.25    -999.25    -999.25    -999.25   18.27060  -49.20170  -21.66290   18.27060
 6050.00000   22.11620   45.21580    -999.25    6.35470  104.85260   62.16460   45.21580  700.48270  700.48270    -999.25    -999.25    -999.25    -999.25   25.19330  -61.21540  -33.40420   25.19330
 6100.00000   28.06140   35.63620    -999.25    7.84390  129.42350   40.50490   35.63620  638.21950  638.21950    -999.25    -999.25    -999.25    -999.25   24.43010  -48.08130  -19.99770   24.43010
 6150.00000   29.68550   33.68650    -999.25    5.42690   89.54300   33.74390   33.68650  796.12470  796.12470    -999.25    -999.25    -999.25    -999.25   22.72960  -55.83160  -27.47560   22.72960
 6200.00000   13.43750   74.41880    -999.25    3.94010   65.01170   42.38180   74.41880  927.75740  927.75740    -999.25    -999.25    -999.25    -999.25   38.37480  -53.08530  -24.45690   38.37480
 6250.00000   32.03340   31.21740    -999.25   10.26320  169.34360  155.34700   31.21740  350.89230  350.89230    -999.25    -999.25    -999.25    -999.25   16.47880  -40.77260  -11.87170   16.47880
 6300.00000   75.13040   13.31020    -999.25    8.93450  147.41930   10.67240   13.31020  192.68750  192.68750    -999.25    -999.25    -999.25    -999.25    9.85260  -35.59850   -6.42520    9.85260
 6350.00000   12.03470   83.09310    -999.25    3.45120   56.94560  128.94480   83.09310  220.44090  220.44090    -999.25    -999.25    -999.25    -999.25   46.44220  -90.19870  -60.75300   46.44220
 6400.00000   20.04990   49.87560    -999.25    4.00240   66.04040 1172.75310   49.87560  665.76350  665.76350    -999.25    -999.25    -999.25    -999.25   24.33860  -85.70090  -55.98280   24.33860
