~Version ---------------------------------------------------
VERS.      2.0 : CWLS log ASCII Standard -VERSION 2.0
WRAP.       NO : One line per depth step
CREA. 08/04/17 : LAS Creation Date
~Well ------------------------------------------------------
STRT.FT                      550.0 : START DEPTH
STOP.FT                    12450.0 : STOP DEPTH
STEP.FT                   50.00000 : STEP LENGTH
NULL.                      -999.25 : NULL VALUE
COMP.       CALIFORNIA STANDARD CO : COMPANY
WELL. STANDARD CYNTHIA 16-21-49-13 : WELL
FLD .                           WC : FIELD
LOC .                              : LOCATION
CTRY.                       CANADA : COUNTRY
SRVC.                 Schlumberger : SERVICE COMPANY
DATE.                  28-Dec-1957 : LOGDATE
PROV.                      Alberta : PROVINCE
UWI .             100162104913W500 : UNIQUE WELL ID
SLAT.WGS84                53.24881 : SURFACE LATITUDE
SLON.WGS84               -115.8321 : SURFACE LONGITUDE
~Curve Information -----------------------------------------
DEPT  .FT         : Depth Curve
CALMED.IN         : CALIPER FROM FROM MLL LOG
CALWS .IN         : CALIPER [MCALED]
CILDED.MMHO       : DEEP INDUCTION CONDUCTIVITY FROM IL LOG [ADJ. TO SPRED]
CONDWS.MMHO       : CONDUCTIVITY [1000/DRESWS]
DRESWS.OHMM       : DEEP RESISTIVITY [LNED]
GRNED .UgRa-Eq/T  : GAMMA RAY FROM GRN LOG
GRWS  .GAPI       : GAMMA RAY[GRNED*16.5]
ILDED .OHMM       : DEEP INDUCTION RESISTIVITY FROM IL LOG [ADJ. TO SPRED]
LL7ED .OHMM       : LATEROLOG 7 FROM LL LOG
LNED  .OHMM       : LONG NORMAL RESISTIVITY FROM EL LOG
LT18ED.OHMM       : LATERAL 18' FROM EL LOG
MCALED.IN         : MLT (MICROLOG) CALIPER FROM ML LOG
MLLED .OHMM       : MICRO FOCUSED LATEROLOG RESISTIVITY FROM MLL LOG
MRESWS.OHMM       : MEDIUM RESISTIVITY [LL7ED]
NEUTED.CPS        : NEUTRON FROM GRN LOG
NEUTWS.CPS        : NEUTRON [NEUTED]
SNED  .OHMM       : SHORT NORMAL RESISTIVITY FROM EL LOG
SPR1ED.MV         : SPONTANEOUS POTENTIAL FROM IL LOG [ADJ. TO SPRED]
SPR2ED.MV         : SPONTANEOUS POTENTIAL FROM LL LOG
SPRED .MV         : SPONTANEOUS POTENTIAL FROM EL LOG
SPWS  .MV         : SPONTANEOUS POTENTIAL [SPR1ED SPL. TO SPRED @644']
SRESWS.OHMM       : SHALLOW RESISTIVITY [SNED]
~Params ----------------------------------------------------
PD  .                        : PERMANENT DATUM
EPD .FT                    0 : ELEVATION PERMANENT DATUM
LMF .                     KB : LOG MEASURED FROM
DAPD.FT                    0 : FEET ABOVE PERMANENT DATUM
DMF .                     KB : DRILLING MEASURED FROM
EKB .FT                 3297 : KELLY BUSHING
EDF .FT                    0 : DRILLING FLOOR
EGL .FT                    0 : GROUND LEVEL
DATE.               12/28/57 : RUN DATE
RUN .                      4 : RUN NUMBER
DD  .FT                12492 : DEPTH DRILLER
DL  .FT                12492 : DEPTH LOGGER
BLI .FT                12491 : BOTTOM LOG INTERVAL
TLI .FT                 8904 : TOP LOG INTERVAL
CS  .IN                    0 : CASING SIZE
CBD .FT                  616 : CASING BOTTOM DRILLER
CBL .FT                  616 : CASING BOTTOM LOGGER
BS  .IN                    9 : BIT SIZE
BSD .FT                12492 : BIT SIZE AT DEPTH
DFT .               OIL EMUL : DRILLING FLUID TYPE
DFD .                   10.7 : DRILLING FLUID DENSITY
DFV .                    140 : DRILLING FLUID VISCOSITY
DFPH.                     13 : DRILLING FLUID PH
DFL .                    3.6 : DRILLING FLUID LOSS
MSS .                        : MUD SAMPLE SOURCE
RMS .OHMM                1.1 : RESISTIVITY MUD SAMPLE
MST .DEGF                 50 : MUD SAMPLE TEMPERATURE
RMF .OHMM                  0 : RESISTIVITY MUD FILTRATE SAMPLE
MFST.DEGF                  0 : MUD FILTRATE SAMPLE TEMPERATURE
RMC .OHMM                  0 : RESISTIVITY MUD CAKE
MCST.DEGF                  0 : MUD CAKE SAMPLE TEMPERATURE
MFSS.                        : MUD FILTRATE SAMPLE SOURCE
MCSS.                        : MUD CAKE SAMPLE SOURCE
RMB .OHMM               0.28 : RESISTIVITY MUD AT BHT
TCS .HRS                   3 : TIME CIRCULATED STOPPED
TLAB.HRS                   0 : TIME LOGGER AT BOTTOM
LUN .                   1749 : LOGGING UNIT NUMBER
LUL .                     DV : LOGGING UNIT LOCATION
ENGI.                  GOETZ : RECORDING ENGINEER
WITN.             CHARLESTON : WITNESSED BY
CLNT.                A2DTECH : CLIENT CODE
ORIG.            2" 5" PRINT : ORIGIN OF DATA
UWI .       100162104913W500 : UNIQUE WELL ID
DICO. A2D Technologies, Inc. : DIGITIZING COMPANY
OS  .                        : OTHER SERVICES
PWI .                        : PRIMARY WELL IDENTIFIER
R1  .                        : REMARKS 1
R2  .                        : REMARKS 2
LSRV.                        : LOG MNEMONIC
~Other -----------------------------------------------------
~ASCII -----------------------------------------------------
# ...
 2150.00000    -999.25   10.57870  174.89990  134.79650    7.43050    4.49290   74.13360   14.84460    -999.25    7.43050   18.46160   10.57870    -999.25    -999.25  229.83770  229.83770    9.92730  -68.16870    -999.25  -71.34400   -2.92250    9.92730
 2200.00000    -999.25   12.67480  133.99950  105.46300    9.48200    5.52190   91.11130   21.04500    -999.25    9.48200   16.46210   12.67480    -999.25    -999.25  199.15810  199.15810   11.07610  -67.08820    -999.25  -69.84040   -1.69940   11.07610
 2250.00000    -999.25   11.13350  360.35150  181.80480    5.50170    6.10900  100.79850    7.41140    -999.25    5.50170   10.18590   11.13350    -999.25    -999.25  193.09290  193.09290    4.23410  -64.36340    -999.25  -68.40650    0.19920    4.23410
 2300.00000    -999.25   12.27200  145.47690  128.75810    7.76650    5.65740   93.34630   18.95220    -999.25    7.76650   10.79240   12.27200    -999.25    -999.25  205.38620  205.38620    9.24980  -66.78860    -999.25  -69.40510   -1.35430    9.24980
 2350.00000    -999.25   10.20280  157.15940  116.22230    8.60420    5.33350   88.00270   17.06690    -999.25    8.60420    7.40810   10.20280    -999.25    -999.25  234.27180  234.27180    8.39160  -70.14400    -999.25  -69.34780   -1.11070    8.39160
 2400.00000    -999.25   10.83770   93.97780   41.27830   24.22660    3.90510   64.43500   37.65090    -999.25   24.22660   16.82860   10.83770    -999.25    -999.25  221.50040  221.50040   20.53050  -81.71610    -999.25  -79.21820   -9.63760   20.53050
 2450.00000    -999.25   11.37940  161.11340  102.76750    9.73070    5.65780   93.35370   16.54270    -999.25    9.73070   13.01350   11.37940    -999.25    -999.25  226.68080  226.68080   10.13120  -68.73190    -999.25  -70.87860   -2.92170   10.13120
 2500.00000    -999.25   11.11620  143.13320   74.86200   13.35990    6.18730  102.09050   19.07960    -999.25   13.35990    3.25130   11.11620    -999.25    -999.25  221.41260  221.41260   11.97480  -64.34400    -999.25  -70.76290   -2.81490   11.97480
 2550.00000    -999.25   10.60430  115.74360   42.40850   23.58020    5.34960   88.26920   25.17840    -999.25   23.58020    1.06650   10.60430    -999.25    -999.25  251.97820  251.97820   17.18250  -93.20760    -999.25  -74.25110   -2.61770   17.18250
 2600.00000    -999.25   10.39740  114.85170   70.43990   14.19650    5.56060   91.74990   27.22470    -999.25   14.19650   21.78860   10.39740    -999.25    -999.25  241.01510  241.01510   17.39680  -68.71040    -999.25  -71.61800   -2.76500   17.39680
 2650.00000    -999.25   11.11910  131.86460   77.91230   12.85320    5.29620   87.38650   20.37810    -999.25   12.85320   16.61760   11.11910    -999.25    -999.25  238.52420  238.52420   14.40550  -65.33100    -999.25  -74.26750   -7.24540   14.40550
 2700.00000    -999.25   11.20280  143.42650  155.30600    6.43890    6.66440  109.96260   23.85310    -999.25    6.43890    6.85950   11.20280    -999.25    -999.25  222.92010  222.92010    9.25550  -69.49510    -999.25  -71.99700   -2.12710    9.25550
 2750.00000    -999.25   11.98640  142.09600   85.64440   11.67670    6.24050  102.96870   19.71770    -999.25   11.67670   11.75460   11.98640    -999.25    -999.25  223.72530  223.72530   10.33020  -67.48660    -999.25  -73.83090   -5.92000   10.33020
 2800.00000    -999.25   12.26820  156.39640  100.39050    9.96110    7.00460  115.57590   18.13660    -999.25    9.96110   12.19530   12.26820    -999.25    -999.25  220.40420  220.40420    8.87800  -66.37410    -999.25  -72.85720   -5.47150    8.87800
 2850.00000    -999.25   10.69310  132.31220   83.18220   12.02180    5.17800   85.43700   20.58900    -999.25   12.02180   11.48920   10.69310    -999.25    -999.25  233.42100  233.42100   11.79040  -65.31330    -999.25  -77.49390   -9.67640   11.79040
 2900.00000    -999.25   10.66050  197.42430  138.11320    7.24040    6.52210  107.61390   13.19920    -999.25    7.24040    7.82180   10.66050    -999.25    -999.25  201.03840  201.03840    6.72410  -61.85280    -999.25  -70.02110   -1.52670    6.72410
 2950.00000    -999.25   11.09110  133.90940   64.03520   15.61640    5.64970   93.22010   21.64410    -999.25   15.61640   10.57620   11.09110    -999.25    -999.25  243.15970  243.15970   12.95210  -65.19030    -999.25  -69.99600   -3.56350   12.95210
 3000.00000    -999.25   11.90700  205.29500   85.59200   11.68670    6.56670  108.35100   13.20820    -999.25   11.68670    7.03130   11.90700    -999.25    -999.25  203.37890  203.37890    7.00380  -64.57290    -999.25  -70.12820   -1.76830    7.00380
 3050.00000    -999.25   12.19120  178.47370   72.49740   13.79360    5.88420   97.09010   16.49320    -999.25   13.79360    0.81700   12.19120    -999.25    -999.25  221.16170  221.16170   10.28050  -71.47870    -999.25  -69.14030   -0.98310   10.28050
 3100.00000    -999.25   11.59260  127.03920   93.93290   10.64590    4.57440   75.47760   25.45030    -999.25   10.64590   14.91180   11.59260    -999.25    -999.25  235.75210  235.75210   15.56950  -67.23060    -999.25  -71.35910   -1.60560   15.56950
 3150.00000    -999.25   11.73690  143.58870   99.65480   10.03510    5.53400   91.31020   18.14680    -999.25   10.03510   10.91320   11.73690    -999.25    -999.25  236.60140  236.60140   10.09290  -64.77850    -999.25  -70.65220   -2.79340   10.09290
 3200.00000    -999.25   12.58100  229.42110  158.50870    6.30880    7.64930  126.21350   11.70230    -999.25    6.30880   10.49300   12.58100    -999.25    -999.25  192.03770  192.03770    5.54560  -62.76910    -999.25  -69.42870   -1.08330    5.54560
 3250.00000    -999.25   13.14510  234.27390  140.87210    7.09950    5.35880   88.42020   11.96670    -999.25    7.09950    4.66330   13.14510    -999.25    -999.25  208.47390  208.47390    5.77630  -63.82770    -999.25  -70.19630   -1.50580    5.77630
 3300.00000    -999.25   13.11120  205.96230  167.86130    5.95730    5.46960   90.24840   13.64340    -999.25    5.95730    5.18090   13.11120    -999.25    -999.25  222.24390  222.24390    6.35160  -63.13110    -999.25  -69.54930   -1.11940    6.35160
 3350.00000    -999.25   12.40600  103.88300   56.30950   17.75900    4.43290   73.14280   28.81350    -999.25   17.75900   13.47190   12.40600    -999.25    -999.25  230.30000  230.30000   17.30540  -65.42250    -999.25  -74.31350   -6.72490   17.30540
 3400.00000    -999.25   12.95900  222.03430  126.09300    7.93100    6.40160  105.62640   12.86060    -999.25    7.93100    5.40880   12.95900    -999.25    -999.25  205.67940  205.67940    6.20970  -58.75360    -999.25  -69.77590   -1.76090    6.20970
 3450.00000    -999.25   12.43980  172.93740  136.57660    7.32190    5.70980   94.21170   15.95610    -999.25    7.32190    4.87160   12.43980    -999.25    -999.25  209.23500  209.23500    8.74140  -64.14740    -999.25  -70.14550   -1.68810    8.74140
 3500.00000    -999.25   12.64540  185.82190   87.48200   11.43320    6.59700  108.85130   15.01010    -999.25   11.43320    2.83810   12.64540    -999.25    -999.25  204.89100  204.89100    8.40180  -58.59040    -999.25  -71.59960   -3.10730    8.40180
 3550.00000    9.23670   11.12200   98.80150  148.86490    6.71750    4.79750   79.15790   35.24120    -999.25    6.71750   17.74450   11.12200   40.42110    -999.25  243.20920  243.20920   19.95330  -60.77300    -999.25  -73.26130   -4.25720   19.95330
 3600.00000    8.47210    9.85760   85.88160   51.89520   19.26960    4.50050   74.25820   45.81290    -999.25   19.26960   10.46260    9.85760   44.77680    -999.25  279.76700  279.76700   28.92410  -65.40480    -999.25  -78.39840   -6.94890   28.92410
 3650.00000    9.39960   11.52300  144.71780  114.78740    8.71570    6.09150  100.50980   18.96950    -999.25    8.71570   10.39450   11.52300    7.28890    -999.25  223.05180  223.05180   10.06510  -57.18120    -999.25  -71.18490   -2.90830   10.06510
 3700.00000    9.01880   10.65410  134.59900  123.58650    8.09150    5.77750   95.32870   20.63130    -999.25    8.09150   13.95790   10.65410   10.32420    -999.25  231.41760  231.41760    9.85150  -59.15400    -999.25  -70.81940   -2.84600    9.85150
