~Version ---------------------------------------------------
VERS.      2.0 : CWLS log ASCII Standard -VERSION 2.0
WRAP.       NO : One line per depth step
CREA. 10/26/17 : LAS Creation Date
~Well ------------------------------------------------------
STRT.FT                    1300.0 : START DEPTH
STOP.FT                   12250.0 : STOP DEPTH
STEP.FT                  50.00000 : STEP LENGTH
NULL.                     -999.25 : NULL VALUE
COMP.  TEXACO EXPLORATION COMPANY : COMPANY
WELL. TEXACO MARLBORO 10-12-54-18 : WELL
FLD .                             : FIELD
LOC .                             : LOCATION
CTRY.                      CANADA : COUNTRY
SRVC.      Schlumberger of Canada : SERVICE COMPANY
DATE.                 04-Oct-1969 : LOGDATE
PROV.                     Alberta : PROVINCE
UWI .            100101205418W500 : UNIQUE WELL ID
SLAT.WGS84                53.6526 : SURFACE LATITUDE
SLON.WGS84               -116.514 : SURFACE LONGITUDE
~Curve Information -----------------------------------------
DEPT   .FT    : Depth Curve
CALDED .IN    : CALIPER FROM DENSITY LOG [DEP. ADJ. TO RESIST. LOG]
CALSED .IN    : CALIPER FROM SONIC LOG [DEP. ADJ. TO RESIST. LOG]
CALWS  .IN    : CALIPER [3734' CALSED 8553'CALDED]
CILDED .MMHO  : CONDUCTIVITY FROM RESISTIVITY LOG
CONDWS .MMHO  : CONDUCTIVITY [1000/DRESWS]
DCORWS .G/C3  : DENSITY CORRECTION [DRHOED]
DENWS  .G/C3  : BULK DENSITY [M=2.71, F=1.00 ASSUMED] [RHOBED]
DPOLSWS.V/V   : DENSITY POROSITY [M=2.71, F=1.00 ASSUMED] [CAL. FROM DENWS]
DRESWS .OHMM  : DEEP RESISTIVITY [1000/CILDED][READINGS >2000 ARE REDUCED TO 2000 OHMM]
DRHOED .G/C3  : DENSITY CORRECTION FROM DENSITY LOG [DEP. ADJ. TO RESIST. LOG]
DTED   .US/F  : DELTA TIME FROM SONIC LOG [DEP. ADJ. TO RESIST. LOG]
DTWS   .US/F  : DELTA TIME [DTED]
GRDED  .GAPI  : GAMMA RAY FROM DENSITY LOG [DEP. ADJ. TO RESIST. LOG]
GRSED  .GAPI  : GAMMA RAY FROM SONIC LOG [DEP. ADJ. TO RESIST. LOG]
GRWS   .GAPI  : GAMMA RAY [3734' GRSED 8556' GRDED]
ILDED  .OHMM  : INDUCTION LOG DEEP RESISTIVITY
RHOBED .G/C3  : BULK DENSITY FROM DENSITY LOG [DEP. ADJ. TO RESIST. LOG]
SNED   .OHMM  : 16 INCH SHORT NORMAL RESISTIVITY FROM IEL
SPRED  .MV    : SPONTANEOUS POTENTIAL FROM RESISTIVITY LOG
SPWS   .MV    : SPONTANEOUS POTENTIAL [BASELINE 0 MV] [SPRED]
SRESWS .OHMM  : SHALLOW RESISTIVITY [SNED]
~Params ----------------------------------------------------
PD  .                     GL : PERMANENT DATUM
EPD .FT               3162.6 : ELEVATION PERMANENT DATUM
LMF .                     KB : LOG MEASURED FROM
DAPD.FT                 13.7 : FEET ABOVE PERMANENT DATUM
EKB .FT               3179.3 : KELLY BUSHING
EGL .FT               3165.6 : GROUND LEVEL
DATE.               11/18/69 : RUN DATE
RUN .                      1 : RUN NUMBER
DD  .FT                12259 : DEPTH DRILLER
DL  .FT                12263 : DEPTH LOGGER
BLI .FT                12262 : BOTTOM LOG INTERVAL
TLI .FT                 8816 : TOP LOG INTERVAL
CBD .FT                 1266 : CASING BOTTOM DRILLER
CBL .FT                 1264 : CASING BOTTOM LOGGER
BSD .FT                12259 : BIT SIZE AT DEPTH
DFT .               GEL CHEM : DRILLING FLUID TYPE
DFD .                   10.5 : DRILLING FLUID DENSITY
DFV .                     60 : DRILLING FLUID VISCOSITY
DFPH.                      9 : DRILLING FLUID PH
DFL .                    6.8 : DRILLING FLUID LOSS
RMS .OHMM               1.58 : RESISTIVITY MUD SAMPLE
MST .DEGF                 68 : MUD SAMPLE TEMPERATURE
RMF .OHMM               1.05 : RESISTIVITY MUD FILTRATE SAMPLE
MFST.DEGF                 66 : MUD FILTRATE SAMPLE TEMPERATURE
RMC .OHMM               1.92 : RESISTIVITY MUD CAKE
MCST.DEGF                 68 : MUD CAKE SAMPLE TEMPERATURE
RMB .OHMM               0.47 : RESISTIVITY MUD AT BHT
TCS .HRS                 2.5 : TIME CIRCULATED STOPPED
LUN .                   7502 : LOGGING UNIT NUMBER
LUL .                    EDM : LOGGING UNIT LOCATION
ENGI.                 SLADEN : RECORDING ENGINEER
WITN.               BRYNLUND : WITNESSED BY
CLNT.                A2DTECH : CLIENT CODE
ORIG.            2" 5" PRINT : ORIGIN OF DATA
UWI .       100101205418W500 : UNIQUE WELL ID
DICO. A2D Technologies, Inc. : DIGITIZING COMPANY
~Other -----------------------------------------------------
~ASCII -----------------------------------------------------
# ...
 9550.00000    8.98530    8.85320    8.98530   10.94740   10.94740    0.02250    2.67610    0.01980   91.34590    0.02250   53.09710   53.09710   47.99590   46.68600   47.36190  102.26710    2.67610   90.69840  -38.04730  -51.32500   90.69840
 9600.00000    8.95690    8.89310    8.95690   22.05790   22.05790    0.00700    2.70640    0.00210   45.33520    0.00700   55.94660   55.94660   63.97680   57.77200   64.42990   45.13800    2.70640   47.71290  -65.86650  -78.41910   47.71290
 9650.00000    9.15140    8.94490    9.15140    8.90180    8.90180    0.01120    2.68560    0.01430  112.33680    0.01120   51.84710   51.84710   40.59400   42.37130   40.73050  132.27070    2.68560  246.94430  -59.10450  -70.93680  246.94430
 9700.00000   11.33000    9.55050   11.33000    4.80800    4.80800    0.19570    2.60230    0.06300  207.98670    0.19570   49.53610   49.53610   22.95330   21.35660   23.27850  288.84780    2.60230  269.72950 -101.05500 -112.16220  269.72950
 9750.00000   11.70230    9.62000   11.70230    5.18540    5.18540    0.18160    2.50620    0.11920  192.84920    0.18160   49.11840   49.11840   19.34450   18.06910   18.49140  257.39100    2.50620  287.28980 -122.57950 -132.96640  287.28980
 9800.00000   13.18060    9.72850   13.18060    4.98170    4.98170    0.16780    2.37780    0.19430  200.73470    0.16780   48.89960   48.89960   13.67270   16.55870   13.60320  271.61020    2.37780  299.28140 -126.92800 -136.59460  299.28140
 9850.00000   11.99820    9.55620   11.99820    4.99970    4.99970    0.21120    2.53080    0.10480  200.01200    0.21120   48.53290   48.53290   16.40340   14.33600   16.22780  262.09330    2.53080  275.31050 -127.01180 -135.95330  275.31050
 9900.00000   12.97140    9.91180   12.97140    4.24120    4.24120    0.19240    2.40490    0.17840  235.78230    0.19240   48.27250   48.27250   21.92990   18.93840   21.09440  393.90720    2.40490  328.59800 -134.73970 -142.96080  328.59800
 9950.00000    8.94320    9.05100    8.94320    7.90220    7.90220    0.02180    2.64540    0.03780  126.54700    0.02180   48.25450   48.25450   14.47240   12.38320   14.19310  150.06200    2.64540  201.92140 -144.14050 -151.63660  201.92140
 10000.00000   11.68020    9.55740   11.68020    5.38340    5.38340    0.12170    1.98810    0.42220  185.75620    0.12170   51.73880   51.73880   17.28040   16.96240   16.70300  252.79380    1.98810  178.96620 -141.39610 -148.17180  178.96620
 10050.00000   12.36810    9.60990   12.36810    4.85900    4.85900    0.09860    1.92540    0.45880  205.80370    0.09860   49.26330   49.26330   17.24080   17.82790   17.48790  257.26520    1.92540  183.90700 -138.14370 -144.19910  183.90700
 10100.00000   15.20450    9.73940   15.20450    6.60730    6.60730    0.18150    2.26190    0.26200  151.34780    0.18150   49.68550   49.68550   16.95640   15.95980   16.65260  174.63100    2.26190  168.51660 -135.25220 -140.58250  168.51660
 10150.00000   13.35610    9.55580   13.35610    6.19720    6.19720    0.14360    2.45540    0.14890  161.36320    0.14360   50.62730   50.62730   21.49370   19.81110   21.45620  186.43060    2.45540  128.72970 -126.08160 -130.69160  128.72970
 10200.00000   12.32870    9.60020   12.32870   11.40390   11.40390    0.16530    2.47810    0.13560   87.68930    0.16530   49.63770   49.63770   21.98520   17.07040   22.46730   88.53360    2.47810  101.48220 -127.39570 -131.28060  101.48220
 10250.00000   15.01800   10.44170   15.01800    6.71610    6.71610    0.15310    2.47220    0.13910  148.89590    0.15310   49.16150   49.16150   19.36800   17.23720   19.07490  162.01770    2.47220   95.22730 -126.54930 -129.71390   95.22730
 10300.00000   11.03460    9.32470   11.03460    9.84240    9.84240    0.17440    2.23650    0.27690  101.60120    0.17440   49.31260   49.31260   24.46720   20.91250   24.77110  103.07820    2.23650  121.08870 -120.11090 -122.55510  121.08870
 10350.00000    9.00400    8.94060    9.00400   49.70920   49.70920    0.06360    2.89250   -0.10670   20.11700    0.06360   48.93810   48.93810   39.88580   36.49940   41.79050   20.29050    2.89250   54.20830 -111.87620 -113.59530   54.20830
 10400.00000    9.15050    9.01460    9.15050    3.49570    3.49570   -0.00070    2.85150   -0.08270  286.06570   -0.00070   48.04080   48.04080   16.16840   12.31070   16.29370  362.54030    2.85150  175.09580 -137.00530 -138.00410  175.09580
 10450.00000    9.07640   10.21920    9.07640   12.45860   12.45860    0.10840    2.36410    0.20230   80.26580    0.10840   52.60520   52.60520   29.52620   27.68870   29.34220   80.82610    2.36410   81.36610 -121.84610 -122.11980   81.36610
 10500.00000   11.72150    9.93910   11.72150   17.96320   17.96320    0.13450    2.18720    0.30570   55.66940    0.13450   52.18380   52.18380   27.34880   24.73240   26.40550   52.94970    2.18720   50.00000 -118.36740 -117.92080   50.00000
 10550.00000   11.58760    9.45170   11.58760    9.45610    9.45610    0.20320    2.38250    0.19150  105.75180    0.20320   50.43260   50.43260   32.42720   30.55440   32.64960  115.95180    2.38250  104.68630  -77.99380  -76.82690  104.68630
 10600.00000   10.80330    9.26400   10.80330   21.21220   21.21220    0.15290    2.52660    0.10730   47.14270    0.15290   54.32390   54.32390   43.56390   37.67050   43.20950   49.24450    2.52660   50.00000  -44.36850  -42.47650   50.00000
 10650.00000   12.14080    9.77800   12.14080   73.37820   73.37820    0.20010    2.54890    0.09420   13.62800    0.20010   62.08640   62.08640   64.67450   64.22800   65.16340   13.85240    2.54890   16.68410  -40.24250  -37.63010   16.68410
 10700.00000    9.38070    9.18730    9.38070   73.10110   73.10110    0.02430    2.67040    0.02320   13.67970    0.02430   61.98270   61.98270   61.92360   58.50520   61.20870   13.81110    2.67040   16.99190  -34.01770  -30.68030   16.99190
 10750.00000    9.09620    8.98210    9.09620   63.36890   63.36890    0.02860    2.66900    0.02400   15.78060    0.02860   59.45150   59.45150   66.32240   68.77800   65.25600   15.94880    2.66900   19.84940  -20.45100  -16.39320   19.84940
 10800.00000   11.36120    9.81720   11.36120  140.76680  140.76680    0.17300    2.37230    0.19750    7.10390    0.17300   68.53350   68.53350   88.91650   80.46760   88.91410    7.01270    2.37230    9.08240  -12.70830   -7.93020    9.08240
 10850.00000    9.37780    9.20660    9.37780   66.07770   66.07770    0.01970    2.66850    0.02430   15.13370    0.01970   60.22360   60.22360   65.85730   64.88780   67.59120   15.32160    2.66850   18.70980  -12.52640   -7.33130   18.70980
 10900.00000   14.33010   11.23350   14.33010  129.01780  129.01780    0.09890    2.09130    0.36180    7.75090    0.09890   69.89240   69.89240   79.08200   73.66940   79.84460    7.62250    2.09130    8.50370  -20.66470  -15.46960    8.50370
 10950.00000    9.18510    9.07070    9.18510   65.64630   65.64630    0.02060    2.65680    0.03110   15.23320    0.02060   61.10750   61.10750   68.84260   65.92570   68.54700   15.42690    2.65680   19.05550   -6.53680   -1.34170   19.05550
 11000.00000   12.95320   11.73410   12.95320  167.58690  167.58690    0.08260    2.00140    0.41440    5.96710    0.08260   76.94920   76.94920   92.90120   96.50880   94.19410    5.99520    2.00140    9.05710  -33.24680  -28.05170    9.05710
 11050.00000   13.26250   10.06400   13.26250   64.13470   64.13470    0.12580    2.21620    0.28880   15.59220    0.12580   64.59110   64.59110   57.25500   56.53840   54.56190   15.59270    2.21620   16.74720  -47.66370  -42.46860   16.74720
 11100.00000   12.02600   11.09620   12.02600   96.95670   96.95670    0.12300    2.07350    0.37220   10.31390    0.12300   76.23680   76.23680  103.22350   93.78580  100.14470   10.38210    2.07350   13.68860  -28.50180  -23.30670   13.68860
 11150.00000    9.14660    9.28250    9.14660   58.24620   58.24620    0.03160    2.62280    0.05100   17.16850    0.03160   64.39890   64.39890   93.01060   81.61720   92.81300   17.40230    2.62280   20.26310  -37.97960  -32.78450   20.26310
