~Version ---------------------------------------------------
VERS.      2.0 : CWLS log ASCII Standard -VERSION 2.0
WRAP.       NO : One line per depth step
CREA. 01/02/18 : LAS Creation Date
~Well ------------------------------------------------------
STRT.FT                                 1000.0 : START DEPTH
STOP.FT                                 9800.0 : STOP DEPTH
STEP.FT                               50.00000 : STEP LENGTH
NULL.                                  -999.25 : NULL VALUE
COMP. THE BRITISH AMERICAN OIL COMPANY LIMITED : COMPANY
WELL.                    BA IOSEGUN 2-11-67-20 : WELL
FLD .                                          : FIELD
LOC .                                          : LOCATION
CTRY.                                   CANADA : COUNTRY
SRVC.                             Schlumberger : SERVICE COMPANY
DATE.                              02-Mar-1963 : LOGDATE
PROV.                                  Alberta : PROVINCE
UWI .                         100021106720W500 : UNIQUE WELL ID
SLAT.WGS84                            54.77967 : SURFACE LATITUDE
SLON.WGS84                           -116.9329 : SURFACE LONGITUDE
~Curve Information -----------------------------------------
DEPT  .FT    : Depth Curve
CALSED.IN    : CALIPER FROM SONIC LOG
CALWS .IN    : CALIPER [CALSED]
CILDED.MMHO  : INDUCTION DEEP CONDUCTIVITY FROM IEL
CONDWS.MMHO  : CONDUCTIVITY [1000/DRESWS]
DRESWS.OHMM  : DEEP RESISTIVITY [ILDED, IF ILDED<2;1000/CILDED]
DTED  .US/F  : DELTA TIME  (INTERVAL TRANSIT TIME)  FROM SONIC LOG
DTWS  .US/F  : COMPRESSIONAL SONIC [DTED]
GRSED .GAPI  : GAMMA RAY FROM SONIC LOG
GRWS  .GAPI  : GAMMA RAY [GRSED]
ILDED .OHMM  : INDUCTION DEEP RESISTIVITY FROM IEL
SNED  .OHMM  : SHORT NORMAL RESISTIVITY FROM IEL
SPRED .MV    : SPONTANEOUS POTENTIAL FROM IEL
SPWS  .MV    : SPONTANEOUS POTENTIAL [BASELINE 0 MV] [SPRED]
SRESWS.OHMM  : SHALLOW RESISTIVITY [SNED]
~Params ----------------------------------------------------
PD  .                     GL : PERMANENT DATUM
EPD .FT                 2507 : ELEVATION PERMANENT DATUM
LMF .                     KB : LOG MEASURED FROM
DAPD.FT                   18 : FEET ABOVE PERMANENT DATUM
EKB .FT                 2525 : KELLY BUSHING
EGL .FT                 2507 : GROUND LEVEL
DATE.              03/02/196 : RUN DATE
RUN .                      2 : RUN NUMBER
DD  .FT                 9825 : DEPTH DRILLER
DL  .FT                 9831 : DEPTH LOGGER
BLI .FT                 9830 : BOTTOM LOG INTERVAL
TLI .FT                 9589 : TOP LOG INTERVAL
CBD .FT                 1015 : CASING BOTTOM DRILLER
CBL .FT                 1018 : CASING BOTTOM LOGGER
BS  .IN                    9 : BIT SIZE
BSD .FT                 9831 : BIT SIZE AT DEPTH
DFT .           OIL EMULSION : DRILLING FLUID TYPE
DFD .                    9.8 : DRILLING FLUID DENSITY
DFV .                    180 : DRILLING FLUID VISCOSITY
DFPH.                     10 : DRILLING FLUID PH
DFL .                    7.0 : DRILLING FLUID LOSS
RMS .OHMM               0.95 : RESISTIVITY MUD SAMPLE
MST .DEGF                 82 : MUD SAMPLE TEMPERATURE
RMF .OHMM               1.07 : RESISTIVITY MUD FILTRATE SAMPLE
MFST.DEGF                 50 : MUD FILTRATE SAMPLE TEMPERATURE
RMC .OHMM               1.97 : RESISTIVITY MUD CAKE
MCST.DEGF                 50 : MUD CAKE SAMPLE TEMPERATURE
RMB .OHMM               0.41 : RESISTIVITY MUD AT BHT
MRT .DEGF                190 : MAXIMUM RECORDED TEMPERATURE
LUN .                1534 VV : LOGGING UNIT NUMBER
ENGI.                MCKEOWN : RECORDING ENGINEER
WITN.              MCDERMOTT : WITNESSED BY
CLNT.                A2DTECH : CLIENT CODE
ORIG.           2', 5' PRINT : ORIGIN OF DATA
UWI .       100021106720W500 : UNIQUE WELL ID
DICO. A2D Technologies, Inc. : DIGITIZING COMPANY
~Other -----------------------------------------------------
CILD USED SCALES 500/0 FROM START TO 9750' AND SCALES 1000/0 FROM 9750'-END.
IEL LOG TAKEN FROM RUN 1 FROM START TO 9750 AND RUN 2 FROM 9750'-END.
~ASCII -----------------------------------------------------
 1000.00000    -999.25    -999.25    -999.25    -999.25    -999.25    -999.25    -999.25   71.38030   71.38030    -999.25    -999.25    -999.25    -999.25    -999.25
 1050.00000   14.08860   14.08860  368.22420  343.38300    2.91220  138.45950  138.45950   77.29340   77.29340    2.91220    4.69540  -85.97710   -9.25870    4.69540
 1100.00000   13.92140   13.92140  702.04710  702.04710    1.42440  140.00000  140.00000   87.63350   87.63350    1.45890    3.29460  -88.55940  -11.84100    3.29460
 1150.00000   13.50090   13.50090  322.82830  307.46530    3.25240  140.00000  140.00000   76.42370   76.42370    3.25240    4.68160  -87.06950  -10.35110    4.68160
 1200.00000   15.64540   15.64540  270.73260  269.57810    3.70950  140.00000  140.00000   74.58510   74.58510    3.70950    4.39130  -85.26900   -8.55060    4.39130
 1250.00000   10.77430   10.77430  187.51270  180.11850    5.55190  140.14870  140.14870   80.33760   80.33760    5.55190    6.41830  -79.54580   -2.82740    6.41830
 1300.00000   10.10720   10.10720  245.53890  232.91020    4.29350  114.54800  114.54800   65.94740   65.94740    4.29350    6.23900  -80.77120   -4.05280    6.23900
 1350.00000    9.85440    9.85440   75.43180   78.82020   12.68710  113.10870  113.10870   65.19720   65.19720   12.68710   11.05520  -89.68270  -12.96430   11.05520
 1400.00000   13.73370   13.73370  237.78440  247.55540    4.03950  125.14600  125.14600   82.88310   82.88310    4.03950    5.07170  -78.62270   -1.88850    5.07170
 1450.00000    9.73840    9.73840   74.86400   75.61780   13.22440  115.86300  115.86300   71.93740   71.93740   13.22440   11.89180  -88.69940  -11.94460   11.89180
 1500.00000   13.25920   13.25920  248.99290  228.87490    4.36920  140.00000  140.00000   70.42980   70.42980    4.36920    4.95720  -80.55820   -3.78280    4.95720
 1550.00000   10.86410   10.86410  297.70090  285.95120    3.49710  132.78050  132.78050   76.68510   76.68510    3.49710    5.05940  -79.37680   -2.58090    5.05940
 1600.00000   11.46920   11.46920  179.53960  162.78160    6.14320  109.07300  109.07300   74.42760   74.42760    6.14320    5.71360  -82.06090   -5.24440    5.71360
 1650.00000   13.58440   13.58440  286.94180  289.28490    3.45680  140.00000  140.00000   69.16230   69.16230    3.45680    4.54720  -79.74390   -2.90680    4.54720
 1700.00000   10.80820   10.80820  130.29370  128.91420    7.75710  114.06550  114.06550   62.58260   62.58260    7.75710    8.29710  -84.07890   -7.22130    8.29710
 1750.00000   13.64460   13.64460  269.23710  252.95960    3.95320  127.13300  127.13300   79.40900   79.40900    3.95320    4.62520  -80.91080   -4.03260    4.62520
 1800.00000   12.50030   12.50030  142.59780  140.08150    7.13870  111.71950  111.71950   70.47550   70.47550    7.13870    7.04380  -79.55720   -2.65840    7.04380
 1850.00000   13.60690   13.60690  231.40740  223.21930    4.47990  138.40130  138.40130   67.45090   67.45090    4.47990    5.11190  -79.86170   -2.94240    5.11190
 1900.00000   11.35520   11.35520  190.63740  192.37800    5.19810  100.84200  100.84200   66.24310   66.24310    5.19810    7.88790  -80.82750   -3.88760    7.88790
 1950.00000   11.48370   11.48370  298.10800  288.03500    3.47180  133.12580  133.12580   65.56980   65.56980    3.47180    5.57850  -80.80390   -3.84350    5.57850
 2000.00000   11.55730   11.55730  183.63510  153.66180    6.50780  138.49350  138.49350   65.74070   65.74070    6.50780    6.88820  -85.20450   -8.22350    6.88820
 2050.00000   11.38020   11.38020  264.24620  255.40830    3.91530  123.16550  123.16550   69.65630   69.65630    3.91530    5.03220  -80.08430   -3.08270    5.03220
 2100.00000   13.94150   13.94150  274.10050  246.76730    4.05240  135.43930  135.43930   65.63240   65.63240    4.05240    4.56460  -79.81170   -2.78960    4.56460
 2150.00000   11.86910   11.86910  141.75300  143.14550    6.98590  115.62270  115.62270   55.66110   55.66110    6.98590    8.19550 -103.21770  -26.17500    8.19550
 2200.00000   13.38570   13.38570  253.72500  252.56350    3.95940  140.43500  140.43500   73.97940   73.97940    3.95940    4.59700  -81.06970   -4.00640    4.59700
 2250.00000   12.13550   12.13550  224.01840  221.34670    4.51780  140.30530  140.30530   75.69440   75.69440    4.51780    5.53820  -81.28870   -4.20490    5.53820
 2300.00000   11.58600   11.58600  254.54370  239.77370    4.17060  140.45380  140.45380   75.53260   75.53260    4.17060    5.14720  -82.64450   -5.54010    5.14720
 2350.00000    7.75410    7.75410  166.26310  170.44490    5.86700  103.96620  103.96620  100.51110  100.51110    5.86700    6.58070  -84.06850   -6.94350    6.58070
 2400.00000    7.50870    7.50870  181.93450  182.41520    5.48200  109.89100  109.89100  100.00040  100.00040    5.48200    6.34870  -86.06590   -8.92040    6.34870
 2450.00000    7.38480    7.38480  157.03900  157.12650    6.36430  122.17950  122.17950  113.62650  113.62650    6.36430    7.04430  -85.26640   -8.10030    7.04430
 2500.00000    7.52300    7.52300  147.98410  151.35920    6.60680  139.94670  139.94670  122.01630  122.01630    6.60680    8.18600  -84.29620   -7.10950    8.18600
 2550.00000    7.28850    7.28850  140.45920  142.74500    7.00550  109.01100  109.01100  108.18510  108.18510    7.00550    7.93330  -85.84010   -8.63290    7.93330
 2600.00000    7.42560    7.42560  212.59590  207.95210    4.80880  140.17050  140.17050  123.97310  123.97310    4.80880    6.15140  -85.24740   -8.01960    6.15140
 2650.00000    7.52120    7.52120  166.11460  170.07960    5.87960  140.48020  140.48020  103.79650  103.79650    5.87960    6.48120  -89.00570  -11.75740    6.48120
 2700.00000    7.90140    7.90140  166.84010  145.46940    6.87430  108.46350  108.46350  101.71320  101.71320    6.87430    6.23320  -90.05620  -12.78730    6.23320
 2750.00000    7.82950    7.82950  124.00300  121.54210    8.22760  136.17380  136.17380   97.47590   97.47590    8.22760    7.68880  -88.81430  -11.52480    7.68880
 2800.00000    7.52450    7.52450  147.62320  149.34290    6.69600  109.27950  109.27950  101.00490  101.00490    6.69600    6.27350  -87.88220  -10.57220    6.27350
 2850.00000    7.61610    7.61610  164.60530  153.46600    6.51610  114.65100  114.65100  103.78360  103.78360    6.51610    6.08910  -89.12060  -11.79000    6.08910
 2900.00000    8.28040    8.28040  129.76260  135.76440    7.36570  104.14830  104.14830  100.67020  100.67020    7.36570    6.97190  -89.23010  -11.87890    6.97190
 2950.00000   10.06930   10.06930  138.78360  139.94430    7.14570  108.00320  108.00320   90.23180   90.23180    7.14570    6.82270  -89.12290  -11.75120    6.82270
 3000.00000   14.78790   14.78790  120.79670  123.85890    8.07370   98.23000   98.23000   98.52980   98.52980    8.07370    7.54290  -89.15240  -11.76010    7.54290
 3050.00000   14.69760   14.69760  135.01340  139.97370    7.14420  138.34950  138.34950   91.86890   91.86890    7.14420    7.85720  -88.71490  -11.30200    7.85720
 3100.00000   12.61490   12.61490  141.94200  145.14630    6.88960  102.33220  102.33220   95.75410   95.75410    6.88960    7.30430  -85.99820   -8.56480    7.30430
 3150.00000   11.74720   11.74720  149.60880  156.62200    6.38480  117.49680  117.49680   92.71610   92.71610    6.38480    7.12590  -83.91820   -6.46420    7.12590
 3200.00000   10.82100   10.82100  156.27950  163.65010    6.11060  116.74800  116.74800  105.48190  105.48190    6.11060    7.34990  -83.21680   -5.74220    7.34990
 3250.00000   13.10140   13.10140  158.78940  157.23520    6.35990  128.51900  128.51900  109.45220  109.45220    6.35990    7.34330  -82.12600   -4.63090    7.34330
 3300.00000   10.61660   10.61660  103.93610  104.87790    9.53490  100.85200  100.85200   89.29850   89.29850    9.53490   10.52760  -81.73810   -4.22240   10.52760
 3350.00000   11.92840   11.92840  143.70620  145.66850    6.86490  114.11880  114.11880  103.15720  103.15720    6.86490    8.76970  -81.14090   -3.60460    8.76970
 3400.00000   11.54370   11.54370  145.57750  147.58840    6.77560  115.42500  115.42500  102.42240  102.42240    6.77560    8.32150  -81.47550   -3.91870    8.32150
