~Version ---------------------------------------------------
VERS.      2.0 : CWLS log ASCII Standard -VERSION 2.0
WRAP.       NO : One line per depth step
CREA. 11/22/17 : LAS Creation Date
~Well ------------------------------------------------------
STRT.FT                            750.0 : START DEPTH
STOP.FT                           7050.0 : STOP DEPTH
STEP.FT                         50.00000 : STEP LENGTH
NULL.                            -999.25 : NULL VALUE
COMP.            QUINTANA EXPLORATION CO : COMPANY
WELL. QUINTANA ET AL FOLEY LAKE 6-3-65-6 : WELL
FLD .                                    : FIELD
LOC .                                    : LOCATION
CTRY.                             CANADA : COUNTRY
SRVC.                       Schlumberger : SERVICE COMPANY
DATE.                        02-Feb-1973 : LOGDATE
PROV.                            Alberta : PROVINCE
UWI .                   100060306506W500 : UNIQUE WELL ID
SLAT.WGS84                      54.59282 : SURFACE LATITUDE
SLON.WGS84                     -114.8253 : SURFACE LONGITUDE
~Curve Information -----------------------------------------
DEPT  .FT    : Depth Curve
CALSED.IN    : CALIPER FROM SONIC LOG
CALWS .IN    : CALIPER [CALSED]
CILDED.MMHO  : CONDUCTIVITY FROM RESISTIVITY LOG
CONDWS.MMHO  : CONDUCTIVITY [1000/DRESWS]
DRESWS.OHMM  : DEEP RESISTIVITY [1000/CILDED, IF ILDED <5, ILDED]
DTED  .US/F  : INTERVAL TRANSIT TIME FROM SONIC LOG
DTWS  .US/F  : COMPRESSIONAL SONIC [DTED]
GRSED .GAPI  : GAMMA RAY FROM SONIC LOG
GRWS  .GAPI  : GAMMA RAY [GRSED]
ILDED .OHMM  : DEEP INDUCTION RESISTIVITY FROM RESISTIVITY LOG
SNED  .OHMM  : SHORT NORMAL FROM RESISTIVITY LOG
SPRED .MV    : SPONTANEOUS POTENTIAL FROM RESISTIVITY LOG
SPWS  .MV    : SPONTANEOUS POTENTIAL [BASELINE 0 MV,SPRED]
SRESWS.OHMM  : SHALLOW RESISTIVITY [SNED]
~Params ----------------------------------------------------
PD  .                     GL : PERMANENT DATUM
EPD .FT                 2548 : ELEVATION PERMANENT DATUM
LMF .                     KB : LOG MEASURED FROM
DAPD.FT                   14 : FEET ABOVE PERMANENT DATUM
EKB .FT                 2562 : KELLY BUSHING
EGL .FT                 2548 : GROUND LEVEL
DATE.               02/02/73 : RUN DATE
RUN .                      1 : RUN NUMBER
DD  .FT                 7095 : DEPTH DRILLER
DL  .FT                 7094 : DEPTH LOGGER
BLI .FT                 7098 : BOTTOM LOG INTERVAL
TLI .FT                  719 : TOP LOG INTERVAL
CBD .FT                  717 : CASING BOTTOM DRILLER
CBL .FT                  717 : CASING BOTTOM LOGGER
BS  .IN                7.875 : BIT SIZE
BSD .FT                 7095 : BIT SIZE AT DEPTH
DFT .               GEL CHEM : DRILLING FLUID TYPE
DFD .                    9.8 : DRILLING FLUID DENSITY
DFV .                    107 : DRILLING FLUID VISCOSITY
DFPH.                    9.5 : DRILLING FLUID PH
DFL .                      8 : DRILLING FLUID LOSS
RMS .OHMM               1.38 : RESISTIVITY MUD SAMPLE
MST .DEGF                104 : MUD SAMPLE TEMPERATURE
RMF .OHMM               0.25 : RESISTIVITY MUD FILTRATE SAMPLE
MFST.DEGF                 75 : MUD FILTRATE SAMPLE TEMPERATURE
RMC .OHMM               2.14 : RESISTIVITY MUD CAKE
MCST.DEGF                 66 : MUD CAKE SAMPLE TEMPERATURE
TCS .HRS                 2.5 : TIME CIRCULATED STOPPED
LUN .                   5628 : LOGGING UNIT NUMBER
LUL .                    EDM : LOGGING UNIT LOCATION
ENGI.                  BOYKO : RECORDING ENGINEER
WITN.            BLAKE SMITH : WITNESSED BY
CLNT.                A2DTECH : CLIENT CODE
ORIG.            2" 5" PRINT : ORIGIN OF DATA
UWI .       100060306506W500 : UNIQUE WELL ID
DICO. A2D Technologies, Inc. : DIGITIZING COMPANY
~Other -----------------------------------------------------
IEL- BHC LOG RUN
BHC LOG FROM 6680' TO 6700' IT LOOKS INVALID
~ASCII -----------------------------------------------------
# ...
 3200.00000    8.45170    8.45170  213.52150  218.94480    4.56750   81.57550   81.57550   59.58540   59.58540    4.56750   16.86120 -115.40170  -62.61780   16.86120
 3250.00000    9.28350    9.28350  188.95640  193.74960    5.16130   83.09460   83.09460   76.04430   76.04430    5.16130    7.32240  -70.41510  -16.87000    7.32240
 3300.00000    9.19850    9.19850  182.90080  190.81060    5.24080   84.47430   84.47430   78.19880   78.19880    5.24080    7.47740  -61.18730   -7.64210    7.47740
 3350.00000    9.11200    9.11200  207.57400  223.15850    4.48450   90.15440   90.15440   83.42380   83.42380    4.48450    6.51230  -70.22940  -13.57200    6.51230
 3400.00000    9.08250    9.08250  215.69380  239.69320    4.17200   92.67640   92.67640   84.38130   84.38130    4.17200    7.10280  -66.05430  -10.80830    7.10280
 3450.00000    9.51930    9.51930  214.76700  223.52420    4.47490   84.62870   84.62870   72.47210   72.47210    4.47490    7.70800  -80.17530  -26.72480    7.70800
 3500.00000    8.71230    8.71230  160.21100  164.88860    6.06470   73.09260   73.09260   61.69120   61.69120    6.06470   15.13860  -90.81780  -38.10880   15.13860
 3550.00000    8.96530    8.96530  232.10930  242.50650    4.12360   83.57160   83.57160   66.01940   66.01940    4.12360   12.81590 -103.31020  -50.60120   12.81590
 3600.00000   10.01710   10.01710  216.86430  236.80220    4.22300   89.07870   89.07870   88.04230   88.04230    4.22300    5.77730  -61.59230   -9.00450    5.77730
 3650.00000   10.15060   10.15060  138.91800  150.35110    6.65110   74.40400   74.40400   65.94350   65.94350    6.65110    9.02230  -57.20810   -5.71830    9.02230
 3700.00000   10.13130   10.13130  165.13460  164.93210    6.06670   88.95370   88.95370   85.13310   85.13310    6.06670    7.83810  -54.74140   -6.00170    7.83810
 3750.00000   11.78610   11.78610  285.63790  295.85800    3.38000   99.06690   99.06690   96.86350   96.86350    3.38000    5.14040  -51.89450   -5.87750    5.14040
 3800.00000    9.09240    9.09240  140.41450  141.28280    7.07800   92.22730   92.22730  104.86230  104.86230    7.07800   10.50670  -49.09340   -5.81270   10.50670
 3850.00000    9.35180    9.35180  148.07090  150.72840    6.63470   81.69350   81.69350   78.64050   78.64050    6.63470    9.47680  -61.48150  -20.95090    9.47680
 3900.00000    8.51230    8.51230  126.91750  125.71660    7.95440   75.12350   75.12350   62.73130   62.73130    7.95440   15.68820 -107.58950  -69.78160   15.68820
 3950.00000    9.29240    9.29240  137.39160  140.81250    7.10170   76.81450   76.81450   86.96150   86.96150    7.10170    8.89150  -68.63980  -31.25590    8.89150
 4000.00000    9.17340    9.17340  213.79430  212.65280    4.70250   80.82500   80.82500   72.40320   72.40320    4.70250   10.02010  -79.24940  -42.03760   10.02010
 4050.00000    9.10960    9.10960  295.47790  301.46810    3.31710   78.45010   78.45010   53.40440   53.40440    3.31710    8.22230  -93.83600  -56.79720    8.22230
 4100.00000    8.60470    8.60470   81.12620   81.67630   12.25910   67.30580   67.30580   72.39880   72.39880   12.25910   24.22280  -40.57600   -3.71110   24.22280
 4150.00000    8.61610    8.61610   16.43920   14.38620   69.51130   53.95440   53.95440   13.57600   13.57600   69.51130  120.44470  -99.01440  -61.90710  120.44470
 4200.00000    8.43890    8.43890   22.25580   21.35570   46.90390   48.76830   48.76830   14.34530   14.34530   46.90390  111.57530  -96.73750  -59.30710  111.57530
 4250.00000    8.02450    8.02450  779.57860  838.71510    1.19230   71.28400   71.28400   16.30820   16.30820    1.19230    8.69520 -155.11580 -117.36550    8.69520
 4300.00000    8.48600    8.48600   33.59020   30.28370   33.02110   48.45120   48.45120   11.18270   11.18270   33.02110  115.36290 -176.58580 -138.51400  115.36290
 4350.00000    7.74890    7.74890  276.02850  280.79370    3.56150   58.30850   58.30850   15.50080   15.50080    3.56150   24.90350 -168.08830 -129.69340   24.90350
 4400.00000    8.21130    8.21130   53.87350   52.31060   19.11660   52.79550   52.79550   14.03790   14.03790   19.11660   84.23370 -180.85900 -142.14430   84.23370
 4450.00000    8.18690    8.18690   30.58970   28.39210   35.24180   47.53580   47.53580   15.94030   15.94030   35.24180  109.83380 -154.12140 -115.08360  109.83380
 4500.00000    7.67620    7.67620  101.19540  102.91450    9.71680   55.29650   55.29650   10.71530   10.71530    9.71680   71.46740 -177.71040 -138.35270   71.46740
 4550.00000    7.55720    7.55720  139.85200  140.46320    7.11930   57.13790   57.13790   11.05820   11.05820    7.11930   35.18590 -171.03580 -131.35660   35.18590
 4600.00000    7.34360    7.34360  125.39240  125.85230    7.94700   53.59080   53.59080   12.05220   12.05220    7.94700   40.37900 -166.47500 -126.47270   40.37900
 4650.00000    8.15500    8.15500   43.16090   42.02790   23.79370   54.04460   54.04460   19.37310   19.37310   23.79370  103.15320 -157.95040 -117.62830  103.15320
 4700.00000    8.24320    8.24320   33.51630   31.80870   31.45140   60.68000   60.68000   39.78850   39.78850   31.45140   82.82170 -112.95710  -72.31190   82.82170
 4750.00000    7.49420    7.49420  328.80910  327.16090    3.05660   60.59480   60.59480   10.54650   10.54650    3.05660   30.73620 -173.25130 -132.28620   30.73620
 4800.00000    7.57390    7.57390  227.79010  223.53860    4.47350   59.07140   59.07140   10.31390   10.31390    4.47350   34.22550 -170.31860 -129.03200   34.22550
 4850.00000    8.00180    8.00180  220.68320  207.58260    4.84270   62.17540   62.17540   17.25810   17.25810    4.84270   32.92690 -161.94980 -120.34010   32.92690
 4900.00000    8.55420    8.55420   44.94210   41.77440   23.93810   54.66830   54.66830   36.01540   36.01540   23.93810   46.09910  -82.77120  -40.84170   46.09910
 4950.00000    8.13710    8.13710   78.23600   77.21780   12.97660   49.36080   49.36080   12.16510   12.16510   12.97660   85.68550 -136.91110  -94.65850   85.68550
 5000.00000    8.34770    8.34770   41.97380   40.30700   24.80960   51.30710   51.30710   22.74840   22.74840   24.80960   77.51660 -123.05760  -80.48510   77.51660
 5050.00000    8.12180    8.12180   91.41610   91.97940   10.87200   54.32850   54.32850   22.00900   22.00900   10.87200   41.85970 -148.69120 -105.79720   41.85970
 5100.00000    9.35090    9.35090  225.15250  221.83770    4.50780   57.93190   57.93190   36.78030   36.78030    4.50780    6.12180  -89.52730  -46.31030    6.12180
 5150.00000   13.24200   13.24200  437.67340  430.23710    2.32430   95.07240   95.07240   94.89180   94.89180    2.32430    3.40640  -72.39910  -28.70910    3.40640
 5200.00000    9.01480    9.01480   97.10260   96.97140   10.31230   56.98850   56.98850   28.69880   28.69880   10.31230   13.76270  -86.57250  -44.96030   13.76270
 5250.00000    8.50950    8.50950   25.34190   23.56290   42.43960   50.07320   50.07320   13.11380   13.11380   42.43960   78.15370  -95.51180  -56.65550   78.15370
 5300.00000    8.76840    8.76840  137.39060  137.18170    7.28960   63.50390   63.50390   69.18780   69.18780    7.28960   10.01160  -54.24490  -18.15820   10.01160
 5350.00000    8.43050    8.43050  160.49260  162.61290    6.16400   72.05970   72.05970   68.35160   68.35160    6.16400   10.00490  -38.18700   -4.33500   10.00490
 5400.00000   13.82630   13.82630  318.55990  328.62310    3.04300   85.66860   85.66860   82.35850   82.35850    3.04300    4.55080  -50.64010  -14.12780    4.55080
 5450.00000   11.42370   11.42370  257.04750  268.33950    3.72780   83.31240   83.31240   76.38740   76.38740    3.72780    5.26400  -44.75070   -4.65780    5.26400
 5500.00000   12.75710   12.75710  317.31950  325.92400    3.06820   87.62990   87.62990   89.98540   89.98540    3.06820    4.13310  -58.64420  -18.40190    4.13310
 5550.00000   14.72800   14.72800  265.65460  282.25470    3.54290   81.14540   81.14540   72.03100   72.03100    3.54290    4.73890  -51.11940  -14.47780    4.73890
 5600.00000   13.92940   13.92940  300.03000  297.36430    3.36370   81.40190   81.40190   74.83460   74.83460    3.36370    4.34000  -49.55710  -16.53410    4.34000
