~Version ---------------------------------------------------
VERS.      2.0 : CWLS log ASCII Standard -VERSION 2.0
WRAP.       NO : One line per depth step
CREA. 12/07/17 : LAS Creation Date
~Well ------------------------------------------------------
STRT.FT                     1150.0 : START DEPTH
STOP.FT                    11250.0 : STOP DEPTH
STEP.FT                   50.00000 : STEP LENGTH
NULL.                      -999.25 : NULL VALUE
COMP. PAN AMERICAN PETROLEUM CORP. : COMPANY
WELL. PAN AM MOBIL ANTE 10-5-65-23 : WELL
FLD .                              : FIELD
LOC .                              : LOCATION
CTRY.                       CANADA : COUNTRY
SRVC.                        Welex : SERVICE COMPANY
DATE.                  21-Nov-1966 : LOGDATE
PROV.                      Alberta : PROVINCE
UWI .             100100506523W500 : UNIQUE WELL ID
SLAT.WGS84                54.59785 : SURFACE LATITUDE
SLON.WGS84               -117.4379 : SURFACE LONGITUDE
~Curve Information -----------------------------------------
DEPT  .FT    : Depth Curve
CALWS .IN    : CALIPER [MCALED]
CILDED.MMHO  : CONDUCTIVITY FROM RESISTIVITY LOG
CONDWS.MMHO  : CONDUCTIVITY [1000/DRESWS]
DRESWS.OHMM  : DEEP RESISTIVITY [1000/CILDED IF ILDED<1, ILDED]
DT1ED .US/F  : DELTA TIME (1' SPAN) FROM SONIC LOG [ADJ. TO RESISTIVITY LOG]
DTED  .US/F  : DELTA TIME (3' SPAN) FROM SONIC LOG [ADJ. TO RESISTIVITY LOG]
DTWS  .US/F  : COMPRESSIONAL SONIC [DTED]
GRED  .CU    : GAMMA RAY FROM GR LOG [ADJ. TO RESISTIVITY LOG]
GRSED .GAPI  : GAMMA RAY FROM SONIC LOG [ADJ. TO RESISTIVITY LOG]
GRWS  .GAPI  : GAMMA RAY [GRSED SPL. TO GRED @ 11256']
ILDED .OHMM  : DEEP INDUCTION FROM RESISTIVITY LOG
LT16ED.OHMM  : LATERAL 16' FROM RESISTIVITY LOG
MCALED.IN    : CALIPER FROM MICROLOG
SNED  .OHMM  : 18 INCH SHORT NORMAL RESISTIVITY FROM RESISTIVITY LOG
SPRED .MV    : SPONTANEOUS POTENTIAL FROM RESISTIVITY LOG
SPWS  .MV    : SPONTANEOUS POTENTIAL [BASELINE 0 MV, SPRED]
SRESWS.OHMM  : SHALLOW RESISTIVITY [SNED]
~Params ----------------------------------------------------
PD  .                     GL : PERMANENT DATUM
EPD .FT                 2595 : ELEVATION PERMANENT DATUM
LMF .                     KB : LOG MEASURED FROM
DAPD.FT                14.25 : FEET ABOVE PERMANENT DATUM
DMF .                     KB : DRILLING MEASURED FROM
EKB .FT              2609.25 : KELLY BUSHING
EGL .FT                 2595 : GROUND LEVEL
DATE.               10/21/66 : RUN DATE
RUN .                      1 : RUN NUMBER
DD  .FT                11278 : DEPTH DRILLER
DL  .FT                11279 : DEPTH LOGGER
BLI .FT                11274 : BOTTOM LOG INTERVAL
TLI .FT                 1125 : TOP LOG INTERVAL
CS  .IN                9.625 : CASING SIZE
CBD .FT                 1138 : CASING BOTTOM DRILLER
CBL .FT                 1125 : CASING BOTTOM LOGGER
BS  .IN                7.875 : BIT SIZE
BSD .FT                11278 : BIT SIZE AT DEPTH
DFT .             WATER BASE : DRILLING FLUID TYPE
DFD .                     10 : DRILLING FLUID DENSITY
DFV .                     94 : DRILLING FLUID VISCOSITY
DFPH.                     12 : DRILLING FLUID PH
DFL .                    9.6 : DRILLING FLUID LOSS
MSS .                   CIRC : MUD SAMPLE SOURCE
RMS .OHMM               1.48 : RESISTIVITY MUD SAMPLE
MST .DEGF                 84 : MUD SAMPLE TEMPERATURE
RMF .OHMM               1.35 : RESISTIVITY MUD FILTRATE SAMPLE
MFST.DEGF                 71 : MUD FILTRATE SAMPLE TEMPERATURE
RMC .OHMM                1.3 : RESISTIVITY MUD CAKE
MCST.DEGF                 61 : MUD CAKE SAMPLE TEMPERATURE
MFSS.                   MEAS : MUD FILTRATE SAMPLE SOURCE
MCSS.                   MEAS : MUD CAKE SAMPLE SOURCE
RMB .OHMM               0.72 : RESISTIVITY MUD AT BHT
TCS .HRS                   5 : TIME CIRCULATED STOPPED
ENGI.                 RLSTON : RECORDING ENGINEER
WITN.                WOOTTON : WITNESSED BY
CLNT.                A2DTECH : CLIENT CODE
ORIG.            2" 5" PRINT : ORIGIN OF DATA
UWI .       100100506523W500 : UNIQUE WELL ID
DICO. A2D Technologies, Inc. : DIGITIZING COMPANY
~Other -----------------------------------------------------
~ASCII -----------------------------------------------------
# ...
 5250.00000    9.35660   71.91610   75.81440   13.19010   79.51850   69.33160   69.33160    -999.25   59.06860   59.06860   13.19010   17.02160    9.35660   15.39500  -69.57790  -11.74720   15.39500
 5300.00000   11.92740   46.09570   48.64360   20.55770   77.44820   76.46620   76.46620    -999.25   70.98480   70.98480   20.55770   35.05390   11.92740   20.91400  -68.70970  -11.39320   20.91400
 5350.00000    8.31200   47.06820   47.79200   20.92400    -999.25   71.93160   71.93160    -999.25   59.85120   59.85120   20.92400   13.00920    8.31200   24.91420  -87.47230  -30.67000   24.91420
 5400.00000    9.08730   44.38270   45.43640   22.00880    -999.25   73.04610   73.04610    -999.25   54.88620   54.88620   22.00880   27.81360    9.08730   27.23330  -88.73860  -32.45050   27.23330
 5450.00000    9.34130  120.04680  131.20600    7.62160    -999.25   82.73750   82.73750    -999.25   71.40130   71.40130    7.62160   13.37690    9.34130   10.38040  -64.57190   -8.79790   10.38040
 5500.00000    9.60340   73.22800   76.53740   13.06550    -999.25   92.65430   92.65430    -999.25   83.46540   83.46540   13.06550   19.29090    9.60340   14.09770  -61.37630   -6.11650   14.09770
 5550.00000    8.87000   80.41480   81.06220   12.33620    -999.25   85.49500   85.49500    -999.25   80.74870   80.74870   12.33620   14.83410    8.87000   17.11770  -61.43070   -6.68510   17.11770
 5600.00000    9.94560  112.15940  120.89710    8.27150    -999.25  120.38550  120.38550    -999.25   60.62940   60.62940    8.27150   17.00470    9.94560   10.29600  -62.76140   -8.53000   10.29600
 5650.00000    9.22090   52.46900   52.23020   19.14600    -999.25   78.48400   78.48400    -999.25   45.08360   45.08360   19.14600   19.18350    9.22090   26.09180  -98.42430  -44.70700   26.09180
 5700.00000    8.59670   64.80680   68.75450   14.54450    -999.25   74.40460   74.40460    -999.25   83.35450   83.35450   14.54450   15.17940    8.59670   18.48350  -60.27760   -7.07450   18.48350
 5750.00000    9.20160   74.14410   80.34900   12.44570    -999.25   83.38240   83.38240    -999.25   85.21020   85.21020   12.44570   10.33810    9.20160   17.30440  -56.18080   -3.49190   17.30440
 5800.00000    9.71790   67.38180   69.71220   14.34470    -999.25   76.85770   76.85770    -999.25   75.37940   75.37940   14.34470   19.30460    9.71790   15.32520  -52.76720   -0.59250   15.32520
 5850.00000    9.26120   61.93940   62.67430   15.95550    -999.25   72.97640   72.97640    -999.25   68.54140   68.54140   15.95550    8.53660    9.26120   19.36670  -70.44910  -18.84280   19.36670
 5900.00000    9.57810   56.79710   58.44470   17.11020    -999.25   67.67040   67.67040    -999.25   63.59320   63.59320   17.11020   18.44540    9.57810   19.55910  -64.97350  -13.96120   19.55910
 5950.00000    9.10000   53.79940   55.04210   18.16790    -999.25   69.19890   69.19890    -999.25   56.03910   56.03910   18.16790   13.77560    9.10000   26.57460  -93.39570  -42.97750   26.57460
 6000.00000    9.43530   54.97910   56.26130   17.77420    -999.25   69.05370   69.05370    -999.25   80.57570   80.57570   17.77420   21.78240    9.43530   22.20780  -55.95700   -6.13280   22.20780
 6050.00000    9.57350   60.89160   62.71950   15.94400    -999.25   72.85630   72.85630    -999.25   85.55580   85.55580   15.94400   16.73130    9.57350   17.33930  -55.53240   -6.30220   17.33930
 6100.00000    9.68650   78.07430   81.73140   12.23520    -999.25   76.04090   76.04090    -999.25   94.02610   94.02610   12.23520   12.84380    9.68650   14.92520  -53.58270   -4.94650   14.92520
 6150.00000   10.34320   56.14760   57.41710   17.41640    -999.25   69.11660   69.11660    -999.25   94.44740   94.44740   17.41640   10.06560   10.34320   14.58020  -53.09110   -5.04890   14.58020
 6200.00000    9.02390   41.16770   40.83220   24.49050    -999.25   68.09460   68.09460    -999.25   68.53510   68.53510   24.49050   13.96480    9.02390   23.88130  -63.08120  -15.63300   23.88130
 6250.00000    8.41480   30.65850   29.84570   33.50570    -999.25   80.43970   80.43970    -999.25   86.89160   86.89160   33.50570   39.53460    8.41480   40.89940  -53.43270   -6.57850   40.89940
 6300.00000    8.41020   38.40220   38.98440   25.65130    -999.25   65.17340   65.17340    -999.25   84.83900   84.83900   25.65130   13.56560    8.41020   26.36960  -51.06980   -4.80960   26.36960
 6350.00000   10.42050   37.07780   36.06550   27.72730    -999.25   72.55960   72.55960    -999.25   87.25500   87.25500   27.72730   38.15090   10.42050   27.11240  -51.74080   -5.95600   27.11240
 6400.00000    7.67260   42.55950   42.72190   23.40720    -999.25   73.59040   73.59040    -999.25   34.74500   34.74500   23.40720   36.05210    7.67260   36.29710 -105.28940  -59.95020   36.29710
 6450.00000    8.80750   54.04830   53.11270   18.82790    -999.25   77.99130   77.99130    -999.25   98.48790   98.48790   18.82790   11.02990    8.80750   20.99960  -48.83740   -3.94390   20.99960
 6500.00000    7.51330   29.73760   28.34070   35.28500    -999.25   74.43610   74.43610    -999.25   27.09630   27.09630   35.28500   35.45450    7.51330   46.02020 -128.49330  -84.04550   46.02020
 6550.00000    9.48170   47.96540   47.89590   20.87860    -999.25   65.80940   65.80940    -999.25   93.31320   93.31320   20.87860    9.07270    9.48170   19.85290  -54.77870  -10.77660   19.85290
 6600.00000    7.61260   65.96010   67.92280   14.72260    -999.25   75.11240   75.11240    -999.25   25.69440   25.69440   14.72260   10.15970    7.61260   25.89710 -133.99970  -90.44320   25.89710
 6650.00000   18.30460  154.29050  171.37960    5.83500    -999.25  158.31620  158.31620    -999.25   53.25180   53.25180    5.83500    4.31270   18.30460    7.15930  -51.05630   -7.94550    7.15930
 6700.00000    8.47220    5.84030    2.87710  347.57660    -999.25   82.15910   82.15910    -999.25  170.62650  170.62650  347.57660  575.03610    8.47220  219.12110  -62.94640  -20.28130  219.12110
 6750.00000    8.74180   13.48380   13.27110   75.35180    -999.25   87.39140   87.39140    -999.25  240.00150  240.00150   75.35180  814.83630    8.74180  159.52000  -96.43390  -54.21440  159.52000
 6800.00000    9.31920   37.38030   37.70330   26.52290    -999.25   63.62930   63.62930    -999.25   87.03740   87.03740   26.52290   30.89430    9.31920   27.12120  -90.12460  -48.35080   27.12120
 6850.00000    9.03910   49.01050   48.61330   20.57050    -999.25   65.79390   65.79390    -999.25   88.48530   88.48530   20.57050   12.92870    9.03910   21.44390  -75.43760  -34.10950   21.44390
 6900.00000    8.63030   31.92230   30.53270   32.75180    -999.25   60.05900   60.05900    -999.25   87.78850   87.78850   32.75180   40.36200    8.63030   33.36710  -69.22090  -28.33840   33.36710
 6950.00000    8.27010   25.94840   24.55870   40.71870    -999.25   61.12630   61.12630    -999.25   88.84640   88.84640   40.71870   33.05090    8.27010   39.09340  -62.83510  -22.39830   39.09340
 7000.00000    8.42660   22.73260   20.75800   48.17410    -999.25   59.53290   59.53290    -999.25   89.86460   89.86460   48.17410   54.76510    8.42660   47.76870  -65.15900  -25.16790   47.76870
 7050.00000    8.70800   14.34350   13.95300   71.66940    -999.25   61.62870   61.62870    -999.25   92.24310   92.24310   71.66940   52.19030    8.70800   46.10330  -62.42670  -22.88130   46.10330
 7100.00000    8.86470   11.70870    9.88100  101.20390    -999.25   61.81430   61.81430    -999.25  105.46150  105.46150  101.20390   65.91640    8.86470   48.51340  -56.70050  -17.60070   48.51340
 7150.00000    7.79260   44.80060   44.46620   22.48900    -999.25   56.81560   56.81560    -999.25   18.30350   18.30350   22.48900   58.77090    7.79260   63.55930 -167.20020 -128.54610   63.55930
 7200.00000    7.47920   39.54880   38.02340   26.29960    -999.25   68.58450   68.58450    -999.25   24.42610   24.42610   26.29960   13.50010    7.47920   41.14510 -143.60920 -105.40080   41.14510
 7250.00000    8.40560    8.32380    4.33760  230.54130    -999.25   43.70800   43.70800    -999.25   25.33390   25.33390  230.54130   82.15850    8.40560   77.84770  -98.79410  -61.03130   77.84770
