~Version ---------------------------------------------------
VERS.      2.0 : CWLS log ASCII Standard -VERSION 2.0
WRAP.       NO : One line per depth step
CREA. 08/23/13 : LAS Creation Date
~Well ------------------------------------------------------
STRT.m                      550.0 : START DEPTH
STOP.m                     3100.0 : STOP DEPTH
STEP.m                   50.00000 : STEP LENGTH
NULL.                     -999.25 : NULL VALUE
COMP. PARAMOUNT RESOURCES COMPANY : COMPANY
WELL.     PARA KAYBOB 16-15-63-19 : WELL
FLD .                             : FIELD
LOC .                             : LOCATION
CTRY.                      CANADA : COUNTRY
SRVC.                     Unknown : SERVICE COMPANY
DATE.                 19-Jul-2002 : LOGDATE
PROV.                     Alberta : PROVINCE
UWI .            100161506319W500 : UNIQUE WELL ID
SLAT.WGS84               54.45481 : SURFACE LATITUDE
SLON.WGS84              -116.7782 : SURFACE LONGITUDE
~Curve Information -----------------------------------------
DEPT    .m      : Depth meter
CALWS   .MM     : CALIPER [CALYSED]
CALXDED .MM     : CALIPER FROM X AXIS OF X-Y CALIPER(S) FROM FDC LOG
CALYDED .MM     : CALIPER FROM X AXIS OF X-Y CALIPER[S]
CALYSED .MM     : CALIPER Y FROM Y-AIX OF X-Y CALIPER (S)
CONDWS  .MMHO   : CONDUCTIVITY [1000/DRESWS]
CORRED  .KG/M3  : DENSITY CORRECTION FROM FDC LOG
DCORWS  .KG/M3  : DENSITY CORRECTION [DRHOED]
DENWS   .KG/M3  : BUCK DENSITY  M=2.65 F=1.0] [RHOZED]
DPOLSWS .V/V    : DENSITY POROSITY [M=2.71 F=1.0] [DENWS]
DPORLSED.V/V    : DENSITY POROSITY LIMESTONE
DPORSSED.V/V    : DENSITY POROSITY SANDSTONE
DRESWS  .OHMM   : DEEP RESISTIVITY [ILDED]
DTED    .US/M   : DELTA TIME FROM SONIC LOG
DTWS    .US/M   : DELTA TIME [DTED]
GRDED   .GAPI   : GAMMA RAY FROM FDC LOG
GRRED   .GAPI   : GAMMA RAY FROM RESISTIVITY LOG
GRSED   .GAPI   : GAMMA RAY FROM SONIC LOG
GRWS    .GAPI   : GAMMA RAY [GRRED]
ILDED   .OHMM   : INDUCTION LOG DEEP RESISTIVITY
ILMED   .OHMM   : INDUCTION MEDIUM RESISTIVITY
MRESWS  .OHMM   : SHALLOW LATERAL RESISTIVITY [ILMED]
NPOLSWS .V/V    : NEUTRON POROSITY[CONVERTED FROM [NPORSSED,SPLICED NPORLSED AT 1885 M]
NPORLSED.V/V    : ENCHANCED THERMAL NEUTRON POROSITY IN SELECTED LITHOLOGY SANDSTONE
NPORSSED.V/V    : NEUTRON POROSITY SANDSTONE FROM DENSITY LOG
PEFED   .B/E    : PHOTO ELECTROL LOG FROM FDC LOG
PEFWS   .B/E    : PHOTO ELECTROL [PEFED]
RHOBED  .KG/M3  : BUCK DENSITY FROM FDC LOG
SFLED   .OHMM   : SPHERICALLY FOCUSED LOG
SPRED   .MV     : SPONTANEOUS POTENTIAL FROM RESISTIVITY LOG
SPWS    .MV     : SPONTANEOUS POTENTIAL [BASELINE 0 MV] [SPRED]
SRESWS  .OHMM   : SHALLOW RESISTIVITY [SFLED]
TENDED  .N      : TENSION FROM FDC LOG
TENRED  .N      : TENSION FROM RESISTIVITY LOG
TENSED  .N      : TENSTION FROM SONIC LOG
~Params ----------------------------------------------------
PD  .                                   GL : PERMANENT DATUM
EPD .M                               777.4 : ELEVATION PERMANENT DATUM
LMF .                                   KB : LOG MEASURED FROM
DAPD.M                                5.25 : FEET ABOVE PERMANENT DATUM
DMF .                                   KB : DRILLING MEASURED FROM
EKB .M                              782.65 : KELLY BUSHING
EGL .M                               777.4 : GROUND LEVEL
DATE.                             07/19/02 : RUN DATE
RUN .                                    1 : RUN NUMBER
DD  .M                                3125 : DEPTH DRILLER
DL  .M                              3126.5 : DEPTH LOGGER
BLI .M                              3124.4 : BOTTOM LOG INTERVAL
TLI .M                                 537 : TOP LOG INTERVAL
CS  .MM                                219 : CASING SIZE
CBD .M                                 537 : CASING BOTTOM DRILLER
CBL .M                                 537 : CASING BOTTOM LOGGER
BS  .MM                                200 : BIT SIZE
BSD .M                                3125 : BIT SIZE AT DEPTH
DFT .                         GEL CHEMICAL : DRILLING FLUID TYPE
DFD .                                 1170 : DRILLING FLUID DENSITY
DFV .                                  120 : DRILLING FLUID VISCOSITY
DFPH.                                    9 : DRILLING FLUID PH
DFL .                                    8 : DRILLING FLUID LOSS
MSS .                             FLOWLINE : MUD SAMPLE SOURCE
RMS .OHMM                              1.3 : RESISTIVITY MUD SAMPLE
MST .DEGC                               23 : MUD SAMPLE TEMPERATURE
RMF .OHMM                              0.9 : RESISTIVITY MUD FILTRATE SAMPLE
MFST.DEGC                               23 : MUD FILTRATE SAMPLE TEMPERATURE
RMC .OHMM                              1.4 : RESISTIVITY MUD CAKE
MCST.DEGC                               21 : MUD CAKE SAMPLE TEMPERATURE
RMB .OHMM                              0.5 : RESISTIVITY MUD AT BHT
TCS .HRS                               5.5 : TIME CIRCULATED STOPPED
LUN .                                  384 : LOGGING UNIT NUMBER
LUL .                      GRAND PRAIRE OH : LOGGING UNIT LOCATION
ENGI.                                 KOCH : RECORDING ENGINEER
WITN.                               BREDIN : WITNESSED BY
CLNT.                              A2DTECH : CLIENT CODE
ORIG. 6.5"/100M 16.5"/100M 33"/100M  PRINT : ORIGIN OF DATA
UWI .                     100161506319W500 : UNIQUE WELL ID
DICO.               A2D Technologies, Inc. : DIGITIZING COMPANY
~Other -----------------------------------------------------
1. ALL CURVES APPEAR ON DEPTH, MUD DENSITY 1170 PPM.
~ASCII -----------------------------------------------------
  550.00000  305.88170  299.80090  202.36350  305.88170  243.28530  180.37790  180.37790 2302.33350    0.23840    -999.25    0.23810    4.11040  353.52560  353.52560   77.55810   79.51970   76.44070   79.51970    4.11040    3.47850    3.47850    0.38490    -999.25    0.38490    4.26290    4.26290 2302.33350    2.72010   43.52070   -9.70810    2.72010 8607.21230 7406.60170 7261.77830
  600.00000  294.55770  281.31040  200.11990  294.55770  193.42360  117.84350  117.84350 2387.98340    0.18830    -999.25    0.16650    5.17000  340.78450  340.78450   69.30320   70.11940   72.72150   70.11940    5.17000    4.47870    4.47870    0.32220    -999.25    0.32220    3.79570    3.79570 2387.98340    4.11480   52.92170   -2.48400    4.11480 8549.34940 7634.89020 7592.55520
  650.00000  235.86980  264.12800  219.33940  235.86980  228.00340   47.50010   47.50010 2343.58640    0.21430    -999.25    0.20620    4.38590  337.54880  337.54880   82.77520   84.87790   82.46950   84.87790    4.38590    3.89270    3.89270    0.35390    -999.25    0.35390    3.02620    3.02620 2343.58640    3.78960   52.80360   -2.84440    3.78960 9022.69130 7880.30970 8112.58030
  700.00000  288.60070  216.03050  207.54920  288.60070  239.98080   46.29720   46.29720 2295.25780    0.24250    -999.25    0.21460    4.16700  368.26530  368.26530   64.56470   60.02220   60.51220   60.02220    4.16700    3.36510    3.36510    0.46840    -999.25    0.46840    3.16700    3.16700 2295.25780    3.01980   52.60230   -3.04570    3.01980 8887.56680 8299.73120 8342.21710
  750.00000  242.63310  200.37180  241.03790  242.63310  182.16930   63.17730   63.17730 2406.45210    0.17750    -999.25    0.13700    5.48940  319.81480  319.81480   49.84940   48.95970   49.71520   48.95970    5.48940    5.02640    5.02640    0.37530    -999.25    0.37530    3.25700    3.25700 2406.45210    6.00700   52.79690   -2.85110    6.00700 9668.95570 8251.99020 8401.05950
  800.00000  228.72500  201.63560  227.27840  228.72500  161.00210   32.14300   32.14300 2373.91530    0.19650    -999.25    0.17690    6.21110  296.78530  296.78530   42.38940   44.67510   44.49160   44.67510    6.21110    5.92820    5.92820    0.30690    -999.25    0.30690    3.06090    3.06090 2373.91530    6.89240   51.80720   -3.84080    6.89240 9930.54710 8786.46010 8536.54520
  850.00000  263.37450  200.61270  262.72600  263.37450  217.58520   61.21690   61.21690 2384.24980    0.19050    -999.25    0.12800    4.59590  314.98670  314.98670   65.03280   65.52310   67.21330   65.52310    4.59590    4.19540    4.19540    0.41600    -999.25    0.41600    3.05560    3.05560 2384.24980    5.50120   53.54840   -2.09960    5.50120 10149.84040 8813.13520 8594.62430
  900.00000  257.74080  198.37770  256.77240  257.74080  186.74140   43.59270   43.59270 2472.99220    0.13860    -999.25    0.10560    5.35500  331.51100  331.51100   72.52330   67.70660   67.72160   67.70660    5.35500    5.06100    5.06100    0.41970    -999.25    0.41970    3.73930    3.73930 2472.99220    5.09850   52.38580   -3.26220    5.09850 10437.74140 9227.57200 9031.03660
  950.00000  268.28160  201.86550  268.38480  268.28160  131.65340   65.14940   65.14940 2371.35330    0.19800    -999.25    0.16830    7.59570  311.34380  311.34380   84.34300   90.57930   87.43690   90.57930    7.59570    7.23710    7.23710    0.36390    -999.25    0.36390    3.22350    3.22350 2371.35330    7.25660   51.55330   -4.09470    7.25660 10646.80200 9546.61440 9565.00470
 1000.00000  221.63470  209.13140  243.87430  221.63470   99.77250  254.54880  254.54880 2523.09690    0.10930    -999.25    0.09070   10.02280  285.37040  285.37040   84.80360   88.68290   88.49950   88.68290   10.02280    9.73720    9.73720    0.30400    -999.25    0.30400    3.99200    3.99200 2523.09690   11.03910   50.11010   -5.53790   11.03910 10871.57330 9890.96510 9796.38300
 1050.00000  307.30890  261.23370  249.70890  307.30890  114.76840  325.09420  325.09420 2353.57030    0.20840    -999.25    0.23040    8.71320  286.35130  286.35130   82.93460   82.00970   83.80480   82.00970    8.71320    8.15670    8.15670    0.38350    -999.25    0.38350    3.35540    3.35540 2353.57030    7.33400   49.88870   -5.75930    7.33400 11303.98230 9912.56340 9855.04480
 1100.00000  371.64900  261.63390  280.22760  371.64900  148.11740  247.74400  247.74400 2333.05100    0.22040    -999.25    0.21910    6.75140  300.75130  300.75130   80.92390   93.28990   94.36540   93.28990    6.75140    6.20780    6.20780    0.43460    -999.25    0.43460    2.40870    2.40870 2333.05100    6.03980   51.34620   -4.38930    6.03980 11549.62190 10506.30980 10276.22910
 1150.00000  275.86950  207.94010  253.88090  275.86950  105.43180  168.64480  168.64480 2503.77420    0.12060    -999.25    0.09280    9.48480  281.99800  281.99800   89.92550   90.93430   90.49270   90.93430    9.48480    9.07790    9.07790    0.33490    -999.25    0.33490    2.69330    2.69330 2503.77420    8.52840   50.81900   -5.79170    8.52840 11778.30240 10967.39640 10999.81690
 1200.00000  309.70450  221.41400  253.81760  309.70450  113.73070  195.79430  195.79430 2412.70140    0.17390    -999.25    0.14530    8.79270  278.78640  278.78640   91.85460   96.52460   96.40000   96.52460    8.79270    8.22430    8.22430    0.34820    -999.25    0.34820    3.45540    3.45540 2412.70140    7.97690   52.54980   -4.93600    7.97690 12240.76220 11120.88770 11219.85700
 1250.00000  229.23570  200.29170  251.33030  229.23570  116.78700   99.63370   99.63370 2525.29390    0.10800    -999.25    0.07890    8.56260  305.53170  305.53170  114.55960  107.29260  108.26720  107.29260    8.56260    8.31910    8.31910    0.36570    -999.25    0.36570    4.05870    4.05870 2525.29390    9.31190   54.81870   -3.54230    9.31190 12393.46650 11255.70480 11343.19870
 1300.00000  215.54590  209.94700  192.10560  215.54590  108.06960   46.68050   46.68050 2510.31670    0.11680    -999.25    0.07840    9.25330  302.12210  302.12210  115.30990  121.89650  122.18320  121.89650    9.25330    9.04670    9.04670    0.37520    -999.25    0.37520    4.08620    4.08620 2510.31670   10.83390   55.22410   -4.01200   10.83390 12573.66530 11073.43940 11068.63170
 1350.00000  242.67990  224.35840  227.86000  242.67990  162.83730  166.76880  166.76880 2534.65190    0.10250    -999.25    0.06880    6.14110  289.50790  289.50790   92.16020   91.36990   90.15470   91.36990    6.14110    6.00080    6.00080    0.33010    -999.25    0.33010    3.08060    3.08060 2534.65190    6.23680   54.75750   -5.35380    6.23680 12981.91860 11435.23330 11437.92980
 1400.00000  248.69460  237.27950  202.87790  248.69460  124.68210  174.05440  174.05440 2552.74290    0.09200    -999.25    0.05600    8.02040  280.65730  280.65730   94.82570   94.84610   94.16420   94.84610    8.02040    7.74190    7.74190    0.31100    -999.25    0.31100    3.85690    3.85690 2552.74290    8.21890   55.99690   -4.98960    8.21890 13650.90890 11924.19110 11889.98030
 1450.00000  281.08250  267.50560  221.52020  281.08250  186.09500  203.97420  203.97420 2443.13110    0.15610    -999.25    0.13590    5.37360  303.65750  303.65750  104.28940  106.50660  106.80430  106.50660    5.37360    5.21900    5.21900    0.39130    -999.25    0.39130    3.98290    3.98290 2443.13110    6.13130   59.64740   -2.21420    6.13130 14062.74310 12299.41330 12271.97760
 1500.00000  240.33940  223.72280  264.67410  240.33940  220.11890   80.50520   80.50520 2512.49460    0.11550    -999.25    0.08210    4.54300  287.01190  287.01190   96.29160   98.88280  100.26200   98.88280    4.54300    4.37340    4.37340    0.30870    -999.25    0.30870    3.45440    3.45440 2512.49460    5.09680   59.81160   -3.45500    5.09680 14632.57050 12476.85770 12504.51010
 1550.00000  207.78120  203.44280  208.54020  207.78120   99.79140    7.79640    7.79640 2606.02370    0.06080    -999.25    0.03540   10.02090  233.65720  233.65720   68.59940   70.05540   69.48130   70.05540   10.02090   10.48530   10.48530    0.26310    -999.25    0.26310    2.91550    2.91550 2606.02370   12.63930   59.50190   -5.62090   12.63930 13877.74860 12772.77390 12827.97630
