~Version ---------------------------------------------------
VERS. 2.0 : CWLS log ASCII Standard -VERSION 2.0
WRAP.  NO : ONE LINE PER DEPTH STEP
~Well ------------------------------------------------------
STRT.M                             300.0 : START DEPTH
STOP.M                            3600.0 : STOP DEPTH
STEP.M                          50.00000 : STEP LENGTH
NULL.                            -999.25 : NULL VALUE
COMP.             EXXONMOBIL CANADA LTD. : COMPANY
WELL. MOBIL ET AL PEMBINA 11-27-49-8 #11 : WELL
FLD .                                    : FIELD
LOC .                                    : LOCATION
CTRY.                             CANADA : COUNTRY
SRVC.                      Dresser Atlas : SERVICE COMPANY
DATE.                        27-May-1980 : LOGDATE
PROV.                            Alberta : PROVINCE
UWI .                   100112704908W500 : UNIQUE WELL ID
SLAT.WGS84                      53.26067 : SURFACE LATITUDE
SLON.WGS84                     -115.0887 : SURFACE LONGITUDE
~Curve Information -----------------------------------------
DEPT    .M      : DEPTH METERS
ACED    .US/M   : DELTA TIME (ACOUSTIC) FROM SONIC LOG [DEP ADJ TO ILDED]
BITED   .MM     : BIT SIZE FROM LOG HEADER
CALDED  .MM     : CALIPER FROM DENSITY LOG [DEP ADJ TO GRSED]
CALSED  .MM     : CALIPER FROM SONIC LOG [DEP ADJ TO ILDED]
CALWS   .MM     : CALIPER [0 CALSED 781.2 CALDED 1001.4 CALSED 1144 CALDED 1320.9 CALSED 1900.1 CALDED 1977.1 CALSED 2023.6 CALDED 2082.1 CALSED 3535.3 CALDED]
CONDWS  .MMHO   : CONDUCTIVITY [1000/DRESWS]
CORRED  .KG/M3  : DENSITY CORRECTION FROM DENSITY LOG [DEP ADJ TO GRSED]
DCORWS  .KG/M3  : DENSITY CORRECTION [CORRED]
DENWS   .KG/M3  : BULK DENSITY [M=2710 F=1000 ASSUMED] [RHOBED]
DPHILSED.V/V    : DENSITY POROSITY [M=2710 F=1000 ASSUMED] FROM DENSITY LOG [DEP ADJ TO GRSED]
DPHISSED.V/V    : DENSITY POROSITY [M=2650 F=1000 ASSUMED] FROM DENSITY LOG [DEP ADJ TO GRSED]
DPOLSWS .V/V    : DENSITY POROSITY [M=2710 F=1000 ASSUMED] [CAL. FROM DENWS]
DRESWS  .OHMM   : DEEP RESISTIVITY [ILDED]
DTWS    .US/M   : DELTA TIME [ACED]
GRDED   .GAPI   : GAMMA RAY FROM DENSITY LOG [DEP ADJ TO GRSED]
GRSED   .GAPI   : GAMMA RAY FROM SONIC LOG [DEP ADJ TO ILDED]
GRWS    .GAPI   : GAMMA RAY [0 GRDED 1693.6 GRSED 1751.1 GRDED 1986.7 GRSED 1993.7 GRDED]
ILDED   .OHMM   : INDUCTION LOG DEEP RESISTIVITY
ILMED   .OHMM   : INDUCTION LOG MEDIUM RESISTIVITY
MRESWS  .OHMM   : MEDIUM RESISTIVITY [ILMED]
NPHILSED.V/V    : NEUTRON POROSITY LIMESTONE FROM DENSITY LOG [DEP ADJ TO GRSED]
NPHISSED.V/V    : NEUTRON POROSITY SANDSTONE FROM DENSITY LOG [DEP ADJ TO GRSED]
NPOLSWS .V/V    : NEUTRON POROSITY LIMESTONE [0 NPOLSCAL 2001.2 NPHILSED] [NPOLSCAL IS COMPUTED FROM NPHISSED USING POWERLOG MODULE]
RHOBED  .KG/M3  : BULK DENSITY FROM DENSITY LOG [DEP ADJ TO GRSED]
SFLED   .OHMM   : SPHERICALLY FOCUSED LOG RESISTIVITY
SPRED   .MV     : SPONTANEOUS POTENTIAL FROM RESISTIVITY LOG [SHIFTS ARE REMOVED]
SPWS    .MV     : SPONTANEOUS POTENTIAL [BASELINE 0 MV] [SPRED]
SRESWS  .OHMM   : SHALLOW RESISTIVITY [SFLED]
TENDED  .N      : TENSION FROM DENSITY LOG [DEP ADJ TO GRSED]
TENSED  .N      : TENSION FROM SONIC LOG [DEP ADJ TO ILDED]
~Params ----------------------------------------------------
PD  .                         GL : PERMANENT DATUM
EPD .FT                    869.6 : ELEVATION PERMANENT DATUM
LMF .                         KB : LOG MEASURED FROM
DAPD.FT                     5.15 : FEET ABOVE PERMANENT DATUM
DMF .                         KB : DRILLING MEASURED FROM
EKB .FT                   874.75 : KELLY BUSHING
EGL .FT                    869.6 : GROUND LEVEL
DATE.                   05/27/80 : RUN DATE
RUN .                          1 : RUN NUMBER
DD  .FT                     3590 : DEPTH DRILLER
DL  .FT                   3590.6 : DEPTH LOGGER
BLI .FT                     3590 : BOTTOM LOG INTERVAL
TLI .FT                      510 : TOP LOG INTERVAL
CS  .IN                      245 : CASING SIZE
CBD .FT                   511.82 : CASING BOTTOM DRILLER
CBL .FT                      510 : CASING BOTTOM LOGGER
BS  .IN                      222 : BIT SIZE
BSD .FT                     3590 : BIT SIZE AT DEPTH
DFT .                  GEL BENEX : DRILLING FLUID TYPE
DFD .                       1200 : DRILLING FLUID DENSITY
DFV .                         82 : DRILLING FLUID VISCOSITY
DFPH.                       10.5 : DRILLING FLUID PH
DFL .                          8 : DRILLING FLUID LOSS
MSS .                       CIRC : MUD SAMPLE SOURCE
RMS .OHMM                    1.5 : RESISTIVITY MUD SAMPLE
MST .DEGF                     26 : MUD SAMPLE TEMPERATURE
RMF .OHMM                    1.3 : RESISTIVITY MUD FILTRATE SAMPLE
MFST.DEGF                     21 : MUD FILTRATE SAMPLE TEMPERATURE
RMC .OHMM                    1.9 : RESISTIVITY MUD CAKE
MCST.DEGF                     21 : MUD CAKE SAMPLE TEMPERATURE
MFSS.                       MEAS : MUD FILTRATE SAMPLE SOURCE
MCSS.                       MEAS : MUD CAKE SAMPLE SOURCE
RMB .OHMM                   0.73 : RESISTIVITY MUD AT BHT
TCS .HRS                      11 : TIME CIRCULATED STOPPED
LUN .                    HL 6214 : LOGGING UNIT NUMBER
LUL .                        EDM : LOGGING UNIT LOCATION
ENGI.                     BRODDY : RECORDING ENGINEER
WITN.              DICKIE LEPAGE : WITNESSED BY
CLNT.                    A2DTECH : CLIENT CODE
ORIG. 6.5"/100M 16.5"/100M PRINT : ORIGIN OF DATA
UWI .           100112704908W500 : UNIQUE WELL ID
DICO.     A2D Technologies, Inc. : DIGITIZING COMPANY
~Other -----------------------------------------------------
~ASCII -----------------------------------------------------
# ...
 2700.00000  259.17490  222.00000  339.78250  348.91320  348.91320  161.29290   56.12090   56.12090 2226.53440    0.28560    -999.25    0.28270    6.19990  259.17490   77.04690   89.18100   77.04690    6.19990    5.80040    5.80040    0.35240    -999.25    0.35240 2226.53440    7.88980 -102.19550  -23.18890    7.88980 1031.91310 1091.25680
 2750.00000  220.25070  222.00000  253.97730  259.28760  259.28760   67.33050  -51.39310  -51.39310 2166.49370    0.32640    -999.25    0.31780   14.85210  220.25070   60.89200   79.87300   60.89200   14.85210   13.13240   13.13240    0.22500    -999.25    0.22500 2166.49370   15.24350  -91.09590   -8.58640   15.24350 1296.60440 1105.33980
 2800.00000  270.43720  222.00000  293.06520  316.41560  316.41560  130.89350  133.26330  133.26330 2203.27100    0.29100    -999.25    0.29630    7.63980  270.43720   86.20580   94.47610   86.20580    7.63980    5.80990    5.80990    0.36470    -999.25    0.36470 2203.27100   13.15290  -97.94190  -14.32640   13.15290 1403.88870 1114.11040
 2850.00000  171.99230  222.00000  254.25290  281.14770  281.14770   21.71440   25.65220   25.65220 2618.62700    0.03940    -999.25    0.05340   46.05240  171.99230   27.05920   35.59150   27.05920   46.05240   32.66880   32.66880    0.08790    -999.25    0.08790 2618.62700   41.50790  -93.67930  -10.30600   41.50790 1143.82130 1057.04100
 2900.00000  186.56210  222.00000  253.72770  281.03590  281.03590   32.26770   21.60870   21.60870 2650.58370    0.02200    -999.25    0.03470   30.99070  186.56210   46.31340   41.76760   46.31340   30.99070   24.59650   24.59650    0.13310    -999.25    0.13310 2650.58370   36.70540  -88.87230   -5.73880   36.70540 1064.58500 1077.31350
 2950.00000  233.49910  222.00000  290.35210  306.17990  306.17990  127.47460  114.60440  114.60440 2166.49830    0.32520    -999.25    0.31780    7.84470  233.49910   67.91400   79.50050   67.91400    7.84470    7.82410    7.82410    0.26550    -999.25    0.26550 2166.49830   12.09040  -95.74430  -12.84650   12.09040 1097.00290 1058.52730
 3000.00000  170.28170  222.00000  264.95000  277.60380  277.60380   11.98480   28.16530   28.16530 2618.43950    0.03560    -999.25    0.05350   83.43920  170.28170   30.63400   40.26250   30.63400   83.43920   81.20070   81.20070    0.08470    -999.25    0.08470 2618.43950  170.95920  -87.98580   -5.69170  170.95920 1181.84860 1073.73140
 3050.00000  201.01540  222.00000  240.47250  256.41560  256.41560   78.85880   20.39080   20.39080 2637.50900    0.02670    -999.25    0.04240   12.68090  201.01540   86.88600  100.00810   86.88600   12.68090   11.64760   11.64760    0.21320    -999.25    0.21320 2637.50900   33.15890 -114.06040  -37.57650   33.15890 1146.18360 1047.01660
 3100.00000  174.02540  222.00000  235.40080  248.90120  248.90120   15.64390   60.42310   60.42310 2662.98100    0.01220    -999.25    0.02750   63.92260  174.02540   86.84160  103.99690   86.84160   63.92260   57.30410   57.30410    0.17460    -999.25    0.17460 2662.98100   70.31330  -89.97110  -19.11260   70.31330 1087.02440 1104.72360
 3150.00000  191.62170  222.00000  237.16570  233.22460  233.22460  166.97840   87.43040   87.43040 2510.35420    0.09740    -999.25    0.11680    5.98880  191.62170  101.96830   99.39020  101.96830    5.98880   10.97360   10.97360    0.17650    -999.25    0.17650 2510.35420   41.14490 -182.75450 -116.36630   41.14490 1051.15720 1092.59770
 3200.00000  255.84140  222.00000  285.34030  292.17470  292.17470  128.21660   81.75430   81.75430 2348.92260    0.24400    -999.25    0.21120    7.79930  255.84140   85.90640  101.62180   85.90640    7.79930    6.56620    6.56620    0.20270    -999.25    0.20270 2348.92260   15.49750  -93.16800  -29.90920   15.49750 1188.26170 1079.31740
 3250.00000  213.61170  222.00000  252.05930  256.37190  256.37190   39.62910   64.75580   64.75580 2495.44210    0.11150    -999.25    0.12550   25.23400  213.61170  113.80980  139.43520  113.80980   25.23400   27.39560   27.39560    0.14450    -999.25    0.14450 2495.44210   57.44870  -89.76300  -32.40160   57.44870 1061.84960 1132.70900
 3300.00000  291.80480  222.00000  270.68150  291.83250  291.83250  229.61060  133.27890  133.27890 2172.80860    0.31530    -999.25    0.31410    4.35520  291.80480  102.89350  141.26470  102.89350    4.35520    3.94010    3.94010    0.40760    -999.25    0.40760 2172.80860    8.17400  -81.94880  -32.45410    8.17400 1114.84770 1037.81450
 3350.00000  160.40810  222.00000  249.97320  250.46510  250.46510   13.36500  135.96490  135.96490 2669.81400    0.01870    -999.25    0.02350   74.82220  160.40810   16.34360   22.57910   16.34360   74.82220   70.57550   70.57550    0.08140    -999.25    0.08140 2669.81400  160.02290  -59.20070  -17.57270  160.02290 1081.84690 1076.81740
 3400.00000  258.68020  222.00000  246.72900  262.44660  262.44660  141.16720   -1.44040   -1.44040 1638.15210    0.64410    -999.25    0.62680    7.08380  258.68020   96.23420  110.92460   96.23420    7.08380    5.05510    5.05510    0.41630    -999.25    0.41630 1638.15210    7.66630  -58.46460  -14.82670    7.66630 1130.00500 1059.08790
 3450.00000  235.42970  222.00000  296.87440  321.39530  321.39530  123.84050  114.41250  114.41250 2065.19090    0.36320    -999.25    0.37710    8.07490  235.42970  104.18840  120.29720  104.18840    8.07490    4.65360    4.65360    0.45060    -999.25    0.45060 2065.19090   12.51560  -89.60300  -44.80230   12.51560  985.59770 1057.51760
 3500.00000  251.02380  222.00000  291.32600  281.12180  281.12180   76.23690  135.07180  135.07180 2234.64530    0.27520    -999.25    0.27800   13.11700  251.02380  116.31890  147.27620  116.31890   13.11700    9.57600    9.57600    0.44220    -999.25    0.44220 2234.64530   22.06020  -63.19150  -18.63590   22.06020 1018.12600 1067.55550
 3550.00000  201.19560  222.00000  224.43610  231.09360  224.43610  135.51790   55.02000   55.02000 2544.18070    0.08980    -999.25    0.09700    7.37910  201.19560   23.69520   32.83690   23.69520    7.37910    8.76570    8.76570    0.11100    -999.25    0.11100 2544.18070   25.77800 -108.37890  -48.99030   25.77800 1093.30920 1119.05270
 3600.00000    -999.25    -999.25    -999.25    -999.25    -999.25    -999.25    -999.25    -999.25    -999.25    -999.25    -999.25    -999.25    -999.25    -999.25    -999.25    -999.25    -999.25    -999.25    -999.25    -999.25    -999.25    -999.25    -999.25    -999.25    -999.25    -999.25    -999.25    -999.25    -999.25    -999.25
