~Version ---------------------------------------------------
VERS.      2.0 : CWLS log ASCII Standard -VERSION 2.0
WRAP.       NO : One line per depth step
CREA. 07/14/14 : LAS Creation Date
~Well ------------------------------------------------------
STRT.M                         450.0 : START DEPTH
STOP.M                        3000.0 : STOP DEPTH
STEP.M                      50.00000 : STEP LENGTH
NULL.                        -999.25 : NULL VALUE
COMP.              SABINE CANADA LTD : COMPANY
WELL. SABINE SUN ET AL KAYBOB 6-24-6 : WELL
FLD .                                : FIELD
LOC .                                : LOCATION
CTRY.                         CANADA : COUNTRY
SRVC.         Schlumberger of Canada : SERVICE COMPANY
DATE.                    27-Mar-1979 : LOGDATE
PROV.                        Alberta : PROVINCE
UWI .               100062406517W500 : UNIQUE WELL ID
SLAT.WGS84                  54.63663 : SURFACE LATITUDE
SLON.WGS84                 -116.4342 : SURFACE LONGITUDE
~Curve Information -----------------------------------------
DEPT    .M      : DEPTH METER
CALDED  .MM     : CALIPER FROM DENSITY LOG [ADJ. TO RESISTIVITY LOG]
CALSED  .MM     : CALIPER FROM SONIC LOG [ADJ. TO RESISTIVITY LOG]
CALWS   .MM     : CALIPER [CALDED]
CONDWS  .MMHO   : CONDUCTIVITY [1000/DRESWS]
DCORWS  .KG/M3  : DENSITY CORRECTION [DRHOED]
DENWS   .KG/M3  : FORMATION BULK DENSITY [CALC. FROM DPOLSWS,M=2710,F=1000]
DPHILSED.V/V    : DENSITY POROSITY LIMESTONE [M=2710,F=1000] FROM DENSITY LOG [ADJ. TO RESISTIVITY LOG]
DPHISSED.V/V    : DENSITY POROSITY SANDSTONE [M=2650,F=1000] FROM DENSITY LOG [ADJ. TO RESISTIVITY LOG]
DPOLSWS .V/V    : DENSITY POROSITY LIMESTONE [DPHISSED CONVERTED TO LIMESTONE MATRIX,M=2710,F=1000,SPL. TO DPHILSED @ 1773M]
DRESWS  .OHMM   : DEEP RESISTIVITY [ILDED]
DRHOED  .KG/M3  : DENSITY CORRECTION FROM DENSITY LOG [ADJ. TO RESISTIVITY LOG]
DTED    .US/M   : DELTA-T FROM SONIC LOG [ADJ. TO RESISTIVITY LOG]
DTWS    .US/M   : COMPRESSIONAL SONIC [DTED]
GRDED   .GAPI   : GAMMA RAY FROM DENSITY LOG [ADJ. TO RESISTIVITY LOG]
GRSED   .GAPI   : GAMMA RAY FROM SONIC LOG [ADJ. TO RESISTIVITY LOG]
GRWS    .GAPI   : GAMMA RAY [GRSED SPL. TO GRDED @ 447M]
ILDED   .OHMM   : DEEP INDUCTION RESISTIVITY FROM RESISTIVITY LOG
ILMED   .OHMM   : MEDIUM INDUCTION RESISTIVITY FROM RESISTIVITY LOG
MRESWS  .OHMM   : MEDIUM RESISTIVITY [ILMED]
NPHILSED.V/V    : NEUTRON POROSITY LIMESTONE FROM DENSITY LOG [ADJ. TO RESISTIVITY LOG]
NPHISSED.V/V    : NEUTRON POROSITY SANDSTONE FROM DENSITY LOG [ADJ. TO RESISTIVITY LOG]
NPOLSWS .V/V    : NEUTRON POROSITY LIMESTONE [NPHISSED MATRIX CONVERSION FOR LIMESTONE,SPL. TO NPHILSED @1775M]
SFLED   .OHMM   : SHALLOW FOCUSED RESISTIVITY FROM RESISTIVITY LOG
SPRED   .MV     : SPONTANEOUS POTENTIAL FROM RESISTIVITY LOG
SPWS    .MV     : SPONTANEOUS POTENTIAL [BASELINE 0 MV,SPRED]
SRESWS  .OHMM   : SHALLOW RESISTIVITY [SFLED]
~Params ----------------------------------------------------
PD  .                         GL : PERMANENT DATUM
EPD .M                     945.3 : ELEVATION PERMANENT DATUM
LMF .                         KB : LOG MEASURED FROM
DAPD.M                      5.05 : FEET ABOVE PERMANENT DATUM
DMF .                         KB : DRILLING MEASURED FROM
EKB .M                    950.35 : KELLY BUSHING
EGL .M                     945.3 : GROUND LEVEL
DATE.                   03/27/79 : RUN DATE
RUN .                          1 : RUN NUMBER
DD  .M                    3007.5 : DEPTH DRILLER
DL  .M                    3006.2 : DEPTH LOGGER
BLI .M                      3005 : BOTTOM LOG INTERVAL
TLI .M                       449 : TOP LOG INTERVAL
CS  .MM                      244 : CASING SIZE
CBD .M                       449 : CASING BOTTOM DRILLER
CBL .M                       449 : CASING BOTTOM LOGGER
BS  .M                       222 : BIT SIZE
BSD .M                    3007.5 : BIT SIZE AT DEPTH
DFT .                   GEL CHEM : DRILLING FLUID TYPE
DFD .                       1130 : DRILLING FLUID DENSITY
DFV .                         11 : DRILLING FLUID VISCOSITY
DFPH.                        9.5 : DRILLING FLUID PH
DFL .                         10 : DRILLING FLUID LOSS
MSS .                CIRCULATION : MUD SAMPLE SOURCE
RMS .OHMM                   1.66 : RESISTIVITY MUD SAMPLE
MST .DEGC                   17.5 : MUD SAMPLE TEMPERATURE
RMF .OHMM                   1.36 : RESISTIVITY MUD FILTRATE SAMPLE
MFST.DEGC                   16.7 : MUD FILTRATE SAMPLE TEMPERATURE
MFSS.                      PRESS : MUD FILTRATE SAMPLE SOURCE
TCS .HRS                    1945 : TIME CIRCULATED STOPPED
TLAB.HRS                     630 : TIME LOGGER AT BOTTOM
LUN .                       7772 : LOGGING UNIT NUMBER
LUL .                         ED : LOGGING UNIT LOCATION
ENGI.                     KESTER : RECORDING ENGINEER
WITN.                    TAXBOCK : WITNESSED BY
CLNT.                    A2DTECH : CLIENT CODE
ORIG. 6.5"/100M 16.5"/100M PRINT : ORIGIN OF DATA
UWI .           100062406517W500 : UNIQUE WELL ID
DICO.     A2D Technologies, Inc. : DIGITIZING COMPANY
~Other -----------------------------------------------------
DIL-BHC-CNFD LOG RAN.
BHC: ALL DATA VERIFIED FROM SMALL SCALE @ 435M TO 1390M
~ASCII -----------------------------------------------------
# ...
 1800.00000  238.46780  274.55140  238.46780   18.05060  -21.08310 2434.43350    0.16110    0.14640    0.16110   55.39970  -21.08310  271.25990  271.25990  212.68500  222.48500  212.68500   55.39970  122.52100  122.52100    0.24400    0.32380    0.24400 1536.26030   -4.06460  -40.84690 1536.26030
 1850.00000  240.31600  266.08650  240.31600   23.59860    5.15320 2699.91100    0.00590    -999.25    0.00590   42.37540    5.15320  162.90250  162.90250   29.92120   28.85360   29.92120   42.37540   56.77690   56.77690    0.01320    -999.25    0.01320  378.80120   -2.20480  -36.09300  378.80120
 1900.00000  232.33400  266.43630  232.33400   68.00640   25.30930 2761.12900   -0.02990    -999.25   -0.02990   14.70450   25.30930  165.26960  165.26960   17.52220   22.94620   17.52220   14.70450   41.65100   41.65100    0.03710    -999.25    0.03710  220.95000  -27.18450  -58.17870  220.95000
 1950.00000  236.87000  272.57440  236.87000   99.36310   61.16510 2646.21700    0.03730    -999.25    0.03730   10.06410   61.16510  184.72890  184.72890   17.67580   16.00000   17.67580   10.06410   17.02630   17.02630    0.09940    -999.25    0.09940   40.23470  -98.45470 -126.55480   40.23470
 2000.00000  242.06110  290.72040  242.06110  127.71230    4.26790 2627.57800    0.04820    -999.25    0.04820    7.83010    4.26790  192.52040  192.52040   67.40660   71.51900   67.40660    7.83010    8.34590    8.34590    0.12180    -999.25    0.12180   15.21430    7.90840  -17.29770   15.21430
 2050.00000  265.29760  299.69420  265.29760   12.91570   31.79840 2646.55900    0.03710    -999.25    0.03710   77.42510   31.79840  172.91570  172.91570   10.23860   10.09200   10.23860   77.42510   93.02480   93.02480    0.02170    -999.25    0.02170  267.29770  -66.13370  -88.44570  267.29770
 2100.00000  224.09300  249.43240  224.09300   11.05810   21.29470 2682.12700    0.01630    -999.25    0.01630   90.43180   21.29470  177.11170  177.11170   28.86880   26.94170   28.86880   90.43180  100.71680  100.71680    0.03710    -999.25    0.03710  155.24990   -9.92830  -29.34620  155.24990
 2150.00000  241.32000  273.43440  241.32000   23.18050    8.83740 2606.37400    0.06060    -999.25    0.06060   43.13970    8.83740  237.13460  237.13460  104.71210   96.78020  104.71210   43.13970   38.52080   38.52080    0.16990    -999.25    0.16990   43.33860   15.84920   -1.55410   43.33860
 2200.00000  263.76750  281.08800  263.76750    5.07140   19.58550 2711.71000   -0.00100    -999.25   -0.00100  197.18310   19.58550  168.26450  168.26450   16.38400   16.62340   16.38400  197.18310  221.83250  221.83250    0.00620    -999.25    0.00620  327.36410  -72.51750  -98.02010  327.36410
 2250.00000  247.56530  261.83490  247.56530    3.96000   24.00870 2722.82500   -0.00750    -999.25   -0.00750  252.52430   24.00870  158.87750  158.87750    9.99870   10.05570    9.99870  252.52430  232.87270  232.87270    0.00580    -999.25    0.00580 1048.77840  -76.27230 -109.87420 1048.77840
 2300.00000  253.42400  277.45310  253.42400   15.84610   22.35480 2682.29800    0.01620    -999.25    0.01620   63.10710   22.35480  162.81140  162.81140    8.85630    7.70420    8.85630   63.10710   51.82530   51.82530    0.01660    -999.25    0.01660   98.25280 -105.67300 -147.37420   98.25280
 2350.00000  241.37590  268.29350  241.37590   12.52590   31.86400 2681.10100    0.01690    -999.25    0.01690   79.83430   31.86400  160.67290  160.67290    9.01130   12.46710    9.01130   79.83430   94.03490   94.03490    0.04100    -999.25    0.04100  221.40170 -112.32070 -162.12120  221.40170
 2400.00000  229.07650  266.29070  229.07650   85.54540   16.12300 2772.75700   -0.03670    -999.25   -0.03670   11.68970   16.12300  160.06040  160.06040   30.94330   36.44130   30.94330   11.68970   15.63970   15.63970    0.07750    -999.25    0.07750   53.11780  -59.79980 -117.69960   53.11780
 2450.00000  230.40350  245.58680  230.40350    8.85140   14.36180 2708.63200    0.00080    -999.25    0.00080  112.97610   14.36180  165.84230  165.84230   27.66920   28.82610   27.66920  112.97610  212.13870  212.13870    0.02170    -999.25    0.02170  422.27700  -39.43720 -105.43630  422.27700
 2500.00000  244.18450  264.69450  244.18450    3.97410  101.12470 2686.91500    0.01350    -999.25    0.01350  251.63160  101.12470  168.00010  168.00010    7.72420    9.32970    7.72420  251.63160  157.48430  157.48430    0.01160    -999.25    0.01160  417.96720  -45.95390 -120.05230  417.96720
 2550.00000  250.74770  259.08230  250.74770  112.69890    8.01560 2669.30200    0.02380    -999.25    0.02380    8.87320    8.01560  214.63720  214.63720   65.86510   65.43120   65.86510    8.87320    8.72960    8.72960    0.15160    -999.25    0.15160   10.95630   69.99980   -4.11630   10.95630
 2600.00000  375.00000  375.00000  375.00000  214.54620  115.39450 1940.50000    0.45000    -999.25    0.45000    4.66100  115.39450  256.21050  256.21050   72.69640   84.03650   72.69640    4.66100    4.21770    4.21770    0.44620    -999.25    0.44620    5.02910   22.94210  -40.82220    5.02910
 2650.00000  355.49560  367.22270  355.49560  165.34390  204.00430 2223.16300    0.28470    -999.25    0.28470    6.04800  204.00430  251.55410  251.55410   72.54860   83.50370   72.54860    6.04800    5.64770    5.64770    0.39040    -999.25    0.39040    7.24430  -17.45280  -70.86540    7.24430
 2700.00000  253.64760  289.85520  253.64760   99.46390   33.95290 2684.69200    0.01480    -999.25    0.01480   10.05390   33.95290  219.09380  219.09380   75.44360   83.09530   75.44360   10.05390   10.21160   10.21160    0.18690    -999.25    0.18690   12.91770  -75.55080 -118.61160   12.91770
 2750.00000  281.61370  279.72270  281.61370  156.22560  156.03670 2542.42000    0.09800    -999.25    0.09800    6.40100  156.03670  245.89140  245.89140   98.89150  109.87450   98.89150    6.40100    6.71530    6.71530    0.27710    -999.25    0.27710    8.33670  -52.18140  -84.89040    8.33670
 2800.00000  225.13950  244.58390  225.13950    7.96890   13.70170 2507.19400    0.11860    -999.25    0.11860  125.48750   13.70170  242.93940  242.93940  116.70480  124.04120  116.70480  125.48750  156.84350  156.84350    0.21740    -999.25    0.21740  274.18990  -41.73720  -64.09450  274.18990
 2850.00000  234.15730  251.69140  234.15730   11.31610   12.76080 2651.51800    0.03420    -999.25    0.03420   88.36930   12.76080  188.19160  188.19160   37.98150   45.59380   37.98150   88.36930  114.71990  114.71990    0.08540    -999.25    0.08540 1141.27160    0.78960  -11.21590 1141.27160
 2900.00000  229.65940  243.29790  229.65940   52.76710   26.80360 2706.92200    0.00180    -999.25    0.00180   18.95120   26.80360  200.59250  200.59250   51.31110   48.33760   51.31110   18.95120   19.78700   19.78700    0.11520    -999.25    0.11520   23.34660   -4.91540   -3.72660   23.34660
 2950.00000  224.11870  246.47290  224.11870    0.81330   17.05220 2691.70300    0.01070    -999.25    0.01070 1229.55960   17.05220  165.70100  165.70100   11.23730   13.33480   11.23730 1229.55960 1543.75590 1543.75590    0.01360    -999.25    0.01360 1597.51160 -203.24920 -127.54850 1597.51160
 3000.00000  216.14000  233.22100  216.14000   60.66120   32.56900 2719.57600   -0.00560    -999.25   -0.00560   16.48500   32.56900  177.89920  177.89920    -999.25    -999.25    -999.25   16.48500   15.64340   15.64340    0.12070    -999.25    0.12070   22.51500 -281.97500 -133.85120   22.51500
