~Version ---------------------------------------------------
VERS.      2.0 : CWLS log ASCII Standard -VERSION 2.0
WRAP.       NO : One line per depth step
CREA. 08/04/17 : LAS Creation Date
~Well ------------------------------------------------------
STRT.FT                           300.0 : START DEPTH
STOP.FT                         10100.0 : STOP DEPTH
STEP.FT                        50.00000 : STEP LENGTH
NULL.                           -999.25 : NULL VALUE
COMP.             CANADIAN FINA OIL LTD : COMPANY
WELL. FINA ET AL HEAVYSOUND 10-14-62-16 : WELL
FLD .                                WC : FIELD
LOC .                                   : LOCATION
CTRY.                            CANADA : COUNTRY
SRVC.            Schlumberger of Canada : SERVICE COMPANY
DATE.                       08-Apr-1960 : LOGDATE
PROV.                           Alberta : PROVINCE
UWI .                  100101406216W500 : UNIQUE WELL ID
SLAT.WGS84                     54.36487 : SURFACE LATITUDE
SLON.WGS84                    -116.2841 : SURFACE LONGITUDE
~Curve Information -----------------------------------------
DEPT  .FT         : Depth Curve
CALWS .IN         : CALIPER [MCALED]
CILDED.MMHO       : DEEP INDUCTION CONDUCTIVITY FROM IEL LOG
CONDWS.MMHO       : CONDUCTIVITY [1000/DRESWS]
DRESWS.OHMM       : DEEP RESISTIVITY [ILDED]
GRNED .UgRa-Eq/T  : GAMMA RAY FROM GRN LOG
GRWS  .GAPI       : GAMMA RAY [GRNED*16.5 TO CONVERT MG/TON TO GAPI]
ILDED .OHMM       : DEEP INDUCTION  FROM IEL LOG
LLED  .OHMM       : LATEROLOG FROM LL LOG
MCALED.IN         : MLT (MICROLOG) CALIPER FROM MICRO LOG
NEUTED.CPS        : NEUTRON FROM GRN LOG
NEUTWS.CPS        : NEUTRON [NEUTED]
SNED  .OHMM       : SHORT NORMAL RESISTIVITY FROM IEL LOG
SPR1ED.MV         : SPONTANEOUS POTENTIAL FROM LL LOG
SPRED .MV         : SPONTANEOUS POTENTIAL FROM IEL LOG
SPWS  .MV         : SPONTANEOUS POTENTIAL [BASELINE 0 MV, SPRED]
SRESWS.OHMM       : SHALLOW RESISTIVITY [SNED]
~Params ----------------------------------------------------
LMF .                     KB : LOG MEASURED FROM
DMF .                     KB : DRILLING MEASURED FROM
EKB .FT              3183.62 : KELLY BUSHING
EGL .FT               3169.7 : GROUND LEVEL
DATE.               04/08/60 : RUN DATE
RUN .                      1 : RUN NUMBER
DD  .FT                10100 : DEPTH DRILLER
DL  .FT                10110 : DEPTH LOGGER
BLI .FT                10103 : BOTTOM LOG INTERVAL
TLI .FT                 1180 : TOP LOG INTERVAL
CBD .FT                 1172 : CASING BOTTOM DRILLER
CBL .FT                 1180 : CASING BOTTOM LOGGER
BS  .IN                    9 : BIT SIZE
BSD .FT                10100 : BIT SIZE AT DEPTH
DFT .                    GEL : DRILLING FLUID TYPE
DFD .                    9.9 : DRILLING FLUID DENSITY
DFV .                    146 : DRILLING FLUID VISCOSITY
DFPH.                   10.5 : DRILLING FLUID PH
DFL .                   10.5 : DRILLING FLUID LOSS
MSS .             CIRCULATED : MUD SAMPLE SOURCE
RMS .OHMM                3.5 : RESISTIVITY MUD SAMPLE
MST .DEGF                 67 : MUD SAMPLE TEMPERATURE
RMF .OHMM               2.36 : RESISTIVITY MUD FILTRATE SAMPLE
MFST.DEGF                 63 : MUD FILTRATE SAMPLE TEMPERATURE
RMC .OHMM                4.7 : RESISTIVITY MUD CAKE
MCST.DEGF                 62 : MUD CAKE SAMPLE TEMPERATURE
MFSS.                   MEAS : MUD FILTRATE SAMPLE SOURCE
MCSS.                   MEAS : MUD CAKE SAMPLE SOURCE
RMB .OHMM               1.14 : RESISTIVITY MUD AT BHT
TCS .HRS                 700 : TIME CIRCULATED STOPPED
LUN .                   1573 : LOGGING UNIT NUMBER
LUL .                   C WC : LOGGING UNIT LOCATION
ENGI.              HAUSEGGER : RECORDING ENGINEER
WITN.        WENDEBORN ANKLE : WITNESSED BY
CLNT.                A2DTECH : CLIENT CODE
ORIG.            2" 5" PRINT : ORIGIN OF DATA
UWI .       100101406216W500 : UNIQUE WELL ID
DICO. A2D Technologies, Inc. : DIGITIZING COMPANY
~Other -----------------------------------------------------
~ASCII -----------------------------------------------------
# ...
 6750.00000    8.73010   20.68200   20.54300   48.67830    1.37360   22.66440   48.67830  140.72890    8.73010  258.78890  258.78890   94.16110 -253.23520 -215.41820 -198.23270   94.16110
 6800.00000   11.13140   11.42180   11.87990   84.18240    1.07040   17.66240   84.18240  463.62180   11.13140  316.24960  316.24960  106.18960 -247.50940 -221.40980 -206.06250  106.18960
 6850.00000   11.71720  112.58160  113.09150    8.84240    4.75880   78.52020    8.84240   12.54390   11.71720  210.62540  210.62540   11.42610  -70.79540  -45.79880  -32.30180   11.42610
 6900.00000   10.81000   93.12430   90.94870   10.99690    2.80910   46.34930   10.99690   20.35480   10.81000  270.28620  270.28620   19.62680  -41.06470  -51.17110  -39.51220   19.62680
 6950.00000   12.31290  171.08000  168.10110    5.94880    3.08120   50.83980    5.94880   33.39300   12.31290  238.33540  238.33540   17.72570 -119.75570  -90.58400  -80.77540   17.72570
 7000.00000   10.75190   13.51430   13.99270   71.46590    3.40110   56.11820   71.46590  128.96540   10.75190  277.91320  277.91320   64.16170  -56.61150  -14.25370   -6.28330   64.16170
 7050.00000   11.50730   21.63840   22.77100   43.94170    2.59680   42.84800   43.94170  113.31250   11.50730  312.52270  312.52270   56.13950  -67.60860   -9.91300   -3.69170   56.13950
 7100.00000    9.79170    7.23840    8.33000  120.04850    2.19610   36.23570  120.04850  187.71030    9.79170  351.89470  351.89470   91.10280  -92.26500  -22.49350  -18.01600   91.10280
 7150.00000    9.74620    0.73270    2.00000  500.00000    1.97110   32.52320  500.00000  603.76010    9.74620  403.64240  403.64240  160.46990  -88.62020  -17.09140  -14.34620  160.46990
 7200.00000    9.52010   -1.20340    2.00000  500.00000    1.90300   31.39950  500.00000  507.34450    9.52010  392.57760  392.57760  150.58070  -54.19590  -23.12320  -22.12180  150.58070
 7250.00000    9.45150    1.08190    2.39660  417.26250    2.02050   33.33830  417.26250  345.42220    9.45150  389.19700  389.19700  129.37520  -56.85370  -29.96640  -30.69740  129.37520
 7300.00000    9.55700    1.80590    3.11390  321.15030    1.20230   19.83790  321.15030  399.81230    9.55700  389.26840  389.26840  129.88810  -78.51420  -47.19270  -49.65610  129.88810
 7350.00000    9.83720   -3.20390    2.00000  500.00000    1.98120   32.68980  500.00000 1453.95150    9.83720  378.71160  378.71160  217.13060  -41.02840  -18.83380  -23.04100  217.13060
 7400.00000   10.53320    2.01680    4.04480  249.03680    1.71040   28.22160  249.03680  917.15500   10.53320  371.27770  371.27770  107.44150  -72.44280  -22.40940  -27.49420  107.44150
 7450.00000   10.60460   -1.09700    2.00000  500.00000    1.06250   17.53130  500.00000 7851.84570   10.60460  422.59040  422.59040  182.04100 -183.88590  -26.81980  -31.90460  182.04100
 7500.00000   11.42890    4.20770    4.96400  201.45050    1.08420   17.88930  201.45050  351.41330   11.42890  368.73270  368.73270  103.63470 -184.15080  -93.09830  -98.18310  103.63470
 7550.00000   10.96730    0.24390    2.00000  500.00000    1.18420   19.53850  500.00000  578.33670   10.96730  407.54530  407.54530  147.92230 -137.79620  -71.80910  -76.89390  147.92230
 7600.00000   12.88930    2.01120    2.89730  345.14360    0.81660   13.47390  345.14360  463.81550   12.88930  393.69260  393.69260  122.67340 -108.02080 -108.52840 -113.61320  122.67340
 7650.00000   12.90190    0.96280    2.40800  415.39570    0.93470   15.42340  415.39570  619.89260   12.90190  351.45080  351.45080  110.93800 -101.01240 -107.34550 -112.43030  110.93800
 7700.00000   10.12130    9.77600   10.27700   97.30420    1.00970   16.66010   97.30420  281.71220   10.12130  349.92110  349.92110  101.25890 -193.35380 -139.71490 -144.79970  101.25890
 7750.00000   13.40620    5.41240    6.52060  153.36010    0.97510   16.08920  153.36010  294.98330   13.40620  304.97850  304.97850  124.78700 -166.68100 -145.82210 -150.90690  124.78700
 7800.00000   10.35530    3.01420    3.50810  285.99060    0.81850   13.50520  285.99060 1144.52660   10.35530  350.41820  350.41820  150.10310 -168.27030 -159.19790 -164.28270  150.10310
 7850.00000   11.42380    6.81320    6.41130  155.97540    0.89290   14.73290  155.97540  276.90880   11.42380  334.97950  334.97950  107.54450 -153.92970 -128.21040 -133.29520  107.54450
 7900.00000   12.48060    0.21830    2.01370  496.62190    1.00990   16.66420  496.62190  794.17190   12.48060  317.88660  317.88660  125.89570 -155.58180 -113.36150 -118.44630  125.89570
 7950.00000   13.27980   -1.61570    2.00000  500.00000    0.94350   15.56780  500.00000 4997.01420   13.27980  312.78500  312.78500  173.66350 -138.77140 -105.55280 -110.63760  173.66350
 8000.00000   11.69560   -1.27300    2.00000  500.00000    1.16570   19.23410  500.00000 1963.94070   11.69560  331.37820  331.37820  148.08470 -152.55040 -107.49620 -112.58100  148.08470
 8050.00000   10.93430    2.47540    3.44440  301.75180    0.93860   15.48610  301.75180 1302.09020   10.93430  304.43230  304.43230  126.50400 -202.41170 -162.73170 -167.81650  126.50400
 8100.00000   10.35690   18.04680   20.57730   48.59720    0.82940   13.68510   48.59720  208.04530   10.35690  282.75730  282.75730   94.25980 -276.68980 -227.75090 -232.83570   94.25980
 8150.00000   10.21760    5.05280    6.53580  153.35560    0.91340   15.07030  153.35560  511.62260   10.21760  329.13050  329.13050  121.83920 -187.44750 -166.59860 -171.68340  121.83920
 8200.00000   10.14840  317.44570  330.79720    3.02300    3.30220   54.48630    3.02300    4.64140   10.14840  255.42460  255.42460    8.56540  -82.73040  -86.85000  -91.93480    8.56540
 8250.00000    8.99100   30.66130   30.51450   32.77130    1.33040   21.95160   32.77130   67.80250    8.99100  229.93960  229.93960   75.87360 -176.96120 -149.20700 -154.29180   75.87360
 8300.00000    8.60870   21.08270   22.83580   43.82660    1.19430   19.70600   43.82660   92.74010    8.60870  255.69010  255.69010   65.67790 -206.14940 -156.52830 -161.61310   65.67790
 8350.00000   10.45370   57.48500   56.88310   17.57990    1.88100   31.03650   17.57990   53.58060   10.45370  220.97640  220.97640   25.14360 -142.41590  -97.70410 -102.78890   25.14360
 8400.00000    9.77680    7.70260    8.86970  112.81830    1.81210   29.90050  112.81830  174.23000    9.77680  288.33670  288.33670   83.50580  -74.67640  -44.87520  -49.96000   83.50580
 8450.00000    9.89810    4.10620    4.76370  209.92220    2.01770   33.29210  209.92220  257.18030    9.89810  302.44660  302.44660  109.15930  -54.66480  -36.50590  -41.59070  109.15930
 8500.00000   10.04850    7.63890    8.69230  115.04490    1.81050   29.87320  115.04490  178.32190   10.04850  296.32100  296.32100   78.27930  -40.45480  -27.10970  -32.19450   78.27930
 8550.00000   10.12720   16.74370   16.84050   59.38210    1.99990   32.99840   59.38210   85.47990   10.12720  252.81070  252.81070   53.55230  -71.16750  -18.12200  -23.20680   53.55230
 8600.00000    9.88290   29.79470   31.13290   32.12040    2.50420   41.31930   32.12040   51.21650    9.88290  255.46030  255.46030   35.38110 -100.04400  -10.15820  -15.24300   35.38110
 8650.00000   10.86940   84.48290   85.95980   11.63500    3.19890   52.78100   11.63500   16.96250   10.86940  203.68420  203.68420   14.89320 -113.88860   -4.57720   -9.66200   14.89320
 8700.00000   11.38290   95.85090   96.34650   10.37920    3.17490   52.38580   10.37920   14.64610   11.38290  204.93510  204.93510   13.32660  -83.77220    4.14300   -1.04500   13.32660
 8750.00000   13.45860  186.36770  188.89670    5.29390    3.53400   58.31100    5.29390    8.63530   13.45860  188.25000  188.25000    7.68160  -49.53730   -2.58820   -8.75690    7.68160
 8800.00000   11.40430  105.72010  106.42410    9.39710    3.13030   51.64910    9.39710   13.05320   11.40430  203.64600  203.64600   12.21290  -52.16600   -2.19730   -9.34660   12.21290
 8850.00000   14.64470  102.89060  103.35490    9.67540    3.32510   54.86420    9.67540   14.46260   14.64470  180.56360  180.56360   11.79220  -67.07260   -6.82480  -14.96120   11.79220
