~Version ---------------------------------------------------
VERS.      2.0 : CWLS log ASCII Standard -VERSION 2.0
WRAP.       NO : One line per depth step
CREA. 07/27/17 : LAS Creation Date
~Well ------------------------------------------------------
STRT.FT                                800.0 : START DEPTH
STOP.FT                              10200.0 : STOP DEPTH
STEP.FT                             50.00000 : STEP LENGTH
NULL.                                -999.25 : NULL VALUE
COMP.                 EXXONMOBIL CANADA LTD. : COMPANY
WELL. MOBIL CARSON CREEK WEST 11-1-61-13 #11 : WELL
FLD .                                        : FIELD
LOC .                                        : LOCATION
CTRY.                                 CANADA : COUNTRY
SRVC.                           Schlumberger : SERVICE COMPANY
DATE.                            03-Feb-1963 : LOGDATE
PROV.                                Alberta : PROVINCE
UWI .                       100110106113W500 : UNIQUE WELL ID
SLAT.WGS84                     54.2487051583 : SURFACE LATITUDE
SLON.WGS84                   -115.8169997457 : SURFACE LONGITUDE
~Curve Information -----------------------------------------
DEPT   .FT    : Depth Curve
CALWS  .IN    : CALIPER [MCALED]
CILDED .MMHO  : DEEP INDUCTION CONDUCTIVITY FROM IEL LOG
CONDWS .MMHO  : CONDUCTIVITY [1000/DRESWS]
DRESWS .OHMM  : DEEP RESISTIVITY [1000/CILDED IF ILDED < 4, ILDED]
DT1FTED.US/F  : ACOUSTIC TRANSIT TIME SLOWNESS(1 FT SPACING), DELTA T FROM SONIC LOG
DTED   .US/F  : ACOUSTIC TRANSIT TIME SLOWNESS (3 FT SPACING), DELTA T FROM SONIC LOG
DTWS   .US/F  : COMPRESSIONAL SONIC [DT1ED]
GRSED  .GAPI  : GAMMA RAY FROM SONIC LOG
GRWS   .GAPI  : GAMMA RAY [GRSED]
ILDED  .OHMM  : DEEP INDUCTION FROM IEL LOG
MCALED .IN    : MLT [MICROLOG] CALIPER FROM ML LOG
SNED   .OHMM  : SHORT NORMAL 10" FROM IEL LOG
SPRED  .MV    : SPONTANEOUS POTENTIAL FROM IEL LOG
SPWS   .MV    : SPONTANEOUS POTENTIAL [BASELINE 0 MV, SPRED]
SRESWS .OHMM  : SHALLOW RESISTIVITY [SNED]
~Params ----------------------------------------------------
PD  .                     GL : PERMANENT DATUM
EPD .FT               2486.7 : ELEVATION PERMANENT DATUM
LMF .                     KB : LOG MEASURED FROM
DAPD.FT                 14.5 : FEET ABOVE PERMANENT DATUM
EKB .FT               2501.2 : KELLY BUSHING
EGL .FT               2486.7 : GROUND LEVEL
DATE.               02/03/63 : RUN DATE
RUN .                      2 : RUN NUMBER
DD  .FT                10215 : DEPTH DRILLER
DL  .FT                10214 : DEPTH LOGGER
BLI .FT                10213 : BOTTOM LOG INTERVAL
TLI .FT                 5500 : TOP LOG INTERVAL
CBD .FT                 1031 : CASING BOTTOM DRILLER
CBL .FT                 1031 : CASING BOTTOM LOGGER
BS  .IN                    9 : BIT SIZE
BSD .FT                10215 : BIT SIZE AT DEPTH
DFT .                    GEL : DRILLING FLUID TYPE
DFD .                    9.7 : DRILLING FLUID DENSITY
DFV .                    150 : DRILLING FLUID VISCOSITY
DFPH.                   10.5 : DRILLING FLUID PH
DFL .                    8.2 : DRILLING FLUID LOSS
RMS .OHMM                3.1 : RESISTIVITY MUD SAMPLE
MST .DEGF                 63 : MUD SAMPLE TEMPERATURE
RMF .OHMM               2.22 : RESISTIVITY MUD FILTRATE SAMPLE
MFST.DEGF                 66 : MUD FILTRATE SAMPLE TEMPERATURE
RMC .OHMM               1.27 : RESISTIVITY MUD CAKE
MCST.DEGF                 66 : MUD CAKE SAMPLE TEMPERATURE
TCS .HRS                 4.5 : TIME CIRCULATED STOPPED
LUN .                   1571 : LOGGING UNIT NUMBER
LUL .                    WCT : LOGGING UNIT LOCATION
ENGI.                KOKONIS : RECORDING ENGINEER
WITN.                  MILLS : WITNESSED BY
CLNT.                A2DTECH : CLIENT CODE
ORIG.            2" 5" PRINT : ORIGIN OF DATA
UWI .       100110106113W500 : UNIQUE WELL ID
DICO. A2D Technologies, Inc. : DIGITIZING COMPANY
~Other -----------------------------------------------------
~ASCII -----------------------------------------------------
# ...
 3100.00000   11.08900  105.50080  108.93250    9.18000   90.20590   80.00000   90.20590   95.11920   95.11920    9.18000   11.08900    9.99870  -65.64340   -4.76200    9.99870
 3150.00000   10.23770   92.80520   91.92110   10.87890   84.87100   80.00000   84.87100   97.25940   97.25940   10.87890   10.23770   12.19650  -66.11450   -5.23310   12.19650
 3200.00000   10.53000  101.14740  105.56210    9.47310   94.53550   80.00000   94.53550  106.38650  106.38650    9.47310   10.53000   10.75970  -63.83770   -2.95630   10.75970
 3250.00000   11.44160  116.09660  119.30610    8.38180   90.04930   80.00000   90.04930   96.00630   96.00630    8.38180   11.44160    9.33830  -64.45440   -3.57300    9.33830
 3300.00000   11.21620  113.18250  113.25280    8.82980   87.85250   80.00000   87.85250   97.91270   97.91270    8.82980   11.21620    9.49060  -64.40120   -3.51980    9.49060
 3350.00000   11.63020  107.73910  113.67250    8.79720   93.75600   80.00000   93.75600   92.23160   92.23160    8.79720   11.63020    9.76800  -63.06670   -2.18530    9.76800
 3400.00000   11.04150   77.98990   79.99810   12.50030   83.98880   80.00000   83.98880   85.98770   85.98770   12.50030   11.04150   13.30890  -62.02980   -2.23720   13.30890
 3450.00000   11.27450  111.34190  116.77600    8.56340   92.80990   80.00000   92.80990   95.66650   95.66650    8.56340   11.27450    9.53230  -63.33920   -4.65530    9.53230
 3500.00000   11.46970  102.91020  110.22930    9.07200   90.36670   80.00000   90.36670   95.65070   95.65070    9.07200   11.46970    9.96170  -61.79740   -4.21550    9.96170
 3550.00000   12.32040  105.99030  109.16550    9.16040   88.76710   80.00000   88.76710   97.25030   97.25030    9.16040   12.32040   10.16070  -60.26280   -3.78080   10.16070
 3600.00000   13.43230  127.13850  132.03240    7.57390   99.88500   80.00000   99.88500  104.44880  104.44880    7.57390   13.43230    9.47020  -59.05550   -3.68220    9.47020
 3650.00000   12.16020  126.80580  130.35090    7.67160   98.97400   80.00000   98.97400  102.63740  102.63740    7.67160   12.16020    9.50170  -56.16610   -1.89480    9.50170
 3700.00000   10.57040  111.55370  114.47800    8.73530   99.14880   80.00000   99.14880  119.80770  119.80770    8.73530   10.57040   11.47480  -54.69180   -1.52920   11.47480
 3750.00000    9.59500  105.65630  108.68500    9.20090   96.94740   80.00000   96.94740  118.74860  118.74860    9.20090    9.59500   11.95150  -53.65600   -1.59550   11.95150
 3800.00000    9.30730   76.34060   76.60190   13.05450   90.59850   80.00000   90.59850  117.59690  117.59690   13.05450    9.30730   17.19020  -52.02070   -0.35790   17.19020
 3850.00000   11.81570  134.77940  141.75950    7.05420   97.92010   80.00000   97.92010  106.02040  106.02040    7.05420   11.81570    9.85710  -54.53560   -2.23650    9.85710
 3900.00000   12.37490  153.83760  158.58160    6.30590   96.52050   80.00000   96.52050   94.95930   94.95930    6.30590   12.37490    7.96850  -56.34050   -3.40890    7.96850
 3950.00000   12.32940  146.26280  154.05470    6.49120   92.00230   80.00000   92.00230  103.65780  103.65780    6.49120   12.32940    8.05590  -54.68310   -1.11520    8.05590
 4000.00000   10.37460  116.74400  122.42300    8.16840   83.73550   80.00000   83.73550   90.80170   90.80170    8.16840   10.37460    9.91870  -55.35630   -2.87720    9.91870
 4050.00000   11.85450  149.12810  155.03880    6.45000   88.64620   80.00000   88.64620   95.88810   95.88810    6.45000   11.85450    8.20500  -53.29830   -1.95270    8.20500
 4100.00000   12.82200  146.57070  149.78800    6.67610   86.45010   80.00000   86.45010  106.71780  106.71780    6.67610   12.82200    8.60990  -51.97620   -1.46130    8.60990
 4150.00000   13.75300  185.96640  187.96990    5.32000   95.36830   80.00000   95.36830   98.23300   98.23300    5.32000   13.75300    7.04980  -51.08340   -1.39430    7.04980
 4200.00000   10.90390  150.64130  154.72450    6.46310   94.53890   80.00000   94.53890  122.57220  122.57220    6.46310   10.90390    8.82690  -49.55100   -0.69260    8.82690
 4250.00000   14.61250  383.16520  383.17110    2.60980  103.52400   80.00000  103.52400   90.20910   90.20910    2.88310   14.61250    3.71910  -49.19050   -1.15780    3.71910
 4300.00000   13.92720  234.82320  223.51360    4.47400   91.45120   80.00000   91.45120   92.85080   92.85080    4.47400   13.92720    5.67500  -48.92140   -1.71280    5.67500
 4350.00000   13.17760  218.27220  215.01680    4.65080   94.92970   80.00000   94.92970  109.91980  109.91980    4.65080   13.17760    6.20320  -47.12650   -0.74860    6.20320
 4400.00000    9.41710   98.67300   97.71830   10.23350   77.64770   76.79330   77.64770   64.69750   64.69750   10.23350    9.41710   14.55940  -74.77170  -28.89940   14.55940
 4450.00000   16.11530  147.79150  151.75890    6.58940   85.93420   80.00000   85.93420   74.51270   74.51270    6.58940   16.11530    6.98600  -47.43130   -2.32120    6.98600
 4500.00000   11.10330   80.70990   84.82560   11.78890   78.28500   79.12140   78.28500   59.00510   59.00510   11.78890   11.10330   14.62670  -54.38470  -10.54830   14.62670
 4550.00000   10.82390   70.37180   70.59650   14.16500   79.05550   66.40110   79.05550   75.05890   75.05890   14.16500   10.82390   16.30680  -49.01000   -6.63480   16.30680
 4600.00000   14.72990  146.48890  141.64110    7.06010  116.41780   80.00000  116.41780   87.62790   87.62790    7.06010   14.72990   13.11180  -46.35480   -5.41840   13.11180
 4650.00000   11.15100   66.16530   62.41690   16.02130   70.00230   70.39980   70.00230   48.29880   48.29880   16.02130   11.15100   18.92630  -62.02030  -22.51410   18.92630
 4700.00000   13.22120   43.28770   46.04620   21.71730  112.95960   80.00000  112.95960   66.75560   66.75560   21.71730   13.22120   26.21780  -41.17330   -2.88520   26.21780
 4750.00000   10.76510   72.63600   78.65410   12.71390   77.78280   80.03110   77.78280   49.72170   49.72170   12.71390   10.76510   16.67300  -56.35740  -18.94500   16.67300
 4800.00000   13.00390  199.72320  202.57680    4.93640   80.14430   79.74950   80.14430   52.46910   52.46910    4.93640   13.00390   11.61460  -80.53340  -44.47530   11.61460
 4850.00000   11.55440  147.58620  149.64240    6.68260   74.43570   74.14280   74.43570   65.15520   65.15520    6.68260   11.55440   10.06610  -60.12440  -25.43140   10.06610
 4900.00000   12.10890  130.99580  133.73450    7.47750   78.89800   78.20380   78.89800   77.37230   77.37230    7.47750   12.10890   10.99860  -46.75180  -13.41580   10.99860
 4950.00000   10.93880  105.84160  111.98080    8.93010   78.92010   78.73650   78.92010   92.40910   92.40910    8.93010   10.93880   11.68390  -34.70320   -2.73240   11.68390
 5000.00000   10.92930   86.94390   87.82480   11.38630   75.46640   74.95970   75.46640   71.85790   71.85790   11.38630   10.92930   15.24640  -38.10450   -7.49070   15.24640
 5050.00000   10.31690  103.31700  103.39020    9.67210   76.07830   75.53930   76.07830   79.40430   79.40430    9.67210   10.31690   12.74170  -34.56240   -5.30290   12.74170
 5100.00000   12.70960  155.87120  161.89350    6.17690   84.97880   80.00000   84.97880   96.39390   96.39390    6.17690   12.70960    8.17010  -29.94330   -2.07040    8.17010
 5150.00000    9.87670   20.65750   23.09920   43.29160   64.85420   64.03060   64.85420   51.62530   51.62530   43.29160    9.87670   46.70430  -41.25110  -14.88810   46.70430
 5200.00000   10.02580   49.50290   52.18630   19.16210   69.15950   68.69930   69.15950   94.85150   94.85150   19.16210   10.02580   23.70920  -31.22450   -6.38050   23.70920
 5250.00000   11.44900   76.56800   80.16930   12.47360   88.93020   79.99570   88.93020   90.63060   90.63060   12.47360   11.44900   15.60250  -33.48810  -10.15400   15.60250
 5300.00000   10.70630  105.84260  106.41350    9.39730   71.90700   72.32950   71.90700   83.64520   83.64520    9.39730   10.70630   11.32680  -38.90620  -15.92310   11.32680
 5350.00000    9.13760    5.88660    8.41280  118.86670   78.94240   78.28590   78.94240   31.46210   31.46210  118.86670    9.13760  163.81660  -89.96590  -65.65570  163.81660
