~Version ---------------------------------------------------
VERS.      2.0 : CWLS log ASCII Standard -VERSION 2.0
WRAP.       NO : One line per depth step
CREA. 12/15/17 : LAS Creation Date
~Well ------------------------------------------------------
STRT.FT                         950.0 : START DEPTH
STOP.FT                        9250.0 : STOP DEPTH
STEP.FT                      50.00000 : STEP LENGTH
NULL.                         -999.25 : NULL VALUE
COMP.   TEXACO CANADA ENTERPRISES LTD : COMPANY
WELL. TEXCAN ET AL MAHASKA 7-10-58-13 : WELL
FLD .                                 : FIELD
LOC .                                 : LOCATION
CTRY.                          CANADA : COUNTRY
SRVC.                         Unknown : SERVICE COMPANY
DATE.                     11-Jan-1974 : LOGDATE
PROV.                         Alberta : PROVINCE
UWI .                100071005813W500 : UNIQUE WELL ID
SLAT.WGS84                   53.99612 : SURFACE LATITUDE
SLON.WGS84                  -115.8404 : SURFACE LONGITUDE
~Curve Information -----------------------------------------
DEPT    .FT    : Depth Curve
CALDED  .IN    : CALIPER FROM DENSITY LOG
CALSED  .IN    : CALIPER FROM SONIC LOG
CALWS   .IN    : CALIPER [CALSED]
CONDWS  .MMHO  : CONDUCTIVITY [1000/DRESWS]
DCORED  .G/C3  : DENSITY CORRECTION FROM DENSITY LOG [ADJ TO RESISTIVITY LOG]
DCORWS  .G/C3  : DENSITY CORRECTION [DCORED]
DENWS   .G/C3  : FORMATION BULK DENSITY [RHOBED]
DPHILSED.V/V   : DENSITY POROSITY LIMESTONE [M=2.71, F=1.00] FROM DENSITY LOG [ADJ TO RESISTIVITY LOG]
DPHISSED.V/V   : DENSITY POROSITY SANDSTONE [M=2.65, F=1.00] FROM DENSITY LOG [ADJ TO RESISTIVITY LOG]
DPOLSWS .V/V   : DENSITY POROSITY LIMESTONE [CALC FROM DENWS,M=2.71, F=1.00]
DRESWS  .OHMM  : DEEP RESISTIVITY [ILDED]
DTED    .US/F  : INTERVAL TRANSIT TIMEM=2.65, F=1.00 FROM SONIC LOG [ADJ TO RESISTIVITY LOG]
DTWS    .US/F  : COMPRESSIONAL SONIC [DTED]
GRDED   .GAPI  : GAMMA RAY FROM DENSITY LOG
GRSED   .GAPI  : GAMMA RAY FROM SONIC LOG
GRWS    .GAPI  : GAMMA RAY [GRSED]
ILDED   .OHMM  : INDUCTION LOG DEEP FROM RESISTIVITY LOG
ILMED   .OHMM  : INDUCTION LOG MEDIUM FROM RESISTIVITY LOG
LL8ED   .OHMM  : LATEROLOG-8 FROM RESISTIVITY LOG
MRESWS  .OHMM  : MEDIUM RESISTIVITY [ILMED]
NPHILSED.V/V   : NEUTRON POROSITY LIMESTONE FROM DENSITY LOG [ADJ TO RESISTIVITY LOG]
NPHISSED.V/V   : NEUTRON POROSITY SANDSTONE FROM DENSITY LOG [ADJ TO RESISTIVITY LOG]
NPOLSWS .V/V   : NEUTRON POROSITY LIMESTONE [NPHISSED MATRIX CONVERTED TO LIMESTONE (SLB-CNL) & SPL @ 5728' TO NPHILSED]
RHOBED  .G/C3  : BULK DENSITY FROM DENSITY LOG [ADJ TO RESISTIVITY LOG]
SPRED   .MV    : SPONTANEOUS POTENTIAL FROM RESISTIVITY LOG
SPWS    .MV    : SPONTANEOUS POTENTIAL [BASELINE 0MV, SPRED]
SRESWS  .OHMM  : SHALLOW RESISTIVITY [LL8ED]
~Params ----------------------------------------------------
PD  .                     GL : PERMANENT DATUM
EPD .FT               2427.8 : ELEVATION PERMANENT DATUM
LMF .                     KB : LOG MEASURED FROM
DAPD.FT                 18.2 : FEET ABOVE PERMANENT DATUM
DMF .                     KB : DRILLING MEASURED FROM
EKB .FT                 2446 : KELLY BUSHING
EGL .FT               2427.8 : GROUND LEVEL
DATE.               01/11/74 : RUN DATE
RUN .                      1 : RUN NUMBER
DD  .FT                 9279 : DEPTH DRILLER
DL  .FT                 9280 : DEPTH LOGGER
BLI .FT                 9274 : BOTTOM LOG INTERVAL
TLI .FT                  960 : TOP LOG INTERVAL
CBD .FT                  960 : CASING BOTTOM DRILLER
CBL .FT                  960 : CASING BOTTOM LOGGER
BS  .IN                 8.75 : BIT SIZE
BSD .FT                 9279 : BIT SIZE AT DEPTH
DFT .               GEL CHEM : DRILLING FLUID TYPE
DFD .                    9.2 : DRILLING FLUID DENSITY
DFV .                    130 : DRILLING FLUID VISCOSITY
DFPH.                      9 : DRILLING FLUID PH
DFL .                     11 : DRILLING FLUID LOSS
MSS .               FLOWLINE : MUD SAMPLE SOURCE
RMS .OHMM               2.59 : RESISTIVITY MUD SAMPLE
MST .DEGF                 50 : MUD SAMPLE TEMPERATURE
RMF .OHMM               1.92 : RESISTIVITY MUD FILTRATE SAMPLE
MFST.DEGF                 50 : MUD FILTRATE SAMPLE TEMPERATURE
TCS .HRS                   5 : TIME CIRCULATED STOPPED
LUN .                   7636 : LOGGING UNIT NUMBER
LUL .                    EDM : LOGGING UNIT LOCATION
ENGI.                  BOYKO : RECORDING ENGINEER
WITN.         PRIER CHAUDHRY : WITNESSED BY
CLNT.                A2DTECH : CLIENT CODE
ORIG.            2" 5" PRINT : ORIGIN OF DATA
UWI .       100071005813W500 : UNIQUE WELL ID
DICO. A2D Technologies, Inc. : DIGITIZING COMPANY
~Other -----------------------------------------------------
DIL-FDC-CNL-GR-SLC-GR TOOL RUN
RHOB & DRHO VERIFIED FROM SMALL SCALE LOG
~ASCII -----------------------------------------------------
# ...
 3550.00000    -999.25    9.84300    9.84300  163.43880    -999.25    -999.25    -999.25    -999.25    -999.25    -999.25    6.11850   83.49400   83.49400    -999.25   85.12810   85.12810    6.11850    6.29490    7.99380    6.29490    -999.25    -999.25    -999.25    -999.25  -86.76560   -8.52630    7.99380
 3600.00000    -999.25   10.70430   10.70430  143.55440    -999.25    -999.25    -999.25    -999.25    -999.25    -999.25    6.96600   85.55250   85.55250    -999.25   92.08070   92.08070    6.96600    7.17240    7.52780    7.17240    -999.25    -999.25    -999.25    -999.25  -85.70030   -7.65910    7.52780
 3650.00000    -999.25   11.00590   11.00590  154.38530    -999.25    -999.25    -999.25    -999.25    -999.25    -999.25    6.47730   86.62690   86.62690    -999.25   98.59020   98.59020    6.47730    6.68500    8.58180    6.68500    -999.25    -999.25    -999.25    -999.25  -85.44110   -7.59790    8.58180
 3700.00000    -999.25   11.29750   11.29750  171.48830    -999.25    -999.25    -999.25    -999.25    -999.25    -999.25    5.83130   88.00790   88.00790    -999.25   98.82930   98.82930    5.83130    5.99270    6.37340    5.99270    -999.25    -999.25    -999.25    -999.25  -85.49730   -7.85210    6.37340
 3750.00000    -999.25    9.91840    9.91840  152.27190    -999.25    -999.25    -999.25    -999.25    -999.25    -999.25    6.56720   88.32300   88.32300    -999.25   80.75870   80.75870    6.56720    6.74990    7.37050    6.74990    -999.25    -999.25    -999.25    -999.25  -84.16690   -6.71980    7.37050
 3800.00000    -999.25   10.11540   10.11540  152.06810    -999.25    -999.25    -999.25    -999.25    -999.25    -999.25    6.57600   86.47630   86.47630    -999.25   97.18470   97.18470    6.57600    6.76070    7.54480    6.76070    -999.25    -999.25    -999.25    -999.25  -83.63400   -6.38490    7.54480
 3850.00000    -999.25    9.86690    9.86690   88.39540    -999.25    -999.25    -999.25    -999.25    -999.25    -999.25   11.31280   76.77180   76.77180    -999.25   69.82800   69.82800   11.31280   12.17120   15.77210   12.17120    -999.25    -999.25    -999.25    -999.25  -88.54300  -11.49200   15.77210
 3900.00000    -999.25   10.43570   10.43570  122.81840    -999.25    -999.25    -999.25    -999.25    -999.25    -999.25    8.14210   78.03480   78.03480    -999.25   91.57590   91.57590    8.14210    8.53930    8.89070    8.53930    -999.25    -999.25    -999.25    -999.25  -83.54260   -6.68960    8.89070
 3950.00000    -999.25   10.11110   10.11110  143.30960    -999.25    -999.25    -999.25    -999.25    -999.25    -999.25    6.97790   87.02470   87.02470    -999.25  102.34630  102.34630    6.97790    7.19510    7.63390    7.19510    -999.25    -999.25    -999.25    -999.25  -82.26490   -5.60990    7.63390
 4000.00000    -999.25    9.83890    9.83890  122.85310    -999.25    -999.25    -999.25    -999.25    -999.25    -999.25    8.13980   81.34650   81.34650    -999.25   89.55200   89.55200    8.13980    8.66510    9.40250    8.66510    -999.25    -999.25    -999.25    -999.25  -82.41970   -5.96280    9.40250
 4050.00000    -999.25   10.15470   10.15470  139.37860    -999.25    -999.25    -999.25    -999.25    -999.25    -999.25    7.17470   85.17020   85.17020    -999.25   94.60660   94.60660    7.17470    7.38320    8.09420    7.38320    -999.25    -999.25    -999.25    -999.25  -82.61560   -6.35670    8.09420
 4100.00000    -999.25   10.37400   10.37400  185.26750    -999.25    -999.25    -999.25    -999.25    -999.25    -999.25    5.39760   93.22640   93.22640    -999.25   98.75550   98.75550    5.39760    5.59040    6.30410    5.59040    -999.25    -999.25    -999.25    -999.25  -80.17120   -4.11030    6.30410
 4150.00000    -999.25   10.19070   10.19070  136.34190    -999.25    -999.25    -999.25    -999.25    -999.25    -999.25    7.33450   91.42640   91.42640    -999.25  107.57950  107.57950    7.33450    7.84070   10.97670    7.84070    -999.25    -999.25    -999.25    -999.25  -80.48650   -4.62370   10.97670
 4200.00000    -999.25   10.14560   10.14560  151.80270    -999.25    -999.25    -999.25    -999.25    -999.25    -999.25    6.58750   93.82940   93.82940    -999.25  104.19450  104.19450    6.58750    7.00820    9.60530    7.00820    -999.25    -999.25    -999.25    -999.25  -80.87720   -5.21240    9.60530
 4250.00000    -999.25    9.78020    9.78020  130.07280    -999.25    -999.25    -999.25    -999.25    -999.25    -999.25    7.68800   92.91500   92.91500    -999.25  107.64480  107.64480    7.68800    8.15970   12.31940    8.15970    -999.25    -999.25    -999.25    -999.25  -81.10300   -5.63630   12.31940
 4300.00000    -999.25    9.44710    9.44710   89.93530    -999.25    -999.25    -999.25    -999.25    -999.25    -999.25   11.11910   91.08610   91.08610    -999.25  125.40970  125.40970   11.11910   11.78100   17.97280   11.78100    -999.25    -999.25    -999.25    -999.25  -80.97330   -5.70460   17.97280
 4350.00000    -999.25    9.85760    9.85760  141.07360    -999.25    -999.25    -999.25    -999.25    -999.25    -999.25    7.08850   91.01770   91.01770    -999.25  103.77170  103.77170    7.08850    7.61170   10.78770    7.61170    -999.25    -999.25    -999.25    -999.25  -79.07580   -4.00510   10.78770
 4400.00000    -999.25   10.33580   10.33580  171.34440    -999.25    -999.25    -999.25    -999.25    -999.25    -999.25    5.83620   86.17940   86.17940    -999.25  102.72830  102.72830    5.83620    6.20790    7.28990    6.20790    -999.25    -999.25    -999.25    -999.25  -79.82300   -4.95040    7.28990
 4450.00000    -999.25   10.17290   10.17290  149.05130    -999.25    -999.25    -999.25    -999.25    -999.25    -999.25    6.70910   86.92850   86.92850    -999.25   84.98650   84.98650    6.70910    6.93150    7.17930    6.93150    -999.25    -999.25    -999.25    -999.25  -80.54380   -5.86920    7.17930
 4500.00000    -999.25   10.25070   10.25070  172.52390    -999.25    -999.25    -999.25    -999.25    -999.25    -999.25    5.79630   84.51910   84.51910    -999.25   92.05470   92.05470    5.79630    5.95580    7.09160    5.95580    -999.25    -999.25    -999.25    -999.25  -80.62520   -6.14860    7.09160
 4550.00000    -999.25   10.82460   10.82460  221.44960    -999.25    -999.25    -999.25    -999.25    -999.25    -999.25    4.51570   88.13350   88.13350    -999.25   93.62120   93.62120    4.51570    4.79930    5.67350    4.79930    -999.25    -999.25    -999.25    -999.25  -78.97120   -4.69270    5.67350
 4600.00000   11.10550   11.35430   11.35430  174.26760    0.14710    0.14710    2.53870    -999.25    0.06110    0.10020    5.73830   83.88040   83.88040    -999.25   93.88310   93.88310    5.73830    5.96880    7.01100    5.96880    -999.25    0.38910    0.34600    2.53870  -79.30490   -5.22440    7.01100
 4650.00000   10.86700   10.99000   10.99000  214.95210    0.14490    0.14490    2.52840    -999.25    0.07270    0.10620    4.65220   88.39060   88.39060    -999.25   95.22980   95.22980    4.65220    4.78120    6.06410    4.78120    -999.25    0.43040    0.38820    2.52840  -78.83530   -4.95280    6.06410
 4700.00000   10.88450   10.49970   10.49970  244.39720    0.10330    0.10330    2.26740    -999.25    0.23470    0.25880    4.09170   99.58920   99.58920    -999.25  149.83580  149.83580    4.09170    4.30260    5.00390    4.30260    -999.25    0.57070    0.53480    2.26740  -78.21980   -4.53540    5.00390
 4750.00000   12.20910   11.49670   11.49670  361.31080    0.10120    0.10120    2.23740    -999.25    0.25510    0.27640    2.76770   91.68780   91.68780    -999.25   96.29160   96.29160    2.76770    2.90610    4.01110    2.90610    -999.25    0.57990    0.54460    2.23740  -77.53690   -4.05050    4.01110
 4800.00000   11.65330   11.32750   11.32750  225.06810    0.10170    0.10170    2.45510    -999.25    0.13140    0.14910    4.44310   85.69800   85.69800    -999.25   94.29010   94.29010    4.44310    4.85800    5.75740    4.85800    -999.25    0.40820    0.36550    2.45510  -77.62290   -4.33460    5.75740
