~Version ---------------------------------------------------
VERS.      2.0 : CWLS log ASCII Standard -VERSION 2.0
WRAP.       NO : One line per depth step
CREA. 01/03/18 : LAS Creation Date
~Well ------------------------------------------------------
STRT.FT                         900.0 : START DEPTH
STOP.FT                        8550.0 : STOP DEPTH
STEP.FT                      50.00000 : STEP LENGTH
NULL.                         -999.25 : NULL VALUE
COMP.          APACHE OIL CORPORATION : COMPANY
WELL. APACHE CEGO KINAKIN 10-25-63-10 : WELL
FLD .                                 : FIELD
LOC .                                 : LOCATION
CTRY.                          CANADA : COUNTRY
SRVC.          Schlumberger of Canada : SERVICE COMPANY
DATE.                     29-Jun-1964 : LOGDATE
PROV.                         Alberta : PROVINCE
UWI .                100102506310W500 : UNIQUE WELL ID
SLAT.WGS84                   54.48135 : SURFACE LATITUDE
SLON.WGS84                  -115.3707 : SURFACE LONGITUDE
~Curve Information -----------------------------------------
DEPT  .FT    : Depth Curve
CALSED.IN    : CALIPER FROM SONIC LOG
CALWS .IN    : CALIPER [CALSED]
CILDED.MMHO  : CONDUCTIVITY FROM IEL LOG
CONDWS.MMHO  : CONDUCTIVITY [1000/DRESWS]
DRESWS.OHMM  : DEEP RESISTIVITY [ILDED] IF ILDED<5;1000/CILDED;ELSE ILDED
DTED  .US/F  : DELTA TIME FROM SONIC LOG
DTWS  .US/F  : DELTA TIME [DTED]
GRSED .GAPI  : GAMMA RAY FROM SONIC LOG
GRWS  .GAPI  : GAMMA RAY [GRSED]
ILDED .OHMM  : INDUCTION LOG DEEP RESISTIVITY FROM IEL LOG
SNED  .OHMM  : 16 INCH SHORT NORMAL RESISTIVITY FROM IEL LOG
SPRED .MV    : SPONTANEOUS POTENTIAL FROM IEL LOG SHIFTED
SPWS  .MV    : SPONTANEOUS POTENTIAL [BASELINE 0 MV] [SPRED]
SRESWS.OHMM  : SHALLOW RESISTIVITY [SNED]
~Params ----------------------------------------------------
PD  .                     GL : PERMANENT DATUM
EPD .FT                 3164 : ELEVATION PERMANENT DATUM
LMF .                     KB : LOG MEASURED FROM
DAPD.FT                   14 : FEET ABOVE PERMANENT DATUM
EKB .FT                 3178 : KELLY BUSHING
EGL .FT                 3164 : GROUND LEVEL
DATE.               06/29/64 : RUN DATE
RUN .                      1 : RUN NUMBER
DD  .FT                 8582 : DEPTH DRILLER
DL  .FT                 8591 : DEPTH LOGGER
BLI .FT                 8590 : BOTTOM LOG INTERVAL
TLI .FT                  895 : TOP LOG INTERVAL
CBD .FT                  895 : CASING BOTTOM DRILLER
CBL .FT                  895 : CASING BOTTOM LOGGER
BS  .IN                 8.75 : BIT SIZE
BSD .FT                 8582 : BIT SIZE AT DEPTH
DFT .                    GEL : DRILLING FLUID TYPE
DFD .                    8.8 : DRILLING FLUID DENSITY
DFV .                    130 : DRILLING FLUID VISCOSITY
DFPH.                    9.5 : DRILLING FLUID PH
DFL .                   10.4 : DRILLING FLUID LOSS
RMF .OHMM               1.53 : RESISTIVITY MUD FILTRATE SAMPLE
MFST.DEGF                 68 : MUD FILTRATE SAMPLE TEMPERATURE
RMC .OHMM               1.96 : RESISTIVITY MUD CAKE
MCST.DEGF                 68 : MUD CAKE SAMPLE TEMPERATURE
TCS .HRS                 2.5 : TIME CIRCULATED STOPPED
LUN .                   4508 : LOGGING UNIT NUMBER
LUL .                     RD : LOGGING UNIT LOCATION
ENGI.         KOKONIS HIPKIN : RECORDING ENGINEER
WITN.              CHOQUETTE : WITNESSED BY
CLNT.                A2DTECH : CLIENT CODE
ORIG.            2" 5" PRINT : ORIGIN OF DATA
UWI .       100102506310W500 : UNIQUE WELL ID
DICO. A2D Technologies, Inc. : DIGITIZING COMPANY
~Other -----------------------------------------------------
~ASCII -----------------------------------------------------
  900.00000    -999.25    -999.25  782.82300  782.82300    1.27740    -999.25    -999.25    -999.25    -999.25    0.75800    1.30000  -24.96000   -2.80830    1.30000
  950.00000    -999.25    -999.25  459.32790  459.32790    2.17710    -999.25    -999.25    -999.25    -999.25    1.98790    1.55900  -31.90610   -9.92370    1.55900
 1000.00000    -999.25    -999.25  349.99350  349.99350    2.85720    -999.25    -999.25    -999.25    -999.25    2.63800    2.26440  -31.36770   -9.55460    2.26440
 1050.00000    -999.25    -999.25  345.99680  345.99680    2.89030    -999.25    -999.25    -999.25    -999.25    2.52140    2.22090  -27.53910   -5.89440    2.22090
 1100.00000    -999.25    -999.25  302.70240  302.70240    3.30360    -999.25    -999.25    -999.25    -999.25    2.68880    2.55250  -26.00200   -4.52740    2.55250
 1150.00000    -999.25    -999.25  234.74960  234.74960    4.25990    -999.25    -999.25    -999.25    -999.25    3.78490    2.98080  -24.90860   -3.60330    2.98080
 1200.00000    -999.25    -999.25  296.72750  296.72750    3.37010    -999.25    -999.25    -999.25    -999.25    3.30050    2.93100  -21.54680   -0.41080    2.93100
 1250.00000    -999.25    -999.25  206.27470  206.27470    4.84790    -999.25    -999.25    -999.25    -999.25    4.25070    3.71190  -24.77710   -3.81040    3.71190
 1300.00000    -999.25    -999.25  250.89870  250.89870    3.98630    -999.25    -999.25    -999.25    -999.25    3.90780    3.43390  -23.46630   -2.66800    3.43390
 1350.00000    -999.25    -999.25  230.47880  230.47880    4.33880    -999.25    -999.25    -999.25    -999.25    3.80250    3.43300  -22.60110   -1.97290    3.43300
 1400.00000    -999.25    -999.25  302.42900  302.42900    3.30660    -999.25    -999.25    -999.25    -999.25    2.42140    2.63460  -23.90780   -3.44890    2.63460
 1450.00000    -999.25    -999.25  364.25610  364.25610    2.74530    -999.25    -999.25    -999.25    -999.25    1.46490    2.00830  -25.86590   -5.57630    2.00830
 1500.00000    -999.25    -999.25  346.12900  346.12900    2.88910    -999.25    -999.25    -999.25    -999.25    2.78730    2.38440  -25.87900   -5.75870    2.38440
 1550.00000    -999.25    -999.25  280.65730  280.65730    3.56310    -999.25    -999.25    -999.25    -999.25    3.00890    2.30610  -24.88010   -4.92820    2.30610
 1600.00000    -999.25    -999.25  329.27910  329.27910    3.03690    -999.25    -999.25    -999.25    -999.25    3.07400    2.63290  -23.97480   -4.19300    2.63290
 1650.00000    -999.25    -999.25  241.87750  241.87750    4.13430    -999.25    -999.25    -999.25    -999.25    3.47430    2.91690  -26.56840   -6.95590    2.91690
 1700.00000    -999.25    -999.25  530.08440  530.08440    1.88650    -999.25    -999.25    -999.25    -999.25    1.72690    1.65720  -21.86960   -2.42640    1.65720
 1750.00000    -999.25    -999.25  111.62420  110.83030    9.02280    -999.25    -999.25    -999.25    -999.25    9.02280    6.92700  -27.55750   -8.28360    6.92700
 1800.00000    -999.25    -999.25   92.43390   92.48720   10.81760    -999.25    -999.25    -999.25    -999.25   10.81760    9.34000  -41.38530  -22.27990    9.34000
 1850.00000    -999.25    -999.25  123.44970  124.35180    8.04170    -999.25    -999.25    -999.25    -999.25    8.04170    9.04440  -29.14210  -10.20670    9.04440
 1900.00000    -999.25    -999.25  266.49250  266.49250    3.75250    -999.25    -999.25    -999.25    -999.25    3.51180    3.12090  -22.48590   -3.71980    3.12090
 1950.00000    -999.25    -999.25  174.16250  183.92160    5.43710    -999.25    -999.25    -999.25    -999.25    5.43710    5.09090  -24.64540   -6.04860    5.09090
 2000.00000    -999.25    -999.25  244.07370  244.07370    4.09710    -999.25    -999.25    -999.25    -999.25    3.79060    3.52110  -19.40430   -0.97680    3.52110
 2050.00000    -999.25    -999.25  329.50390  329.50390    3.03610    -999.25    -999.25    -999.25    -999.25    2.63910    3.40750  -21.50650   -3.24740    3.40750
 2100.00000    -999.25    -999.25  253.84200  253.84200    3.93950    -999.25    -999.25    -999.25    -999.25    3.46930    3.18750  -21.07430   -2.98530    3.18750
 2150.00000    -999.25    -999.25  204.93930  204.93930    4.87950    -999.25    -999.25    -999.25    -999.25    4.30150    3.60540  -19.83050   -1.89580    3.60540
 2200.00000    -999.25    -999.25   99.15670  107.75860    9.28000    -999.25    -999.25    -999.25    -999.25    9.28000    8.02510  -37.90210  -20.12060    8.02510
 2250.00000    -999.25    -999.25  269.46940  269.46940    3.71100    -999.25    -999.25    -999.25    -999.25    3.58170    3.18240  -19.09150   -1.46330    3.18240
 2300.00000    -999.25    -999.25   96.84890   96.87830   10.32570    -999.25    -999.25    -999.25    -999.25   10.32570    9.04010  -40.75380  -23.27810    9.04010
 2350.00000    -999.25    -999.25  272.51260  272.51260    3.66960    -999.25    -999.25    -999.25    -999.25    3.65550    3.33960  -19.14320   -1.82150    3.33960
 2400.00000    -999.25    -999.25  277.41080  277.41080    3.60480    -999.25    -999.25    -999.25    -999.25    3.38680    3.72230  -18.35140   -1.18300    3.72230
 2450.00000    -999.25    -999.25  198.21110  195.71390    5.10950    -999.25    -999.25    -999.25    -999.25    5.10950    4.74590  -25.06190   -8.04680    4.74590
 2500.00000    -999.25    -999.25  132.03260  131.97840    7.57700    -999.25    -999.25    -999.25    -999.25    7.57700    7.10160  -36.28920  -19.42730    7.10160
 2550.00000    -999.25    -999.25  184.30480  191.05270    5.23520    -999.25    -999.25    -999.25    -999.25    5.04600    4.65470  -24.11870   -7.40930    4.65470
 2600.00000    -999.25    -999.25  286.64740  286.64740    3.48860    -999.25    -999.25    -999.25    -999.25    3.28110    2.97630  -17.96270   -1.40740    2.97630
 2650.00000    -999.25    -999.25  247.47860  247.47860    4.04080    -999.25    -999.25    -999.25    -999.25    3.71590    3.45550  -18.69760   -2.29550    3.45550
 2700.00000    -999.25    -999.25  278.72430  278.72430    3.58780    -999.25    -999.25    -999.25    -999.25    3.24020    3.76670  -19.54120   -3.29240    3.76670
 2750.00000    -999.25    -999.25  161.61600  179.41080    5.57380    -999.25    -999.25    -999.25    -999.25    5.57380    4.95160  -22.57690   -6.48130    4.95160
 2800.00000    -999.25    -999.25  186.55940  197.58850    5.06110    -999.25    -999.25    -999.25    -999.25    5.06110    4.48640  -23.79490   -7.85180    4.48640
 2850.00000    -999.25    -999.25  212.49590  212.49590    4.70600    -999.25    -999.25    -999.25    -999.25    4.35160    4.05360  -22.17980   -6.39080    4.05360
 2900.00000    -999.25    -999.25  125.67680  138.99510    7.19450    -999.25    -999.25    -999.25    -999.25    7.19450    8.69980  -22.77060   -7.13480    8.69980
 2950.00000    -999.25    -999.25  157.97820  166.12400    6.01960    -999.25    -999.25    -999.25    -999.25    6.01960    5.58010  -22.07670   -6.59420    5.58010
 3000.00000    -999.25    -999.25  159.51050  176.45090    5.66730    -999.25    -999.25    -999.25    -999.25    5.66730    5.27550  -22.24740   -6.91820    5.27550
 3050.00000    -999.25    -999.25  178.03500  189.15250    5.30280    -999.25    -999.25    -999.25    -999.25    5.00150    4.49500  -21.57290   -6.39620    4.49500
 3100.00000    -999.25    -999.25  143.99370  148.13720    6.75050    -999.25    -999.25    -999.25    -999.25    6.75050    6.43120  -23.04060   -8.01790    6.43120
 3150.00000    -999.25    -999.25  166.31000  173.97050    5.74810    -999.25    -999.25    -999.25    -999.25    5.74810    5.42640  -21.13420   -6.26480    5.42640
 3200.00000    -999.25    -999.25  149.38280  160.05890    6.24770    -999.25    -999.25    -999.25    -999.25    6.24770    5.16240  -24.07520   -9.35900    5.16240
 3250.00000    -999.25    -999.25  165.31710  179.31750    5.57670    -999.25    -999.25    -999.25    -999.25    5.57670    4.89690  -25.04410  -10.48120    4.89690
 3300.00000    -999.25    -999.25  197.72500  197.72500    5.05750    -999.25    -999.25    -999.25    -999.25    4.43410    4.11210  -23.31020   -8.89980    4.11210
