~Version ---------------------------------------------------
VERS.      2.0 : CWLS log ASCII Standard -VERSION 2.0
WRAP.       NO : One line per depth step
CREA. 09/27/17 : LAS Creation Date
~Well ------------------------------------------------------
STRT.FT                        300.0 : START DEPTH
STOP.FT                      12850.0 : STOP DEPTH
STEP.FT                     50.00000 : STEP LENGTH
NULL.                        -999.25 : NULL VALUE
COMP.  WESTERN DECALTA PETROLEUM LTD : COMPANY
WELL. DECALTA ET AL BRAZR 6-31-47-13 : WELL
FLD .                  BRAZEAU RIVER : FIELD
LOC .                                : LOCATION
CTRY.                         CANADA : COUNTRY
SRVC.                   Schlumberger : SERVICE COMPANY
DATE.                    15-Mar-1978 : LOGDATE
PROV.                        Alberta : PROVINCE
UWI .               100063104713W500 : UNIQUE WELL ID
SLAT.WGS84                  53.09535 : SURFACE LATITUDE
SLON.WGS84                 -115.8946 : SURFACE LONGITUDE
~Curve Information -----------------------------------------
DEPT    .FT    : Depth Curve
CALDED  .IN    : CALIPER FROM DENSITY LOG [ADJ. TO RESISTIVITY LOG]
CALSED  .IN    : CALIPER FROM SONIC LOG [ADJ. TO RESISTIVITY LOG]
CALWS   .IN    : CALIPER [CALSED]
CONDWS  .MMHO  : CONDUCTIVITY [1000/DRESWS]
DCORWS  .G/C3  : DENSITY CORRECTION [DRHOED]
DENWS   .G/C3  : FORAMTION BULK DENSITY [CALC FROM DPOLSWS,M=2.71, F=1.00]
DPHILSED.V/V   : DENSITY POROSITY LIMESTONE [M=2.71, F=1.00] FROM DENSITY LOG [ADJ. TO RESISTIVITY LOG]
DPHISSED.V/V   : DENSITY POROSITY SANDSTONE [M=2.65, F=1.00] FROM DENSITY LOG [ADJ. TO RESISTIVITY LOG]
DPOLSWS .V/V   : DENSITY POROSITY LIMESTONE [DPHISSED MATRIX CONVERTED TO LS & SPL. TO DPHILSED @ 9450']
DRESWS  .OHMM  : DEEP RESISTIVITY [ILDED]
DRHOED  .G/C3  : DENSITY CORRECTION FROM DENSITY LOG [ADJ. TO RESISTIVITY LOG]
DTED    .US/F  : DELTA TIME FROM SONIC LOG [ADJ. TO RESISTIVITY LOG]
DTWS    .US/F  : COMPRESSIONAL SONIC [DTED]
GRDED   .GAPI  : GAMMA RAY FROM DENSITY LOG [ADJ. TO RESISTIVITY LOG]
GRSED   .GAPI  : GAMMA RAY FROM SONIC LOG [ADJ. TO RESISTIVITY LOG]
GRWS    .GAPI  : GAMMA RAY [GRSED SPL. TO GRDED @ 12818']
ILDED   .OHMM  : DEEP INDUCTION RESISTIVITY FROM RESISTIVITY LOG
ILMED   .OHMM  : MEDIUM INDUCTION RESISTIVITY FROM RESISTIVITY LOG
LL8ED   .OHMM  : 8 INCH LATEROLOG RESISTIVITY FROM RESISTIVITY LOG
MRESWS  .OHMM  : MEDIUM RESISTIVITY [ILMED]
NPHILSED.V/V   : NEUTRON POROSITY LIMESTONE FROM DENSITY LOG [ADJ. TO RESISTIVITY LOG]
NPHISSED.V/V   : NEUTRON POROSITY SANDSTONE FROM DENSITY LOG [ADJ. TO RESISTIVITY LOG]
NPOLSWS .V/V   : NEUTRON POROSITY LIMESTONE [NPHISSED MATRIX CONVERTED TO LS & SPL. TO NPHILSED @ 9350']
RHOBED  .G/C3  : BULK DENSITY FROM DENSITY LOG [ADJ. TO RESISTIVITY LOG]
SPRED   .MV    : SPONTANEOUS POTENTIAL FROM RESISTIVITY LOG
SPWS    .MV    : SPONTANEOUS POTENTIAL [BASELINE 0 MV, SPRED]
SRESWS  .OHMM  : SHALLOW RESISTIVITY [LL8ED]
~Params ----------------------------------------------------
PD  .                     GL : PERMANENT DATUM
EPD .FT                 3420 : ELEVATION PERMANENT DATUM
LMF .                     KB : LOG MEASURED FROM
DAPD.FT                   27 : FEET ABOVE PERMANENT DATUM
DMF .                     KB : DRILLING MEASURED FROM
EGL .FT                 3420 : GROUND LEVEL
DATE.               03/15/78 : RUN DATE
RUN .                      2 : RUN NUMBER
DD  .FT                12857 : DEPTH DRILLER
DL  .FT                12856 : DEPTH LOGGER
BLI .FT                12850 : BOTTOM LOG INTERVAL
TLI .FT                10390 : TOP LOG INTERVAL
CS  .IN                9.625 : CASING SIZE
CBD .FT                10395 : CASING BOTTOM DRILLER
CBL .FT                10390 : CASING BOTTOM LOGGER
BS  .IN                6.125 : BIT SIZE
BSD .FT                12857 : BIT SIZE AT DEPTH
DFT .                    GEL : DRILLING FLUID TYPE
DFD .                   10.3 : DRILLING FLUID DENSITY
DFV .                     44 : DRILLING FLUID VISCOSITY
DFPH.                   11.5 : DRILLING FLUID PH
DFL .                    8.8 : DRILLING FLUID LOSS
MSS .               FLOWLINE : MUD SAMPLE SOURCE
RMS .OHMM               0.89 : RESISTIVITY MUD SAMPLE
MST .DEGF                 62 : MUD SAMPLE TEMPERATURE
TCS .HRS                 2.5 : TIME CIRCULATED STOPPED
LUN .                   7687 : LOGGING UNIT NUMBER
LUL .                    EDA : LOGGING UNIT LOCATION
ENGI.               BERNISKY : RECORDING ENGINEER
WITN.                  COWAN : WITNESSED BY
CLNT.                A2DTECH : CLIENT CODE
ORIG.            2" 5" PRINT : ORIGIN OF DATA
UWI .       100063104713W500 : UNIQUE WELL ID
DICO. A2D Technologies, Inc. : DIGITIZING COMPANY
~Other -----------------------------------------------------
DIL-LL-CNL-FDC-BHC LOG RUN
NEUTRON CONVERSION: SCHLUMBERGER, DESCRIPTION: CNL(NPHI)
~ASCII -----------------------------------------------------
# ...
 10700.00000    8.67890    6.51450    6.51450    0.57100    0.27930    2.75020   -0.02350    -999.25   -0.02350 1751.31910    0.27930   48.43340   48.43340   10.45350    9.16590    9.16590 1751.31910  229.12310  613.67900  229.12310    0.00770    -999.25    0.00770    2.78810 -167.71390 -107.44200  613.67900
 10750.00000    6.82930    6.30160    6.30160   31.35800    0.14280    2.81350   -0.05010    -999.25   -0.05010   31.88980    0.14280   50.13700   50.13700   12.36200   10.31490   10.31490   31.88980   48.53360  143.58250   48.53360    0.05140    -999.25    0.05140    2.78970 -167.92730 -101.55260  143.58250
 10800.00000    8.71380    6.61960    6.61960    3.26630    0.16040    2.80460   -0.05010    -999.25   -0.05010  306.15870    0.16040   49.90320   49.90320   12.05760    9.02250    9.02250  306.15870 1867.49230  466.80000 1867.49230    0.00620    -999.25    0.00620    2.78090  -98.91100  -26.43350  466.80000
 10850.00000    9.69680    6.62350    6.62350    6.45210    0.21060    2.73740   -0.01600    -999.25   -0.01600  154.98890    0.21060   49.30370   49.30370   11.94260    8.82890    8.82890  154.98890  680.65750  600.49010  680.65750    0.01260    -999.25    0.01260    2.74130  -89.29580  -12.87920  600.49010
 10900.00000    7.23620    6.36740    6.36740   16.82850    0.04490    2.68790   -0.01490    -999.25   -0.01490   59.42310    0.04490   49.54530   49.54530   13.34360    8.59210    8.59210   59.42310  644.86320  322.73690  644.86320    0.04700    -999.25    0.04700    2.77380 -170.53400  -94.57100  322.73690
 10950.00000    7.39610    6.33980    6.33980    6.05680    0.16460    2.86200   -0.09390    -999.25   -0.08890  165.10300    0.16460   47.75130   47.75130   11.87120   10.22310   10.22310  165.10300  371.97440 1003.95390  371.97440    0.02810    -999.25    0.02810    2.86200 -187.91870 -112.40940 1003.95390
 11000.00000    7.56050    6.69920    6.69920    0.45560    0.14030    2.93850   -0.12050    -999.25   -0.12050 2195.03590    0.14030   48.05830   48.05830   10.41000    8.31840    8.31840 2195.03590 1776.42260 1565.24630 1776.42260    0.00280    -999.25    0.00280    2.90720 -197.01500 -121.95930 1565.24630
 11050.00000    7.19920    6.45070    6.45070    0.59820    0.11480    2.91260   -0.10820    -999.25   -0.10820 1671.82030    0.11480   46.99720   46.99720   16.92320   12.81970   12.81970 1671.82030 1529.75730 1536.60440 1529.75730    0.01200    -999.25    0.01200    2.89700 -151.54780  -76.94570 1536.60440
 11100.00000    6.68070    6.27150    6.27150   28.28090    0.11330    2.73720   -0.01590    -999.25   -0.01590   35.35960    0.11330   57.28130   57.28130   10.43980    8.48710    8.48710   35.35960   75.27420   84.67080   75.27420    0.09460    -999.25    0.09460    2.74360 -274.62460 -200.47610   84.67080
 11150.00000    8.75590    6.44850    6.44850    6.58970    0.28010    2.70290    0.00590    -999.25    0.00590  151.75290    0.28010   49.45860   49.45860   32.72590   24.93150   24.93150  151.75290 2024.08340  821.33530 2024.08340    0.01860    -999.25    0.01860    2.68230 -241.39480 -167.70000  821.33530
 11200.00000   11.10040    6.57260    6.57260    6.46380    0.27260    2.46910    0.14090    -999.25    0.14090  154.70690    0.27260   54.70540   54.70540   35.03050   26.61890   26.61890  154.70690   78.41370  350.06980   78.41370    0.05940    -999.25    0.05940    2.47530 -187.14740 -113.90620  350.06980
 11250.00000    9.58850    6.65870    6.65870    0.75680    0.25860    2.80910   -0.05310    -999.25   -0.05310 1321.44020    0.25860   48.93620   48.93620   18.31750   15.91100   15.91100 1321.44020 1315.90580  425.89540 1315.90580    0.04800    -999.25    0.04800    2.78890 -218.45300 -145.66540  425.89540
 11300.00000    8.83280    6.46170    6.46170   54.93300    0.27720    2.63750    0.04010    -999.25    0.04010   18.20400    0.27720   67.80840   67.80840  110.83500   98.51810   98.51810   18.20400   20.81320   36.20950   20.81320    0.15810    -999.25    0.15810    2.64610 -126.52180  -54.18780   36.20950
 11350.00000    7.34770    6.53550    6.53550   23.02210    0.12710    2.76830   -0.03410    -999.25   -0.03410   43.43650    0.12710   61.60880   61.60880   77.53580   77.25750   77.25750   43.43650   40.34930   47.66610   40.34930    0.11590    -999.25    0.11590    2.76610  -77.82370   -5.94340   47.66610
 11400.00000    7.57460    6.77820    6.77820   71.75870    0.06560    2.80660   -0.04820    -999.25   -0.04820   13.93560    0.06560   57.20940   57.20940   76.22240   66.09550   66.09550   13.93560   14.81550   25.97140   14.81550    0.08510    -999.25    0.08510    2.78850 -154.37900  -72.93150   25.97140
 11450.00000    8.60640    6.93890    6.93890    8.39100    0.05480    2.79140   -0.04760    -999.25   -0.04760  119.17490    0.05480   51.91370   51.91370   30.35050   28.82880   28.82880  119.17490   63.30560  133.71850   63.30560    0.01120    -999.25    0.01120    2.79000 -208.39500 -116.38920  133.71850
 11500.00000    8.26030    6.97240    6.97240   33.43290    0.09100    2.79760   -0.05900    -999.25   -0.05900   29.91070    0.09100   55.48530   55.48530   38.45340   33.82740   33.82740   29.91070   30.97780   40.09580   30.97780    0.03710    -999.25    0.03710    2.79740 -223.95250 -121.38840   40.09580
 11550.00000    8.10220    7.17280    7.17280  125.51460    0.02430    2.74220   -0.01850    -999.25   -0.01850    7.96720    0.02430   59.20280   59.20280   72.41350   51.78800   51.78800    7.96720    9.20330   19.72700    9.20330    0.08140    -999.25    0.08140    2.73880 -190.92430  -77.80190   19.72700
 11600.00000    7.97140    7.49790    7.49790  161.46740    0.03060    2.73140   -0.01250    -999.25   -0.01250    6.19320    0.03060   68.75090   68.75090  100.51410   83.92690   83.92690    6.19320    5.72050    9.45630    5.72050    0.15300    -999.25    0.15300    2.73980 -216.51550  -92.83480    9.45630
 11650.00000    7.92670    7.33430    7.33430  181.62330    0.21290    2.86620   -0.09700    -999.25   -0.09700    5.50590    0.21290   69.17410   69.17410   85.48770   71.91990   71.91990    5.50590    5.21730    7.80080    5.21730    0.15710    -999.25    0.15710    2.87720 -223.13210  -88.89310    7.80080
 11700.00000    9.60480    7.40490    7.40490  217.15060    0.19150    2.41280    0.17380    -999.25    0.17380    4.60510    0.19150   73.01730   73.01730   92.35050   84.06910   84.06910    4.60510    4.78850    7.03010    4.78850    0.19340    -999.25    0.19340    2.40770 -215.80180  -71.00450    7.03010
 11750.00000   12.94390    9.05730    9.05730  262.79140    0.24520    2.31200    0.24050    -999.25    0.24050    3.80530    0.24520   77.36870   77.36870   93.41680   83.31750   83.31750    3.80530    3.53870    4.95210    3.53870    0.26980    -999.25    0.26980    2.31100 -213.18520  -57.82960    4.95210
 11800.00000   10.83600    6.87270    6.87270  267.31540    0.25220    2.50650    0.12350    -999.25    0.12350    3.74090    0.25220   76.37150   76.37150   95.28660   88.49090   88.49090    3.74090    3.41940    5.10140    3.41940    0.22960    -999.25    0.22960    2.49460 -175.79000  -12.39250    5.10140
 11850.00000   12.91490    7.78300    7.78300  290.99370    0.26790    2.49200    0.12750    -999.25    0.12750    3.43650    0.26790   78.23800   78.23800   98.98610   85.27230   85.27230    3.43650    3.31640    4.94940    3.31640    0.27650    -999.25    0.27650    2.51150 -211.60050  -51.62470    4.94940
 11900.00000   11.44380    7.36430    7.36430  258.19780    0.25110    2.65250    0.02640    -999.25    0.02640    3.87300    0.25110   74.65640   74.65640   89.78700   79.80640   79.80640    3.87300    3.47640    5.52370    3.47640    0.18920    -999.25    0.18920    2.66970 -187.02740  -30.47340    5.52370
 11950.00000    7.97970    6.85800    6.85800  185.10630    0.03600    2.73500   -0.01460    -999.25   -0.01460    5.40230    0.03600   69.13130   69.13130   85.20140   76.21190   76.21190    5.40230    5.05130    7.83990    5.05130    0.15040    -999.25    0.15040    2.73000 -197.37080  -44.23850    7.83990
