~Version ---------------------------------------------------
VERS.      2.0 : CWLS log ASCII Standard -VERSION 2.0
WRAP.       NO : One line per depth step
CREA. 11/16/17 : LAS Creation Date
~Well ------------------------------------------------------
STRT.FT                         1050.0 : START DEPTH
STOP.FT                        10100.0 : STOP DEPTH
STEP.FT                       50.00000 : STEP LENGTH
NULL.                          -999.25 : NULL VALUE
COMP.             PETROFINA CANADA LTD : COMPANY
WELL.        FINA ET AL WIND 7-7-61-16 : WELL
FLD .                                  : FIELD
LOC .                                  : LOCATION
CTRY.                           CANADA : COUNTRY
SRVC. Schlumberger Well Surveying Corp : SERVICE COMPANY
DATE.                      23-Jan-1978 : LOGDATE
PROV.                          Alberta : PROVINCE
UWI .                 100070706116W500 : UNIQUE WELL ID
SLAT.WGS84                    54.25864 : SURFACE LATITUDE
SLON.WGS84                    -116.383 : SURFACE LONGITUDE
~Curve Information -----------------------------------------
DEPT    .FT    : Depth Curve
CALDED  .IN    : CALIPER FROM DENSITY LOG [ADJ.TO RESISTIVITY LOG]
CALSED  .IN    : CALIPER FROM SONIC LOG [ADJ.TO RESISTIVITY LOG]
CALWS   .IN    : CALIPER [CALSED]
CONDWS  .MMHO  : CONDUCTIVITY [1000/DRESWS]
DCORWS  .G/C3  : DENSITY CORRECTION [DRHOED]
DENWS   .G/C3  : FORMATION BULK DENSITY [RHOBED]
DPHILSED.V/V   : DENSITY POROSITY LIMESTONE [M=2.71, F=1.00] FROM DENSITY LOG [ADJ.TO RESISTIVITY LOG]
DPHISSED.V/V   : DENSITY POROSITY SANDSTONE [M=2.65, F=1.00] FROM DENSITY LOG [ADJ.TO RESISTIVITY LOG]
DPOLSWS .V/V   : DENSITY POROSITY LIMESTONE [CALC FROM DENWS, M=2.71, F=1.00]
DRESWS  .OHMM  : DEEP RESISTIVITY [ILDED]
DRHOED  .G/C3  : DENSITY CORRECTION FROM DENSITY LOG [ADJ.TO RESISTIVITY LOG]
DTED    .US/F  : DELTA TIME FROM SONIC LOG [ADJ.TO RESISTIVITY LOG]
DTWS    .US/F  : COMPRESSIONAL SONIC [DTED]
GRDED   .GAPI  : GAMMA RAY FROM DENSITY LOG [ADJ.TO RESISTIVITY LOG]
GRDRED  .GAPI  : GAMMA RAY [FROM REPEAT SECTION] FROM DENSITY LOG [ADJ.TO RESISTIVITY LOG]
GRSED   .GAPI  : GAMMA RAY FROM SONIC LOG [ADJ.TO RESISTIVITY LOG]
GRSRED  .GAPI  : GAMMA RAY [FROM REPEAT SECTION] FROM SONIC LOG [ADJ.TO RESISTIVITY LOG]
GRWS    .GAPI  : GAMMA RAY [GRSED SPL.TO GRSRED @ 10087.5']
ILDED   .OHMM  : DEEP INDUCTION FROM RESISTIVITY LOG
ILMED   .OHMM  : MEDIUM INDUCTION FROM RESISTIVITY LOG
LL8ED   .OHMM  : LATEROLOG 8 FROM RESISTIVITY LOG
MRESWS  .OHMM  : MEDIUM RESISTIVITY [ILMED]
NPHILSED.V/V   : NEUTRON POROSITY LIMESTONE FROM DENSITY LOG [ADJ.TO RESISTIVITY LOG]
NPHISSED.V/V   : NEUTRON POROSITY SANDSTONE FROM DENSITY LOG [ADJ.TO RESISTIVITY LOG]
NPOLSWS .V/V   : NEUTRON POROSITY LIMESTONE [NPHISSED MATRIX (SLB) CONVERSION FOR LIMESTONE, SPL.TO NPHILSED @ 6298']
RHOBED  .G/C3  : BULK DENSITY FROM DENSITY LOG [ADJ.TO RESISTIVITY LOG]
SPRED   .MV    : SPONTANEOUS POTENTIAL FROM RESISTIVITY LOG
SPWS    .MV    : SPONTANEOUS POTENTIAL [BASELINE 0 MV, SPRED]
SRESWS  .OHMM  : SHALLOW RESISTIVITY [LL8ED]
~Params ----------------------------------------------------
PD  .                     GL : PERMANENT DATUM
EPD .FT               2840.2 : ELEVATION PERMANENT DATUM
LMF .                     KB : LOG MEASURED FROM
DAPD.FT                 13.8 : FEET ABOVE PERMANENT DATUM
EKB .FT                 2854 : KELLY BUSHING
EGL .FT               2840.2 : GROUND LEVEL
DATE.               01/23/78 : RUN DATE
RUN .                      1 : RUN NUMBER
DD  .FT                10130 : DEPTH DRILLER
DL  .FT                10136 : DEPTH LOGGER
BLI .FT                10130 : BOTTOM LOG INTERVAL
TLI .FT                 1041 : TOP LOG INTERVAL
CBD .FT                 1041 : CASING BOTTOM DRILLER
CBL .FT                 1041 : CASING BOTTOM LOGGER
BS  .IN                7.875 : BIT SIZE
BSD .FT                10130 : BIT SIZE AT DEPTH
DFT .               GEL CHEM : DRILLING FLUID TYPE
DFD .                    9.1 : DRILLING FLUID DENSITY
DFV .                     88 : DRILLING FLUID VISCOSITY
DFPH.                    9.6 : DRILLING FLUID PH
DFL .                      6 : DRILLING FLUID LOSS
MSS .               FLOWLINE : MUD SAMPLE SOURCE
RMF .OHMM                2.1 : RESISTIVITY MUD FILTRATE SAMPLE
MFST.DEGF                 61 : MUD FILTRATE SAMPLE TEMPERATURE
RMB .OHMM               0.67 : RESISTIVITY MUD AT BHT
TCS .HRS                 2.5 : TIME CIRCULATED STOPPED
LUN .                   7730 : LOGGING UNIT NUMBER
LUL .                    EDM : LOGGING UNIT LOCATION
ENGI.               CAMPBELL : RECORDING ENGINEER
WITN.                  SMITH : WITNESSED BY
CLNT.                A2DTECH : CLIENT CODE
ORIG.            2" 5" PRINT : ORIGIN OF DATA
UWI .       100070706116W500 : UNIQUE WELL ID
DICO. A2D Technologies, Inc. : DIGITIZING COMPANY
~Other -----------------------------------------------------
~ASCII -----------------------------------------------------
# ...
 6050.00000   10.42810   10.35800   10.35800  138.67700    0.12100    2.57890    -999.25    0.05560    0.07670    7.21100    0.12100   79.64440   79.64440  102.86170    -999.25  107.19370    -999.25  107.19370    7.21100    7.63750    9.22140    7.63750    -999.25    0.33790    0.29410    2.57890  -64.72470   -1.65750    9.22140
 6100.00000    9.53430    9.34380    9.34380   51.46550    0.03210    2.64740    -999.25   -0.00610    0.03660   19.47910    0.03210   68.52880   68.52880   74.30750    -999.25   84.90780    -999.25   84.90780   19.47910   21.68800   42.93090   21.68800    -999.25    0.21140    0.16780    2.64740  -64.65370   -2.28220   42.93090
 6150.00000    9.26990    9.20470    9.20470   71.65020    0.03340    2.57530    -999.25    0.03930    0.07880   13.95670    0.03340   69.24960   69.24960   93.43950    -999.25   90.51830    -999.25   90.51830   13.95670   18.30250   22.92220   18.30250    -999.25    0.26050    0.21650    2.57530  -80.24570  -18.56370   22.92220
 6200.00000   10.17670    9.71060    9.71060  137.99360    0.06660    2.52230    -999.25    0.06310    0.10970    7.24740    0.06660   78.58800   78.58800  122.81560    -999.25  126.51970    -999.25  126.51970    7.24740    7.61820   10.59180    7.61820    -999.25    0.31610    0.27220    2.52230  -62.95790   -1.97170   10.59180
 6250.00000   12.59000   10.44100   10.44100  234.19750    0.22150    2.65780    -999.25   -0.02700    0.03050    4.26990    0.22150   85.17590   85.17590  112.24370    -999.25  115.71660    -999.25  115.71660    4.26990    4.45580    6.18840    4.45580    -999.25    0.37290    0.32960    2.65780  -62.69900   -2.25180    6.18840
 6300.00000   13.18530   11.01150   11.01150  221.52320    0.15740    2.50500    0.12990    0.08430    0.11990    4.51420    0.15740   88.50200   88.50200  124.79770    -999.25  119.91630    -999.25  119.91630    4.51420    4.63550    6.88580    4.63550    0.33400    0.39550    0.35250    2.50500  -60.59440   -0.29670    6.88580
 6350.00000    9.37070    8.99120    8.99120   51.56260    0.09070    2.52940    0.10840    0.07490    0.10560   19.47500    0.09070   75.84340   75.84340   82.18490    -999.25   81.35640    -999.25   81.35640   19.47500   21.30210   34.88540   21.30210    0.20650    0.23960    0.20650    2.52940  -65.26070   -4.73590   34.88540
 6400.00000   10.82160    9.96620    9.96620  124.35030    0.20670    2.41290    0.17840    0.05070    0.17370    8.04180    0.20670   89.60880   89.60880  137.77310    -999.25  139.60350    -999.25  139.60350    8.04180    8.06890   14.10250    8.06890    0.35410    -999.25    0.35410    2.41290  -62.24930   -1.49870   14.10250
 6450.00000    8.98770    8.94900    8.94900    4.71820    0.01680    2.63240    0.03890    -999.25    0.04540  211.99480    0.01680   57.46640   57.46640   41.44500    -999.25   43.28250    -999.25   43.28250  211.99480  231.93530  355.72550  231.93530    0.09010    -999.25    0.09010    2.63240  -95.20260  -34.22490  355.72550
 6500.00000    9.39510    9.41500    9.41500   64.71860    0.00990    2.59890    0.05480    -999.25    0.06500   15.45150    0.00990   62.66460   62.66460   88.15020    -999.25   92.31770    -999.25   92.31770   15.45150   16.10220   20.12970   16.10220    0.11970    -999.25    0.11970    2.59890  -92.74940  -31.54580   20.12970
 6550.00000    9.95530    9.76200    9.76200   54.26290    0.02340    2.71000   -0.00920    -999.25    0.00000   18.42880    0.02340   59.53310   59.53310   81.15180    -999.25   94.29150    -999.25   94.29150   18.42880   20.23570   29.85140   20.23570    0.08030    -999.25    0.08030    2.71000  -64.80990   -3.39550   29.85140
 6600.00000    9.47560    9.16480    9.16480   60.41220    0.09910    2.58390    0.05810    -999.25    0.07370   16.56200    0.09910   52.41990   52.41990   51.22760    -999.25   47.61280    -999.25   47.61280   16.56200   18.73710   45.36670   18.73710    0.09950    -999.25    0.09950    2.58390 -107.25350  -46.17710   45.36670
 6650.00000   10.34960    9.44160    9.44160   75.55270    0.18760    2.69880   -0.00030    -999.25    0.00650   13.23580    0.18760   51.58960   51.58960   36.07130    -999.25   37.69620    -999.25   37.69620   13.23580   14.01990  100.27750   14.01990    0.03630    -999.25    0.03630    2.69880 -104.92600  -44.18520  100.27750
 6700.00000    9.14900    9.06780    9.06780   12.96550    0.01330    2.74280   -0.03620    -999.25   -0.01920   77.38630    0.01330   51.32140   51.32140   40.36310    -999.25   38.11050    -999.25   38.11050   77.38630   90.69620  203.60080   90.69620    0.01690    -999.25    0.01690    2.74280  -82.05090  -21.64790  203.60080
 6750.00000   11.06710    9.08700    9.08700   19.13750    0.20800    2.70800    0.01350    -999.25    0.00120   52.25330    0.20800   49.79760   49.79760   20.99810    -999.25   20.00660    -999.25   20.00660   52.25330   60.05030  143.93530   60.05030    0.02470    -999.25    0.02470    2.70800 -145.25520  -85.18780  143.93530
 6800.00000    8.58350    8.35400    8.35400  114.36810    0.06230    2.63150    0.05010    -999.25    0.04590    8.74370    0.06230   54.17700   54.17700   17.96200    -999.25   22.18970    -999.25   22.18970    8.74370   14.07400   47.44220   14.07400    0.11420    -999.25    0.11420    2.63150 -188.58450 -128.85280   47.44220
 6850.00000    8.91090    8.30060    8.30060   41.59730    0.06970    2.65390    0.02500    -999.25    0.03280   24.11520    0.06970   51.86430   51.86430   15.48270    -999.25   18.06900    -999.25   18.06900   24.11520   31.49750  183.85810   31.49750    0.02510    -999.25    0.02510    2.65390 -166.24350 -106.84970  183.85810
 6900.00000    9.18720    9.05030    9.05030  236.04390    0.10910    2.71430   -0.00970    -999.25   -0.00250    4.23650    0.10910   64.25690   64.25690   81.19230    -999.25   83.55340    -999.25   83.55340    4.23650    4.35340    5.38650    4.35340    0.18860    -999.25    0.18860    2.71430  -87.77560  -28.71730    5.38650
 6950.00000    9.00570    8.92620    8.92620   70.88060    0.04350    2.74520   -0.02860    -999.25   -0.02060   14.10890    0.04350   55.97970   55.97970   78.48450    -999.25   80.93920    -999.25   80.93920   14.10890   16.30730   32.97440   16.30730    0.07340    -999.25    0.07340    2.74520  -74.46930  -15.74900   32.97440
 7000.00000    9.22200    9.03910    9.03910   75.64300    0.02100    2.70390   -0.00190    -999.25    0.00360   13.22000    0.02100   60.48630   60.48630   68.05940    -999.25   81.47720    -999.25   81.47720   13.22000   14.55460   23.33620   14.55460    0.08690    -999.25    0.08690    2.70390  -60.16900   -1.81620   23.33620
 7050.00000    9.13370    8.97640    8.97640    4.83060    0.04110    2.74480   -0.02870    -999.25   -0.02040  207.01220    0.04110   50.93920   50.93920   18.06600    -999.25   22.09440    -999.25   22.09440  207.01220  293.88940  588.56670  293.88940    0.00960    -999.25    0.00960    2.74480  -82.26160  -25.46400  588.56670
 7100.00000    8.92770    8.93180    8.93180   22.31170    0.03270    2.70870   -0.00890    -999.25    0.00080   44.83740    0.03270   55.13630   55.13630   34.34570    -999.25   37.62650    -999.25   37.62650   44.83740   46.19320   67.94110   46.19320    0.04140    -999.25    0.04140    2.70870  -63.99040   -8.75820   67.94110
 7150.00000    8.78760    8.88440    8.88440   15.04990    0.01290    2.71930   -0.01400    -999.25   -0.00540   66.44560    0.01290   53.72140   53.72140   36.27800    -999.25   42.06240    -999.25   42.06240   66.44560   77.50510  115.77670   77.50510    0.03690    -999.25    0.03690    2.71930  -67.76330  -14.08610  115.77670
 7200.00000    8.91610    8.83750    8.83750   31.26940    0.01800    2.69110    0.00270    -999.25    0.01110   31.98030    0.01800   57.39940   57.39940   58.53380    -999.25   61.57630    -999.25   61.57630   31.98030   34.04490   44.83570   34.04490    0.06820    -999.25    0.06820    2.69110  -62.68040   -9.39550   44.83570
 7250.00000    8.79210    8.80930    8.80930   14.15080    0.01740    2.70430   -0.00110    -999.25    0.00330   70.66750    0.01740   54.19360   54.19360   38.28130    -999.25   42.26970    -999.25   42.26970   70.66750   79.17140  120.92200   79.17140    0.03690    -999.25    0.03690    2.70430  -70.77490  -17.08550  120.92200
