~Version ---------------------------------------------------
VERS.      2.0 : CWLS log ASCII Standard -VERSION 2.0
WRAP.       NO : One line per depth step
CREA. 12/12/17 : LAS Creation Date
~Well ------------------------------------------------------
STRT.FT                    750.0 : START DEPTH
STOP.FT                   6850.0 : STOP DEPTH
STEP.FT                 50.00000 : STEP LENGTH
NULL.                    -999.25 : NULL VALUE
COMP.       SHELL CANADA LIMITED : COMPANY
WELL. SHELL WESTLOCK 10-33-61-27 : WELL
FLD .                            : FIELD
LOC .                            : LOCATION
CTRY.                     CANADA : COUNTRY
SRVC.               Schlumberger : SERVICE COMPANY
DATE.                01-Feb-1966 : LOGDATE
PROV.                    Alberta : PROVINCE
UWI .           100103306127W400 : UNIQUE WELL ID
SLAT.WGS84              54.32129 : SURFACE LATITUDE
SLON.WGS84             -113.9838 : SURFACE LONGITUDE
~Curve Information -----------------------------------------
DEPT   .FT    : Depth Curve
CALDED .IN    : CALIPER FROM DENSITY LOG [ADJ. TO DIL LOG]
CALWS  .IN    : CALIPER [CALDED]
CILDED .MMHO  : CONDUCTIVITY FROM IEL LOG [ADJ. TO DIL LOG]
CONDWS .MMHO  : CONDUCTIVITY [1000/DRESWS]
DCORWS .G/C3  : DENSITY CORRECTION [DRHOED]
DENWS  .G/C3  : FORMATION BULK DENSITY [RHOBED]
DPOLSWS.V/V   : DENSITY POROSITY LIMESTONE [CALC FROM DENWS, M=2.71, F=1.00 ASSUMED]
DRESWS .OHMM  : DEEP RESISTIVITY [ILDED]
DRHOED .G/C3  : DENSITY CORRECTION FROM DENSITY LOG [ADJ. TO DIL LOG]
DTED   .US/F  : DELTA TIME FROM SONIC LOG [ADJ. TO DIL LOG]
DTWS   .US/F  : COMPRESSIONAL SONIC [DTED]
GRDED  .GAPI  : GAMMA RAY FROM DENSITY LOG [ADJ. TO DIL LOG]
GRSED  .GAPI  : GAMMA RAY FROM SONIC LOG [ADJ. TO DIL LOG]
GRWS   .GAPI  : GAMMA RAY [GRDED]
ILD1ED .OHMM  : DEEP INDUCTION LOG RESISTIVITY FROM IEL LOG [ADJ. TO DIL LOG]
ILDED  .OHMM  : DEEP INDUCTION LOG RESISTIVITY FROM DIL LOG (ILD SPL. TO ILD_2 @ 6068'-6572')
ILMED  .OHMM  : MEDIUM INDUCTION LOG RESISTIVITY FROM DIL LOG (ILM SPL. TO ILM_2 @ 6068'-6576')
LL8ED  .OHMM  : 8 INCH LATEROLOG RESISTIVITY FROM DIL LOG (LL8 SPL. TO LL8_2 @ 6068'-6506')
MRESWS .OHMM  : MEDIUM RESISTIVITY [ILMED]
RHOBED .G/C3  : BULK DENSITY FROM DENSITY LOG [ADJ. TO DIL LOG]
SNED   .OHMM  : 16 INCH SHORT NORMAL RESISTIVITY FROM IEL LOG [ADJ. TO DIL LOG]
SPR1ED .MV    : SPONTANEOUS POTENTIAL FROM IEL LOG [ADJ. TO DIL LOG]
SPRED  .MV    : SPONTANEOUS POTENTIAL FROM DIL LOG (SPR SPL. TO SPR_2 @ 6068'-6577')
SPWS   .MV    : SPONTANEOUS POTENTIAL [BASELINE 0 MV, SPRED]
SRESWS .OHMM  : SHALLOW RESISTIVITY [LL8ED]
~Params ----------------------------------------------------
PD  .                     GL : PERMANENT DATUM
EPD .FT               2008.9 : ELEVATION PERMANENT DATUM
LMF .                     KB : LOG MEASURED FROM
DAPD.FT                 13.8 : FEET ABOVE PERMANENT DATUM
EKB .FT               2022.7 : KELLY BUSHING
EGL .FT               2008.9 : GROUND LEVEL
DATE.               02/01/66 : RUN DATE
RUN .                      2 : RUN NUMBER
DD  .FT                 6850 : DEPTH DRILLER
DL  .FT                 6850 : DEPTH LOGGER
BLI .FT                 6846 : BOTTOM LOG INTERVAL
TLI .FT                 2900 : TOP LOG INTERVAL
CBD .FT                  724 : CASING BOTTOM DRILLER
CBL .FT                  724 : CASING BOTTOM LOGGER
BS  .IN                7.875 : BIT SIZE
BSD .FT                 6850 : BIT SIZE AT DEPTH
DFT .                    GEL : DRILLING FLUID TYPE
DFD .                    9.9 : DRILLING FLUID DENSITY
DFV .                     80 : DRILLING FLUID VISCOSITY
DFPH.                     11 : DRILLING FLUID PH
DFL .                    6.2 : DRILLING FLUID LOSS
RMS .OHMM               0.15 : RESISTIVITY MUD SAMPLE
MST .DEGF                 62 : MUD SAMPLE TEMPERATURE
RMF .OHMM               0.07 : RESISTIVITY MUD FILTRATE SAMPLE
MFST.DEGF                122 : MUD FILTRATE SAMPLE TEMPERATURE
RMC .OHMM               0.18 : RESISTIVITY MUD CAKE
MCST.DEGF                 68 : MUD CAKE SAMPLE TEMPERATURE
RMB .OHMM               0.09 : RESISTIVITY MUD AT BHT
TCS .HRS                   2 : TIME CIRCULATED STOPPED
LUN .                   2547 : LOGGING UNIT NUMBER
LUL .                     SL : LOGGING UNIT LOCATION
ENGI.                  CRAIN : RECORDING ENGINEER
WITN.                PHERSON : WITNESSED BY
CLNT.                A2DTECH : CLIENT CODE
ORIG.            2" 5" PRINT : ORIGIN OF DATA
UWI .       100103306127W400 : UNIQUE WELL ID
DICO. A2D Technologies, Inc. : DIGITIZING COMPANY
~Other -----------------------------------------------------
DIL-IEL-FDC-BCS TOOL RUN
~ASCII -----------------------------------------------------
# ...
 2150.00000   12.95200   12.95200  360.66020  393.36010    0.16480    2.10450    0.35410    2.54220    0.16480  109.79710  109.79710   87.66040   75.20150   87.66040    2.77440    2.54220    2.63270    3.92290    2.63270    2.10450    3.10900  -41.46430  -22.07010  -11.99260    3.92290
 2200.00000   12.58860   12.58860  341.13000  361.29780    0.22410    2.22030    0.28640    2.76780    0.22410  114.23090  114.23090   89.08380   79.93360   89.08380    2.92960    2.76780    2.67040    3.88710    2.67040    2.22030    3.35820  -42.41950  -23.10810  -13.85880    3.88710
 2250.00000   11.57320   11.57320  231.63890  248.99160    0.23540    2.31460    0.23120    4.01620    0.23540  104.96050  104.96050  115.31530  104.70190  115.31530    4.50060    4.01620    4.13640    5.49410    4.13640    2.31460    4.96030  -49.27880  -29.77500  -21.34850    5.49410
 2300.00000   11.67320   11.67320  666.15920  689.53860    0.04740    2.13730    0.33490    1.45020    0.04740  145.00650  145.00650   74.17350   71.20040   74.17350    1.70510    1.45020    1.50440    2.20230    1.50440    2.13730    1.95090  -40.03340  -18.77270  -11.16900    2.20230
 2350.00000    7.83230    7.83230  684.18600  669.52330    0.01940    2.26590    0.25970    1.49360    0.01940  105.17740  105.17740   57.23180   46.97250   57.23180    1.71620    1.49360    1.95120    4.95810    1.95120    2.26590    3.31260  -63.60000  -41.15300  -33.99310    4.95810
 2400.00000   12.60970   12.60970  375.35570  455.97560    0.13580    2.12860    0.34000    2.19310    0.13580  106.06610  106.06610   69.34290   58.54780   69.34290    2.66480    2.19310    2.10820    4.28580    2.10820    2.12860    3.86950  -46.26970  -16.48820   -9.32830    4.28580
 2450.00000    8.62050    8.62050  160.31450  154.34720    0.00890    2.30940    0.23430    6.47890    0.00890   97.11210   97.11210   50.49480   49.43330   50.49480    6.33580    6.47890    5.13390    7.89830    5.13390    2.30940    6.97060  -56.07830  -29.07230  -21.91240    7.89830
 2500.00000    8.98160    8.98160  217.24690  232.01860    0.01270    2.36240    0.20330    4.31000    0.01270   97.90250   97.90250   75.45820   67.87100   75.45820    4.80780    4.31000    4.21990    5.70040    4.21990    2.36240    5.44180  -53.54420  -27.17600  -20.01610    5.70040
 2550.00000    8.09550    8.09550  486.77410  501.28060   -0.00320    2.24130    0.27410    1.99490   -0.00320  102.58290  102.58290   64.48550   56.80190   64.48550    2.25800    1.99490    2.58520    6.06090    2.58520    2.24130    5.71950  -62.40210  -37.35780  -30.19790    6.06090
 2600.00000    8.08150    8.08150  415.42440  429.31350    0.01090    2.20470    0.29550    2.32930    0.01090  101.98900  101.98900   58.63790   55.99450   58.63790    2.65380    2.32930    2.87240    5.63280    2.87240    2.20470    4.98050  -60.96180  -35.23000  -28.07010    5.63280
 2650.00000    8.06890    8.06890  358.68020  378.04320   -0.00370    2.34260    0.21490    2.64520   -0.00370   96.24550   96.24550   70.25670   58.90090   70.25670    2.97390    2.64520    3.08060    5.02930    3.08060    2.34260    5.01760  -58.88060  -33.34410  -26.18420    5.02930
 2700.00000    8.40350    8.40350  226.32140  236.54080    0.00800    2.45550    0.14880    4.22760    0.00800   91.84280   91.84280   76.89070   79.01630   76.89070    4.80610    4.22760    4.34130    5.93260    4.34130    2.45550    5.35950  -54.23880  -29.59070  -22.43080    5.93260
 2750.00000    8.44990    8.44990  213.00360  221.11660   -0.00780    2.43700    0.15960    4.52250   -0.00780   91.08070   91.08070   75.73250   71.85540   75.73250    4.94750    4.52250    4.64820    7.58550    4.64820    2.43700    6.16790  -56.36560  -30.18630  -23.02640    7.58550
 2800.00000    7.70850    7.70850  279.66940  298.33860    0.06240    2.43680    0.15970    3.35190    0.06240   86.60010   86.60010   52.88070   52.21580   52.88070    3.79250    3.35190    5.23020   19.55300    5.23020    2.43680   12.47080  -64.30690  -37.31280  -30.15290   19.55300
 2850.00000    8.43980    8.43980  279.38210  292.96300    0.13520    2.15440    0.32490    3.41340    0.13520   98.03200   98.03200   70.94270   65.66150   70.94270    3.76890    3.41340    3.27200    5.98380    3.27200    2.15440    4.19110  -45.43020  -15.12390   -7.96400    5.98380
 2900.00000    8.25860    8.25860   59.84230   58.70610   -0.00750    2.66660    0.02540   17.03400   -0.00750   65.90000   65.90000   41.34130   35.07770   41.34130   17.51490   17.03400   13.61190   31.93710   13.61190    2.66660   14.66880  -54.37390  -25.10560  -17.94570   31.93710
 2950.00000    8.02540    8.02540  195.35940  213.46080    0.03130    2.45860    0.14700    4.68470    0.03130   80.43060   80.43060   57.64010   62.22630   57.64010    5.48770    4.68470    5.94380   12.55770    5.94380    2.45860    9.13250  -60.75950  -31.33920  -24.17930   12.55770
 3000.00000    9.08890    9.08890  202.38470  224.23540    0.05320    2.47080    0.13990    4.45960    0.05320   84.78560   84.78560   80.38780   80.68810   80.38780    5.30380    4.45960    5.73170    6.98450    5.73170    2.47080    7.19410  -56.99490  -27.41520  -20.25530    6.98450
 3050.00000    7.57870    7.57870  827.91800  871.90240    0.01490    2.29550    0.24240    1.15720    0.01490   87.25870   87.25870   24.97920   26.91770   24.97920    1.46660    1.15720    1.63270    3.38840    1.63270    2.29550    3.47210  -73.29300  -42.82360  -35.66370    3.38840
 3100.00000    7.71640    7.71640 1710.87180 1603.33490    0.00080    2.25140    0.26820    0.62370    0.00080   95.39510   95.39510   18.81730   17.71790   18.81730    0.84110    0.62370    0.72450    1.84980    0.72450    2.25140    1.34790  -70.49250  -40.51510  -33.35520    1.84980
 3150.00000    7.60100    7.60100  368.90270  398.78770    0.02230    2.32730    0.22380    2.50760    0.02230   89.72190   89.72190   46.02870   50.94300   46.02870    2.86710    2.50760    3.46350    6.81200    3.46350    2.32730    5.04200  -61.72330  -11.55650   -4.39660    6.81200
 3200.00000    7.25750    7.25750  440.85200  445.87120    0.02490    2.46970    0.14050    2.24280    0.02490   68.32780   68.32780    9.09480    9.97320    9.09480    2.39580    2.24280    3.72130   17.36040    3.72130    2.46970    9.96640  -73.98960  -22.46250  -14.82190   17.36040
 3250.00000    7.24390    7.24390  401.38510  415.97340    0.07590    2.55140    0.09270    2.40400    0.07590   68.43990   68.43990   13.01870   14.77760   13.01870    2.55770    2.40400    4.59310   18.82020    4.59310    2.55140    9.75170  -76.45530  -32.04710  -23.80260   18.82020
 3300.00000    7.19150    7.19150  450.19740  458.60840    0.03650    2.50790    0.11820    2.18480    0.03650   72.70460   72.70460   11.04110   13.17570   11.04110    2.33000    2.18480    3.37390   12.62550    3.37390    2.50790    8.33980  -73.57080  -30.27510  -21.42680   12.62550
 3350.00000    7.55560    7.55560  214.63430  227.03540    0.07560    2.69320    0.00980    4.40460    0.07560   55.02530   55.02530   11.85220   10.88860   11.85220    4.87030    4.40460    6.77570   25.25010    6.77570    2.69320   12.51320  -73.41920  -32.59380  -23.13760   25.25010
 3400.00000    7.56370    7.56370  124.48750  133.97100    0.05470    2.67880    0.01820    7.46430    0.05470   54.56230   54.56230    9.56400   10.44510    9.56400    8.14430    7.46430    9.26150   32.12940    9.26150    2.67880   18.63540  -72.88260  -35.55550  -25.49540   32.12940
 3450.00000    7.25950    7.25950  631.73470  727.53730    0.07710    2.49110    0.12800    1.37450    0.07710   72.52670   72.52670   13.15870   12.42120   13.15870    1.75000    1.37450    2.24890   10.38020    2.24890    2.49110    8.80560  -72.80110  -37.76000  -27.09210   10.38020
 3500.00000    7.25310    7.25310  784.49810  760.62980    0.03230    2.53010    0.10520    1.31470    0.03230   65.95340   65.95340    9.77000   14.32330    9.77000    1.56000    1.31470    1.73840   13.16590    1.73840    2.53010    6.90080  -74.55750  -43.84920  -32.57740   13.16590
