~Version ---------------------------------------------------
VERS.      2.0 : CWLS log ASCII Standard -VERSION 2.0
WRAP.       NO : One line per depth step
CREA. 08/31/17 : LAS Creation Date
~Well ------------------------------------------------------
STRT.FT                          850.0 : START DEPTH
STOP.FT                        11250.0 : STOP DEPTH
STEP.FT                       50.00000 : STEP LENGTH
NULL.                          -999.25 : NULL VALUE
COMP.        ATLANTIC REFINING COMPANY : COMPANY
WELL. ATLANTIC CROOKED LAKE 4-27-63-22 : WELL
FLD .                               WC : FIELD
LOC .                                  : LOCATION
CTRY.                           CANADA : COUNTRY
SRVC.           Schlumberger of Canada : SERVICE COMPANY
DATE.                      08-Mar-1961 : LOGDATE
PROV.                          Alberta : PROVINCE
UWI .                 100042706322W500 : UNIQUE WELL ID
SLAT.WGS84                    54.47412 : SURFACE LATITUDE
SLON.WGS84                   -117.2467 : SURFACE LONGITUDE
~Curve Information -----------------------------------------
DEPT  .FT    : Depth Curve
CALWS .IN    : CALIPER [MCALED]
CILDED.MMHO  : CONDUCTIVITY FROM IEL LOG
CONDWS.MMHO  : CONDUCTIVITY [1000/DRESWS]
DRESWS.OHMM  : DEEP RESISTIVITY [CALCULATED FROM 1000/CILDED, IF ILDED<1, ILDED]
DT1ED .US/F  : DELTA-T FROM SONIC LOG [ADJ.TO ILDED]
DTED  .US/F  : DELTA-T FROM SONIC LOG [ADJ.TO ILDED]
DTWS  .US/F  : COMPRESSIONAL SONIC [DTED SPL.TO DT1ED @ 11232']
GRSED .GAPI  : GAMMA RAY FROM SONIC LOG [ADJ.TO ILDED]
GRWS  .GAPI  : GAMMA RAY [GRSED*16.50]
ILDED .OHMM  : DEEP INDUCTION FROM IEL LOG
MCALED.IN    : MICRO CALIPER FROM MICRO LOG [ADJ.TO ILDED]
SNED  .OHMM  : SHORT NORMAL FROM IEL LOG
SPRED .MV    : SPONTANEOUS POTENTIAL FROM IEL LOG
SPWS  .MV    : SPONTANEOUS POTENTIAL [BASELINE 0 MV, SPRED]
SRESWS.OHMM  : SHALLOW RESISTIVITY [SNED]
~Params ----------------------------------------------------
LMF .                     KB : LOG MEASURED FROM
DMF .                     KB : DRILLING MEASURED FROM
EKB .FT                 2751 : KELLY BUSHING
EGL .FT               2736.1 : GROUND LEVEL
DATE.               03/08/61 : RUN DATE
RUN .                      1 : RUN NUMBER
DD  .FT                11255 : DEPTH DRILLER
DL  .FT                11257 : DEPTH LOGGER
BLI .FT                11256 : BOTTOM LOG INTERVAL
TLI .FT                 1146 : TOP LOG INTERVAL
CBD .FT                 1146 : CASING BOTTOM DRILLER
CBL .FT                 1146 : CASING BOTTOM LOGGER
BS  .IN                    9 : BIT SIZE
BSD .FT                11255 : BIT SIZE AT DEPTH
DFT .                GEL OIL : DRILLING FLUID TYPE
DFD .                    9.9 : DRILLING FLUID DENSITY
DFV .                    119 : DRILLING FLUID VISCOSITY
DFPH.                    9.5 : DRILLING FLUID PH
DFL .                    6.4 : DRILLING FLUID LOSS
RMS .OHMM               1.35 : RESISTIVITY MUD SAMPLE
MST .DEGF                 68 : MUD SAMPLE TEMPERATURE
RMF .OHMM               3.04 : RESISTIVITY MUD FILTRATE SAMPLE
MFST.DEGF                 68 : MUD FILTRATE SAMPLE TEMPERATURE
TCS .HRS                   4 : TIME CIRCULATED STOPPED
LUN .                  15730 : LOGGING UNIT NUMBER
LUL .                     WC : LOGGING UNIT LOCATION
ENGI.              HAUSEGGER : RECORDING ENGINEER
WITN.                  COWAN : WITNESSED BY
CLNT.                A2DTECH : CLIENT CODE
ORIG.            2" 5" PRINT : ORIGIN OF DATA
UWI .       100042706322W500 : UNIQUE WELL ID
DICO. A2D Technologies, Inc. : DIGITIZING COMPANY
~Other -----------------------------------------------------
~ASCII -----------------------------------------------------
# ...
 7750.00000   10.55610    6.94610    3.67580  272.04800    -999.25   55.25650   55.25650   45.34860   45.34860  272.04800   10.55610   93.08140  -92.30830  -47.73960   93.08140
 7800.00000    8.46450   49.47200   48.54250   20.60050    -999.25   57.60790   57.60790   50.86120   50.86120   20.60050    8.46450   35.44490 -139.09950  -94.31510   35.44490
 7850.00000    8.97210   66.28300   61.45000   16.27340    -999.25   54.85900   54.85900   66.65260   64.27410   16.27340    8.97210   34.66730 -133.01550  -88.01410   34.66730
 7900.00000    9.49550  291.15640  243.18470    4.11210    -999.25   56.20570   56.20570   63.82530   63.82530    4.11210    9.49550   14.42700 -130.78150  -85.56440   14.42700
 7950.00000   11.07720    3.76810    3.99670  250.20640    -999.25   51.87080   51.87080   34.67970   34.66820  250.20640   11.07720  128.88320 -140.26600  -94.83180  128.88320
 8000.00000    9.51240   37.60900   36.98240   27.03990    -999.25   51.14910   51.14910   35.62850   35.62850   27.03990    9.51240   82.39590 -202.70060 -157.05070   82.39590
 8050.00000   11.09820    7.16020    6.24270  160.18790    -999.25   51.43270   51.43270   35.47010   35.47010  160.18790   11.09820   99.95690 -183.74910 -137.88350   99.95690
 8100.00000    9.63040  140.13100  143.92220    6.94820    -999.25   69.20970   69.20970  123.60650  126.28030    6.94820    9.63040   11.92260  -61.67310  -15.59050   11.92260
 8150.00000    9.50310  116.08520  119.58430    8.36230    -999.25   61.83320   61.83320   90.65270   90.65350    8.36230    9.50310   13.78310  -76.56620  -30.26790   13.78310
 8200.00000    9.45760   77.39100   82.80960   12.07590    -999.25   66.00350   66.00350   91.71200   91.45950   12.07590    9.45760   20.24640  -50.24050   -3.72510   20.24640
 8250.00000    9.67420   47.90460   45.55230   21.95280    -999.25   65.37890   65.37890   88.14790   88.14790   21.95280    9.67420   39.31260  -49.28240   -2.55130   39.31260
 8300.00000    9.12050   21.52700   20.85140   47.95840    -999.25   55.66220   55.66220   55.50440   55.50350   47.95840    9.12050   65.83970  -49.79790   -4.40070   65.83970
 8350.00000    9.12900    4.12210    3.43340  291.25650    -999.25   55.59950   55.59950   53.60440   52.66800  291.25650    9.12900  135.36980  -57.04040  -15.65970  135.36980
 8400.00000    9.00260    4.40230    3.30530  302.54510    -999.25   53.21540   53.21540   50.66820   50.66820  302.54510    9.00260  147.16840  -64.31240  -26.92190  147.16840
 8450.00000    9.08970   14.27030   12.89590   77.54430    -999.25   57.58780   57.58780   71.72880   71.77830   77.54430    9.08970   71.07470  -39.77030   -6.39630   71.07470
 8500.00000    9.04280   19.91950   18.27210   54.72810    -999.25   58.93900   58.93900   76.12110   76.12110   54.72810    9.04280   51.75400  -33.16300   -3.77920   51.75400
 8550.00000    8.96350   23.99350   23.11900   43.25440    -999.25   59.42230   59.42230   85.76870   85.76870   43.25440    8.96350   50.25380  -29.48340   -4.08990   50.25380
 8600.00000    8.97780   22.04100   21.71180   46.05800    -999.25   63.31680   63.31680  121.25190  120.94170   46.05800    8.97780   68.93150  -32.76320   -9.27480   68.93150
 8650.00000    8.91420   14.12370   12.10460   82.61310    -999.25   57.76270   57.76270   73.49590   73.49590   82.61310    8.91420   72.80960  -43.73430  -21.78630   72.80960
 8700.00000   11.39820    6.22120    4.82780  207.13300    -999.25   52.07670   52.07670   36.80320   36.68940  207.13300   11.39820  117.34050  -79.19140  -58.79400  117.34050
 8750.00000    8.95300    5.79040    5.12590  195.08850    -999.25   52.85910   52.85910   55.00270   55.00270  195.08850    8.95300  176.00220  -62.09790  -43.24100  176.00220
 8800.00000    9.53530    1.05880    1.99660  500.85560    -999.25   49.93250   49.93250   33.59230   33.59230  500.85560    9.53530  215.51880 -101.84910  -84.53260  215.51880
 8850.00000   10.18810    0.84420    1.99680  500.79640    -999.25   49.57930   49.57930   30.76100   30.18180  500.79640   10.18810  249.41670  -96.68480  -80.91890  249.41670
 8900.00000    9.84790    3.71160    1.99130  502.18450    -999.25   51.40800   51.40800   28.50050   28.50050  502.18450    9.84790  181.59410 -117.81680 -103.59130  181.59410
 8950.00000    9.87400    0.77070    2.00220  499.45480    -999.25   49.08440   49.08440   31.98200   32.35820  499.45480    9.87400  167.88990 -121.39570 -108.72080  167.88990
 9000.00000   10.66160    1.16960    1.99640  500.89900    -999.25   50.52490   50.52490   25.29450   25.29450  500.89900   10.66160  241.03760 -129.81980 -118.68530  241.03760
 9050.00000    9.27120    6.87440    6.59250  151.68640    -999.25   50.42250   50.42250   23.77490   23.77490  151.68640    9.27120  117.20160 -135.52660 -125.93250  117.20160
 9100.00000   10.52640    0.67980    1.99720  500.70610    -999.25   51.23530   51.23530   28.41550   28.65220  500.70610   10.52640  185.44400 -135.77480 -127.73130  185.44400
 9150.00000   10.31800    0.61070    1.99950  500.12330    -999.25   50.92640   50.92640   35.05920   35.05920  500.12330   10.31800  216.56610 -117.41490 -110.91180  216.56610
 9200.00000   10.29040    3.14300    1.99670  500.83460    -999.25   52.28080   52.28080   27.79760   27.69770  500.83460   10.29040  142.82740 -118.73230 -113.77980  142.82740
 9250.00000   10.47790    1.03580    2.05050  488.08380    -999.25   52.22720   52.22720   29.70660   29.70660  488.08380   10.47790  210.70340 -117.20610 -113.79410  210.70340
 9300.00000    9.65960    0.99400    2.10790  474.55460    -999.25   53.21750   53.21750   29.25950   29.25950  474.55460    9.65960  180.65800 -101.42410  -99.55250  180.65800
 9350.00000    9.46330    2.39830    2.00180  499.56000    -999.25   52.01860   52.01860   24.65840   24.81270  499.56000    9.46330  150.45760 -110.35440 -110.03340  150.45760
 9400.00000    9.26540    4.90960    3.91910  255.15860    -999.25   49.68600   49.68600   23.22370   23.22370  255.15860    9.26540  112.26950 -124.34980 -125.56920  112.26950
 9450.00000    8.99790    4.98060    3.67170  272.35550    -999.25   52.90200   52.90200   23.92090   24.07020  272.35550    8.99790  124.71100 -131.57570 -134.34570  124.71100
 9500.00000    9.01650   15.14890   11.66490   85.72730    -999.25   56.14420   56.14420   42.59480   42.59530   85.72730    9.01650   79.67740 -102.32970 -106.64010   79.67740
 9550.00000    6.58740   88.05260   77.71160   12.86810    -999.25   52.04980   52.04980   43.79760   43.79680   12.86810    6.58740   68.53230 -153.76750 -159.61830   68.53230
 9600.00000    6.95090  170.46540  171.95130    5.81560    -999.25   58.12220   58.12220   27.17470   27.33890    5.81560    6.95090   46.14470 -151.21310 -158.61450   46.14470
 9650.00000    8.63700    2.64230    2.00100  499.74400    -999.25   51.14000   51.14000   39.24520   39.24440  499.74400    8.63700  238.04000  -61.52600  -70.46780  238.04000
 9700.00000    8.66990    4.69060    3.63890  274.81160    -999.25   51.90690   51.90690   51.32240   51.68210  274.81160    8.66990  151.71620  -18.00780  -28.50020  151.71620
 9750.00000    8.45530    3.20200    2.00100  499.76770    -999.25   50.00000   50.00000   37.96820   37.96820  499.76770    8.45530  194.20870  -30.98540  -43.01820  194.20870
 9800.00000    8.71680    3.12770    2.00130  499.69030    -999.25   52.41790   52.41790   41.02230   41.02150  499.69030    8.71680  182.27780  -38.42780  -52.00110  182.27780
 9850.00000    8.72540    2.79320    2.06390  484.58860    -999.25   52.30080   52.30080   40.66750   40.78220  484.58860    8.72540  166.85860  -27.03010  -42.15400  166.85860
 9900.00000    8.72290    5.10010    3.46640  288.48290    -999.25   51.21530   51.21530   42.34070   42.34070  288.48290    8.72290  136.07370  -11.51980  -28.18410  136.07370
 9950.00000    8.73850   11.27790    9.81050  101.93150    -999.25   55.06580   55.06580   50.22760   50.10890  101.93150    8.73850   79.65900   -2.21470  -20.42960   79.65900
 10000.00000    8.82790   22.00820   21.07010   47.46070    -999.25   58.28930   58.28930   45.85350   45.85350   47.46070    8.82790   52.73870   -0.96690  -20.72220   52.73870
