~Version ---------------------------------------------------
VERS.      2.0 : CWLS log ASCII Standard -VERSION 2.0
WRAP.       NO : One line per depth step
CREA. 11/20/17 : LAS Creation Date
~Well ------------------------------------------------------
STRT.FT                            1200.0 : START DEPTH
STOP.FT                           11350.0 : STOP DEPTH
STEP.FT                          50.00000 : STEP LENGTH
NULL.                             -999.25 : NULL VALUE
COMP.       AMOCO CANADA PETROLEUM CO LTD : COMPANY
WELL. AMOCO MOBIL L-2 WAHIGAN 10-16-64-23 : WELL
FLD .                                     : FIELD
LOC .                                     : LOCATION
CTRY.                              CANADA : COUNTRY
SRVC.                             Unknown : SERVICE COMPANY
DATE.                         06-Feb-1976 : LOGDATE
PROV.                             Alberta : PROVINCE
UWI .                    100101606423W500 : UNIQUE WELL ID
SLAT.WGS84                       54.53986 : SURFACE LATITUDE
SLON.WGS84                      -117.4124 : SURFACE LONGITUDE
~Curve Information -----------------------------------------
DEPT    .FT    : Depth Curve
ACED    .US/F  : ACOUSTIC TIME FROM SONIC LOG [ADJ. TO RESISTIVITY LOG]
CALDED  .IN    : CALIPER FROM DENSITY LOG
CALSED  .IN    : CALIPER FROM SONIC LOG [ADJ. TO RESISTIVITY LOG]
CALWS   .IN    : CALIPER [CALDED]
CONDWS  .MMHO  : CONDUCTIVITY [1000/DRESWS]
CORRED  .G/C3  : DENSITY CORRECTION FROM DENSITY LOG [ADJ. TO RESISTIVITY LOG]
DCORWS  .G/C3  : DENSITY CORRECTION [CORRED]
DENWS   .G/C3  : FORMATION BULK DENSITY [RHOBED]
DPHILSED.V/V   : DENSITY POROSITY LIMESTONE [M=2.71, F=1.00] FROM DENSITY LOG [ADJ. TO RESISTIVITY LOG]
DPHISSED.V/V   : DENSITY POROSITY SANDSTONE [M=2.65, F=1.00]FROM DENSITY LOG [ADJ. TO RESISTIVITY LOG]
DPOLSWS .V/V   : DENSITY POROSITY LIMESTONE [CALC. FROM DENWS, M=2.71, F=1.00]
DRESWS  .OHMM  : DEEP RESISTIVITY [ILDED]
DTWS    .US/F  : COMPRESSIONAL SONIC [ACED]
GRDED   .GAPI  : GAMMA RAY FROM DENSITY LOG
GRSED   .GAPI  : GAMMA RAY FROM SONIC LOG [ADJ. TO RESISTIVITY LOG]
GRWS    .GAPI  : GAMMA RAY [GRSED SPL. TO GRDED @ 11348']
ILDED   .OHMM  : DEEP INDUCTION LOG RESISTIVITY FROM RESISTIVITY LOG
ILMED   .OHMM  : MEDIUM INDUCTION LOG RESISTIVITY FROM RESISTIVITY LOG
MRESWS  .OHMM  : MEDIUM RESISTIVITY [ILMED]
NPHILSED.V/V   : NEUTRON POROSITY LIMESTONE FROM DENSITY LOG [ADJ. TO RESISTIVITY LOG]
NPHISSED.V/V   : NEUTRON POROSITY SANDSTONE FROM DENSITY LOG [ADJ. TO RESISTIVITY LOG]
NPOLSWS .V/V   : NEUTRON POROSITY LIMESTONE [NPHISSED MATRIX CONVERSION FOR LIMESTONE & SPL. TO NPHILSED @ 6845']
RHOBED  .G/C3  : BULK DENSITY FROM DENSITY LOG [ADJ. TO RESISTIVITY LOG]
SFLED   .OHMM  : SPHERICALLY FOCUSED RESISTIVITY FROM RESISTIVITY LOG
SPRED   .MV    : SPONTANEOUS POTENTIAL FROM RESISTIVITY LOG
SPWS    .MV    : SPONTANEOUS POTENTIAL [BASELINE 0 MV, SPRED]
SRESWS  .OHMM  : SHALLOW RESISTIVITY [SFLED]
~Params ----------------------------------------------------
PD  .                     GL : PERMANENT DATUM
EPD .FT               2628.5 : ELEVATION PERMANENT DATUM
LMF .                     KB : LOG MEASURED FROM
DAPD.FT                 13.5 : FEET ABOVE PERMANENT DATUM
DMF .                     KB : DRILLING MEASURED FROM
EKB .FT                 2642 : KELLY BUSHING
EGL .FT               2628.5 : GROUND LEVEL
DATE.               02/06/76 : RUN DATE
RUN .                      1 : RUN NUMBER
DD  .FT                11378 : DEPTH DRILLER
DL  .FT                11410 : DEPTH LOGGER
BLI .FT                11408 : BOTTOM LOG INTERVAL
TLI .FT                 1219 : TOP LOG INTERVAL
CS  .IN                9.625 : CASING SIZE
CBD .FT                 1208 : CASING BOTTOM DRILLER
CBL .FT                 1219 : CASING BOTTOM LOGGER
BS  .IN                 8.75 : BIT SIZE
BSD .FT                11378 : BIT SIZE AT DEPTH
DFT .           MUD GEL CHEM : DRILLING FLUID TYPE
DFD .                    9.3 : DRILLING FLUID DENSITY
DFV .                    135 : DRILLING FLUID VISCOSITY
DFPH.                     10 : DRILLING FLUID PH
DFL .                    8.1 : DRILLING FLUID LOSS
MSS .                   CIRC : MUD SAMPLE SOURCE
RMS .OHMM                3.5 : RESISTIVITY MUD SAMPLE
MST .DEGF                 67 : MUD SAMPLE TEMPERATURE
RMF .OHMM                3.5 : RESISTIVITY MUD FILTRATE SAMPLE
MFST.DEGF                 62 : MUD FILTRATE SAMPLE TEMPERATURE
RMC .OHMM                2.8 : RESISTIVITY MUD CAKE
MCST.DEGF                 67 : MUD CAKE SAMPLE TEMPERATURE
MFSS.                   MEAS : MUD FILTRATE SAMPLE SOURCE
MCSS.                   MEAS : MUD CAKE SAMPLE SOURCE
RMB .OHMM               1.21 : RESISTIVITY MUD AT BHT
TCS .HRS                   7 : TIME CIRCULATED STOPPED
LUN .                   6155 : LOGGING UNIT NUMBER
LUL .                    EDM : LOGGING UNIT LOCATION
ENGI.                    GAU : RECORDING ENGINEER
WITN.                  KAREL : WITNESSED BY
CLNT.                A2DTECH : CLIENT CODE
ORIG.            2" 5" PRINT : ORIGIN OF DATA
UWI .       100101606423W500 : UNIQUE WELL ID
DICO. A2D Technologies, Inc. : DIGITIZING COMPANY
~Other -----------------------------------------------------
~ASCII -----------------------------------------------------
# ...
 6400.00000   60.65550   10.03070    9.80130   10.03070   19.12610    0.08200    0.08200    2.66630    -999.25    0.00010    0.02560   52.28450   60.65550   92.50630   67.83290   67.83290   52.28450   55.45870   55.45870    -999.25    0.20390    0.16390    2.66630   98.50750  -64.38790  -20.98610   98.50750
 6450.00000   69.25980   10.30250   10.08450   10.30250   53.91070    0.09170    0.09170    2.65380    -999.25    0.00170    0.03290   18.66640   69.25980  127.53690   81.19290   81.19290   18.66640   21.03990   21.03990    -999.25    0.27330    0.23330    2.65380   45.02660  -64.04620  -21.01390   45.02660
 6500.00000   61.68190    9.99020    9.51890    9.99020   29.72100    0.09780    0.09780    2.72390    -999.25   -0.00030   -0.00810   33.64620   61.68190  115.46160   72.80210   72.80210   33.64620   49.40060   49.40060    -999.25    0.18220    0.14220    2.72390   77.91550  -68.00230  -25.33710   77.91550
 6550.00000   82.49150   11.00380   10.56070   11.00380   85.79640    0.22490    0.22490    2.07710    -999.25    0.20320    0.37010   11.65550   82.49150  137.96100   95.90070   95.90070   11.65550   13.18170   13.18170    -999.25    0.30570    0.26570    2.07710   18.68950  -73.67030  -31.37210   18.68950
 6600.00000   70.51400    9.18080    8.95360    9.18080   67.98420    0.14760    0.14760    2.46940    -999.25    0.11420    0.14070   14.70930   70.51400   66.20120   42.74580   42.74580   14.70930   23.11460   23.11460    -999.25    0.19400    0.15400    2.46940   55.08930  -49.33210   -7.40340   55.08930
 6650.00000   77.37200   11.52460   10.61010   11.52460   92.38980    0.27610    0.27610    2.38410    -999.25    0.16350    0.19060   10.82370   77.37200  151.35250  102.89250  102.89250   10.82370   11.12010   11.12010    -999.25    0.27950    0.23950    2.38410   12.65610  -63.28570  -21.72410   12.65610
 6700.00000   73.50560   10.60690    9.90290   10.60690  106.50760    0.24780    0.24780    2.58550    -999.25    0.04230    0.07280    9.38930   73.50560   73.06090   48.66800   48.66800    9.38930   12.55070   12.55070    -999.25    0.20110    0.16110    2.58550   24.11250 -145.75970 -104.56760   24.11250
 6750.00000   74.37550    8.93220    8.51850    8.93220  110.35460    0.11020    0.11020    2.42590    -999.25    0.13960    0.16610    9.06170   74.37550   61.96360   36.43690   36.43690    9.06170   16.75280   16.75280    -999.25    0.20050    0.16050    2.42590   35.32000 -176.54630 -135.72130   35.32000
 6800.00000   72.61680    9.11560    8.60840    9.11560  152.17920    0.11730    0.11730    2.40700    -999.25    0.14890    0.17720    6.57120   72.61680   63.17480   33.70920   33.70920    6.57120   11.26850   11.26850    -999.25    0.19550    0.15550    2.40700   27.22710  -57.04000  -16.58210   27.22710
 6850.00000   90.21100   11.68480   11.68140   11.68480  443.49830    0.28090    0.28090    2.37230    0.33130    0.17230    0.19750    2.25480   90.21100  136.59480   87.58370   87.58370    2.25480    2.66040    2.66040    0.31660    0.50090    0.31660    2.37230    4.17220  -56.39840  -16.31000    4.17220
 6900.00000   76.27360   10.12490    9.43850   10.12490    3.66650    0.13300    0.13300    2.44430    0.15220    -999.25    0.15540  272.73940   76.27360  201.64890  145.06190  145.06190  272.73940  347.50160  347.50160    0.25630    -999.25    0.25630    2.44430  658.05050  -88.89480  -49.17340  658.05050
 6950.00000   65.38020    9.77000    9.20210    9.77000   52.89190    0.03970    0.03970    2.59910    0.06010    -999.25    0.06490   18.91680   65.38020  126.48860   83.31790   83.31790   18.91680   20.78220   20.78220    0.13760    -999.25    0.13760    2.59910  103.49170  -69.23460  -29.88270  103.49170
 7000.00000   64.40080   10.15330    9.51760   10.15330   43.17570    0.04570    0.04570    2.59110    0.06720    -999.25    0.06950   23.16120   64.40080  128.36680   78.64320   78.64320   23.16120   26.35050   26.35050    0.08650    -999.25    0.08650    2.59110   32.25760  -70.03530  -31.05050   32.25760
 7050.00000   62.32800   10.16410    9.58020   10.16410   45.56220    0.02530    0.02530    2.62200    0.05070    -999.25    0.05150   21.94800   62.32800  141.61740   99.25070   99.25070   21.94800   26.34780   26.34780    0.07150    -999.25    0.07150    2.62200   45.05590  -93.23000  -54.61230   45.05590
 7100.00000   61.88540   10.19360    9.50720   10.19360   45.60340    0.03410    0.03410    2.61500    0.05310    -999.25    0.05560   21.92820   61.88540  121.35120   89.56450   89.56450   21.92820   25.42870   25.42870    0.06520    -999.25    0.06520    2.61500   31.41940  -76.01130  -37.76310   31.41940
 7150.00000   60.62780    9.94090    9.18680    9.94090   27.86760    0.03050    0.03050    2.64310    0.03710    -999.25    0.03910   35.88400   60.62780  127.16190   87.58860   87.58860   35.88400   39.90540   39.90540    0.07000    -999.25    0.07000    2.64310   53.12850  -70.84400  -32.96290   53.12850
 7200.00000   60.51720   10.12700    9.36250   10.12700   24.32270    0.02760    0.02760    2.66360    0.02460    -999.25    0.02710   41.11380   60.51720  121.01860   94.55400   94.55400   41.11380   46.74870   46.74870    0.10520    -999.25    0.10520    2.66360   64.34660  -28.45390    9.05770   64.34660
 7250.00000   62.55740   10.07630    9.50330   10.07630   30.82920    0.03480    0.03480    2.65500    0.02800    -999.25    0.03220   32.43680   62.55740  148.66270   99.93690   99.93690   32.43680   35.94830   35.94830    0.08930    -999.25    0.08930    2.65500   49.11760  -39.43030   -2.28570   49.11760
 7300.00000   81.75260    9.33760    8.81820    9.33760   53.90430    0.09770    0.09770    2.52610    0.10550    -999.25    0.10750   18.55140   81.75260   45.40880   30.30940   30.30940   18.55140   30.77620   30.77620    0.04840    -999.25    0.04840    2.52610   57.27940 -208.38660 -171.60910   57.27940
 7350.00000   68.67920    9.15440    8.46820    9.15440  569.15200    0.09930    0.09930    2.40040    0.18110    -999.25    0.18100    1.75700   68.67920   62.16550   37.15710   37.15710    1.75700    4.24710    4.24710    0.18760    -999.25    0.18760    2.40040   25.51130  -96.37680  -59.96880   25.51130
 7400.00000   56.56950    9.74430    9.32570    9.74430   48.21530    0.04020    0.04020    2.67170    0.02050    -999.25    0.02240   20.74030   56.56950   74.15840   50.06530   50.06530   20.74030   21.63010   21.63010    0.12950    -999.25    0.12950    2.67170   31.00220 -150.86920 -114.82830   31.00220
 7450.00000   49.46430    9.61070    8.84920    9.61070   26.42330    0.08150    0.08150    2.57890    0.07090    -999.25    0.07670   37.85420   49.46430   58.17400   34.45780   34.45780   37.85420  102.47850  102.47850    0.09570    -999.25    0.09570    2.57890  211.26930 -161.58110 -125.90970  211.26930
 7500.00000   47.46070    9.70470    9.01240    9.70470    0.44900    0.00310    0.00310    2.74030   -0.02060    -999.25   -0.01770 2227.41280   47.46070   52.38750   31.92330   31.92330 2227.41280 2690.44950 2690.44950    0.04530    -999.25    0.04530    2.74030 2321.04490 -146.42730 -111.12300 2321.04490
 7550.00000   48.66280    9.60400    9.01600    9.60400    0.45500    0.00850    0.00850    2.77860   -0.03890    -999.25   -0.04010 2197.68730   48.66280   56.23260   30.89970   30.89970 2197.68730 2709.90940 2709.90940    0.01670    -999.25    0.01670    2.77860 2310.85600 -199.31990 -164.38260 2310.85600
 7600.00000   56.64210   10.27780    9.23190   10.27780   16.03170    0.01320    0.01320    2.63780    0.04250    -999.25    0.04220   62.37650   56.64210   58.47520   40.83570   40.83570   62.37650   65.90780   65.90780    0.03350    -999.25    0.03350    2.63780  127.65770 -172.94960 -138.38180  127.65770
 7650.00000   53.27210    9.53670    8.64240    9.53670   73.91040    0.14570    0.14570    2.73180   -0.01390    -999.25   -0.01270   13.52990   53.27210   53.06560   30.63480   30.63480   13.52990   29.06540   29.06540    0.05900    -999.25    0.05900    2.73180  262.57480 -191.70890 -157.50820  262.57480
