~Version ---------------------------------------------------
VERS.      2.0 : CWLS log ASCII Standard -VERSION 2.0
WRAP.       NO : One line per depth step
CREA. 07/10/13 : LAS Creation Date
~Well ------------------------------------------------------
STRT.FT                         55.3 : START DEPTH
STOP.FT                      11119.8 : STOP DEPTH
STEP.FT                      0.50000 : STEP LENGTH
NULL.                        -999.25 : NULL VALUE
COMP.         PACIFIC PETROLEUMS LTD : COMPANY
WELL. PACIFIC ET AL TONY 10-18-63-21 : WELL
FLD .                     TONY TOWER : FIELD
LOC .                                : LOCATION
CTRY.                         CANADA : COUNTRY
SRVC.                   Schlumberger : SERVICE COMPANY
DATE.                    24-Sep-1975 : LOGDATE
PROV.                        Alberta : PROVINCE
UWI .               100101806321W500 : UNIQUE WELL ID
SLAT.WGS84                  54.45338 : SURFACE LATITUDE
SLON.WGS84                 -117.1585 : SURFACE LONGITUDE
~Curve Information -----------------------------------------
DEPT   .FT    : DEPTH FEET
CALD   .IN    : CALIPER FROM DENSITY LOG
DCOR   .G/C3  : DENSITY CORRECTION FROM DENSITY LOG
DPHI_LS.DEC   : DENSITY POROSITY LIMESTONE [M=2.71,F=1.0] FROM DENSITY LOG
DPHI_SS.DEC   : DENSITY POROSITY SANDSTONE [M=2.65,F=1.0] FROM DENSITY LOG
GRD    .GAPI  : GAMMA RAY FROM DENSITY LOG
ILD    .OHMM  : DEEP INDUCTION FROM RESISTIVITY LOG
ILM    .OHMM  : MEDIUM INDUCTION FROM RESISTIVITY LOG
LL8    .OHMM  : LATEROLOG FROM RESISTIVITY LOG
NPHI_LS.DEC   : NEUTRON POROSITY LIMESTONE FROM DENSITY LOG
NPHI_SS.DEC   : NEUTRON POROSITY SANDSTONE FROM DENSITY LOG
RHOB   .G/C3  : BULK DENSITY FROM DENSITY LOG
SPR    .MV    : SPONTANEOUS POTENTIAL FROM RESISTIVITY LOG
~Params ----------------------------------------------------
PD  .                     GL : PERMANENT DATUM
EPD .FT                 2714 : ELEVATION PERMANENT DATUM
LMF .                     KB : LOG MEASURED FROM
DAPD.FT                 13.7 : FEET ABOVE PERMANENT DATUM
EKB .FT               2727.7 : KELLY BUSHING
EGL .FT                 2714 : GROUND LEVEL
DATE.               09/24/75 : RUN DATE
RUN .                      1 : RUN NUMBER
DD  .FT                11125 : DEPTH DRILLER
DL  .FT                11121 : DEPTH LOGGER
BLI .FT                11115 : BOTTOM LOG INTERVAL
TLI .FT                 1125 : TOP LOG INTERVAL
CBD .FT                 1125 : CASING BOTTOM DRILLER
CBL .FT                 1125 : CASING BOTTOM LOGGER
BS  .IN                 8.75 : BIT SIZE
BSD .FT                11125 : BIT SIZE AT DEPTH
DFT .               GEL CHEM : DRILLING FLUID TYPE
DFD .                    9.3 : DRILLING FLUID DENSITY
DFV .                    147 : DRILLING FLUID VISCOSITY
DFPH.                    9.5 : DRILLING FLUID PH
DFL .                    9.2 : DRILLING FLUID LOSS
MSS .               FLOWLINE : MUD SAMPLE SOURCE
RMS .OHMM               1.62 : RESISTIVITY MUD SAMPLE
MST .DEGF                 72 : MUD SAMPLE TEMPERATURE
RMF .OHMM               1.26 : RESISTIVITY MUD FILTRATE SAMPLE
MFST.DEGF                 68 : MUD FILTRATE SAMPLE TEMPERATURE
RMB .OHMM               0.41 : RESISTIVITY MUD AT BHT
TCS .HRS                 3.5 : TIME CIRCULATED STOPPED
LUN .                   7691 : LOGGING UNIT NUMBER
LUL .                    EDM : LOGGING UNIT LOCATION
ENGI.              CROCKFORD : RECORDING ENGINEER
WITN.                   ROSS : WITNESSED BY
CLNT.                A2DTECH : CLIENT CODE
ORIG.            2" 5" PRINT : ORIGIN OF DATA
UWI .       100101806321W500 : UNIQUE WELL ID
DICO. A2D Technologies, Inc. : DIGITIZING COMPANY
~Other -----------------------------------------------------
~ASCII -----------------------------------------------------
# ...
 9771.30000    9.72280   -0.00580    0.01310    -999.25   58.06390   26.09230   27.19320   48.94710    0.01670    -999.25    2.68430  -58.59830
 9771.80000    9.72300   -0.00080    0.01130    -999.25   58.81700   25.59630   26.70570   50.30990    0.01700    -999.25    2.67480  -58.58830
 9772.30000    9.72320    0.00510    0.00700    -999.25   59.57010   25.10980   26.22690   48.46560    0.01750    -999.25    2.67610  -58.59400
 9772.80000    9.72350    0.01110    0.00490    -999.25   60.32520   24.63260   25.75680   45.92490    0.01820    -999.25    2.68350  -58.83070
 9773.30000    9.72370    0.01510    0.00260    -999.25   61.13690   24.16440   25.29500   44.49730    0.01880    -999.25    2.69090  -58.93000
 9773.80000    9.72400   -0.00200    0.00080    -999.25   61.76980   23.67690   24.84150   43.23620    0.01950    -999.25    2.69820  -59.02130
 9774.30000    9.72380    0.00520    0.00300    -999.25   61.71640   23.17690   24.51310   41.23480    0.02000    -999.25    2.70150  -59.34680
 9774.80000    9.72350    0.01140    0.02140    -999.25   60.82690   23.23220   24.44180   40.58700    0.02020    -999.25    2.68270  -59.36710
 9775.30000    9.72330   -0.00090    0.01440    -999.25   59.94520   23.30390   24.37310   40.16290    0.02040    -999.25    2.66550  -59.65670
 9775.80000    9.72300   -0.00660    0.01370    -999.25   59.06360   23.43310   24.53050   39.93070    0.02050    -999.25    2.67940  -59.75350
 9776.30000    9.72270    0.00000    0.01080    -999.25   58.18200   23.65730   24.81340   39.91060    0.02050    -999.25    2.67360  -60.30410
 9776.80000    9.72240    0.00690    0.00140    -999.25   57.30040   23.88360   25.09950   39.88470    0.02050    -999.25    2.68060  -60.52250
 9777.30000    9.72210    0.01160   -0.00950    -999.25   56.50440   24.16360   25.38890   38.86870    0.02060    -999.25    2.69910  -60.82800
 9777.80000    9.72190    0.01610   -0.01680    -999.25   56.15890   24.54880   25.68170   38.85700    0.02070    -999.25    2.71770  -60.84530
 9778.30000    9.72160    0.02640   -0.01090    -999.25   55.65050   24.94020   25.98550   40.60290    0.01920    -999.25    2.72650  -60.91500
 9778.80000    9.72130    0.02800   -0.01480    -999.25   55.20960   25.33790   26.39810   42.11860    0.01810    -999.25    2.72090  -61.09480
 9779.30000    9.72100    0.02120   -0.01190    -999.25   54.60180   25.74180   26.81720   42.37590    0.01750    -999.25    2.71440  -61.38090
 9779.80000    9.72080    0.02300   -0.01710    -999.25   54.64770   26.15230   27.24300   43.80910    0.01740    -999.25    2.72210  -61.98000
 9780.30000    9.72050    0.03100   -0.01860    -999.25   55.20730   26.56920   27.67550   44.61550    0.01720    -999.25    2.73140  -62.33380
 9780.80000    9.72020    0.02300   -0.00610    -999.25   55.76690   26.99280   28.11490   43.66120    0.01640    -999.25    2.72970  -62.06910
 9781.30000    9.71990    0.00700   -0.01640    -999.25   56.11270   27.42320   28.56130   43.82710    0.01540    -999.25    2.71000  -61.70240
 9781.80000    9.71960    0.01510   -0.01190    -999.25   55.93950   27.82760   29.01470   44.95470    0.01520    -999.25    2.71450  -61.53350
 9782.30000    9.71940    0.02860   -0.01880    -999.25   55.76640   28.22900   29.62370   48.19820    0.01480    -999.25    2.72590  -60.75170
 9782.80000    9.71910    0.04160   -0.02530    -999.25   54.60760   28.63620   30.46380   53.57210    0.01390    -999.25    2.73730  -60.54170
 9783.30000    9.71880    0.03770   -0.01360    -999.25   53.04710   29.04920   31.03620   58.12250    0.01300    -999.25    2.73990  -60.19610
 9783.80000    9.71850    0.02280    0.00720    -999.25   51.86580   29.46820   30.93500   61.16670    0.01210    -999.25    2.71490  -60.06680
 9784.30000    9.71820    0.01070    0.00740    -999.25   50.14550   29.89330   30.83420   62.03090    0.01120    -999.25    2.68340  -60.21950
 9784.80000    9.71800   -0.00130    0.00130    -999.25   49.01340   29.84480   30.73370   61.72920    0.01030    -999.25    2.69100  -59.91570
 9785.30000    9.71770   -0.00370   -0.00610    -999.25   48.54100   29.61810   30.63350   62.65960    0.00940    -999.25    2.70410  -59.33910
 9785.80000    9.71690    0.00430   -0.00990    -999.25   48.65290   29.33950   30.53370   62.20460    0.00900    -999.25    2.71720  -58.88480
 9786.30000    9.69990    0.00810   -0.00210    -999.25   49.47840   29.06350   30.43420   58.01050    0.00990    -999.25    2.71180  -58.62410
 9786.80000    9.71680   -0.00030    0.00790    -999.25   49.42260   28.79010   30.33500   56.23530    0.01080    -999.25    2.69430  -58.83810
 9787.30000    9.71600   -0.00450    0.00370    -999.25   49.00060   28.51930   30.23610   55.52690    0.01160    -999.25    2.68990  -59.19820
 9787.80000    9.71650    0.01760   -0.01620    -999.25   48.25920   28.25100   30.13750   53.68760    0.01250    -999.25    2.71230  -59.41920
 9788.30000    9.71550    0.01540   -0.00900    -999.25   46.99400   27.98530   30.05920   51.12850    0.01330    -999.25    2.72430  -59.32720
 9788.80000    9.70950    0.00810    0.00160    -999.25   46.02330   27.72200   29.69300   49.53980    0.01360    -999.25    2.70890  -58.97800
 9789.30000    9.70490    0.01630   -0.01070    -999.25   45.05280   27.46130   29.31470   49.40190    0.01320    -999.25    2.69680  -58.70530
 9789.80000    9.71780    0.02440   -0.01470    -999.25   44.72130   27.20300   28.94120   49.01590    0.01340    -999.25    2.71540  -59.02040
 9790.30000    9.71830    0.03160   -0.01010    -999.25   44.48070   26.94710   28.57250   47.53540    0.01350    -999.25    2.72520  -59.79370
 9790.80000    9.71870    0.02040    0.00420    -999.25   43.94380   26.69360   28.20850   46.51800    0.01400    -999.25    2.70120  -59.99140
 9791.30000    9.71920    0.00540   -0.00180    -999.25   43.14630   26.41230   27.84910   43.70470    0.01470    -999.25    2.69150  -60.10150
 9791.80000    9.71970    0.00890   -0.00370    -999.25   42.70810   26.08720   27.49430   41.76290    0.01540    -999.25    2.70780  -59.87300
 9792.30000    9.72010    0.00760   -0.00300    -999.25   42.62850   25.76600   27.15810   41.13270    0.01610    -999.25    2.70730  -59.44940
 9792.80000    9.72060    0.00070   -0.00830    -999.25   42.83990   25.44880   26.84380   40.66900    0.01690    -999.25    2.70050  -59.40820
 9793.30000    9.72110    0.00800   -0.01380    -999.25   43.07020   25.13560   26.53310   39.26900    0.01740    -999.25    2.71350  -59.14260
 9793.80000    9.72150    0.01520   -0.02330    -999.25   43.19860   24.82610   26.22590   38.01270    0.01820    -999.25    2.72830  -58.72930
 9794.30000    9.72200    0.01980   -0.02100    -999.25   43.50280   24.52050   25.92230   37.61300    0.01890    -999.25    2.73790  -59.37070
 9794.80000    9.72240    0.01530   -0.01450    -999.25   43.46680   24.21870   25.62230   36.88090    0.01890    -999.25    2.72730  -59.63970
 9795.30000    9.72290    0.00880   -0.01320    -999.25   43.20410   23.92050   25.32570   35.78660    0.01880    -999.25    2.71740  -59.81060
 9795.80000    9.72340    0.00940   -0.01460    -999.25   42.70190   23.62610   24.82680   34.98020    0.01880    -999.25    2.71740  -59.96580
 9796.30000    9.72380    0.01790   -0.01740    -999.25   42.08910   23.16690   24.17110   35.32420    0.01870    -999.25    2.72480  -60.15940
 9796.80000    9.72430    0.02640   -0.02240    -999.25   41.79210   22.50000   23.53270   35.22470    0.01940    -999.25    2.73240  -60.09560
 9797.30000    9.72470    0.03010   -0.02510    -999.25   42.03230   21.85220   22.91110   33.24080    0.02020    -999.25    2.73940  -59.74130
 9797.80000    9.72520    0.02220   -0.01810    -999.25   42.39950   21.22320   22.30590   30.93250    0.02170    -999.25    2.73400  -59.58470
 9798.30000    9.72570    0.01390   -0.01000    -999.25   43.12830   20.61220   21.71680   29.06430    0.02350    -999.25    2.72330  -58.86260
 9798.80000    9.72550    0.00970   -0.00390    -999.25   43.64400   20.01880   21.14320   27.65810    0.02520    -999.25    2.71210  -58.52540
