~Version ---------------------------------------------------
VERS.      2.0 : CWLS log ASCII Standard -VERSION 2.0
WRAP.       NO : One line per depth step
CREA. 08/01/17 : LAS Creation Date
~Well ------------------------------------------------------
STRT.FT                          300.0 : START DEPTH
STOP.FT                        13100.0 : STOP DEPTH
STEP.FT                       50.00000 : STEP LENGTH
NULL.                          -999.25 : NULL VALUE
COMP.      ANADARKO CANADA CORPORATION : COMPANY
WELL.      NORCEN ET AL FERR 9-23-40-9 : WELL
FLD .                               WC : FIELD
LOC .                                  : LOCATION
CTRY.                           CANADA : COUNTRY
SRVC. Schlumberger Well Surveying Corp : SERVICE COMPANY
DATE.                      17-Jun-1956 : LOGDATE
PROV.                          Alberta : PROVINCE
UWI .                 102092304009W500 : UNIQUE WELL ID
SLAT.WGS84                    52.45946 : SURFACE LATITUDE
SLON.WGS84                   -115.1788 : SURFACE LONGITUDE
~Curve Information -----------------------------------------
DEPT  .FT     : Depth Curve
CALWS .IN     : CALIPER [MCALED]
CONDWS.MMHO   : CONDUCTIVITY [1000/DRESWS]
DRESWS.OHMM   : DEEP RESISTIVITY [LNED]
GRNED .UR/HR  : GAMMA RAY FROM NEUTRON LOG
GRWS  .GAPI   : GAMMA RAY [GRNED WAS RESCALED FROM 0-15 UR/HR TO 0-150 PSEUDO API UNIT]
LNED  .OHMM   : 64 INCH LONG NORMAL RESISTIVITY FROM EL
LT18ED.OHMM   : LATERAL 18'8" FROM EL
MCALED.IN     : CALIPER FROM MICRO LOG
MINVED.OHMM   : MICROINVERSE RESISTIVITY FROM MICROLOG
MNORED.OHMM   : MICRONORMAL RESISTIVITY FROM MICROLOG
NEUTED.CU     : NEUTRON FROM GAMMA RAY NEUTRON LOG
NEUTWS.CU     : NEUTRON[NEUTED]
SNED  .OHMM   : 16 INCH SHORT NORMAL RESISTIVITY FROM EL
SPMED .MV     : SPONTANEOUS POTENTIAL FROM MICROLOG
SPRED .MV     : SPONTANEOUS POTENTIAL FROM RESISTIVITY LOG
SPWS  .MV     : SPONTANEOUS POTENTIAL [BASELINE 0 MV] [SPRED]
SRESWS.OHMM   : SHALLOW RESISTIVITY [SNED]
~Params ----------------------------------------------------
LMF .                     KB : LOG MEASURED FROM
DMF .                     KB : DRILLING MEASURED FROM
EGL .FT                 3455 : GROUND LEVEL
DATE.               06/17/56 : RUN DATE
RUN .                      5 : RUN NUMBER
DD  .FT                13102 : DEPTH DRILLER
DL  .FT                13103 : DEPTH LOGGER
BLI .FT                13100 : BOTTOM LOG INTERVAL
TLI .FT                11000 : TOP LOG INTERVAL
BS  .IN                    9 : BIT SIZE
BSD .FT                13102 : BIT SIZE AT DEPTH
DFT .              LIME BASE : DRILLING FLUID TYPE
DFD .                   10.9 : DRILLING FLUID DENSITY
DFV .                     98 : DRILLING FLUID VISCOSITY
DFPH.                     13 : DRILLING FLUID PH
DFL .                    4.4 : DRILLING FLUID LOSS
MSS .            CIRCULATION : MUD SAMPLE SOURCE
RMS .OHMM               0.46 : RESISTIVITY MUD SAMPLE
MST .DEGF                 61 : MUD SAMPLE TEMPERATURE
RMF .OHMM               0.21 : RESISTIVITY MUD FILTRATE SAMPLE
MFST.DEGF                 79 : MUD FILTRATE SAMPLE TEMPERATURE
RMC .OHMM               0.74 : RESISTIVITY MUD CAKE
MCST.DEGF                 68 : MUD CAKE SAMPLE TEMPERATURE
TLAB.HRS                   3 : TIME LOGGER AT BOTTOM
LUN .                   1729 : LOGGING UNIT NUMBER
LUL .                     RD : LOGGING UNIT LOCATION
ENGI.                BOSWELL : RECORDING ENGINEER
WITN.                 DUNCAN : WITNESSED BY
CLNT.                A2DTECH : CLIENT CODE
ORIG.       1" 5" 25" PRINT0 : ORIGIN OF DATA
UWI .       102092304009W500 : UNIQUE WELL ID
DICO. A2D Technologies, Inc. : DIGITIZING COMPANY
~Other -----------------------------------------------------
~ASCII -----------------------------------------------------
# ...
 10550.00000    -999.25    2.08230  480.24760    2.85000   28.50000  480.24760  759.03480    -999.25    -999.25    -999.25  865.33670  865.33670   80.49560    -999.25   11.80500  -47.08890   80.49560
 10600.00000    -999.25    3.61200  276.85700    3.34180   33.41800  276.85700 1091.81950    -999.25    -999.25    -999.25  847.25680  847.25680   51.47790    -999.25   12.81690  -48.17180   51.47790
 10650.00000    -999.25    2.12560  470.45030    2.43750   24.37500  470.45030 1170.36290    -999.25    -999.25    -999.25  846.01000  846.01000   69.11370    -999.25    1.40840  -61.67510   69.11370
 10700.00000    -999.25    1.19880  834.17700    3.21520   32.15200  834.17700  913.60890    -999.25    -999.25    -999.25  537.60300  537.60300   67.67050    -999.25  -11.87610  -77.05440   67.67050
 10750.00000    -999.25    1.18370  844.80000    3.31650   33.16500  844.80000  758.26290    -999.25    -999.25    -999.25  642.91190  642.91190   74.13850    -999.25  -21.40840  -88.68140   74.13850
 10800.00000    -999.25    2.51570  397.51070    2.43750   24.37500  397.51070 1413.67300    -999.25    -999.25    -999.25  625.53860  625.53860   28.28440    -999.25  -29.20910  -98.57690   28.28440
 10850.00000    -999.25    1.71590  582.79300    2.70000   27.00000  582.79300 1043.34680    -999.25    -999.25    -999.25  682.66830  682.66830   65.65880    -999.25  -23.94660  -95.40920   65.65880
 10900.00000    -999.25    1.77730  562.63840    3.18990   31.89900  562.63840  429.47660    -999.25    -999.25    -999.25  356.44820  356.44820   43.19390    -999.25  -21.31200  -94.86940   43.19390
 10950.00000    6.67000    1.98920  502.70760    2.60000   26.00000  502.70760  969.88480    6.67000    0.38610    1.92810  765.58610  765.58610   69.72710 -137.19470  -14.55540  -90.20760   69.72710
 11000.00000    6.73610    2.76670  361.44640    3.05060   30.50600  361.44640  438.26050    6.73610    7.63970    4.06890  745.17460  745.17460   79.43020 -147.39880  -22.33710 -100.08400   79.43020
 11050.00000    6.45040    2.36020  423.68420    2.81250   28.12500  423.68420  977.17630    6.45040   24.07510   20.64450  915.83540  915.83540   74.71100 -120.79940    4.19410  -75.64760   74.71100
 11100.00000    6.22440    1.58210  632.08820    2.45000   24.50000  632.08820  817.56200    6.22440    2.29370    4.00950  847.75560  847.75560   91.54360 -126.81820   -1.19080  -83.12730   91.54360
 11150.00000    6.30860    2.13580  468.21100    2.27500   22.75000  468.21100 1609.84480    6.30860   20.13780   17.51450  787.40650  787.40650   57.07290 -107.21650   18.22150  -65.80980   57.07290
 11200.00000    6.41950    6.68360  149.61980    5.27500   52.75000  149.61980  356.09880    6.41950    0.59600    2.62330  808.60350  808.60350   42.30340 -122.36080    3.72440  -82.40170   42.30340
 11250.00000    6.68330    3.54670  281.94950    3.02530   30.25300  281.94950  828.88780    6.68330    0.58420    2.11310  876.55860  876.55860   60.86040  -98.91890   26.55850  -61.66230   60.86040
 11300.00000    6.37870    3.30630  302.45720    2.62500   26.25000  302.45720  645.96770    6.37870    2.11310    3.23290  804.74950  804.74950   65.95490 -125.20190    0.54350  -89.77210   65.95490
 11350.00000    6.51460    2.31700  431.59350    2.31250   23.12500  431.59350  718.98900    6.51460    0.86820    5.90590  849.48350  849.48350   75.25390 -144.23670  -17.85580 -110.26620   75.25390
 11400.00000    6.53730    2.39130  418.18160    3.91140   39.11400  418.18160  762.90520    6.53730    2.32980    4.38880  798.62290  798.62290   71.97700 -206.71710  -80.96780 -175.47300   71.97700
 11450.00000    6.26510    7.98130  125.29350    2.08750   20.87500  125.29350  367.22200    6.26510    9.21450   17.93440  788.83150  788.83150   41.96460 -231.96970 -106.78650 -203.38650   41.96460
 11500.00000    6.33770    5.09220  196.37960    8.29630   82.96300  196.37960  470.86690    6.33770   17.46480   27.98690  498.12210  498.12210   54.54300 -284.95300 -160.22370 -258.91840   54.54300
 11550.00000    6.40540   45.22270   22.11280   10.21950  102.19500   22.11280   46.63670    6.40540    5.87300    8.74140  301.62090  301.62090   12.75680 -261.44640 -136.03270 -236.82220   12.75680
 11600.00000    8.65560   84.89690   11.77900   11.71740  117.17400   11.77900   21.04940    8.65560   -0.16260   -0.09030   -9.35160   -9.35160    6.94500 -216.81820  -90.52670 -193.41100    6.94500
 11650.00000    -999.25   59.43470   16.82520   10.10980  101.09800   16.82520   30.03080    -999.25    -999.25    -999.25  307.71290  307.71290   12.27470    -999.25  -39.96830 -144.94740   12.27470
 11700.00000    -999.25   71.44800   13.99620   11.10650  111.06500   13.99620   26.11150    -999.25    -999.25    -999.25  290.81260  290.81260   12.07080    -999.25  -26.81810 -133.89190   12.07080
 11750.00000    -999.25   99.26150   10.07440   11.53260  115.32600   10.07440   14.34040    -999.25    -999.25    -999.25  -30.26090  -30.26090    6.40790    -999.25    9.44700  -99.72160    6.40790
 11800.00000    -999.25   87.24400   11.46210   11.26040  112.60400   11.46210   18.94550    -999.25    -999.25    -999.25  131.39910  131.39910   10.17770    -999.25   59.58410  -51.67930   10.17770
 11850.00000    -999.25   80.14620   12.47720   11.94070  119.40700   12.47720   24.06480    -999.25    -999.25    -999.25  194.82540  194.82540   10.95720    -999.25   77.89370  -35.46450   10.95720
 11900.00000    -999.25   62.41650   16.02140   10.29270  102.92700   16.02140   22.55770    -999.25    -999.25    -999.25  282.80940  282.80940   12.93550    -999.25  103.64430  -11.80870   12.93550
 11950.00000    -999.25   66.88960   14.95000   10.93900  109.39000   14.95000   25.31900    -999.25    -999.25    -999.25  229.42640  229.42640   12.40060    -999.25   79.63780  -36.44360   12.40060
 12000.00000    -999.25   57.76070   17.31280    9.46150   94.61500   17.31280   27.31910    -999.25    -999.25    -999.25  337.28180  337.28180   13.62820    -999.25   12.78790 -103.29350   13.62820
 12050.00000    6.60910   74.66750   13.39270    9.64100   96.41000   13.39270   21.47090    6.60910    7.96480    8.39830  225.06230  225.06230   10.40280 -109.76960   14.84970 -101.23170   10.40280
 12100.00000    6.41960   57.06390   17.52420   10.68290  106.82900   17.52420   27.43840    6.41960    7.27850    9.48190  278.58920  278.58920   13.80870 -184.75380  -59.96490 -176.04630   13.80870
 12150.00000    7.09620   65.58110   15.24830   10.95120  109.51200   15.24830   27.83470    7.09620    0.83980    1.42890  148.17120  148.17120   11.02960 -163.74350  -39.84780 -155.92920   11.02960
 12200.00000    6.57270   47.52810   21.04020   10.93900  109.39000   21.04020   35.24790    6.57270    2.94390   10.42110  243.67650  243.67650   14.66930 -143.49970  -19.06120 -135.14260   14.66930
 12250.00000    6.36000    5.55320  180.07790   12.73960  127.39600  180.07790  799.67630    6.36000   13.52760   38.28860  322.31920  322.31920   49.21030 -117.78340    6.45970 -109.62170   49.21030
 12300.00000    6.36320    7.59270  131.70580   11.15390  111.53900  131.70580  532.90940    6.36320    6.19490   26.20630  464.51070  464.51070   43.11690 -131.81830   -5.69660 -121.77800   43.11690
 12350.00000    6.36630    6.18940  161.56740    8.03700   80.37000  161.56740  770.26210    6.36630   18.69300   31.94020  498.12970  498.12970   43.59210 -121.65250    3.03820 -113.04320   43.59210
 12400.00000    9.67730   47.86450   20.89230   11.29590  112.95900   20.89230   47.81250    9.67730    0.51710    1.07830    4.93460    4.93460    8.44780 -155.49600  -30.10060 -146.18200    8.44780
 12450.00000    6.63570   10.19180   98.11800    5.08750   50.87500   98.11800  312.99550    6.63570   17.75380   29.47130  569.61760  569.61760   30.41520 -138.29240  -11.80390 -127.88530   30.41520
 12500.00000    9.48180   50.59370   19.76530    8.12350   81.23500   19.76530   53.25610    9.48180    0.30700    0.88450  141.83270  141.83270    8.28940 -145.98340  -21.52250 -137.60390    8.28940
