~Version ---------------------------------------------------
VERS.      2.0 : CWLS log ASCII Standard -VERSION 2.0
WRAP.       NO : One line per depth step
CREA. 08/31/17 : LAS Creation Date
~Well ------------------------------------------------------
STRT.FT                            1500.0 : START DEPTH
STOP.FT                           12250.0 : STOP DEPTH
STEP.FT                          50.00000 : STEP LENGTH
NULL.                             -999.25 : NULL VALUE
COMP.            CHEVRON STANDARD LIMITED : COMPANY
WELL. CHEVRON NORCEN PL BRAZEAU 7-4-49-12 : WELL
FLD .                                     : FIELD
LOC .                                     : LOCATION
CTRY.                              CANADA : COUNTRY
SRVC.                        Schlumberger : SERVICE COMPANY
DATE.                         05-Jun-1978 : LOGDATE
PROV.                             Alberta : PROVINCE
UWI .                    100070404912W500 : UNIQUE WELL ID
SLAT.WGS84                       53.19691 : SURFACE LATITUDE
SLON.WGS84                      -115.6898 : SURFACE LONGITUDE
~Curve Information -----------------------------------------
DEPT    .FT    : Depth Curve
CALDED  .IN    : CALIPER FROM CNFD LOG
CALSED  .IN    : CALIPER FROM SONIC LOG [ADJ.TO GRDED]
CALWS   .IN    : CALIPER [CALSED]
CONDWS  .MMHO  : CONDUCTIVITY [1000/DRESWS]
DCORED  .G/C3  : DENSITY CORRECTION FROM CNFD LOG
DCORWS  .G/C3  : DENSITY CORRECTION [DCORED]
DENWS   .G/C3  : FORMATION BULK DENSITY [CALCULATED FROM DPOLSWS, M=2.71, F=1.00]
DPHILSED.V/V   : DENSITY POROSITY LIMESTONE [M=2.71, F=1.0] FROM CNFD LOG [ADJ.TO RHOBED]
DPHISSED.V/V   : DENSITY POROSITY SANDSTONE [M=2.65, F=1.0] FROM CNFD LOG [ADJ.TO RHOBED]
DPOLSWS .V/V   : DENSITY POROSITY LIMESTONE [DPHISSED CONVERTED TO LIMESTONE MATRIX,M=2.71, F=1.0, SPL.TO DPHILSED @ 2605.3']
DRESWS  .OHMM  : DEEP RESISTIVITY [ILDED]
DTED    .US/F  : DELTA-T FROM BCS LOG [ADJ.TO GRDED]
DTWS    .US/F  : COMPRESSIONAL SONIC [DTED]
GRDED   .GAPI  : GAMMA RAY FROM CNFD LOG
GRSED   .GAPI  : GAMMA RAY FROM BCS LOG [ADJ.TO GRDED]
GRWS    .GAPI  : GAMMA RAY [GRSED]
ILDED   .OHMM  : DEEP INDUCTION FROM DIL-LAT LOG
ILMED   .OHMM  : MEDIUM INDUCTION FROM DIL-LAT LOG
LL8ED   .OHMM  : LATEROLOG-8 FROM DIL-LAT LOG
MRESWS  .OHMM  : MEDIUM RESISTIVITY [ILMED]
NPHILSED.V/V   : NEUTRON POROSITY LIMESTONE FROM CNFD LOG [ADJ.TO RHOBED]
NPHISSED.V/V   : NEUTRON POROSITY SANDSTONE FROM CNFD LOG [ADJ.TO RHOBED]
NPOLSWS .V/V   : NEUTRON POROSITY LIMESTONE [NPHISSED CONVERTED TO LIMESTONE MATRIX & SPL. TO NPHILSED @ 2605']
RHOBED  .G/C3  : FORMATION BULK DENSITY FROM CNFD LOG
SPRED   .MV    : SPONTANEOUS POTENTIAL FROM DIL-LAT LOG
SPWS    .MV    : SPONTANEOUS POTENTIAL [BASELINE 0 MV,SPRED]
SRESWS  .OHMM  : SHALLOW RESISTIVITY [LL8ED]
~Params ----------------------------------------------------
PD  .                     GL : PERMANENT DATUM
EPD .FT               3221.1 : ELEVATION PERMANENT DATUM
LMF .                     KB : LOG MEASURED FROM
DAPD.FT                 18.9 : FEET ABOVE PERMANENT DATUM
DMF .                     KB : DRILLING MEASURED FROM
EKB .FT                 3240 : KELLY BUSHING
EGL .FT               3221.1 : GROUND LEVEL
DATE.               06/05/78 : RUN DATE
RUN .                      1 : RUN NUMBER
DD  .FT                12300 : DEPTH DRILLER
DL  .FT                12303 : DEPTH LOGGER
BLI .FT                12297 : BOTTOM LOG INTERVAL
TLI .FT                 1518 : TOP LOG INTERVAL
CBD .FT                 1518 : CASING BOTTOM DRILLER
CBL .FT                 1518 : CASING BOTTOM LOGGER
BS  .IN                 8.75 : BIT SIZE
BSD .FT                12300 : BIT SIZE AT DEPTH
DFT .                    GEL : DRILLING FLUID TYPE
DFD .                     11 : DRILLING FLUID DENSITY
DFV .                     68 : DRILLING FLUID VISCOSITY
DFPH.                   10.5 : DRILLING FLUID PH
MSS .               FLOWLINE : MUD SAMPLE SOURCE
RMS .OHMM               3.34 : RESISTIVITY MUD SAMPLE
MST .DEGF                 68 : MUD SAMPLE TEMPERATURE
TCS .HRS                 350 : TIME CIRCULATED STOPPED
LUN .                   7802 : LOGGING UNIT NUMBER
LUL .                    EDM : LOGGING UNIT LOCATION
ENGI.            STEENBERGEN : RECORDING ENGINEER
WITN.             RICHARDSON : WITNESSED BY
CLNT.                A2DTECH : CLIENT CODE
ORIG.            2" 5" PRINT : ORIGIN OF DATA
UWI .       100070404912W500 : UNIQUE WELL ID
DICO. A2D Technologies, Inc. : DIGITIZING COMPANY
~Other -----------------------------------------------------
~ASCII -----------------------------------------------------
# ...
 2800.00000    -999.25   10.20610   10.20610  172.94460    -999.25    -999.25    -999.25    -999.25    -999.25    -999.25    5.78220   81.42430   81.42430    -999.25  104.94840  104.94840    5.78220    5.34550    4.91620    5.34550    -999.25    -999.25    -999.25    -999.25  -16.59740   -6.25300    4.91620
 2850.00000    -999.25   10.17800   10.17800  159.50240    -999.25    -999.25    -999.25    -999.25    -999.25    -999.25    6.26950   86.99260   86.99260    -999.25   80.54680   80.54680    6.26950    5.91440    5.50670    5.91440    -999.25    -999.25    -999.25    -999.25  -14.90350   -4.55910    5.50670
 2900.00000    -999.25    9.71440    9.71440  181.73230    -999.25    -999.25    -999.25    -999.25    -999.25    -999.25    5.50260   89.03510   89.03510    -999.25  105.23650  105.23650    5.50260    5.79710    9.34050    5.79710    -999.25    -999.25    -999.25    -999.25  -15.01070   -4.66630    9.34050
 2950.00000    -999.25   10.00110   10.00110  106.95910    -999.25    -999.25    -999.25    -999.25    -999.25    -999.25    9.36990   83.74750   83.74750    -999.25   82.89080   82.89080    9.36990   10.37820   11.34040   10.37820    -999.25    -999.25    -999.25    -999.25  -16.87620   -6.53180   11.34040
 3000.00000    -999.25    9.52720    9.52720  126.04460    -999.25    -999.25    -999.25    -999.25    -999.25    -999.25    7.93370  127.03960  127.03960    -999.25   66.72470   66.72470    7.93370    8.99350   21.69510    8.99350    -999.25    -999.25    -999.25    -999.25  -13.51650   -3.17210   21.69510
 3050.00000    -999.25    9.31940    9.31940  176.66910    -999.25    -999.25    -999.25    -999.25    -999.25    -999.25    5.66030   85.88820   85.88820    -999.25  110.09400  110.09400    5.66030    5.35050    5.13130    5.35050    -999.25    -999.25    -999.25    -999.25  -16.09710   -5.75270    5.13130
 3100.00000    -999.25    9.49840    9.49840   67.18760    -999.25    -999.25    -999.25    -999.25    -999.25    -999.25   14.88370   76.72290   76.72290    -999.25   65.27780   65.27780   14.88370   15.96810   19.07390   15.96810    -999.25    -999.25    -999.25    -999.25  -37.80050  -27.45610   19.07390
 3150.00000    -999.25    9.27640    9.27640  438.26970    -999.25    -999.25    -999.25    -999.25    -999.25    -999.25    2.28170  101.30460  101.30460    -999.25   93.72890   93.72890    2.28170    2.58010    3.84960    2.58010    -999.25    -999.25    -999.25    -999.25  -14.64430   -4.29990    3.84960
 3200.00000    -999.25    9.41720    9.41720  273.61770    -999.25    -999.25    -999.25    -999.25    -999.25    -999.25    3.65540   92.03280   92.03280    -999.25   87.00820   87.00820    3.65540    3.90820    4.68960    3.90820    -999.25    -999.25    -999.25    -999.25  -15.38770   -5.04330    4.68960
 3250.00000    -999.25    9.75790    9.75790  245.04400    -999.25    -999.25    -999.25    -999.25    -999.25    -999.25    4.08090   83.12880   83.12880    -999.25   93.95130   93.95130    4.08090    4.33830    5.19880    4.33830    -999.25    -999.25    -999.25    -999.25  -15.84090   -5.49650    5.19880
 3300.00000    -999.25    9.57530    9.57530  122.30170    -999.25    -999.25    -999.25    -999.25    -999.25    -999.25    8.17650   77.25380   77.25380    -999.25   55.63850   55.63850    8.17650    9.48490   10.07910    9.48490    -999.25    -999.25    -999.25    -999.25  -17.24560   -6.90120   10.07910
 3350.00000    -999.25    9.60660    9.60660  247.30440    -999.25    -999.25    -999.25    -999.25    -999.25    -999.25    4.04360   85.80930   85.80930    -999.25  100.40770  100.40770    4.04360    4.53930    4.93540    4.53930    -999.25    -999.25    -999.25    -999.25  -15.76540   -5.42100    4.93540
 3400.00000    -999.25    9.49210    9.49210  142.39130    -999.25    -999.25    -999.25    -999.25    -999.25    -999.25    7.02290   85.77190   85.77190    -999.25  102.88010  102.88010    7.02290    7.77320    8.49680    7.77320    -999.25    -999.25    -999.25    -999.25  -16.03550   -5.69110    8.49680
 3450.00000    -999.25    9.45110    9.45110  168.55910    -999.25    -999.25    -999.25    -999.25    -999.25    -999.25    5.93410   79.24640   79.24640    -999.25   84.83210   84.83210    5.93410    6.36350    7.22850    6.36350    -999.25    -999.25    -999.25    -999.25  -15.90670   -5.56230    7.22850
 3500.00000    -999.25    9.55890    9.55890  280.42620    -999.25    -999.25    -999.25    -999.25    -999.25    -999.25    3.56600   85.07300   85.07300    -999.25  105.27590  105.27590    3.56600    3.94030    4.28580    3.94030    -999.25    -999.25    -999.25    -999.25  -15.60910   -5.26470    4.28580
 3550.00000    -999.25    9.42650    9.42650  238.03860    -999.25    -999.25    -999.25    -999.25    -999.25    -999.25    4.20100   96.99190   96.99190    -999.25  105.20320  105.20320    4.20100    4.60170    5.60940    4.60170    -999.25    -999.25    -999.25    -999.25  -15.39630   -5.05190    5.60940
 3600.00000    -999.25    9.44960    9.44960  346.48830    -999.25    -999.25    -999.25    -999.25    -999.25    -999.25    2.88610   95.65830   95.65830    -999.25  119.91640  119.91640    2.88610    3.05680    4.35740    3.05680    -999.25    -999.25    -999.25    -999.25  -13.94710   -3.60270    4.35740
 3650.00000    -999.25    9.45580    9.45580  175.69750    -999.25    -999.25    -999.25    -999.25    -999.25    -999.25    5.69160   87.06180   87.06180    -999.25  126.15690  126.15690    5.69160    6.03760    6.67630    6.03760    -999.25    -999.25    -999.25    -999.25  -14.61860   -4.27420    6.67630
 3700.00000    -999.25    9.50720    9.50720   73.23210    -999.25    -999.25    -999.25    -999.25    -999.25    -999.25   13.70530   72.92510   72.92510    -999.25   59.34450   59.34450   13.70530   13.96400   16.02250   13.96400    -999.25    -999.25    -999.25    -999.25  -18.28650   -7.94210   16.02250
 3750.00000    -999.25    9.43940    9.43940  186.93340    -999.25    -999.25    -999.25    -999.25    -999.25    -999.25    5.34950   87.07430   87.07430    -999.25   93.68840   93.68840    5.34950    5.95140    6.32030    5.95140    -999.25    -999.25    -999.25    -999.25  -13.75420   -3.40980    6.32030
 3800.00000    -999.25    9.48860    9.48860  360.45130    -999.25    -999.25    -999.25    -999.25    -999.25    -999.25    2.77430   87.84910   87.84910    -999.25  186.04060  186.04060    2.77430    3.08840    3.66760    3.08840    -999.25    -999.25    -999.25    -999.25  -14.74550   -4.40110    3.66760
 3850.00000    -999.25    9.59480    9.59480  193.01290    -999.25    -999.25    -999.25    -999.25    -999.25    -999.25    5.18100   90.09340   90.09340    -999.25   96.82340   96.82340    5.18100    5.52650    5.97380    5.52650    -999.25    -999.25    -999.25    -999.25  -14.17970   -3.83530    5.97380
 3900.00000   11.63000    9.56000    9.56000  149.06460    0.04920    0.04920    2.51290    -999.25    0.08310    0.11530    6.70850   88.93880   88.93880    -999.25  123.41250  123.41250    6.70850    7.21670    9.07700    7.21670    -999.25    0.31600    0.27210    2.48680  -15.44390   -5.09950    9.07700
 3950.00000   10.77890    9.42990    9.42990  213.87200    0.09180    0.09180    2.42200    -999.25    0.13820    0.16840    4.67820   87.76110   87.76110   96.93440  103.62050  103.62050    4.67820    5.06740    6.12000    5.06740    -999.25    0.28280    0.23880    2.46880  -16.10750   -5.76310    6.12000
 4000.00000   11.09370    9.38010    9.38010  186.55320    0.08320    0.08320    2.55170    -999.25    0.05960    0.09260    5.36040   81.34840   81.34840  101.26140   92.78390   92.78390    5.36040    5.74390    6.01190    5.74390    -999.25    0.31350    0.26960    2.56310  -16.92290   -6.57850    6.01190
 4050.00000   11.55840    9.67410    9.67410  173.35230    0.07230    0.07230    2.57000    -999.25    0.04850    0.08190    5.76860   86.74400   86.74400   93.25420   95.05460   95.05460    5.76860    6.10940    6.38980    6.10940    -999.25    0.31400    0.27010    2.58730  -14.32340   -3.97900    6.38980
