~Version ---------------------------------------------------
VERS.      2.0 : CWLS log ASCII Standard -VERSION 2.0
WRAP.       NO : One line per depth step
CREA. 09/24/14 : LAS Creation Date
~Well ------------------------------------------------------
STRT.M                   400.0 : START DEPTH
STOP.M                  2400.0 : STOP DEPTH
STEP.M                50.00000 : STEP LENGTH
NULL.                  -999.25 : NULL VALUE
COMP. ANDERSON EXPLORATION LTD : COMPANY
WELL. ANDERSON CULP 6-20-78-23 : WELL
FLD .                          : FIELD
LOC .                          : LOCATION
CTRY.                   CANADA : COUNTRY
SRVC.             Schlumberger : SERVICE COMPANY
DATE.              28-Jun-1985 : LOGDATE
PROV.                  Alberta : PROVINCE
UWI .         100062007823W500 : UNIQUE WELL ID
SLAT.WGS84            55.77082 : SURFACE LATITUDE
SLON.WGS84           -117.5363 : SURFACE LONGITUDE
~Curve Information -----------------------------------------
DEPT    .M      : Depth Curve
C2DED   .MM     : CALIPER [DUAL AXIS] FROM DENSITY LOG
CALDED  .MM     : CALIPER FROM DENSITY LOG
CALSED  .MM     : CALIPER FROM SONIC LOG
CALWS   .MM     : CALIPER [CALDED]
CONDWS  .MMHO   : CONDUCTIVITY [1000/DRESWS]
DCORWS  .KG/M3  : DENSITY CORRECTION [DRHOED]
DENWS   .KG/M3  : FORMATION BULK DENSITY [CALC FROM DPOLSWS, M=2710, F=1000]
DPHILSED.V/V    : DENSITY POROSITY LIMESTONE [M=2710, F=1000] FROM DENSITY LOG
DPHISSED.V/V    : DENSITY POROSITY SANDSTONE [M=2650, F=1000] FROM DENSITY LOG
DPOLSWS .V/V    : DENSITY POROSITY LIMESTONE [DPHISSED CONERTED TO LIMESTONE MATRIX , M=2710, F=1000, SPL TO DPHILSED @ 1031 M]
DRESWS  .OHMM   : DEEP RESISTIVITY [ILDED]
DRHOED  .KG/M3  : BULK DENSITY CORRECTION FROM DENSITY LOG [ADJ. TO DPHISSED/DPHILSED]
DTED    .US/M   : DELTA TIME  FROM SONIC LOG
DTWS    .US/M   : COMPRESSIONAL SONIC [DTED]
GRRED   .GAPI   : GAMMA RAY FROM RESISTIVITY LOG
GRSED   .GAPI   : GAMMA RAY FROM SONIC LOG
GRWS    .GAPI   : GAMMA RAY [GRSED SPL. TO SGRDED @ 385 M]
ILDED   .OHMM   : DEEP INDUCTION RESISTIVITY FROM RESISTIVITY LOG
ILMED   .OHMM   : MEDIUM INDUCTION RESISTIVITY FROM RESISTIVITY LOG
MLLED   .OHMM   : MICRO LATEROLOG RESISTIVITY  FROM MLL LOG
MRESWS  .OHMM   : MEDIUM RESISTIVITY [ILMED]
NPHILSED.V/V    : NEUTRON POROSITY LIMESTONE FROM DENSITY LOG
NPHISSED.V/V    : NEUTRON POROSITY SANDSTONE FROM DENSITY LOG
NPOLSWS .V/V    : NEUTRON POROSITY LIMESTONE [NPHISSED MATRIX CONVERSION FOR LIMESTONE , SPL. TO NPHILSED @ 1031M ]
PEFED   .B/E    : PHOTOELECTRIC FACTOR FROM DENSITY LOG
PEFWS   .B/E    : PHOTOELECTRIC FACTOR [PEFED]
RHOBED  .KG/M3  : BULK DENSITY FROM DENSITY LOG[ADJ. TO DPHISSED/DPHILSED]
SFLUED  .OHMM   : SHALLOW FOCUSED LOG FROM RESISTIVITY LOG
SGRDED  .GAPI   : SPECTROSCOPY GAMMA RAY FROM DENSITY LOG
SPRED   .MV     : SPONTANEOUS POTENTIAL FROM RESISTIVITY LOG
SPWS    .MV     : SPONTANEOUS POTENTIAL [BASELINE 0 MV, SPRED]
SRESWS  .OHMM   : SHALLOW RESISTIVITY [SFLUED]
TENDED  .N      : TENSION FROM DENSITY LOG
TENRED  .N      : TENSION FROM RESISTIVITY LOG
TENSED  .N      : TENSION FROM SONIC LOG
~Params ----------------------------------------------------
PD  .                         GL : PERMANENT DATUM
EPD .M                       556 : ELEVATION PERMANENT DATUM
LMF .                         KB : LOG MEASURED FROM
DAPD.M                       4.9 : FEET ABOVE PERMANENT DATUM
DMF .                         KB : DRILLING MEASURED FROM
EKB .M                     560.9 : KELLY BUSHING
EDF .M                     560.5 : DRILLING FLOOR
EGL .M                       556 : GROUND LEVEL
DATE.                   06/28/85 : RUN DATE
RUN .                          2 : RUN NUMBER
DD  .M                      2430 : DEPTH DRILLER
DL  .M                      2427 : DEPTH LOGGER
BLI .M                      2425 : BOTTOM LOG INTERVAL
TLI .M                      1775 : TOP LOG INTERVAL
CS  .MM                      244 : CASING SIZE
CBD .M                       386 : CASING BOTTOM DRILLER
CBL .M                       385 : CASING BOTTOM LOGGER
BS  .MM                      222 : BIT SIZE
BSD .M                      2430 : BIT SIZE AT DEPTH
DFT .                   GEL CHEM : DRILLING FLUID TYPE
DFD .                       1145 : DRILLING FLUID DENSITY
DFV .                         52 : DRILLING FLUID VISCOSITY
DFPH.                       11.4 : DRILLING FLUID PH
DFL .                        7.5 : DRILLING FLUID LOSS
MSS .                   FLOWLINE : MUD SAMPLE SOURCE
RMS .OHMM                   1.11 : RESISTIVITY MUD SAMPLE
MST .DEGC                     22 : MUD SAMPLE TEMPERATURE
RMF .OHMM                  0.963 : RESISTIVITY MUD FILTRATE SAMPLE
MFST.DEGC                     18 : MUD FILTRATE SAMPLE TEMPERATURE
RMC .OHMM                   1.22 : RESISTIVITY MUD CAKE
MCST.DEGC                     20 : MUD CAKE SAMPLE TEMPERATURE
MFSS.                       MEAS : MUD FILTRATE SAMPLE SOURCE
MCSS.                       MEAS : MUD CAKE SAMPLE SOURCE
RMB .OHMM                  0.579 : RESISTIVITY MUD AT BHT
TCS .HRS                     200 : TIME CIRCULATED STOPPED
TLAB.HRS                     830 : TIME LOGGER AT BOTTOM
LUN .                       8093 : LOGGING UNIT NUMBER
LUL .             GRANDE PRAIRIE : LOGGING UNIT LOCATION
ENGI.                 MACPHERSON : RECORDING ENGINEER
WITN.           SYMINGTON BRAZEZ : WITNESSED BY
CLNT.                    A2DTECH : CLIENT CODE
ORIG. 6.5"/100M 16.5"/100M PRINT : ORIGIN OF DATA
UWI .           100062007823W500 : UNIQUE WELL ID
DICO.     A2D Technologies, Inc. : DIGITIZING COMPANY
~Other -----------------------------------------------------
DLL-FDC-CNL-BHC-CVL LOG RUN IN COMBO
RHOB & DRHO DATA VERIFY FROM SMALL SECTION
~ASCII -----------------------------------------------------
# ...
 1450.00000  261.11740  239.90480  240.58470  239.90480   31.63220    0.41370 2681.10100    0.01690    -999.25    0.01690   31.61340    0.41370  186.87790  186.87790    -999.25   23.62610   28.20990   31.61340   35.69550    -999.25   35.69550    0.02400    -999.25    0.02400    4.35280    4.35280 2684.33060   46.34110   28.20990    6.33060   -7.40600   46.34110 12890.66210 1830.48650 11735.02340
 1500.00000  254.20830  234.40180  234.00000  234.40180   24.72280    0.26930 2620.22500    0.05250    -999.25    0.05250   40.44850    0.26930  181.76570  181.76570    -999.25   14.73230   16.45000   40.44850   45.67050    -999.25   45.67050    0.06070    -999.25    0.06070    4.64390    4.64390 2622.12670   49.32860   16.45000  -44.33140  -56.61230   49.32860 13499.83690 1900.14920 11881.38480
 1550.00000  326.46390  311.94240  280.29110  311.94240  255.06300   88.45220 2182.46500    0.30850    -999.25    0.30850    3.92060   88.45220  248.34470  248.34470    -999.25   54.92210   62.14780    3.92060    3.86010    -999.25    3.86010    0.14880    -999.25    0.14880    2.52400    2.52400 2148.65360    5.37760   62.14780   -1.40660  -11.83120    5.37760 14284.62600 1946.00330 12345.66990
 1600.00000  263.88440  255.81360  249.25430  255.81360  200.24430  -20.82070 2365.60600    0.20140    -999.25    0.20140    4.99390  -20.82070  234.10520  234.10520    -999.25   55.32430   58.92880    4.99390    5.00290    -999.25    5.00290    0.27840    -999.25    0.27840    3.14990    3.14990 2413.12500    6.35770   58.92880    8.13130  -11.04340    6.35770 14166.28320 2043.93180 12487.67090
 1650.00000  251.16670  232.32880  241.20460  232.32880   21.14100    2.99150 2704.18600    0.00340    -999.25    0.00340   47.30140    2.99150  175.75040  175.75040    -999.25   17.03220   19.10430   47.30140   49.35940    -999.25   49.35940    0.00950    -999.25    0.00950    4.75730    4.75730 2705.96700   68.99750   19.10430    5.61230  -20.20550   68.99750 14356.83400 2090.46900 12827.00980
 1700.00000  255.74010  232.01990  234.25090  232.01990  114.22570   -1.45350 2652.54400    0.03360    -999.25    0.03360    8.75460   -1.45350  218.07700  218.07700    -999.25   50.30040   54.08280    8.75460    9.28160    -999.25    9.28160    0.10680    -999.25    0.10680    3.39290    3.39290 2651.68920   10.34070   54.08280   21.86830   -8.64770   10.34070 14821.35550 2151.20560 13194.00290
 1750.00000  262.56710  264.05670  253.66580  264.05670  206.78670  119.77160 2576.79100    0.07790    -999.25    0.07790    4.83590  119.77160  261.55270  261.55270    -999.25   84.55290   88.94200    4.83590    4.99030    -999.25    4.99030    0.18660    -999.25    0.18660    3.12160    3.12160 2578.26370    5.73950   88.94200   18.91620  -14.40470    5.73950 15761.93360 2220.29200 13367.12210
 1800.00000  288.53090  259.70530  267.25360  259.70530  316.78650   60.37650 2508.39100    0.11790    -999.25    0.11790    3.15670   60.37650  322.80440  322.80440  104.14270  120.50600  123.25380    3.15670    3.32550   17.12960    3.32550    0.32640    -999.25    0.32640    2.89350    2.89350 2511.50900    4.31280  123.25380   25.19070  -11.34340    4.31280 14891.50290 2249.71800 13596.59670
 1850.00000  245.86400  224.20550  226.44550  224.20550    5.27440    2.68690 2715.98500   -0.00350    -999.25   -0.00350  189.59330    2.68690  162.46100  162.46100   15.44400   15.63030   13.86350  189.59330  384.40330  494.85920  384.40330   -0.00040    -999.25   -0.00040    4.81330    4.81330 2718.57860  328.40670   13.86350   -8.40590  -44.42110  328.40670 15770.13380 2322.39380 13890.45700
 1900.00000  332.06510  286.94000  268.96350  286.94000   41.34490   19.75480 2671.18300    0.02270    -999.25    0.02270   24.18680   19.75480  178.71640  178.71640   12.40230   12.36690   12.66930   24.18680   23.52510   44.00910   23.52510    0.02520    -999.25    0.02520    4.38900    4.38900 2668.08620   25.33090   12.66930  -48.91510  -84.35670   25.33090 13691.02830 12623.38480 12658.03710
 1950.00000  280.88940  232.15350  245.04610  232.15350    2.02920    4.40860 2709.48700    0.00030    -999.25    0.00030  492.79910    4.40860  161.87710  161.87710   10.37890   10.33390   13.86770  492.79910  480.90530  258.09480  480.90530   -0.00050    -999.25   -0.00050    5.04400    5.04400 2709.81050  679.80310   13.86770  -54.34410  -89.21220  679.80310 13997.88870 12803.05570 12788.37010
 2000.00000  258.13670  249.60900  251.65810  249.60900    3.18830   -3.75670 2699.74000    0.00600    -999.25    0.00600  313.64340   -3.75670  163.69090  163.69090   14.48680   15.03250   16.52170  313.64340  376.17430  264.96280  376.17430    0.00040    -999.25    0.00040    5.37920    5.37920 2700.25070  427.77350   16.52170  -36.00790  -70.30240  427.77350 14431.81050 13099.78710 13192.07620
 2050.00000  262.84240  257.30090  242.64040  257.30090   46.45570   12.30820 2804.39200   -0.05520    -999.25   -0.05520   21.52590   12.30820  173.50630  173.50630   18.11890   18.09390   17.30480   21.52590   23.82370   43.07320   23.82370    0.04960    -999.25    0.04960    3.00130    3.00130 2803.89210   46.49540   17.30480  -40.92220  -74.64310   46.49540 14403.31740 13244.34280 13173.63960
 2100.00000  246.83180  239.12480  230.69130  239.12480   73.11170    6.55900 2740.78000   -0.01800    -999.25   -0.01800   13.67770    6.55900  169.70760  169.70760   24.82560   24.74740   27.65870   13.67770   13.38820   29.55350   13.38820    0.10350    -999.25    0.10350    3.03630    3.03630 2737.79790   11.88000   27.65870  -39.76800  -72.91530   11.88000 14633.07130 13506.76950 13493.55080
 2150.00000  335.25380  245.42590  261.75630  245.42590   77.03210   80.54680 2685.54700    0.01430    -999.25    0.01430   12.98160   80.54680  212.37310  212.37310   42.16510   42.42520   52.37280   12.98160   13.42490   31.27390   13.42490    0.10450    -999.25    0.10450    3.91250    3.91250 2685.97710   17.80030   52.37280   24.99290   -7.53430   17.80030 15220.53910 13763.94730 13870.46880
 2200.00000  306.78640  365.91270  294.78310  365.91270  164.10120  175.24620 2477.26900    0.13610    -999.25    0.13610    6.09380  175.24620  247.59090  247.59090   70.10050   69.85740   68.99520    6.09380    5.87310   17.04450    5.87310    0.30470    -999.25    0.30470    3.19570    3.19570 2470.01460    7.31500   68.99520    3.53450  -24.10960    7.31500 15484.91020 13850.87990 13923.95210
 2250.00000  291.60350  347.44400  294.96330  347.44400  180.50540  154.70190 2596.79800    0.06620    -999.25    0.06620    5.54000  154.70190  255.23820  255.23820   80.67750   80.72420   73.94190    5.54000    5.46590   20.65500    5.46590    0.25360    -999.25    0.25360    3.40420    3.40420 2597.55270    6.67020   73.94190   -7.19160  -29.95250    6.67020 15809.63280 14044.40140 13965.72360
 2300.00000  245.01330  229.65650  227.18330  229.65650   14.36070    2.44330 2693.58400    0.00960    -999.25    0.00960   69.63460    2.44330  186.12890  186.12890   34.01370   34.08550   32.39560   69.63460   87.33580  121.59580   87.33580    0.03220    -999.25    0.03220    4.39900    4.39900 2688.50610  109.84680   32.39560   10.82440   -7.75970  109.84680 15824.46390 14660.68360 14689.51270
 2350.00000  244.32000  232.22750  224.04000  232.22750    6.75380    5.80720 2676.31300    0.01970    -999.25    0.01970  148.06380    5.80720  188.52600  188.52600   46.20000   43.58740   47.95290  148.06380  165.52070 1050.96630  165.52070    0.03980    -999.25    0.03980    4.29500    4.29500 2674.31880  354.01780   47.95290    5.84300  -12.74110  354.01780 16156.23930 14726.92580 14826.19820
 2400.00000  237.43310  216.64610  212.56000  216.64610 1650.70980   12.10370 2259.41500    0.26350    0.23180    0.26350    0.60580   12.10370  246.15660  246.15660   81.61830   81.37050   85.53500    0.60580    0.75440   21.87640    0.75440    0.20340    0.24480    0.20340    1.96120    1.96120 2237.42410    2.92460   85.53500 -106.34010 -124.92420    2.92460 16446.96290 14986.23440 14959.25590
