~Version ---------------------------------------------------
VERS.      2.0 : CWLS log ASCII Standard -VERSION 2.0
WRAP.       NO : One line per depth step
CREA. 08/27/14 : LAS Creation Date
~Well ------------------------------------------------------
STRT.FT                            1200.0 : START DEPTH
STOP.FT                           11700.0 : STOP DEPTH
STEP.FT                          50.00000 : STEP LENGTH
NULL.                             -999.25 : NULL VALUE
COMP.        PAN AMERICAN PETROLEUM CORP. : COMPANY
WELL. PAN AM FINA G-1 KAYBOBS 10-19-58-18 : WELL
FLD .                                  WC : FIELD
LOC .                                     : LOCATION
CTRY.                              CANADA : COUNTRY
SRVC.                        Schlumberger : SERVICE COMPANY
DATE.                         16-Apr-1969 : LOGDATE
PROV.                             Alberta : PROVINCE
UWI .                    100101905818W500 : UNIQUE WELL ID
SLAT.WGS84                       54.03118 : SURFACE LATITUDE
SLON.WGS84                      -116.6587 : SURFACE LONGITUDE
~Curve Information -----------------------------------------
DEPT   .FT                : Depth Curve
CALD   .IN   45 280 60 00 : CALIPER FROM DENSITY LOG
CALN   .IN   41 280 60 00 : CALIPER FROM NEUTRON LOG
CALS   .IN   60 280 50 00 : CALIPER FROM SONIC LOG
DCOR   .G/C3 45 356 01 00 : DENSITY CORRECTION
DPHI_LS.DEC  45 890 10 00 : DENSITY POROSITY LIMESTONE
DT     .US/F 60 500 00 00 : DELTA-T (INTERVAL TRANSIT TIME)
GRN    .GAPI 41 310 01 00 : GAMMA RAY FROM GRN LOG
GRS    .GAPI 60 310 01 00 : GAMMA RAY FROM SONIC LOG
ILD    .OHMM 07 120 46 00 : INDUCTION DEEP RESISTIVITY
ILM    .OHMM 07 120 44 00 : INDUCTION MEDIUM RESISTIVITY
LL8    .OHMM 07 220 08 00 : LATEROLOG 8
RHOB   .G/C3 45 350 01 00 : BULK DENSITY
SNP_LS .DEC  41 890 01 00 : SIDEWALL NEUTRON POROSITY [LIMESTONE]
SPR    .MV   07 010 01 00 : SPONTANEOUS POTENTIAL FROM RESISTIVITY LOG
~Params ----------------------------------------------------
PD  .                     GL : PERMANENT DATUM
EPD .FT                 3475 : ELEVATION PERMANENT DATUM
LMF .                     KB : LOG MEASURED FROM
DAPD.FT                   12 : FEET ABOVE PERMANENT DATUM
EKB .FT                 3487 : KELLY BUSHING
EGL .FT                 3475 : GROUND LEVEL
DATE.               04/16/69 : RUN DATE
RUN .                      1 : RUN NUMBER
DD  .FT                11735 : DEPTH DRILLER
DL  .FT                11734 : DEPTH LOGGER
BLI .FT                11729 : BOTTOM LOG INTERVAL
TLI .FT                 1202 : TOP LOG INTERVAL
CBD .FT                 1202 : CASING BOTTOM DRILLER
CBL .FT                 1202 : CASING BOTTOM LOGGER
BS  .IN                 8.75 : BIT SIZE
BSD .FT                11735 : BIT SIZE AT DEPTH
DFT .              GEL BENEX : DRILLING FLUID TYPE
DFD .                    9.3 : DRILLING FLUID DENSITY
DFV .                     90 : DRILLING FLUID VISCOSITY
DFPH.                    8.0 : DRILLING FLUID PH
DFL .                   11.2 : DRILLING FLUID LOSS
RMS .OHMM               2.37 : RESISTIVITY MUD SAMPLE
MST .DEGF                 67 : MUD SAMPLE TEMPERATURE
RMF .OHMM               1.81 : RESISTIVITY MUD FILTRATE SAMPLE
MFST.DEGF                 66 : MUD FILTRATE SAMPLE TEMPERATURE
RMC .OHMM               2.83 : RESISTIVITY MUD CAKE
MCST.DEGF                 68 : MUD CAKE SAMPLE TEMPERATURE
RMB .OHMM               0.62 : RESISTIVITY MUD AT BHT
TCS .HRS                   2 : TIME CIRCULATED STOPPED
LUN .                   7502 : LOGGING UNIT NUMBER
LUL .                    EDM : LOGGING UNIT LOCATION
ENGI.               ARMENTAN : RECORDING ENGINEER
WITN.                   CHUK : WITNESSED BY
CLNT.                A2DTECH : CLIENT CODE
ORIG.            2" 5" PRINT : ORIGIN OF DATA
UWI .       100101905818W500 : UNIQUE WELL ID
DICO. A2D Technologies, Inc. : DIGITIZING COMPANY
~Other -----------------------------------------------------
~ASCII -----------------------------------------------------
# ...
 3650.00000    -999.25    -999.25   11.21270    -999.25    -999.25   83.79600    -999.25   49.24060    8.97260   10.13580    9.58670    -999.25    -999.25 -110.36450
 3700.00000    -999.25    -999.25   11.41610    -999.25    -999.25   80.45050    -999.25   54.58150    9.09440   10.76740   10.37370    -999.25    -999.25 -108.75430
 3750.00000    -999.25    -999.25   11.68620    -999.25    -999.25   99.55910    -999.25   64.24530    4.21050    4.34530    3.34070    -999.25    -999.25 -100.30700
 3800.00000    -999.25    -999.25   11.65730    -999.25    -999.25   81.82440    -999.25   61.28430    8.10800    9.29350   10.30670    -999.25    -999.25 -106.27820
 3850.00000    -999.25    -999.25   12.29480    -999.25    -999.25  114.39250    -999.25   70.97000    3.05850    3.15960    4.27120    -999.25    -999.25 -101.62670
 3900.00000    -999.25    -999.25   12.00620    -999.25    -999.25   83.97890    -999.25   60.52820    4.30140    4.36340    4.42830    -999.25    -999.25 -100.20040
 3950.00000    -999.25    -999.25   11.85400    -999.25    -999.25   82.98960    -999.25   38.28720   15.04250   16.50640   15.11000    -999.25    -999.25 -108.22610
 4000.00000    -999.25    -999.25   11.92530    -999.25    -999.25   84.99530    -999.25   57.90340    5.56050    5.78380    5.41950    -999.25    -999.25  -98.12980
 4050.00000    -999.25    -999.25   11.85840    -999.25    -999.25   82.40940    -999.25   40.75440   16.51750   19.23830   18.51020    -999.25    -999.25 -101.46610
 4100.00000    -999.25    -999.25   12.29050    -999.25    -999.25  107.81460    -999.25   59.57960    4.42650    4.53620    4.43150    -999.25    -999.25  -85.28630
 4150.00000    -999.25    -999.25   11.62760    -999.25    -999.25   82.52670    -999.25   47.10430    5.94680    6.30820    5.85200    -999.25    -999.25  -82.84590
 4200.00000    -999.25    -999.25   11.89220    -999.25    -999.25  102.22860    -999.25   53.66050    5.57730    5.89830    5.86080    -999.25    -999.25  -82.11670
 4250.00000    -999.25    -999.25   11.47700    -999.25    -999.25   83.36250    -999.25   55.32690    5.41640    5.61160    5.54770    -999.25    -999.25  -81.89160
 4300.00000    -999.25    -999.25   11.67220    -999.25    -999.25   90.51940    -999.25   51.68240    4.97900    5.04500    4.82910    -999.25    -999.25  -84.04310
 4350.00000    -999.25    -999.25   12.62030    -999.25    -999.25  105.24870    -999.25   52.06820    5.30740    5.85660    7.69420    -999.25    -999.25  -86.14200
 4400.00000    -999.25    -999.25   11.30840    -999.25    -999.25   71.02500    -999.25   50.46950   19.48850   30.44650   50.56700    -999.25    -999.25  -94.44120
 4450.00000    -999.25    -999.25   11.65280    -999.25    -999.25   80.15600    -999.25   50.31900   11.48030   14.05580   18.68010    -999.25    -999.25  -92.26630
 4500.00000    -999.25    -999.25   11.68150    -999.25    -999.25  107.03060    -999.25   65.79160    5.16780    5.79030    6.81970    -999.25    -999.25  -84.42340
 4550.00000    -999.25    -999.25   11.17560    -999.25    -999.25   89.79200    -999.25   60.39520    6.58510    6.82630    6.48920    -999.25    -999.25  -84.19130
 4600.00000    -999.25    -999.25   10.78320    -999.25    -999.25   71.17210    -999.25   50.75840   16.17520   25.03580   40.65250    -999.25    -999.25  -87.89120
 4650.00000    -999.25    -999.25   11.99230    -999.25    -999.25   78.81270    -999.25   53.90530    8.07130    8.55520    8.18140    -999.25    -999.25  -84.72110
 4700.00000    -999.25    -999.25   11.70700    -999.25    -999.25   70.92810    -999.25   68.19410    6.90120    7.13490    7.15240    -999.25    -999.25  -81.69410
 4750.00000    -999.25    -999.25   11.97660    -999.25    -999.25   70.95220    -999.25   55.84310   10.42580   11.36440   14.57900    -999.25    -999.25  -83.81510
 4800.00000    -999.25    -999.25   12.68080    -999.25    -999.25   81.19330    -999.25   78.73750    8.08260    8.52000    8.74170    -999.25    -999.25  -80.24120
 4850.00000    -999.25    -999.25   11.93610    -999.25    -999.25   84.39860    -999.25   84.68600    6.91810    7.44640    7.86460    -999.25    -999.25  -79.58660
 4900.00000    -999.25    -999.25   11.64540    -999.25    -999.25   83.00150    -999.25   87.08190    7.53630    7.93650    8.74080    -999.25    -999.25  -77.52130
 4950.00000    -999.25    -999.25   11.84280    -999.25    -999.25   84.47640    -999.25   88.94230    7.51490    8.04230    8.95250    -999.25    -999.25  -76.05340
 5000.00000    -999.25    -999.25   11.65420    -999.25    -999.25   88.86370    -999.25   96.15200    7.19840    7.99590    9.92310    -999.25    -999.25  -73.19190
 5050.00000    -999.25    -999.25   11.89930    -999.25    -999.25   77.35390    -999.25   82.98590   12.88290   14.83890   19.99940    -999.25    -999.25  -77.37750
 5100.00000    -999.25    -999.25   12.30300    -999.25    -999.25   82.45510    -999.25   84.83080    9.12030    9.91630   11.35530    -999.25    -999.25  -76.74490
 5150.00000    -999.25    -999.25   12.50500    -999.25    -999.25   86.11610    -999.25   94.41370    7.62170    8.00810    9.24280    -999.25    -999.25  -74.17120
 5200.00000    -999.25    -999.25   12.83060    -999.25    -999.25   83.17760    -999.25   91.84620    6.72870    6.57020    7.45210    -999.25    -999.25  -73.28480
 5250.00000    -999.25    -999.25   11.90210    -999.25    -999.25   82.93490    -999.25   83.06910    7.86910    7.69450    8.57380    -999.25    -999.25  -75.16930
 5300.00000    -999.25    -999.25   12.03350    -999.25    -999.25   81.81380    -999.25   89.50240    7.90750    7.65950    8.41370    -999.25    -999.25  -77.95560
 5350.00000    -999.25    -999.25   11.29700    -999.25    -999.25   78.22410    -999.25   80.67090   10.15170   10.39120   10.86130    -999.25    -999.25  -80.06310
 5400.00000    -999.25    -999.25   11.83900    -999.25    -999.25   80.34440    -999.25   84.04900    7.72240    7.53020    8.54920    -999.25    -999.25  -79.76190
 5450.00000    -999.25    -999.25   11.83130    -999.25    -999.25   86.01430    -999.25   99.28920    8.33930    7.91360    8.64490    -999.25    -999.25  -79.97530
 5500.00000    -999.25    -999.25   12.14240    -999.25    -999.25   85.76660    -999.25   86.91210    7.63670    7.44030    7.91600    -999.25    -999.25  -79.75890
 5550.00000    -999.25    -999.25   11.90320    -999.25    -999.25   79.76350    -999.25   81.51270    8.85440    8.69810    9.48200    -999.25    -999.25  -79.41270
 5600.00000    -999.25    -999.25   10.96170    -999.25    -999.25   75.34450    -999.25   53.00040   16.11980   16.55630   21.78730    -999.25    -999.25  -92.02950
 5650.00000    -999.25    -999.25   11.43900    -999.25    -999.25   74.55960    -999.25   81.79980   13.42340   13.75400   14.35720    -999.25    -999.25  -89.65490
 5700.00000    -999.25    -999.25   11.27870    -999.25    -999.25   76.85790    -999.25   85.56060   10.42530   10.67520   11.87880    -999.25    -999.25  -84.22400
 5750.00000    -999.25    -999.25   11.32330    -999.25    -999.25   80.36040    -999.25   82.10080    9.51450    9.74330   10.10250    -999.25    -999.25  -87.86950
 5800.00000    -999.25    -999.25   11.76560    -999.25    -999.25   81.06110    -999.25   92.22540    9.31910    9.53830   10.16730    -999.25    -999.25  -86.36280
 5850.00000    -999.25    -999.25   11.78150    -999.25    -999.25   89.60600    -999.25   97.03290    8.16900    7.86570    8.62720    -999.25    -999.25  -89.55660
 5900.00000    -999.25    -999.25   12.06800    -999.25    -999.25   85.96590    -999.25   93.51930    8.50620    8.31580    9.34910    -999.25    -999.25  -85.33980
 5950.00000    -999.25    -999.25   11.69580    -999.25    -999.25   92.04750    -999.25   99.09930    7.65370    7.48980    9.09660    -999.25    -999.25  -84.89950
 6000.00000    -999.25    -999.25   11.20900    -999.25    -999.25   87.44640    -999.25  111.82190   10.14940   10.38780   12.89790    -999.25    -999.25  -90.90420
 6050.00000    -999.25    -999.25   11.27760    -999.25    -999.25   85.80340    -999.25   98.15050    9.59400    9.97120   12.51230    -999.25    -999.25  -83.29950
