~Version ---------------------------------------------------
VERS. 2.0 : CWLS log ASCII Standard -VERSION 2.0
WRAP.  NO : ONE LINE PER DEPTH STEP
~Well ------------------------------------------------------
STRT.M                           450.0 : START DEPTH
STOP.M                          2950.0 : STOP DEPTH
STEP.M                        50.00000 : STEP LENGTH
NULL.                          -999.25 : NULL VALUE
COMP. AMOCO CANADA PETROLEUM CO., LTD. : COMPANY
WELL.   PROGRESS BRIALTO TWO CK 6-6-65 : WELL
FLD .                                  : FIELD
LOC .                                  : LOCATION
CTRY.                           CANADA : COUNTRY
SRVC.                          Unknown : SERVICE COMPANY
DATE.                      07-Jan-1980 : LOGDATE
PROV.                          Alberta : PROVINCE
UWI .                 100060606515W500 : UNIQUE WELL ID
SLAT.WGS84                    54.59579 : SURFACE LATITUDE
SLON.WGS84                   -116.2612 : SURFACE LONGITUDE
~Curve Information -----------------------------------------
DEPT   .M     0   1   0  0 : 1 MEASURED DEPTH
NPHI_SS.DEC   42 890 03 00 : NEUTRON POROSITY SANDSTONE
GRD    .GAPI  45 310 01 00 : GAMMA RAY FROM DENSITY LOG
CALD   .MM    45 280 60 00 : CALIPER FROM DENSITY LOG
DPHI_SS.DEC   45 890 12 00 : DENSITY POROSITY SANDSTONE
NPHI_LS.DEC   42 890 01 00 : NEUTRON POROSITY LIMESTONE
DPHI_LS.DEC   45 890 10 00 : DENSITY POROSITY LIMESTONE
RHOB   .KG/M3 45 350 01 00 : BULK DENSITY
DCOR   .KG/M3 45 356 01 00 : DENSITY CORRECTION
GRS    .GAPI  60 310 01 00 : GAMMA RAY FROM SONIC LOG
CALS   .MM    60 280 50 00 : CALIPER FROM SONIC LOG
DT     .US/M  60 500 00 00 : DELTA-T (INTERVAL TRANSIT TIME)
ILD    .OHMM  07 120 46 00 : INDUCTION DEEP RESISTIVITY
SFL    .OHMM  07 220 01 00 : SPHERICALLY FOCUSED LOG
ILM    .OHMM  07 120 44 00 : INDUCTION MEDIUM RESISTIVITY
SPR    .MV    07 010 01 00 : SPONTANEOUS POTENTIAL FROM RESISTIVITY LOG
GR     .GAPI  81 310 01 00 : GAMMA RAY
TEN    .LB    81 635 00 00 : DIFFERENTIAL TENSION
~Params ----------------------------------------------------
PD  .                         GL : PERMANENT DATUM
EPD .M                    1014.4 : ELEVATION PERMANENT DATUM
LMF .                         KB : LOG MEASURED FROM
DAPD.M                         5 : FEET ABOVE PERMANENT DATUM
DMF .                         KB : DRILLING MEASURED FROM
EKB .M                    1019.4 : KELLY BUSHING
EGL .M                    1014.4 : GROUND LEVEL
DATE.                   01/07/80 : RUN DATE
RUN .                          1 : RUN NUMBER
DD  .M                      2995 : DEPTH DRILLER
DL  .M                      2993 : DEPTH LOGGER
BLI .M                      2992 : BOTTOM LOG INTERVAL
TLI .M                       457 : TOP LOG INTERVAL
CS  .MM                    244.5 : CASING SIZE
CBD .M                       457 : CASING BOTTOM DRILLER
CBL .M                       457 : CASING BOTTOM LOGGER
BS  .MM                      200 : BIT SIZE
BSD .M                      2995 : BIT SIZE AT DEPTH
DFT .                  GEL BENEX : DRILLING FLUID TYPE
DFD .                       1110 : DRILLING FLUID DENSITY
DFV .                         85 : DRILLING FLUID VISCOSITY
DFPH.                         10 : DRILLING FLUID PH
DFL .                        8.8 : DRILLING FLUID LOSS
MSS .                   FLOWLINE : MUD SAMPLE SOURCE
RMS .OHMM                   1.92 : RESISTIVITY MUD SAMPLE
MST .DEGC                   8.33 : MUD SAMPLE TEMPERATURE
RMF .OHMM                   1.57 : RESISTIVITY MUD FILTRATE SAMPLE
MFST.DEGC                   8.89 : MUD FILTRATE SAMPLE TEMPERATURE
MFSS.                       MEAS : MUD FILTRATE SAMPLE SOURCE
RMB .OHMM                   0.45 : RESISTIVITY MUD AT BHT
TCS .HRS                    1915 : TIME CIRCULATED STOPPED
TLAB.HRS                     400 : TIME LOGGER AT BOTTOM
LUN .                       7783 : LOGGING UNIT NUMBER
LUL .                       5270 : LOGGING UNIT LOCATION
ENGI.                  MIDDLETON : RECORDING ENGINEER
WITN.                      LARIO : WITNESSED BY
CLNT.                    A2DTECH : CLIENT CODE
ORIG. 6.5"/100M 16.5"/100M PRINT : ORIGIN OF DATA
UWI .           100060606515W500 : UNIQUE WELL ID
DICO.     A2D Technologies, Inc. : DIGITIZING COMPANY
~Other -----------------------------------------------------
~ASCII -----------------------------------------------------
  450.00000    0.55910   42.43320    -999.25    -999.25    -999.25    -999.25    -999.25    -999.25   39.34150    -999.25    -999.25    -999.25    -999.25    -999.25    -999.25   28.24560    -999.25
  500.00000    0.45280   85.26490  333.76740    0.30420    -999.25    -999.25 2120.37570   29.99130   70.73070  259.30120  751.56780    3.22970    3.33720    2.94360 -129.77110   58.03040 3226.58910
  550.00000    0.45340   88.06860  369.14050    0.30350    -999.25    -999.25 2178.46530   45.34950   81.21970  252.45940  386.92510    2.10500    2.23270    1.96070 -128.97340   65.41360 3426.98580
  600.00000    0.35510   56.01240  253.14960    0.24790    -999.25    -999.25 2241.44650   36.44760   51.91460  237.49040  340.73970    7.17340    7.97000    6.83300 -142.30660   42.94120 3608.94780
  650.00000    0.43460   60.98900  239.95090    0.34670    -999.25    -999.25 2082.92820  110.34410   59.93670  242.19980  361.58220    3.29120    2.27180    3.04890 -129.16620   44.44280 3749.68820
  700.00000    0.37300   54.80530  270.47250    0.21920    -999.25    -999.25 2286.51220   32.56560   52.66040  253.14980  319.01500   11.72940   13.38410   10.26720 -131.78810    -999.25    -999.25
  750.00000    0.49600   59.22940  273.98880    0.20850    -999.25    -999.25 2245.10550   49.97520   59.69640  272.85300  425.66340    3.12300    2.76190    2.92860 -126.43210    -999.25    -999.25
  800.00000    0.39060   58.15100  258.67660    0.26410    -999.25    -999.25 2224.66500   61.77330   51.14170  244.38900  340.16590    3.63180    3.72350    3.42440 -126.63610    -999.25    -999.25
  850.00000    0.43150   69.21170  268.36430    0.24960    -999.25    -999.25 2268.50780   29.70160   59.57830  245.64590  337.78550    3.53170    3.32400    3.26430 -125.64120    -999.25    -999.25
  900.00000    0.34340   44.82660  259.22930    0.21330    -999.25    -999.25 2298.18460   40.74860   40.65680  243.01920  342.04780    6.76220    7.63070    6.40290 -138.69600    -999.25    -999.25
  950.00000    0.41510   77.85050  330.72180    0.15050    -999.25    -999.25 2408.03860   77.06320   70.31210  250.16710  348.11110    3.74240    4.35310    3.91760 -123.85360    -999.25    -999.25
 1000.00000    0.50420   86.24980  310.86880    0.34170    -999.25    -999.25 2087.78930  107.65180   85.16540  242.00010  315.72250    4.98340    5.45700    4.28920 -129.39660    -999.25    -999.25
 1050.00000    0.42320   88.68240  300.82650    0.31970    -999.25    -999.25 2135.83620  106.29160   77.20860  269.59500  320.39740    6.81270    8.20890    7.12920 -126.46570    -999.25    -999.25
 1100.00000    0.36120   91.65360  349.44090    0.15440    -999.25    -999.25 2423.56470   95.15840   87.62290  315.83100  274.66460    5.37040    6.23580    5.61240 -125.60490    -999.25    -999.25
 1150.00000    0.36880   99.34290    -999.25    0.15980    -999.25    -999.25 2388.59180   53.86340   97.11710  259.63370  321.68410    5.61650    5.92050    5.34960 -124.98040    -999.25    -999.25
 1200.00000    0.36160  112.21460  367.49840    0.20810    -999.25    -999.25 2282.21140   37.10140   95.15730  254.75210  312.96270    6.00260    5.33140    5.82270 -122.53900    -999.25    -999.25
 1250.00000    0.40430  113.94040  236.79310    0.14610    -999.25    -999.25 2413.94460  170.97450  111.63610  235.20470  328.35080    5.88060    7.57470    6.28220 -117.92020    -999.25    -999.25
 1300.00000    0.38050  134.06370  256.75590    0.11950    -999.25    -999.25 2459.71480   16.94870  118.86700  247.43520  308.94430    8.02430   13.39170    8.61210 -113.57100    -999.25    -999.25
 1350.00000    0.38420  103.46630  237.50730    0.12950    -999.25    -999.25 2447.71440   64.43110   99.23270  240.97850  306.00430    3.78240    5.10240    4.13760 -111.30050    -999.25    -999.25
 1400.00000    0.38890  110.13950  326.69660    0.09600    -999.25    -999.25 2496.83500   79.73710  103.55380  299.95490  307.49630    3.71940    4.52430    4.01090 -109.26080    -999.25    -999.25
 1450.00000    0.34880   92.53440  332.17170    0.15170    -999.25    -999.25 2399.60790   16.69340   93.95000  259.68980  289.90430    3.18570    3.90360    3.37810 -104.84570    -999.25    -999.25
 1500.00000    0.23420   85.94080  277.77760    0.09670    -999.25    -999.25 2501.46070   20.02920   82.77550  261.62250  268.48060    6.58090    8.08940    7.02090 -103.72680   63.28880 6232.14010
 1550.00000    0.29790   69.79050  230.95200    0.07430    -999.25    -999.25 2521.89600    0.78760   68.71420  239.22020  268.28600    6.41600    8.35760    6.96280 -106.74670   50.58860 6403.82710
 1600.00000    0.27800   71.53580  271.76390    0.03640    -999.25    -999.25 2596.72020    1.54160   66.40550  257.54620  256.32920    6.34740    8.62580    7.12050 -111.58880   45.69680 6593.67090
 1650.00000    0.27800   52.20040  229.08930    0.01070    -999.25    -999.25 2642.53270  262.99130   45.18740  229.60760  246.45700    5.99280   15.49420    8.33360 -132.67650   33.33020 6719.82620
 1700.00000    0.41820   77.30560  312.55580    0.22680    -999.25    -999.25 2276.45040  236.35300   72.50860  285.73160  301.38370    2.79170    3.70550    2.95960  -89.32840   44.70630 7044.61960
 1750.00000    0.24530   56.31250  221.11350    0.12870    -999.25    -999.25 2441.44170   45.95000   53.32440  238.00750  252.82680    8.28900   16.08670   10.10430 -139.42250   34.34410 7130.33690
 1800.00000    0.37470   89.33570  274.41330    0.13800    0.32430   -0.14850 2414.19800  153.69370   82.91340  258.95460  299.06990    6.91660   18.11340    7.86060 -125.44140   59.34650 7195.90770
 1850.00000    -999.25   27.66770  238.10310    -999.25    0.09410    0.01700 2695.29250   20.68690   24.01910  235.43890  178.91910    6.68000   15.12300    7.74880 -174.75890   16.65300 7143.76560
 1900.00000    -999.25   19.49640  240.14010    -999.25    0.05370   -0.06240 2807.43160   -0.32280   18.52140  233.15260  183.76960   13.95760   39.39860   16.33430 -164.47460    -999.25    -999.25
 1950.00000    -999.25   13.53310  228.87620    -999.25    0.07360    0.08470 2574.36450   36.44850   12.08960  222.56240  186.03410   18.33760   76.85740   31.04870 -253.69890    -999.25    -999.25
 2000.00000    -999.25   62.55190  263.63330    -999.25    0.24540    0.06740 2583.46830   18.93760   58.91070  253.54830  240.62340    1.55530    3.74950    1.88360 -196.55180    -999.25    -999.25
 2050.00000    -999.25   31.37700  232.35440    -999.25    0.02460    0.05340 2627.70430   -2.47300   26.25150  234.94210  171.13050   13.07110   52.39990   19.55730 -194.14270    -999.25    -999.25
 2100.00000    -999.25   34.55930  234.27910    -999.25    0.02530    0.00260 2709.94480   10.48700   32.48000  236.37040  177.90130   51.89490   65.34920   54.85040 -142.14040    -999.25    -999.25
 2150.00000    -999.25   30.60830  231.15680    -999.25    0.01120    0.00350 2689.66330   -5.68950   26.19720  232.61180  169.34690   40.38200   76.15680   48.92540 -139.25950    -999.25    -999.25
 2200.00000    -999.25   11.58690  228.17910    -999.25    0.00390    0.00350 2695.20560    6.80480   12.96880  233.84150  163.30150   76.23790  121.91090   64.41200 -187.20090    -999.25    -999.25
 2250.00000    -999.25    7.81020  225.39100    -999.25    0.01180    0.00650 2689.13330   -9.07290    8.66790  236.38610  160.19600   82.24570  269.73010  110.71110 -217.51700    -999.25    -999.25
 2300.00000    -999.25   11.88240  238.65690    -999.25    0.00320   -0.00080 2709.17820    4.50140   10.52950  238.97830  158.42800  252.67600  837.89050  213.54070 -203.05160    -999.25    -999.25
 2350.00000    -999.25    8.97220  213.13520    -999.25    0.10980    0.04460 2662.86790  128.97840    8.59180  211.45040  172.24500    8.75540   73.39330   13.71500 -260.80400    -999.25    -999.25
 2400.00000    -999.25   13.98130  236.16790    -999.25    0.02940   -0.06360 2808.41430    7.40990    9.82910  236.72150  148.78900  196.72630  422.46420  176.03600 -190.02850    -999.25    -999.25
 2450.00000    -999.25   25.84110  238.86330    -999.25    0.09060   -0.04820 2785.68700   45.30610   26.39910  239.21310  168.51410   21.96380   31.25010   23.12280 -141.17620    -999.25    -999.25
