~Version ---------------------------------------------------
VERS.      2.0 : CWLS log ASCII Standard -VERSION 2.0
WRAP.       NO : One line per depth step
CREA. 12/18/17 : LAS Creation Date
~Well ------------------------------------------------------
STRT.FT                                  500.0 : START DEPTH
STOP.FT                                 6050.0 : STOP DEPTH
STEP.FT                               50.00000 : STEP LENGTH
NULL.                                  -999.25 : NULL VALUE
COMP. THE BRITISH AMERICAN OIL COMPANY LIMITED : COMPANY
WELL.          B.A. ARNOLD DONALDA A5-20-42-17 : WELL
FLD .                                          : FIELD
LOC .                                          : LOCATION
CTRY.                                   CANADA : COUNTRY
SRVC.                   Schlumberger of Canada : SERVICE COMPANY
DATE.                              20-Apr-1959 : LOGDATE
PROV.                                  Alberta : PROVINCE
UWI .                         102052004217W400 : UNIQUE WELL ID
SLAT.WGS84                            52.62891 : SURFACE LATITUDE
SLON.WGS84                            -112.424 : SURFACE LONGITUDE
~Curve Information -----------------------------------------
DEPT  .FT         : Depth Curve
CALMED.IN         : MICROLATERO CALIPER  FROM MLL LOG [ADJ. TO EL LOG]
CALWS .IN         : CALIPER [MCALED SPL. TO CALMED @ 3900']
CONDWS.MMHO       : CONDUCTIVITY [1000/DRESWS]
DRESWS.OHMM       : DEEP RESISTIVITY [LNED]
GRNED .UgRa-Eq/T  : GAMMA RAY FROM GRN LOG [ADJ. TO ML/EL LOG]
GRWS  .GAPI       : GAMMA RAY [GRNED*16.50]
LNED  .OHMM       : LONG NORMAL 64" FROM EL LOG
LT18ED.OHMM       : LATERAL 18' 8" FROM EL LOG
MCALED.IN         : MICRO CALIPER FROM ML LOG
MINVED.OHMM       : MICRO INVERSE RESISTIVITY FROM ML LOG
MLLED .OHMM       : MICRO-LATEROLOG RESISTIVITY FROM MLL LOG [ADJ. TO EL LOG]
MNORED.OHMM       : MICRO NORMAL RESISTIVITY FROM ML LOG
NEUTED.CPS        : NEUTRON FROM GRN LOG [ADJ. TO ML/EL LOG]
NEUTWS.CPS        : NEUTRON [NEUTED]
SNED  .OHMM       : SHORT NORMAL 16" FROM EL LOG
SPRED .MV         : SPONTANEOUS POTENTIAL FROM EL LOG
SPWS  .MV         : SPONTANEOUS POTENTIAL [BASELINE 0 MV, SPRED]
SRESWS.OHMM       : SHALLOW RESISTIVITY [SNED]
~Params ----------------------------------------------------
LMF .                     KB : LOG MEASURED FROM
DMF .                     KB : DRILLING MEASURED FROM
EKB .FT                 2473 : KELLY BUSHING
EGL .FT               2458.8 : GROUND LEVEL
DATE.               04/20/59 : RUN DATE
RUN .                      1 : RUN NUMBER
DD  .FT                 6050 : DEPTH DRILLER
DL  .FT                 6058 : DEPTH LOGGER
BLI .FT                 6057 : BOTTOM LOG INTERVAL
TLI .FT                 3699 : TOP LOG INTERVAL
CBD .FT                  623 : CASING BOTTOM DRILLER
CBL .FT                  625 : CASING BOTTOM LOGGER
BS  .IN                7.875 : BIT SIZE
BSD .FT                 6050 : BIT SIZE AT DEPTH
DFT .                    GYP : DRILLING FLUID TYPE
DFD .                   10.7 : DRILLING FLUID DENSITY
DFV .                     64 : DRILLING FLUID VISCOSITY
DFPH.                    6.4 : DRILLING FLUID PH
DFL .                    9.2 : DRILLING FLUID LOSS
MSS .            CIRCULATION : MUD SAMPLE SOURCE
RMS .OHMM                1.9 : RESISTIVITY MUD SAMPLE
MST .DEGF                 44 : MUD SAMPLE TEMPERATURE
RMF .OHMM               0.74 : RESISTIVITY MUD FILTRATE SAMPLE
MFST.DEGF                 63 : MUD FILTRATE SAMPLE TEMPERATURE
RMC .OHMM                1.4 : RESISTIVITY MUD CAKE
MCST.DEGF                 63 : MUD CAKE SAMPLE TEMPERATURE
RMB .OHMM               0.67 : RESISTIVITY MUD AT BHT
TCS .HRS                   3 : TIME CIRCULATED STOPPED
LUN .                  760 C : LOGGING UNIT NUMBER
ENGI.                MCKEOWN : RECORDING ENGINEER
WITN.               HANNEGAN : WITNESSED BY
CLNT.                A2DTECH : CLIENT CODE
ORIG.            2" 5" PRINT : ORIGIN OF DATA
UWI .       102052004217W400 : UNIQUE WELL ID
DICO. A2D Technologies, Inc. : DIGITIZING COMPANY
~Other -----------------------------------------------------
ML-EL-MLL-GRN TOOL RUN
EL LOG (TOP TO 3682') AND GRN LOG (TOP TO 490') FROM 2" SECTION
~ASCII -----------------------------------------------------
# ...
 2450.00000    -999.25   10.05040    -999.25    -999.25    6.05500   99.90750    -999.25    -999.25   10.05040    4.73660    -999.25    4.29400  159.40000  159.40000    -999.25    -999.25    -999.25    -999.25
 2500.00000    -999.25    8.94280    -999.25    -999.25    6.13740  101.26710    -999.25    -999.25    8.94280    6.18970    -999.25    6.74840  163.17960  163.17960    -999.25    -999.25    -999.25    -999.25
 2550.00000    -999.25    8.39650    -999.25    -999.25    6.65940  109.88090    -999.25    -999.25    8.39650    4.94040    -999.25    4.28120  164.92010  164.92010    -999.25    -999.25    -999.25    -999.25
 2600.00000    -999.25    8.50980    -999.25    -999.25    5.94420   98.07930    -999.25    -999.25    8.50980    4.89460    -999.25    4.56050  171.61190  171.61190    -999.25    -999.25    -999.25    -999.25
 2650.00000    -999.25    8.58860    -999.25    -999.25    6.53310  107.79610    -999.25    -999.25    8.58860    4.81440    -999.25    4.34930  161.46240  161.46240    -999.25    -999.25    -999.25    -999.25
 2700.00000    -999.25    8.85060    -999.25    -999.25    6.90540  113.93910    -999.25    -999.25    8.85060    5.16210    -999.25    4.89600  162.61180  162.61180    -999.25    -999.25    -999.25    -999.25
 2750.00000    -999.25    9.04610    -999.25    -999.25    6.73330  111.09940    -999.25    -999.25    9.04610    4.95380    -999.25    4.36440  152.67020  152.67020    -999.25    -999.25    -999.25    -999.25
 2800.00000    -999.25    8.35760    -999.25    -999.25    6.88720  113.63800    -999.25    -999.25    8.35760    5.04350    -999.25    4.14210  155.71780  155.71780    -999.25    -999.25    -999.25    -999.25
 2850.00000    -999.25    7.99800    -999.25    -999.25    7.97770  131.63200    -999.25    -999.25    7.99800    8.86310    -999.25    6.63980  177.33970  177.33970    -999.25    -999.25    -999.25    -999.25
 2900.00000    -999.25    8.00200    -999.25    -999.25    8.09780  133.61290    -999.25    -999.25    8.00200   10.05960    -999.25    6.49050  161.82680  161.82680    -999.25    -999.25    -999.25    -999.25
 2950.00000    -999.25    8.01620    -999.25    -999.25   12.72670  209.99050    -999.25    -999.25    8.01620   11.93760    -999.25    6.66570  155.73260  155.73260    -999.25    -999.25    -999.25    -999.25
 3000.00000    -999.25    8.68000    -999.25    -999.25    8.79940  145.19010    -999.25    -999.25    8.68000    4.32930    -999.25    3.30600  157.83810  157.83810    -999.25    -999.25    -999.25    -999.25
 3050.00000    -999.25    8.72970    -999.25    -999.25    7.38270  121.81460    -999.25    -999.25    8.72970    2.11190    -999.25    1.58890  161.31750  161.31750    -999.25    -999.25    -999.25    -999.25
 3100.00000    -999.25    8.52820    -999.25    -999.25    5.95320   98.22860    -999.25    -999.25    8.52820    2.65750    -999.25    2.51140  154.74490  154.74490    -999.25    -999.25    -999.25    -999.25
 3150.00000    -999.25    8.63780    -999.25    -999.25    6.37300  105.15370    -999.25    -999.25    8.63780    2.58410    -999.25    1.89650  161.33420  161.33420    -999.25    -999.25    -999.25    -999.25
 3200.00000    -999.25    9.23010    -999.25    -999.25    6.66050  109.89830    -999.25    -999.25    9.23010    2.87560    -999.25    2.29550  153.41500  153.41500    -999.25    -999.25    -999.25    -999.25
 3250.00000    -999.25    7.98890    -999.25    -999.25    5.50250   90.79130    -999.25    -999.25    7.98890    9.11190    -999.25    7.37940  191.60990  191.60990    -999.25    -999.25    -999.25    -999.25
 3300.00000    -999.25    7.95320    -999.25    -999.25    4.89270   80.72870    -999.25    -999.25    7.95320    7.39680    -999.25    5.80660  200.73440  200.73440    -999.25    -999.25    -999.25    -999.25
 3350.00000    -999.25    8.16910    -999.25    -999.25    5.70560   94.14240    -999.25    -999.25    8.16910   38.15470    -999.25    9.13940  157.91940  157.91940    -999.25    -999.25    -999.25    -999.25
 3400.00000    -999.25    8.13310    -999.25    -999.25    5.10590   84.24780    -999.25    -999.25    8.13310    7.69880    -999.25    6.24020  174.08920  174.08920    -999.25    -999.25    -999.25    -999.25
 3450.00000    -999.25    7.95640    -999.25    -999.25    4.39200   72.46800    -999.25    -999.25    7.95640   16.94070    -999.25   10.40610  200.81380  200.81380    -999.25    -999.25    -999.25    -999.25
 3500.00000    -999.25    7.83940    -999.25    -999.25    5.66560   93.48160    -999.25    -999.25    7.83940    8.97560    -999.25    6.40500  200.29650  200.29650    -999.25    -999.25    -999.25    -999.25
 3550.00000    -999.25    7.97910    -999.25    -999.25    5.45200   89.95880    -999.25    -999.25    7.97910    8.77200    -999.25    6.17170  191.59550  191.59550    -999.25    -999.25    -999.25    -999.25
 3600.00000    -999.25    7.43810  140.78950    7.10280    4.82120   79.54980    7.10280    9.21020    7.43810   15.42850    -999.25    9.49850  155.18930  155.18930   10.38210  -39.95930   -5.20270   10.38210
 3650.00000    -999.25    7.44360   38.59940   25.93290    2.90070   47.86200   25.93290   24.19030    7.44360   13.24640    -999.25   20.00400  145.29020  145.29020   34.04780  -49.63130  -14.87470   34.04780
 3700.00000    -999.25    8.24490  224.76460    4.44910    5.62490   92.81090    4.44910    6.13080    8.24490    1.98230    -999.25    1.65660  143.29190  143.29190    3.62680  -37.37330   -2.15250    3.62680
 3750.00000    7.85800    7.52310  105.13150    9.51190    3.07990   50.81830    9.51190    3.57550    7.52310   33.33500  152.76490   15.15530  241.24950  241.24950   16.96690  -68.81880  -33.13680   16.96690
 3800.00000    8.12740    7.72390  142.67530    7.01130    5.40010   89.10170    7.01130    4.77040    7.72390   13.67650   22.03380    8.86210  208.89270  208.89270   10.78050  -55.99760  -19.85450   10.78050
 3850.00000    8.16310    7.58450  155.88950    6.41480    2.53240   41.78460    6.41480    9.11920    7.58450   23.03080   51.84830   17.70600  230.05530  230.05530   11.60920  -57.85030  -21.24300   11.60920
 3900.00000   10.10070    7.84260  112.14740    8.91690    5.39250   88.97620    8.91690   11.79360    7.84260    9.21740    9.22780    7.98620  173.08730  173.08730    8.41830  -38.48360   -1.41510    8.41830
 3950.00000    7.79640    7.79640  133.66840    7.48120    2.15500   35.55750    7.48120    3.26000    -999.25    -999.25   39.26340    -999.25  172.16070  172.16070   13.96760  -73.93010  -37.36350   13.96760
 4000.00000    8.24210    8.24210   21.93270   45.59400    2.27760   37.58040   45.59400   12.88100    -999.25    -999.25  188.31110    -999.25  333.95860  333.95860   35.08320  -56.52860  -20.54230   35.08320
 4050.00000    7.82420    7.82420    2.49790  400.34220    1.20010   19.80170  400.34220  500.00000    -999.25    -999.25  656.81200    -999.25  357.40210  357.40210  136.92630  -66.76550  -31.35940  136.92630
 4100.00000    8.18790    8.18790    3.24790  307.88910    1.40550   23.19080  307.88910  500.00000    -999.25    -999.25  304.34050    -999.25  351.73100  351.73100  109.70120  -39.43970   -4.61770  109.70120
 4150.00000    7.88720    7.88720    5.91390  169.12310    1.32440   21.85260  169.12310  331.50090    -999.25    -999.25  142.82590    -999.25  331.85530  331.85530   88.40450  -50.15340  -15.91170   88.40450
 4200.00000    7.71070    7.71070    2.37210  421.57170    1.21000   19.96500  421.57170  500.00000    -999.25    -999.25  989.62800    -999.25  369.37710  369.37710  155.57780  -70.76310  -37.10550  155.57780
 4250.00000    7.71430    7.71430    6.88850  145.16900    1.07720   17.77380  145.16900  500.00000    -999.25    -999.25  633.55940    -999.25  307.63950  307.63950   48.74050  -81.07390  -47.99660   48.74050
 4300.00000    7.74090    7.74090   16.07050   62.31350    1.24480   20.54000   62.31350   88.43130    -999.25    -999.25  153.70980    -999.25  317.79430  317.79430   46.25720  -66.29440  -33.79740   46.25720
 4350.00000    7.76310    7.76310    7.64990  130.72040    1.84940   30.51510  130.72040  496.76720    -999.25    -999.25   90.92710    -999.25  301.70960  301.70960   47.50520  -55.77800  -23.86510   47.50520
