~Version ---------------------------------------------------
VERS.      2.0 : CWLS log ASCII Standard -VERSION 2.0
WRAP.       NO : One line per depth step
CREA. 01/04/18 : LAS Creation Date
~Well ------------------------------------------------------
STRT.FT                     1950.0 : START DEPTH
STOP.FT                    11350.0 : STOP DEPTH
STEP.FT                   50.00000 : STEP LENGTH
NULL.                      -999.25 : NULL VALUE
COMP.     CHEVRON STANDARD LIMITED : COMPANY
WELL. CHEVRON CLARK NO 10-15-59-18 : WELL
FLD .                              : FIELD
LOC .                              : LOCATION
CTRY.                       CANADA : COUNTRY
SRVC.                Dresser Atlas : SERVICE COMPANY
DATE.                  26-Oct-1968 : LOGDATE
PROV.                      Alberta : PROVINCE
UWI .             100101505918W500 : UNIQUE WELL ID
SLAT.WGS84                54.10291 : SURFACE LATITUDE
SLON.WGS84               -116.6105 : SURFACE LONGITUDE
~Curve Information -----------------------------------------
DEPT    .FT        : Depth Curve
ACED    .US/F      : DELTA TIME (ACOUSTIC) FROM SONIC LOG [DEPTH ADJ. TO ILDED]
CALSED  .IN        : CALIPER FROM SONIC LOG [DEPTH ADJ. TO ILDED]
CALWS   .IN        : CALIPER [CALSED]
CILED   .MMHO      : CONDUCTIVITY FROM RESISTIVITY LOG
CONDWS  .MMHO      : CONDUCTIVITY [1000/DRESWS]
DRESWS  .OHMM      : DEEP RESISTIVITY [IF ILED<1;1000/CILED;ELSE ILED]
DTWS    .US/F      : DELTA TIME [ACED]
GRSED   .GAPI      : GAMMA RAY FROM SONIC LOG [DEPTH ADJ. TO ILDED]
GRTED   .GAPI      : GAMMA RAY FROM TDT LOG [DEPTH ADJ. TO ILDED]
GRWS    .GAPI      : GAMMA RAY [GRSED]
ILED    .OHMM      : INDUCTION LOG RESISTIVITY
NPHIED  .V/V       : NEUTRON POROSITY FROM DENSITY LOG [DEPTH ADJ. TO ILDED]
NPOWS   .V/V       : NEUTRON POROSITY [NPHIED]
RATIO1ED.UNITLESS  : ATIO FROM TDT LOG  [DEPTH ADJ. TO ILDED]
RATIOED .UNITLESS  : RATIO FROM TDT LOG  [DEPTH ADJ. TO ILDED]
SIGMED  .CU        : NEUTRON CAPTURE CROSS SECTION FROM TDT LOG [DEPTH ADJ. TO ILDED]
SNED    .OHMM      : 16 INCH SHORT NORMAL RESISTIVITY FROM IEL
SPRED   .MV        : SPONTANEOUS POTENTIAL FROM RESISTIVITY LOG
SPWS    .MV        : SPONTANEOUS POTENTIAL [BASELINE 0 MV] [SPRED]
SRESWS  .OHMM      : SHALLOW RESISTIVITY [SNED]
TAUED   .ms        : THERMAL DECAY TIME FROM TDT LOG [DEPTH ADJ. TO ILDED]
~Params ----------------------------------------------------
PD  .                     GL : PERMANENT DATUM
EPD .FT               3420.5 : ELEVATION PERMANENT DATUM
LMF .                     KB : LOG MEASURED FROM
DAPD.FT                 15.5 : FEET ABOVE PERMANENT DATUM
DMF .                     KB : DRILLING MEASURED FROM
EKB .FT                 3436 : KELLY BUSHING
EGL .FT               3420.5 : GROUND LEVEL
DATE.               10/26/68 : RUN DATE
RUN .                      1 : RUN NUMBER
DD  .FT                11393 : DEPTH DRILLER
DL  .FT                11390 : DEPTH LOGGER
BLI .FT                11386 : BOTTOM LOG INTERVAL
TLI .FT                 2028 : TOP LOG INTERVAL
CS  .IN                9.625 : CASING SIZE
CBD .FT                 2028 : CASING BOTTOM DRILLER
CBL .FT                 2028 : CASING BOTTOM LOGGER
BS  .IN                 8.75 : BIT SIZE
BSD .FT                11393 : BIT SIZE AT DEPTH
DFT .                MUD GEL : DRILLING FLUID TYPE
DFD .                    9.6 : DRILLING FLUID DENSITY
DFV .                    100 : DRILLING FLUID VISCOSITY
DFPH.                     11 : DRILLING FLUID PH
DFL .                    8.2 : DRILLING FLUID LOSS
MSS .                   CIRC : MUD SAMPLE SOURCE
RMS .OHMM                1.7 : RESISTIVITY MUD SAMPLE
MST .DEGF                 44 : MUD SAMPLE TEMPERATURE
RMF .OHMM                1.4 : RESISTIVITY MUD FILTRATE SAMPLE
MFST.DEGF                 44 : MUD FILTRATE SAMPLE TEMPERATURE
RMC .OHMM                1.8 : RESISTIVITY MUD CAKE
MCST.DEGF                 44 : MUD CAKE SAMPLE TEMPERATURE
MFSS.                   MEAS : MUD FILTRATE SAMPLE SOURCE
MCSS.                   MEAS : MUD CAKE SAMPLE SOURCE
RMB .OHMM               0.35 : RESISTIVITY MUD AT BHT
TCS .HRS                   4 : TIME CIRCULATED STOPPED
LUN .                   6002 : LOGGING UNIT NUMBER
LUL .                    EDM : LOGGING UNIT LOCATION
ENGI.                  BLAND : RECORDING ENGINEER
WITN.     HOUDEBO JOYCE LEOD : WITNESSED BY
CLNT.                A2DTECH : CLIENT CODE
ORIG.            2" 5" PRINT : ORIGIN OF DATA
UWI .       100101505918W500 : UNIQUE WELL ID
DICO. A2D Technologies, Inc. : DIGITIZING COMPANY
~Other -----------------------------------------------------
~ASCII -----------------------------------------------------
# ...
 6900.00000   71.13200   11.65860   11.65860   98.48050   94.31740   10.60250   71.13200   74.93030    -999.25   74.93030   10.60250    -999.25    -999.25    -999.25    -999.25    -999.25   19.35950  -56.57520   -8.94920   19.35950    -999.25
 6950.00000   73.73260   11.05290   11.05290  115.52720  111.59280    8.96120   73.73260   48.40640    -999.25   48.40630    8.96110    -999.25    -999.25    -999.25    -999.25    -999.25   13.83010  -69.40340  -21.00050   13.83010    -999.25
 7000.00000   70.64210   10.87920   10.87920   86.56480   82.98960   12.04970   70.64210   72.44540    -999.25   72.44540   12.04970    -999.25    -999.25    -999.25    -999.25    -999.25   19.50700  -58.48620   -9.31420   19.50700    -999.25
 7050.00000   79.63250   13.96500   13.96500   79.57590   75.76390   13.19890   79.63250   59.60390    -999.25   59.60390   13.19890    -999.25    -999.25    -999.25    -999.25    -999.25   20.10770  -54.72320   -4.77820   20.10770    -999.25
 7100.00000   63.42470   11.05610   11.05610   90.21460   85.43360   11.70500   63.42470   34.29820    -999.25   34.29820   11.70500    -999.25    -999.25    -999.25    -999.25    -999.25   18.78250  -71.55790  -20.83980   18.78250    -999.25
 7150.00000   73.75190   10.52630   10.52630  106.60490  101.11120    9.89010   73.75190   88.19560    -999.25   88.19560    9.89010    -999.25    -999.25    -999.25    -999.25    -999.25   13.71080  -57.00390   -5.51280   13.71080    -999.25
 7200.00000   65.83840   10.86330   10.86330   73.92640   57.45560   17.40480   65.83840   57.24190    -999.25   57.24200   17.40480    -999.25    -999.25    -999.25    -999.25    -999.25   11.85070  -58.23260   -5.96470   11.85070    -999.25
 7250.00000   73.60820   11.11550   11.11550  103.84580   99.63330   10.03680   73.60820   75.74050    -999.25   75.74050   10.03680    -999.25    -999.25    -999.25    -999.25    -999.25   15.48530  -56.35070   -3.31360   15.48530    -999.25
 7300.00000   75.69890   10.01750   10.01750  122.58910  118.38800    8.44680   75.69890   87.40480    -999.25   87.40480    8.44680    0.11500    0.11500    -999.25    -999.25    -999.25   14.28350  -57.71920   -3.90900   14.28350    -999.25
 7350.00000   69.12370    9.63650    9.63650   55.86360   52.06490   19.20680   69.12370   55.77100    -999.25   55.77100   19.20680    0.06630    0.06630    -999.25    -999.25    -999.25   33.73350  -72.07910  -17.49590   33.73350    -999.25
 7400.00000   65.58910    9.28200    9.28200   62.40040   57.21810   17.47700   65.58910   71.48550    -999.25   71.48550   17.47700    0.07680    0.07680    -999.25    -999.25    -999.25   31.37660  -65.15080   -9.79460   31.37660    -999.25
 7450.00000   71.27110   10.28670   10.28670   64.23960   61.86700   16.16370   71.27110   69.57240    -999.25   69.57240   16.16370    0.10580    0.10580    -999.25    -999.25    -999.25   28.13820  -92.98940  -36.85630   28.13820    -999.25
 7500.00000   70.67270   10.01810   10.01810   63.61040   59.53550   16.79670   70.67270   71.67350    -999.25   71.67350   16.79670    0.10190    0.10190    -999.25    -999.25    -999.25   29.43710  -64.95700   -8.05480   29.43710    -999.25
 7550.00000   66.49020   11.78830   11.78830   76.66530   70.24050   14.23680   66.49020   84.16050    -999.25   84.16050   14.23680    0.13510    0.13510    -999.25    -999.25    -999.25   16.61160  -59.41020   -1.73490   16.61160    -999.25
 7600.00000  105.64670   14.89090   14.89090  188.93460  176.78150    5.65670  105.64670   68.60590    -999.25   68.60590    5.65670    0.18180    0.18180    -999.25    -999.25    -999.25    6.99980  -59.75300   -2.04800    6.99980    -999.25
 7650.00000   84.75030   14.48650   14.48650   46.12290   10.90920   91.66570   84.75030  176.22290    -999.25  176.22290   91.66570    0.14740    0.14740    -999.25    -999.25    -999.25   32.12970  -61.41720   -3.97150   32.12970    -999.25
 7700.00000   62.96880    8.69530    8.69530   31.19940   26.92920   37.13450   62.96880   36.73680    -999.25   36.73680   37.13450    0.03520    0.03520    -999.25    -999.25    -999.25   81.25320 -100.59600  -43.41090   81.25320    -999.25
 7750.00000   86.48630    9.06400    9.06400   35.51200   30.89050   32.37240   86.48630  230.01480    -999.25  230.01480   32.37240    0.09450    0.09450    -999.25    -999.25    -999.25   72.44280  -74.68760  -17.76050   72.44280    -999.25
 7800.00000   62.18050    8.76590    8.76590   41.77510   37.59950   26.59610   62.18050   77.63700    -999.25   77.63700   26.59610    0.05510    0.05510    -999.25    -999.25    -999.25   40.41940  -82.53520  -25.86750   40.41940    -999.25
 7850.00000   61.35550    9.40400    9.40400   59.24690   56.36950   17.74010   61.35550   97.75370    -999.25   97.75370   17.74010    0.07400    0.07400    -999.25    -999.25    -999.25   30.21570  -67.93300  -11.52460   30.21570    -999.25
 7900.00000   50.54790    8.73060    8.73060   50.65730   46.91490   21.31520   50.54790   24.11950    -999.25   24.11950   21.31520    0.04440    0.04440    -999.25    -999.25    -999.25   50.11490 -136.07480  -79.92570   50.11490    -999.25
 7950.00000   55.63340    8.71880    8.71880   53.80850   51.69490   19.34430   55.63340   70.52650    -999.25   70.52660   19.34430    0.05510    0.05510    -999.25    -999.25    -999.25   35.35070  -72.79510  -16.90660   35.35070    -999.25
 8000.00000   64.26080    9.13880    9.13880   53.21430   48.28910   20.70860   64.26080   38.88320    -999.25   38.88320   20.70860    0.12330    0.12330    -999.25    -999.25    -999.25   28.97960 -122.80800  -67.17750   28.97960    -999.25
 8050.00000   53.68320    9.23590    9.23590   24.01800   20.98360   47.65630   53.68320   24.60580    -999.25   24.60580   47.65630    0.10930    0.10930    -999.25    -999.25    -999.25   94.08910  -92.13340  -36.76220   94.08910    -999.25
 8100.00000   51.70600    8.94040    8.94040   27.18190   22.80300   43.85380   51.70600   33.04980    -999.25   33.04980   43.85380    0.03620    0.03620    -999.25    -999.25    -999.25   62.04570  -87.50930  -32.39740   62.04570    -999.25
 8150.00000   51.55940    9.03640    9.03640   33.87580   29.62970   33.74990   51.55940   16.73120    -999.25   16.73120   33.74990    0.00210    0.00210    -999.25    -999.25    -999.25   50.90950 -138.97020  -84.11770   50.90950    -999.25
 8200.00000   51.58000    8.95390    8.95390   45.56770   42.82880   23.34870   51.58000    8.42970    -999.25    8.42970   23.34870    0.01070    0.01070    -999.25    -999.25    -999.25   65.91640 -170.85420 -116.26230   65.91650    -999.25
 8250.00000   60.40420    9.10370    9.10370  102.90620   78.30850   12.77000   60.40420   68.07920    -999.25   68.07920   12.77000    0.05460    0.05460    -999.25    -999.25    -999.25   17.42770 -100.11690  -45.78300   17.42770    -999.25
 8300.00000   62.71470    9.27540    9.27540  220.96380  192.11560    5.20520   62.71470   65.03740    -999.25   65.03740    5.20520    0.07590    0.07590    -999.25    -999.25    -999.25    9.29630  -94.66890  -40.59430    9.29630    -999.25
 8350.00000   63.13140    9.20040    9.20040   88.77300   84.65820   11.81220   63.13140   96.73760    -999.25   96.73760   11.81220    -999.25    -999.25    -999.25    -999.25    -999.25   23.94090  -69.95430  -16.13900   23.94090    -999.25
 8400.00000   55.21030    8.73490    8.73490   38.64410   35.62290   28.07180   55.21030   47.79400    -999.25   47.79400   28.07180    -999.25    -999.25    -999.25    -999.25    -999.25   54.81940  -58.53670   -4.98070   54.81940    -999.25
 8450.00000   55.62550    9.06220    9.06220   58.46070   56.86790   17.58460   55.62550   36.44900    -999.25   36.44890   17.58460    -999.25    -999.25    -999.25    -999.25    -999.25   44.91500  -60.53120   -7.23590   44.91500    -999.25
 8500.00000   54.82330    8.74010    8.74010   33.98680   29.38330   34.03290   54.82330   29.36080    -999.25   29.36080   34.03290    -999.25    -999.25    -999.25    -999.25    -999.25   56.07470  -61.04340   -8.00600   56.07470    -999.25
