~Version ---------------------------------------------------
VERS.      2.0 : CWLS log ASCII Standard -VERSION 2.0
WRAP.       NO : One line per depth step
CREA. 10/01/14 : LAS Creation Date
~Well ------------------------------------------------------
STRT.FT                                  935.9 : START DEPTH
STOP.FT                                 9375.9 : STOP DEPTH
STEP.FT                                0.50000 : STEP LENGTH
NULL.                                  -999.25 : NULL VALUE
COMP. THE BRITISH AMERICAN OIL COMPANY LIMITED : COMPANY
WELL.        B.A. EAST GOOSE RIVER 10-22-66-15 : WELL
FLD .                                          : FIELD
LOC .                                          : LOCATION
CTRY.                                   CANADA : COUNTRY
SRVC.                   Schlumberger of Canada : SERVICE COMPANY
DATE.                              16-Mar-1960 : LOGDATE
PROV.                                  Alberta : PROVINCE
UWI .                         100102206615W500 : UNIQUE WELL ID
SLAT.WGS84                            54.72873 : SURFACE LATITUDE
SLON.WGS84                           -116.1771 : SURFACE LONGITUDE
~Curve Information -----------------------------------------
DEPT.FT      : DEPTH FEET
CILD.MMHO    : CONDUCTIVITY FROM RESISTIVITY LOG
DT  .US/F    : DELTA-T FROM SONIC LOG
GRS .MG/TON  : GAMMA RAY FROM SONIC LOG
ILD .OHMM    : DEEP INDUCTION FROM RESISTIVITY LOG
MCAL.IN      : MLT CALIPER FROM MICRO LOG
SN  .OHMM    : SHORT NORMAL FROM RESISTIVITY LOG
SPR .MV      : SPONTANEOUS POTENTIAL FROM RESISTIVITY LOG
~Params ----------------------------------------------------
LMF .                     KB : LOG MEASURED FROM
DMF .                     KB : DRILLING MEASURED FROM
EKB .FT                 3222 : KELLY BUSHING
EGL .FT                 3205 : GROUND LEVEL
DATE.               03/16/60 : RUN DATE
RUN .                      2 : RUN NUMBER
DD  .FT                 9370 : DEPTH DRILLER
DL  .FT                 9378 : DEPTH LOGGER
BLI .FT                 9373 : BOTTOM LOG INTERVAL
TLI .FT                 5000 : TOP LOG INTERVAL
CBD .FT                  975 : CASING BOTTOM DRILLER
BS  .IN                    9 : BIT SIZE
BSD .FT                 9370 : BIT SIZE AT DEPTH
DFT .                    GEL : DRILLING FLUID TYPE
DFD .                     10 : DRILLING FLUID DENSITY
DFV .                    120 : DRILLING FLUID VISCOSITY
DFPH.                     10 : DRILLING FLUID PH
DFL .                    6.2 : DRILLING FLUID LOSS
RMS .OHMM                2.8 : RESISTIVITY MUD SAMPLE
MST .DEGF                 59 : MUD SAMPLE TEMPERATURE
RMF .OHMM               1.41 : RESISTIVITY MUD FILTRATE SAMPLE
MFST.DEGF                 68 : MUD FILTRATE SAMPLE TEMPERATURE
RMC .OHMM               2.56 : RESISTIVITY MUD CAKE
MCST.DEGF                 67 : MUD CAKE SAMPLE TEMPERATURE
RMB .OHMM               0.94 : RESISTIVITY MUD AT BHT
TCS .HRS                 4.5 : TIME CIRCULATED STOPPED
LUN .                  1573C : LOGGING UNIT NUMBER
LUL .                     WC : LOGGING UNIT LOCATION
ENGI.              HAUSEGGER : RECORDING ENGINEER
WITN.                   COTE : WITNESSED BY
CLNT.                A2DTECH : CLIENT CODE
ORIG.            2" 5" PRINT : ORIGIN OF DATA
UWI .       100102206615W500 : UNIQUE WELL ID
DICO. A2D Technologies, Inc. : DIGITIZING COMPANY
~Other -----------------------------------------------------
~ASCII -----------------------------------------------------
# ...
  980.90000  127.51880  110.03100    3.61630    6.96750    9.02410    8.50910  -59.26160
  981.40000  142.84320  111.26690    3.57180    6.34680    8.94780    8.06160  -59.48770
  981.90000  200.35200  114.68650    3.25450    4.60540    8.87250    6.10140  -59.50150
  982.40000  215.86840  115.98450    3.25570    4.33230    8.90770    5.44300  -58.95040
  982.90000  268.17890  117.63740    3.13200    3.51300    9.05970    3.77780  -56.05870
  983.40000  286.54010  118.17630    3.25220    3.31490    9.44730    3.60570  -54.71600
  983.90000  344.76200  121.72570    3.76050    2.84530   12.02870    3.35940  -50.84700
  984.40000  364.25920  125.77330    4.04920    2.70960   11.43950    3.38010  -49.69900
  984.90000  418.05170  142.89260    4.94740    2.44950   11.99110    3.48900  -48.68010
  985.40000  416.27560  147.03780    5.09330    2.53020   13.21530    3.59060  -48.63070
  985.90000  378.61250  158.14260    4.99050    2.91470   12.93200    4.00000  -48.28380
  986.40000  324.28880  159.20900    4.36300    3.35230   10.79930    4.36940  -48.54120
  986.90000  274.01010  152.59590    3.89390    3.93250   11.53100    4.63570  -48.32350
  987.40000  235.18480  145.35220    3.65330    4.48360   10.89050    4.90200  -48.27290
  987.90000  212.36020  135.07720    3.58700    4.42590    9.66060    4.92030  -48.25780
  988.40000  204.34490  120.69490    3.71450    4.30530    9.87070    4.79050  -48.25910
  988.90000  204.55700  115.38940    3.89640    4.14350   10.29650    4.59760  -48.26140
  989.40000  214.16000  119.56070    3.77130    3.98170   11.22770    4.40480  -48.26370
  989.90000  231.85670  124.21130    3.70770    3.90080   11.61040    4.30830  -48.27750
  990.40000  254.00930  133.97210    3.69250    3.65800   12.44040    4.01900  -48.49920
  990.90000  275.70030  135.06260    3.78330    3.57710   12.06040    3.93620  -48.39360
  991.40000  291.93560  139.75220    3.99390    3.35390   14.27210    3.73120  -48.45990
  991.90000  298.02770  141.55180    3.90040    3.29270   13.08320    3.68410  -48.59630
  992.40000  312.66860  148.81500    3.61620    3.10910   12.65290    3.60950  -48.79530
  992.90000  316.37570  149.57930    3.65670    3.10750   12.03110    3.59560  -48.73230
  993.40000  325.96160  148.76570    3.80130    3.13350   13.31600    3.63240  -48.65630
  993.90000  327.43690  146.88750    3.82130    3.14720   13.63160    3.66080  -48.69690
  994.40000  327.14740  140.07790    3.95100    3.23750   15.87920    3.74610  -48.99400
  994.90000  323.42460  139.52490    4.04890    3.27830   15.88260    3.77610  -48.99690
  995.40000  306.49280  137.86610    4.08900    3.40070   15.89820    3.88350  -48.87630
  995.90000  300.54290  135.76030    3.96880    3.44140   15.90270    3.94950  -48.78210
  996.40000  282.00150  134.03180    3.63390    3.62780   15.89100    4.22060  -48.76650
  996.90000  266.18350  136.81350    3.47750    3.77790   12.89170    4.43540  -48.66250
  997.40000  247.42480  140.09500    3.50780    3.92810   10.99410    4.69350  -48.59350
  997.90000  228.57600  135.96730    3.78010    4.36570   11.33690    4.95160  -48.45050
  998.40000  209.57170  129.79230    3.88710    4.93930   10.89320    5.34400  -48.66620
  998.90000  190.23910  128.44740    3.98010    5.51300   10.45340    5.77210  -48.70670
  999.40000  172.91670  126.07750    3.99690    5.92970   11.19260    6.20030  -48.73220
  999.90000  157.69410  120.79930    3.85980    6.28470   11.27440    6.62840  -48.82520
 1000.40000  147.52280  117.89220    3.78950    6.46230   10.75920    6.76080  -48.98780
 1000.90000  139.72630  118.76980    3.65640    6.97660   10.14690    7.13880  -49.77500
 1001.40000  133.61870  122.59400    3.64520    6.98880   10.17990    7.26160  -50.33910
 1001.90000  130.65060  121.09880    3.48320    7.00430    9.66260    7.38660  -51.53370
 1002.40000  133.02940  118.72100    3.44590    6.96030    9.63280    7.11930  -51.55220
 1002.90000  144.25900  114.80180    3.57580    6.43870    9.60140    6.10650  -51.51780
 1003.40000  151.20720  114.68590    3.62120    6.14660    9.54160    5.73370  -51.38770
 1003.90000  174.54670  111.45810    3.71130    5.27040    9.53370    4.86520  -51.02500
 1004.40000  186.63690  110.28160    3.80910    4.97830    9.63870    4.61800  -50.63350
 1004.90000  219.38780  110.78190    4.10280    4.28150   10.26840    4.01870  -49.79240
 1005.40000  234.53320  113.25770    4.00570    4.11080   11.17080    3.93640  -49.67120
 1005.90000  275.06740  126.02260    3.63980    3.59860   12.84210    3.73260  -49.41760
 1006.40000  281.50340  130.51170    3.61110    3.47420   13.03550    3.70380  -49.41690
 1006.90000  292.09020  141.07580    3.60090    3.31690   12.62600    3.67440  -49.34540
 1007.40000  288.47360  154.72480    3.59700    3.31500   11.15590    3.67390  -49.09720
 1007.90000  282.23020  161.82860    3.47180    3.31450   10.59940    3.71010  -49.00410
 1008.40000  274.31190  160.10680    3.11970    3.45740   11.17340    3.81230  -48.80050
 1008.90000  267.11710  155.73880    2.98570    3.62620   11.54700    3.91460  -48.79570
 1009.40000  263.03800  146.83600    3.08110    3.76000   12.01120    3.93750  -48.96480
 1009.90000  260.05520  136.46990    3.32790    3.82490   11.66120    3.80990  -48.91350
 1010.40000  261.39250  132.18360    3.57620    3.79420   10.47490    3.63180  -48.52700
 1010.90000  266.43500  128.46200    3.64530    3.75960   10.53210    3.54430  -48.45060
 1011.40000  272.46150  134.20190    3.81690    3.64890   10.95310    3.41710  -48.35990
 1011.90000  279.67110  130.24250    3.87000    3.60330   11.08480    3.39710  -48.35800
 1012.40000  286.61650  130.05470    4.00060    3.45410   11.08220    3.27230  -48.54740
 1012.90000  290.21980  129.79570    4.04320    3.40220   10.88280    3.15180  -48.53780
 1013.40000  300.41150  133.04420    4.31840    3.26550   11.63880    2.87090  -48.51030
 1013.90000  302.45190  131.69770    4.40170    3.26490   11.26920    2.91630  -48.61460
 1014.40000  307.01130  137.11870    4.54010    3.24510   10.14360    3.13840  -48.57020
 1014.90000  307.98060  138.73750    4.60830    3.23540   11.11100    3.22680  -48.48980
 1015.40000  309.02660  146.61000    4.80090    3.23310   13.98550    3.47880  -48.39500
 1015.90000  307.32490  150.12070    4.66370    3.24190   14.39650    3.53720  -48.38560
 1016.40000  297.63650  161.90390    4.12080    3.33470   15.87550    3.71220  -48.49680
 1016.90000  290.69190  163.05390    4.03280    3.45270   13.64760    3.77430  -48.63430
 1017.40000  266.10230  165.61570    3.70500    3.86140   11.52890    4.12040  -49.09460
 1017.90000  249.34870  168.75160    3.52770    4.15220   11.03600    4.40450  -49.59490
 1018.40000  228.99170  162.25260    3.56220    4.44300    9.97720    4.68850  -50.28810
 1018.90000  206.53220  148.30920    3.73590    4.73390    9.21890    4.97260  -50.92090
 1019.40000  191.31090  135.22930    3.78910    4.94300    9.42960    5.15970  -49.99720
 1019.90000  185.70390  125.42050    3.70890    4.90140    9.63910    5.13640  -49.13650
 1020.40000  187.08450  118.36090    3.62490    4.87020    9.99110    5.04180  -48.85800
 1020.90000  190.18550  113.33790    3.63360    4.90730   10.21050    5.08570  -49.27880
 1021.40000  190.08790  115.28440    3.78720    5.03550    9.91570    5.22270  -49.76770
 1021.90000  183.93630  120.32180    4.34660    5.42460    9.51500    5.63360  -51.21350
 1022.40000  174.68480  120.72970    4.48040    5.55510    9.47690    5.74080  -51.66760
 1022.90000  163.87680  122.22200    4.42700    6.02160    9.20190    5.99020  -52.84780
 1023.40000  160.10930  122.08120    4.30170    6.19000    9.30840    6.06840  -53.01780
 1023.90000  150.39790  116.78710    4.01970    6.63100    9.62510    6.35430  -53.15450
 1024.40000  148.20460  114.15430    4.00780    6.68710    9.58060    6.45810  -53.26040
 1024.90000  143.85640  111.33210    4.01770    6.98140    9.69750    6.76940  -53.78220
 1025.40000  141.89990  113.60390    3.95330    7.12330    9.51260    6.88280  -54.33250
