~Version ---------------------------------------------------
VERS.      2.0 : CWLS log ASCII Standard -VERSION 2.0
WRAP.       NO : One line per depth step
CREA. 11/10/17 : LAS Creation Date
~Well ------------------------------------------------------
STRT.FT                         1200.0 : START DEPTH
STOP.FT                        11200.0 : STOP DEPTH
STEP.FT                       50.00000 : STEP LENGTH
NULL.                          -999.25 : NULL VALUE
COMP. AMOCO CANADA PETROLEUM CO., LTD. : COMPANY
WELL.    AMOCO A-1 NW ANTE 10-29-66-25 : WELL
FLD .                                  : FIELD
LOC .                                  : LOCATION
CTRY.                           CANADA : COUNTRY
SRVC.           Schlumberger of Canada : SERVICE COMPANY
DATE.                      20-Oct-1973 : LOGDATE
PROV.                          Alberta : PROVINCE
UWI .                 100102906625W500 : UNIQUE WELL ID
SLAT.WGS84                    54.74394 : SURFACE LATITUDE
SLON.WGS84                   -117.7384 : SURFACE LONGITUDE
~Curve Information -----------------------------------------
DEPT    .FT    : Depth Curve
CALDED  .IN    : CALIPER FROM DENSITY LOG
CALNED  .IN    : CALIPER FROM NEUTRON LOG
CALSED  .IN    : CALIPER FROM SONIC LOG
CALWS   .IN    : CALIPER [CALSED]
CONDWS  .MMHO  : CONDUCTIVITY [1000/DRESWS]
DCORWS  .G/C3  : DENSITY CORRECTION [DRHOED]
DENWS   .G/C3  : FORMATION BULK DENSITY [RHOBED]
DPHILSED.V/V   : DENSITY POROSITY LIME [M=2.71, F=1.00] FROM DENSITY LOG
DPOLSWS .V/V   : DENSITY POROSITY LIME [M=2.71, F=1.00] [CALCULATED FROM DENWS]
DRESWS  .OHMM  : DEEP RESISTIVITY [ILDED]
DRHOED  .G/C3  : BULK DENSITY CORRECTION FROM DENSITY LOG
DTED    .US/F  : DELTA-T (INTERVAL TRANSIT TIME) FROM SONIC LOG
DTWS    .US/F  : COMPRESSIONAL SONIC [DTED]
GRDED   .GAPI  : GAMMA RAY FROM DENSITY LOG
GRNED   .GAPI  : GAMMA RAY FROM NEUTRON LOG
GRSED   .GAPI  : GAMMA RAY FROM SONIC LOG
GRWS    .GAPI  : GAMMA RAY [GRSED]
ILDED   .OHMM  : DEEP INDUCTION FROM RESISTIVITY LOG
ILMED   .OHMM  : MEDIUM INDUCTION FROM RESISTIVITY LOG
LL8ED   .OHMM  : LATEROLOG8 FROM RESISTIVITY LOG
MRESWS  .OHMM  : MEDIUM RESISTIVITY [ILMED]
NPOLSWS .V/V   : NEUTRON POROSITY LIME [SNPLSED]
RHOBED  .G/C3  : BULK DENSITY FROM DENSITY LOG
SNPLSED .V/V   : SIDEWALL NEUTRON POROSITY LIME FROM NEUTRON LOG
SPRED   .MV    : SPONTANEOUS POTENTIAL FROM RESISTIVITY LOG
SPWS    .MV    : SPONTANEOUS POTENTIAL [BASE LINE 0 MV, SPRED]
SRESWS  .OHMM  : SHALLOW RESISTIVITY [LL8ED]
~Params ----------------------------------------------------
PD  .                     GL : PERMANENT DATUM
EPD .FT               2302.4 : ELEVATION PERMANENT DATUM
LMF .                     KB : LOG MEASURED FROM
DAPD.FT                 17.6 : FEET ABOVE PERMANENT DATUM
EKB .FT               2320.0 : KELLY BUSHING
EGL .FT               2302.4 : GROUND LEVEL
DATE.               10/20/73 : RUN DATE
RUN .                      1 : RUN NUMBER
DD  .FT                11236 : DEPTH DRILLER
DL  .FT                11235 : DEPTH LOGGER
BLI .FT                11234 : BOTTOM LOG INTERVAL
TLI .FT                 6400 : TOP LOG INTERVAL
CS  .IN                9.625 : CASING SIZE
CBD .FT                 1247 : CASING BOTTOM DRILLER
CBL .FT                 1247 : CASING BOTTOM LOGGER
BS  .IN                 8.75 : BIT SIZE
BSD .FT                11236 : BIT SIZE AT DEPTH
DFT .               GEL CHEM : DRILLING FLUID TYPE
DFD .                    9.2 : DRILLING FLUID DENSITY
DFV .                     62 : DRILLING FLUID VISCOSITY
DFPH.                    9.0 : DRILLING FLUID PH
DFL .                   10.2 : DRILLING FLUID LOSS
RMF .OHMM               1.15 : RESISTIVITY MUD FILTRATE SAMPLE
MFST.DEGF                 70 : MUD FILTRATE SAMPLE TEMPERATURE
RMB .OHMM                0.4 : RESISTIVITY MUD AT BHT
TCS .HRS                 4.5 : TIME CIRCULATED STOPPED
LUN .                   7667 : LOGGING UNIT NUMBER
LUL .                    EDM : LOGGING UNIT LOCATION
ENGI.               BENOWSKI : RECORDING ENGINEER
WITN.       SNYDMELLER FRAME : WITNESSED BY
CLNT.                A2DTECH : CLIENT CODE
ORIG.            2" 5" PRINT : ORIGIN OF DATA
UWI .       100102906625W500 : UNIQUE WELL ID
DICO. A2D Technologies, Inc. : DIGITIZING COMPANY
~Other -----------------------------------------------------
~ASCII -----------------------------------------------------
# ...
 2500.00000    -999.25    -999.25    9.71950    9.71950  173.96750    -999.25    -999.25    -999.25    -999.25    5.74820    -999.25   94.46460   94.46460    -999.25    -999.25   78.74940   78.74940    5.74820    5.27780    6.38660    5.27780    -999.25    -999.25    -999.25 -100.33090   -4.42920    6.38660
 2550.00000    -999.25    -999.25    9.72540    9.72540  138.23040    -999.25    -999.25    -999.25    -999.25    7.23430    -999.25   88.50080   88.50080    -999.25    -999.25   88.80040   88.80040    7.23430    6.79030    8.23370    6.79030    -999.25    -999.25    -999.25  -99.38530   -3.24210    8.23370
 2600.00000    -999.25    -999.25    9.57850    9.57850  144.26270    -999.25    -999.25    -999.25    -999.25    6.93180    -999.25   97.92580   97.92580    -999.25    -999.25  110.26620  110.26620    6.93180    6.08560    7.91900    6.08560    -999.25    -999.25    -999.25 -102.06270   -5.67810    7.91900
 2650.00000    -999.25    -999.25   10.16680   10.16680  106.71680    -999.25    -999.25    -999.25    -999.25    9.37060    -999.25   94.69720   94.69720    -999.25    -999.25  108.08600  108.08600    9.37060    8.42050   10.23810    8.42050    -999.25    -999.25    -999.25 -102.90940   -6.28340   10.23810
 2700.00000    -999.25    -999.25    9.40480    9.40480  116.74820    -999.25    -999.25    -999.25    -999.25    8.56550    -999.25   98.61180   98.61180    -999.25    -999.25  126.94160  126.94160    8.56550    7.88610   10.01830    7.88610    -999.25    -999.25    -999.25 -104.20140   -7.33270   10.01830
 2750.00000    -999.25    -999.25    9.83940    9.83940  113.75790    -999.25    -999.25    -999.25    -999.25    8.79060    -999.25   94.03320   94.03320    -999.25    -999.25  106.06300  106.06300    8.79060    7.98620   10.20580    7.98620    -999.25    -999.25    -999.25 -105.01010   -7.90120   10.20580
 2800.00000    -999.25    -999.25   10.18580   10.18580  140.43760    -999.25    -999.25    -999.25    -999.25    7.12060    -999.25   97.26000   97.26000    -999.25    -999.25  103.38810  103.38810    7.12060    6.09820    8.25740    6.09820    -999.25    -999.25    -999.25 -103.34040   -5.99010    8.25740
 2850.00000    -999.25    -999.25    9.97780    9.97780  156.89720    -999.25    -999.25    -999.25    -999.25    6.37360    -999.25  104.35500  104.35500    -999.25    -999.25  102.35740  102.35740    6.37360    6.02190    7.49950    6.02190    -999.25    -999.25    -999.25 -102.90610   -5.31440    7.49950
 2900.00000    -999.25    -999.25   12.77950   12.77950  128.17230    -999.25    -999.25    -999.25    -999.25    7.80200    -999.25   94.28460   94.28460    -999.25    -999.25   97.56610   97.56610    7.80200    6.87430    9.41250    6.87430    -999.25    -999.25    -999.25 -103.25870   -5.42550    9.41250
 2950.00000    -999.25    -999.25   12.12950   12.12950  112.80790    -999.25    -999.25    -999.25    -999.25    8.86610    -999.25   94.57320   94.57320    -999.25    -999.25   92.45870   92.45870    8.86610    8.17190    9.90840    8.17190    -999.25    -999.25    -999.25 -103.42460   -5.34870    9.90840
 3000.00000    -999.25    -999.25   11.64020   11.64020  114.78290    -999.25    -999.25    -999.25    -999.25    8.71210    -999.25  104.81160  104.81160    -999.25    -999.25   99.96080   99.96080    8.71210    7.81530    9.82040    7.81530    -999.25    -999.25    -999.25 -103.11490   -4.79890    9.82040
 3050.00000    -999.25    -999.25   12.19850   12.19850  142.97970    -999.25    -999.25    -999.25    -999.25    6.99400    -999.25  101.66780  101.66780    -999.25    -999.25   89.93570   89.93570    6.99400    6.09530    7.99670    6.09530    -999.25    -999.25    -999.25 -103.21770   -4.66020    7.99670
 3100.00000    -999.25    -999.25   11.14280   11.14280  107.79350    -999.25    -999.25    -999.25    -999.25    9.27700    -999.25   91.23480   91.23480    -999.25    -999.25   94.38330   94.38330    9.27700    8.43730   10.39330    8.43730    -999.25    -999.25    -999.25 -102.84790   -4.04900   10.39330
 3150.00000    -999.25    -999.25   10.26970   10.26970   69.75200    -999.25    -999.25    -999.25    -999.25   14.33650    -999.25   84.22790   84.22790    -999.25    -999.25   92.00560   92.00560   14.33650   13.27030   16.84300   13.27030    -999.25    -999.25    -999.25 -106.95590   -8.37310   16.84300
 3200.00000    -999.25    -999.25   11.84210   11.84210   76.20020    -999.25    -999.25    -999.25    -999.25   13.12690    -999.25   88.13400   88.13400    -999.25    -999.25   93.29140   93.29140   13.12690   12.19460   16.30080   12.19460    -999.25    -999.25    -999.25 -103.44130   -5.40850   16.30080
 3250.00000    -999.25    -999.25   12.01760   12.01760   98.57850    -999.25    -999.25    -999.25    -999.25   10.14420    -999.25   90.43190   90.43190    -999.25    -999.25  100.11890  100.11890   10.14420    9.26360   11.60250    9.26360    -999.25    -999.25    -999.25 -101.65690   -4.16870   11.60250
 3300.00000    -999.25    -999.25   11.48020   11.48020  110.43990    -999.25    -999.25    -999.25    -999.25    9.05470    -999.25   87.50720   87.50720    -999.25    -999.25   91.67870   91.67870    9.05470    7.93960    9.96230    7.93960    -999.25    -999.25    -999.25 -101.67440   -4.73350    9.96230
 3350.00000    -999.25    -999.25   11.81680   11.81680  120.62440    -999.25    -999.25    -999.25    -999.25    8.29020    -999.25   91.03570   91.03570    -999.25    -999.25  102.33800  102.33800    8.29020    7.45750    9.65140    7.45750    -999.25    -999.25    -999.25 -102.84370   -6.45010    9.65140
 3400.00000    -999.25    -999.25   11.44350   11.44350   98.82990    -999.25    -999.25    -999.25    -999.25   10.11840    -999.25   86.22070   86.22070    -999.25    -999.25  104.22960  104.22960   10.11840    9.46190   12.12320    9.46190    -999.25    -999.25    -999.25 -102.46750   -6.62130   12.12320
 3450.00000    -999.25    -999.25   11.82780   11.82780  127.60890    -999.25    -999.25    -999.25    -999.25    7.83650    -999.25   95.00850   95.00850    -999.25    -999.25  109.69510  109.69510    7.83650    7.05570   10.41500    7.05570    -999.25    -999.25    -999.25 -100.64280   -5.34660   10.41500
 3500.00000    -999.25    -999.25   11.67790   11.67790  130.41380    -999.25    -999.25    -999.25    -999.25    7.66790    -999.25   95.96220   95.96220    -999.25    -999.25  124.50790  124.50790    7.66790    6.93900    9.18630    6.93900    -999.25    -999.25    -999.25  -97.61610   -2.86450    9.18630
 3550.00000    -999.25    -999.25   11.70550   11.70550  114.90950    -999.25    -999.25    -999.25    -999.25    8.70250    -999.25   94.99770   94.99770    -999.25    -999.25  112.67160  112.67160    8.70250    7.99360   10.60040    7.99360    -999.25    -999.25    -999.25  -98.42110   -4.21680   10.60040
 3600.00000    -999.25    -999.25   11.21280   11.21280  118.17540    -999.25    -999.25    -999.25    -999.25    8.46200    -999.25   95.52890   95.52890    -999.25    -999.25  111.47880  111.47880    8.46200    7.52040    9.79390    7.52040    -999.25    -999.25    -999.25  -98.20460   -4.54760    9.79390
 3650.00000    -999.25    -999.25   10.91470   10.91470  104.60030    -999.25    -999.25    -999.25    -999.25    9.56020    -999.25   93.14310   93.14310    -999.25    -999.25  107.97390  107.97390    9.56020    8.66680   11.15770    8.66680    -999.25    -999.25    -999.25  -98.84450   -5.73490   11.15770
 3700.00000    -999.25    -999.25   10.59520   10.59520   99.98890    -999.25    -999.25    -999.25    -999.25   10.00110    -999.25   89.99900   89.99900    -999.25    -999.25   99.79650   99.79650   10.00110    8.86650   11.52590    8.86650    -999.25    -999.25    -999.25  -98.48130   -5.92180   11.52590
 3750.00000    -999.25    -999.25    9.11910    9.11910   74.46630    -999.25    -999.25    -999.25    -999.25   13.42890    -999.25   85.64940   85.64940    -999.25    -999.25  121.04490  121.04490   13.42890   12.25880   18.86330   12.25880    -999.25    -999.25    -999.25  -96.72970   -4.71470   18.86330
