~Version ---------------------------------------------------
VERS.      2.0 : CWLS log ASCII Standard -VERSION 2.0
WRAP.       NO : One line per depth step
CREA. 11/15/17 : LAS Creation Date
~Well ------------------------------------------------------
STRT.FT                                800.0 : START DEPTH
STOP.FT                               7500.0 : STOP DEPTH
STEP.FT                             50.00000 : STEP LENGTH
NULL.                                -999.25 : NULL VALUE
COMP.  CONOCOPHILLIPS CANADA RESOURCES CORP. : COMPANY
WELL. ESSO B.A. FENN WEST 14-15-36-21 #14-15 : WELL
FLD .                                        : FIELD
LOC .                                        : LOCATION
CTRY.                                 CANADA : COUNTRY
SRVC.                           Schlumberger : SERVICE COMPANY
DATE.                            11-Mar-1960 : LOGDATE
PROV.                                Alberta : PROVINCE
UWI .                       100141503621W400 : UNIQUE WELL ID
SLAT.WGS84                          52.09711 : SURFACE LATITUDE
SLON.WGS84                         -112.9239 : SURFACE LONGITUDE
~Curve Information -----------------------------------------
DEPT  .FT         : Depth Curve
CALWS .IN         : CALIPER [MCALED]
CILDED.MMHO       : CONDUCTIVITY INDUCTION LOG
CONDWS.MMHO       : CONDUCTIVITY [1000/DRESWS]
DRESWS.OHMM       : DEEP RESISTIVITY [ILDED]
DTED  .US/F       : DELTA TIME FROM SONIC LOG
DTWS  .US/F       : DELTA TIME [DTED]
GRSED .UgRa-Eq/T  : GAMMA RAY FROM SONIC LOG
GRWS  .GAPI       : GAMMA RAY [GRSED*16.50]
ILDED .OHMM       : DEEP INDUCTION RESISTIVITY
LLED  .OHMM       : LATEROLOG
MCALED.IN         : CALIPER MICROLOG
SNED  .OHMM       : SHORT NORMAL
SPRED .MV         : SPONTANEOUS POTENTIAL FROM RESISTIVITY
SPWS  .MV         : SPONTANEOUS POTENTIAL [BASELINE 0 MV] [SPRED]
SRESWS.OHMM       : SHALLOW RESISTIVITY [SNED]
~Params ----------------------------------------------------
LMF .                     KB : LOG MEASURED FROM
DMF .                     KB : DRILLING MEASURED FROM
EKB .FT                 2978 : KELLY BUSHING
DATE.               03/11/60 : RUN DATE
RUN .                      1 : RUN NUMBER
DD  .FT                 7548 : DEPTH DRILLER
DL  .FT                 7549 : DEPTH LOGGER
BLI .FT                 7545 : BOTTOM LOG INTERVAL
TLI .FT                 5100 : TOP LOG INTERVAL
CBD .FT                  778 : CASING BOTTOM DRILLER
CBL .FT                  779 : CASING BOTTOM LOGGER
BS  .IN                    9 : BIT SIZE
BSD .FT                 7548 : BIT SIZE AT DEPTH
DFT .             GYP STARCH : DRILLING FLUID TYPE
DFD .                   10.2 : DRILLING FLUID DENSITY
DFV .                     72 : DRILLING FLUID VISCOSITY
RMS .OHMM               0.59 : RESISTIVITY MUD SAMPLE
MST .DEGF                 68 : MUD SAMPLE TEMPERATURE
RMB .OHMM                0.3 : RESISTIVITY MUD AT BHT
TCS .HRS                   2 : TIME CIRCULATED STOPPED
LUN .                   2741 : LOGGING UNIT NUMBER
LUL .                      C : LOGGING UNIT LOCATION
ENGI.                MCKEOWN : RECORDING ENGINEER
WITN.                  ROGAN : WITNESSED BY
CLNT.                A2DTECH : CLIENT CODE
ORIG.            2" 5" PRINT : ORIGIN OF DATA
UWI .       100141503621W400 : UNIQUE WELL ID
DICO. A2D Technologies, Inc. : DIGITIZING COMPANY
~Other -----------------------------------------------------
~ASCII -----------------------------------------------------
# ...
 5400.00000    8.98800    8.32660    8.82520  113.31170   54.74190   54.74190    1.11480   18.39420  113.31170  298.18260    8.98800   49.26420 -148.30080  -67.67110   49.26420
 5450.00000    9.23550    9.83430   10.12460   98.76890   56.97400   56.97400    1.12320   18.53280   98.76890  150.54520    9.23550   53.90340 -129.85300  -55.73390   53.90340
 5500.00000    9.04070   26.17810   24.27690   41.19150   55.13040   55.13040    1.38150   22.79480   41.19150   83.32160    9.04070   45.01970 -148.18470  -80.57630   45.01970
 5550.00000    9.01780   14.22340   13.09450   76.36810   56.70690   56.70690    0.93050   15.35320   76.36810  163.55660    9.01780   49.54850 -125.18850  -64.09070   49.54850
 5600.00000    9.00100    8.48500    9.68830  103.21710   53.78440   53.78440    1.41160   23.29140  103.21710  135.37530    9.00100   48.65130 -150.12640  -95.53920   48.65130
 5650.00000   10.02430    9.24370   14.54840   68.73630   68.42450   68.42450    1.20180   19.82970   68.73630  874.25720   10.02430   53.88730  -82.73990  -35.60290   53.88730
 5700.00000    9.63330  403.24870  437.08200    2.28790   46.63450   46.63450    1.53930   25.39840    2.28790  108.38610    9.63330   34.08930 -119.87970  -80.50590   34.08930
 5750.00000    8.96680   26.11130   28.02050   35.68820   57.45350   57.45350    1.75860   29.01690   35.68820   66.66100    8.96680   45.20880  -78.18350  -46.57300   45.20880
 5800.00000    8.91150    4.69900    3.68220  271.57520   50.65510   50.65510    1.35530   22.36240  271.57520  586.93730    8.91150   70.73670  -89.55830  -65.71110   70.73670
 5850.00000    8.88510   50.57470   49.10650   20.36390   58.20210   58.20210    0.98380   16.23270   20.36390   28.97710    8.88510   25.81430  -66.26110  -50.17720   25.81430
 5900.00000    8.86930   49.93830   47.29610   21.14340   54.42030   54.42030    1.21580   20.06070   21.14340   42.54060    8.86930   25.41630  -28.47920  -20.15850   25.41630
 5950.00000    8.79190   25.31870   26.76870   37.35700   54.12690   54.12690    1.28910   21.27010   37.35700   63.53370    8.79190   37.02590 -150.07110 -145.70970   37.02590
 6000.00000    8.88860   19.75250   17.67370   56.58140   54.73340   54.73340    2.43740   40.21710   56.58140  104.90340    8.88860   37.05890  -81.93910  -77.57770   37.05890
 6050.00000    8.91450   25.31580   25.07910   39.87390   61.90290   61.90290    4.07710   67.27210   39.87390   46.13890    8.91450   29.20890 -222.87130 -218.50990   29.20890
 6100.00000    8.92850   30.77460   30.65980   32.61600   65.31320   65.31320    4.64340   76.61610   32.61600   35.80900    8.92850   25.92560 -229.79810 -225.43670   25.92560
 6150.00000    8.94610   29.59380   29.04520   34.42910   60.14090   60.14090    3.01860   49.80690   34.42910   40.53830    8.94610   26.50420 -243.62510 -239.26370   26.50420
 6200.00000    9.04650   40.59500   39.47720   25.33110   62.82480   62.82480    3.76860   62.18190   25.33110   26.02010    9.04650   20.53220 -184.67540 -180.31400   20.53220
 6250.00000    9.03430   67.31530   66.64980   15.00380   69.13250   69.13250    5.68260   93.76290   15.00380   17.93240    9.03430   16.71370 -127.08710 -122.72570   16.71370
 6300.00000    8.97170   49.45130   49.10360   20.36510   64.94300   64.94300    4.32650   71.38730   20.36510   19.88240    8.97170   18.82110  -84.56960  -80.20820   18.82110
 6350.00000    8.96250   51.91920   49.82110   20.07180   66.18440   66.18440    5.18030   85.47490   20.07180   22.87260    8.96250   19.43570 -109.66750 -105.30610   19.43570
 6400.00000    8.95120    7.42510    7.72670  129.42100   53.38140   53.38140    1.16660   19.24890  129.42100  619.66470    8.95120   57.82440 -115.05870 -110.69730   57.82440
 6450.00000    8.93950    9.58390   10.21700   97.87620   56.46840   56.46840    2.92650   48.28730   97.87620  283.28420    8.93950   53.98540  -88.01570  -83.65430   53.98540
 6500.00000    8.80780    4.61100    4.83680  206.74810   57.98460   57.98460    3.10940   51.30510  206.74810  410.50920    8.80780   63.57140 -124.41070 -120.04930   63.57140
 6550.00000    8.95150    0.45420    2.10870  474.22560   51.80790   51.80790    1.80500   29.78250  474.22560 2743.69730    8.95150   81.92060 -136.83040 -132.46900   81.92060
 6600.00000    8.95370    0.27570    2.75930  362.41050   51.25510   51.25510    1.18610   19.57070  362.41050 1792.43750    8.95370   77.78150 -178.48370 -174.12230   77.78150
 6650.00000    8.93220    9.36290    9.50000  105.26340   53.36490   53.36490    2.12580   35.07570  105.26340  203.38120    8.93220   66.92280 -182.92090 -178.55950   66.92280
 6700.00000    8.94470    4.60430    4.17630  239.44360   50.39150   50.39150    0.70360   11.60940  239.44360 3182.29640    8.94470   73.42240 -269.74760 -265.38620   73.42240
 6750.00000    8.88920   12.85920   12.64670   79.07220   51.81510   51.81510    1.14430   18.88100   79.07220  266.67090    8.88920   51.04970 -191.98440 -187.62300   51.04970
 6800.00000    8.90790   27.91870   27.56930   36.27220   58.20690   58.20690    1.05550   17.41580   36.27220   89.24290    8.90790   39.42970 -260.93280 -256.57140   39.42970
 6850.00000    8.92390   25.02490   25.68850   38.92790   54.55970   54.55970    1.11630   18.41900   38.92790   94.19740    8.92390   37.30830  -94.79700  -90.43560   37.30830
 6900.00000    8.94600   15.23310   14.86710   67.26240   58.24310   58.24310    2.83840   46.83360   67.26240   99.49130    8.94600   38.31210  -46.57280  -42.21140   38.31210
 6950.00000    8.97240   17.74420   17.18200   58.20040   57.20830   57.20830    2.48340   40.97610   58.20040   80.87370    8.97240   33.97930  -49.14830  -44.78690   33.97930
 7000.00000    8.94840   32.87030   30.55630   32.72650   62.65100   62.65100    4.11970   67.97500   32.72650   41.08490    8.94840   31.62430  -94.87940  -90.51800   31.62430
 7050.00000    8.92330    5.01160    5.61720  178.02610   52.19650   52.19650    1.43380   23.65770  178.02610  614.73080    8.92330   64.80810  -62.77420  -58.41280   64.80810
 7100.00000    8.97310    5.88220    6.11660  163.49020   51.68100   51.68100    1.18310   19.52120  163.49020  460.80850    8.97310   43.68950  -60.29070  -55.92930   43.68950
 7150.00000    8.92800   26.23220   27.42150   36.46770   54.08250   54.08250    1.40040   23.10660   36.46770   68.37780    8.92800   31.38580  -59.88910  -55.52770   31.38580
 7200.00000    8.91690    3.98490    3.25600  307.12800   56.07870   56.07870    1.87470   30.93250  307.12800  758.37550    8.91690   69.05490  -55.93350  -51.57210   69.05490
 7250.00000    8.93520    5.23920    4.92830  202.90820   51.40560   51.40560    1.21640   20.07060  202.90820 1009.24650    8.93520   59.94760 -238.67140 -234.31000   59.94760
 7300.00000    8.93550   10.88620   11.12270   89.90600   54.23220   54.23220    1.96430   32.41100   89.90600  221.30670    8.93550   55.16350 -255.19690 -250.83550   55.16350
 7350.00000    8.92660    5.08110    5.22310  191.45720   49.90080   49.90080    0.94890   15.65680  191.45720  319.13150    8.92660   55.47450 -130.15950 -125.79810   55.47450
 7400.00000    8.93150    8.70840    8.90460  112.30170   54.18540   54.18540    1.88590   31.11730  112.30170  201.28800    8.93150   38.52060 -191.31060 -186.94920   38.52060
 7450.00000    8.95710   14.07630   13.58530   73.60890   59.00570   59.00570    3.02290   49.87780   73.60890  106.58700    8.95710   44.66660 -205.41060 -201.04920   44.66660
 7500.00000    9.00890    0.79370    1.31250  761.90420   50.32500   50.32500    1.40630   23.20400  761.90420 2256.95870    9.00890   54.29990 -105.24820 -100.88680   54.29990
