~Version ---------------------------------------------------
VERS.      2.0 : CWLS log ASCII Standard -VERSION 2.0
WRAP.       NO : One line per depth step
CREA. 01/03/18 : LAS Creation Date
~Well ------------------------------------------------------
STRT.FT                 1000.0 : START DEPTH
STOP.FT                12750.0 : STOP DEPTH
STEP.FT               50.00000 : STEP LENGTH
NULL.                  -999.25 : NULL VALUE
COMP.      TALISMAN ENERGY INC : COMPANY
WELL. TALISMAN EDSON 6-8-52-17 : WELL
FLD .                          : FIELD
LOC .                          : LOCATION
CTRY.                   CANADA : COUNTRY
SRVC.   Schlumberger of Canada : SERVICE COMPANY
DATE.              06-May-1978 : LOGDATE
PROV.                  Alberta : PROVINCE
UWI .         100060805217W500 : UNIQUE WELL ID
SLAT.WGS84            53.47276 : SURFACE LATITUDE
SLON.WGS84           -116.4739 : SURFACE LONGITUDE
~Curve Information -----------------------------------------
DEPT    .FT    : Depth Curve
CALDED  .IN    : CALIPER FROM DENSITY LOG [ADJ. TO RESISTIVITY LOG]
CALSED  .IN    : CALIPER FROM SONIC LOG
CALWS   .IN    : CALIPER [CALSED]
CILDED  .MMHO  : DEEP CONDUCTIVITY FROM RESISTIVITY LOG
CONDWS  .MMHO  : CONDUCTIVITY [1000/DRESWS]
DCORED  .G/C3  : DENSITY CORRECTION FROM DENSITY LOG
DCORWS  .G/C3  : DENSITY CORRECTION [DCORED]
DENWS   .G/C3  : FORMATION BULK DENSITY [CALC. FROM DPOLSWS , M=2.71 F=1.00]
DPHILSED.V/V   : DENSITY POROSITY LIMESTONE [M=2.71 F=1.00] FROM DENSITY LOG [ADJ. TO RESISTIVITY LOG]
DPHISSED.V/V   : DENSITY POROSITY SANDSTONE [M=2.71 F=1.00] FROM DENSITY LOG [ADJ. TO RESISTIVITY LOG]
DPOLSWS .V/V   : DENSITY POROSITY LIMESTONE [DPHISSED MATRIX CONVERSION FOR LIMESTONE , M=2.71 F=1.00 & SPL TO DPHILSED @ 9209']
DRESWS  .OHMM  : DEEP RESISTIVITY [1000/CILDED IF ILDED<1, ILDED & SPL. TO ILDED 6256']
DTED    .US/F  : DELTA TIME FROM SONIC LOG
DTWS    .US/F  : COMPRESSIONAL SONIC [DTED]
GRDED   .GAPI  : GAMMA RAY FROM DENSITY LOG [ADJ. TO RESISTIVITY LOG]
GRSED   .GAPI  : GAMMA RAY FROM SONIC LOG
GRWS    .GAPI  : GAMMA RAY [GRSED]
ILDED   .OHMM  : DEEP INDUCTION RESISTIVITY FROM RESISTIVITY LOG
ILMED   .OHMM  : MEDIUM INDUCTION RESISTIVITY FROM RESISTIVITY LOG
LL8ED   .OHMM  : LATEROLOG 8 RESISTIVITY FROM RESISTIVITY LOG
MRESWS  .OHMM  : MEDIUM RESISTIVITY [ILMED]
NPHILSED.V/V   : NEUTRON POROSITY LIMESTONE FROM DENSITY LOG [ADJ. TO RESISTIVITY LOG]
NPHISSED.V/V   : NEUTRON POROSITY  SANDSTONE FROM DENSITY LOG [ADJ. TO RESISTIVITY LOG]
NPOLSWS .V/V   : NEUTRON POROSITY LIMESTONE [NPHISSED MATRIX CONVERSION FOR LIMESTONE & SPL. TO NPHILSED @ 9198']
RHOBED  .G/C3  : FORMATION BULK DENSITY  FROM DENSITY LOG[ADJ. TO RESISTIVITY LOG]
SPRED   .MV    : SPONTANEOUS POTENTIAL FROM RESISTIVITY LOG
SPWS    .MV    : SPONTANEOUS POTENTIAL [BASELINE 0 MV. SPRED]
SRESWS  .OHMM  : SHALLOW RESISTIVITY [LL8ED]
~Params ----------------------------------------------------
PD  .                     GL : PERMANENT DATUM
EPD .FT               3147.2 : ELEVATION PERMANENT DATUM
LMF .                     KB : LOG MEASURED FROM
DAPD.FT                 22.3 : FEET ABOVE PERMANENT DATUM
EKB .FT               3169.5 : KELLY BUSHING
EGL .FT               3147.2 : GROUND LEVEL
DATE.               05/31/78 : RUN DATE
RUN .                      2 : RUN NUMBER
DD  .FT                12769 : DEPTH DRILLER
DL  .FT                12757 : DEPTH LOGGER
BLI .FT                12751 : BOTTOM LOG INTERVAL
TLI .FT                 9616 : TOP LOG INTERVAL
CBD .FT                 9625 : CASING BOTTOM DRILLER
BS  .IN                  8.5 : BIT SIZE
BSD .FT                12769 : BIT SIZE AT DEPTH
DFT .                    GEL : DRILLING FLUID TYPE
DFD .                    9.1 : DRILLING FLUID DENSITY
DFV .                     51 : DRILLING FLUID VISCOSITY
DFPH.                     10 : DRILLING FLUID PH
DFL .                     22 : DRILLING FLUID LOSS
MSS .               FLOWLINE : MUD SAMPLE SOURCE
RMF .OHMM              0.809 : RESISTIVITY MUD FILTRATE SAMPLE
MFST.DEGF                 63 : MUD FILTRATE SAMPLE TEMPERATURE
TCS .HRS                  12 : TIME CIRCULATED STOPPED
LUN .                   7800 : LOGGING UNIT NUMBER
LUL .                    EDM : LOGGING UNIT LOCATION
ENGI.               BERNISKY : RECORDING ENGINEER
WITN.               BRINKMAN : WITNESSED BY
CLNT.                A2DTECH : CLIENT CODE
ORIG.            2" 5" PRINT : ORIGIN OF DATA
UWI .       100060805217W500 : UNIQUE WELL ID
DICO. A2D Technologies, Inc. : DIGITIZING COMPANY
~Other -----------------------------------------------------
~ASCII -----------------------------------------------------
# ...
 6000.00000    -999.25   13.18230   13.18230  106.36710  102.96860    -999.25    -999.25    -999.25    -999.25    -999.25    -999.25    9.71170   81.67670   81.67670    -999.25  115.78620  115.78620    9.71170    -999.25   10.88250    -999.25    -999.25    -999.25    -999.25    -999.25 -302.19790   -2.87090   10.88250
 6050.00000    -999.25   13.06850   13.06850  115.45150  106.84980    -999.25    -999.25    -999.25    -999.25    -999.25    -999.25    9.38700   74.19090   74.19090    -999.25  116.67540  116.67540    9.38700    -999.25    9.98850    -999.25    -999.25    -999.25    -999.25    -999.25 -300.83260   -4.28210    9.98850
 6100.00000    -999.25   14.09930   14.09930  155.40140  151.96640    -999.25    -999.25    -999.25    -999.25    -999.25    -999.25    6.58040   82.76650   82.76650    -999.25  115.89990  115.89990    6.58040    -999.25    7.49410    -999.25    -999.25    -999.25    -999.25    -999.25 -301.22430   -3.93660    7.49410
 6150.00000    -999.25   13.55910   13.55910  129.51490  128.93910    -999.25    -999.25    -999.25    -999.25    -999.25    -999.25    7.75560   76.97150   76.97150    -999.25  117.94620  117.94620    7.75560    -999.25    7.17050    -999.25    -999.25    -999.25    -999.25    -999.25 -301.37690   -3.82990    7.17050
 6200.00000    -999.25   13.22230   13.22230  150.94750  134.29670    -999.25    -999.25    -999.25    -999.25    -999.25    -999.25    7.44620   80.42550   80.42550    -999.25  110.06360  110.06360    7.44620    -999.25    6.54880    -999.25    -999.25    -999.25    -999.25    -999.25 -301.66710   -3.58590    6.54880
 6250.00000    -999.25   13.63450   13.63450  118.57490  114.28440    -999.25    -999.25    -999.25    -999.25    -999.25    -999.25    8.75010   79.36010   79.36010    -999.25  116.93970  116.93970    8.75010    -999.25    6.49830    -999.25    -999.25    -999.25    -999.25    -999.25 -301.67640   -3.62250    6.49830
 6300.00000    -999.25   13.09660   13.09660   92.16430   87.63630    -999.25    -999.25    -999.25    -999.25    -999.25    -999.25   11.41120   74.46530   74.46530    -999.25  113.56320  113.56320   11.41120    -999.25    9.01840    -999.25    -999.25    -999.25    -999.25    -999.25 -302.29010   -3.05470    9.01840
 6350.00000    -999.25   13.13300   13.13300  108.06590  103.26310    -999.25    -999.25    -999.25    -999.25    -999.25    -999.25    9.68400   74.13080   74.13080    -999.25  113.69730  113.69730    9.68400    -999.25    7.46290    -999.25    -999.25    -999.25    -999.25    -999.25 -302.56430   -2.82670    7.46290
 6400.00000    -999.25   13.42840   13.42840  118.15860  117.61940    -999.25    -999.25    -999.25    -999.25    -999.25    -999.25    8.50200   79.72280   79.72280    -999.25  122.32890  122.32890    8.50200    -999.25    6.41150    -999.25    -999.25    -999.25    -999.25    -999.25 -301.96340   -3.47340    6.41150
 6450.00000   17.85730   13.30070   13.30070  120.79370  115.81980    -999.25    -999.25    -999.25    -999.25    -999.25    -999.25    8.63410   80.47980   80.47980    -999.25  110.26440  110.26440    8.63410    -999.25    7.25910    -999.25    -999.25    -999.25    -999.25    -999.25 -301.31570   -4.16730    7.25910
 6500.00000   16.11070   13.48860   13.48860    -999.25  133.39740    0.24170    0.24170    2.18270    -999.25    0.28320    0.30840    7.49640   82.01550   82.01550  124.25270  116.46740  116.46740    7.49640    5.35680    5.39230    5.35680    -999.25    0.37840    0.33510    2.17310 -301.45890   -4.07000    5.39230
 6550.00000   17.80710   14.22120   14.22120    -999.25  150.11960    0.24110    0.24110    2.23230    -999.25    0.25310    0.27940    6.67290   79.70680   79.70680  122.11410  119.29710  119.29710    6.67290    3.63130    5.32740    3.63130    -999.25    0.35760    0.31400    2.19130 -300.49520   -5.07960    5.32740
 6600.00000   15.06220   13.41240   13.41240    -999.25   83.23000    0.26190    0.26190    2.52390    -999.25    0.07640    0.10880   12.01490   74.53540   74.53540  120.04010  114.50490  114.50490   12.01490    6.28010    8.51050    6.28010    -999.25    0.23140    0.18760    2.52050 -301.92950   -3.69150    8.51050
 6650.00000   13.81780   12.60670   12.60670    -999.25   47.72400    0.16120    0.16120    2.39740    -999.25    0.15310    0.18280   20.95380   69.27410   69.27410  112.64500  106.56680  106.56680   20.95380    8.65500   13.08630    8.65500    -999.25    0.25240    0.20850    2.38350 -303.61010   -2.05680   13.08630
 6700.00000   12.49270   12.83320   12.83320    -999.25   55.61950    0.08580    0.08580    2.57110    -999.25    0.04780    0.08120   17.97930   69.37960   69.37960  108.20540  111.78870  111.78870   17.97930    8.30960   13.23540    8.30960    -999.25    0.23140    0.18760    2.56410 -303.78530   -1.92780   13.23540
 6750.00000   13.45140   12.88360   12.88360    -999.25   66.45710    0.17270    0.17270    2.44470    -999.25    0.12440    0.15510   15.04730   71.52110   71.52110  110.99730  112.81780  112.81780   15.04730    8.24340   12.31980    8.24340    -999.25    0.33260    0.28880    2.43100 -302.60290   -3.15610   12.31980
 6800.00000   15.75130   13.21120   13.21120    -999.25   80.12700    0.26160    0.26160    2.29040    -999.25    0.21800    0.24540   12.50820   75.26290   75.26290  121.52410  112.44680  112.44680   12.50820    7.41620    9.46200    7.41620    -999.25    0.38780    0.34480    2.29890 -300.90130   -4.90360    9.46200
 6850.00000   15.83520   13.07230   13.07230    -999.25   79.51460    0.26000    0.26000    2.26220    -999.25    0.23500    0.26180   12.57630   76.27200   76.27200  124.36750  113.21680  113.21680   12.57630    7.27820    8.77330    7.27820    -999.25    0.38170    0.33850    2.26420 -301.15570   -4.69540    8.77330
 6900.00000   15.40530   13.22780   13.22780    -999.25   81.95110    0.24010    0.24010    2.34030    -999.25    0.18770    0.21620   12.20240   76.98680   76.98680  128.39830  110.56840  110.56840   12.20240    6.84590    8.19070    6.84590    -999.25    0.36810    0.32470    2.35500 -301.02510   -4.87180    8.19070
 6950.00000   14.61410   13.16350   13.16350    -999.25   74.03570    0.23480    0.23480    2.34870    -999.25    0.18260    0.21130   13.50700   75.96570   75.96570  122.47700  122.01740  122.01740   13.50700    6.39490    9.59700    6.39490    -999.25    0.36700    0.32360    2.34530 -301.13390   -4.80920    9.59700
 7000.00000   12.48100   13.50330   13.50330    -999.25   95.22720    0.09400    0.09400    2.51370    -999.25    0.08260    0.11480   10.50120   87.10460   87.10460  140.45910  117.45470  117.45470   10.50120    5.47240    8.58790    5.47240    -999.25    0.42700    0.38470    2.49800 -300.11840   -5.87060    8.58790
 7050.00000   12.69490   12.64250   12.64250    -999.25   54.22750    0.05440    0.05440    2.57620    -999.25    0.04470    0.07820   18.44840   84.12920   84.12920  148.96990  129.68040  129.68040   18.44840    7.80610   13.78910    7.80610    -999.25    0.36140    0.31790    2.56890 -302.03270   -4.00220   13.78910
 7100.00000   12.73120   12.50030   12.50030    -999.25   69.83050    0.03880    0.03880    2.54920    -999.25    0.06110    0.09400   14.32040   83.13000   83.13000  143.97830  132.11600  132.11600   14.32040    6.86780   12.47130    6.86780    -999.25    0.36630    0.32290    2.54360 -302.26710   -3.81400   12.47130
 7150.00000   12.32460   12.42890   12.42890    -999.25   65.25500    0.12750    0.12750    2.56320    -999.25    0.05260    0.08580   15.32450   83.74250   83.74250  139.31690  121.79370  121.79370   15.32450    6.75240   12.66820    6.75240    -999.25    0.34890    0.30530    2.54870 -303.25930   -2.90110   12.66820
 7200.00000   12.54490   12.24330   12.24330    -999.25   72.59160    0.12940    0.12940    2.62760    -999.25    0.01360    0.04820   13.77570   84.68050   84.68050  144.27940  128.93790  128.93790   13.77570    7.08720   12.00120    7.08720    -999.25    0.34310    0.29940    2.61810 -301.93010   -4.38280   12.00120
