~Version ---------------------------------------------------
VERS.      2.0 : CWLS log ASCII Standard -VERSION 2.0
WRAP.       NO : One line per depth step
CREA. 09/29/17 : LAS Creation Date
~Well ------------------------------------------------------
STRT.FT                        1400.0 : START DEPTH
STOP.FT                       12550.0 : STOP DEPTH
STEP.FT                      50.00000 : STEP LENGTH
NULL.                         -999.25 : NULL VALUE
COMP.    PAN AMERICAN PETROLEUM CORP. : COMPANY
WELL. SCURRY C-1 GOLD CREEK 6-17-68-4 : WELL
FLD .                                 : FIELD
LOC .                                 : LOCATION
CTRY.                          CANADA : COUNTRY
SRVC.                      Lane Wells : SERVICE COMPANY
DATE.                     15-Apr-1965 : LOGDATE
PROV.                         Alberta : PROVINCE
UWI .                100061706804W600 : UNIQUE WELL ID
SLAT.WGS84                   54.88524 : SURFACE LATITUDE
SLON.WGS84                   -118.574 : SURFACE LONGITUDE
~Curve Information -----------------------------------------
DEPT  .FT    : Depth Curve
AC1ED .US/F  : DELTA TIME (1' SPAN ACOUSTIC) FROM SONIC LOG
ACED  .US/F  : DELTA TIME (3' SPAN ACOUSTIC) FROM SONIC LOG
CALWS .IN    : CALIPER [MCALED]
CILDED.MMHO  : CONDUCTIVITY FROM RESISTIVITY LOG
CONDWS.MMHO  : CONDUCTIVITY [1000/DRESWS]
DRESWS.OHMM  : DEEP RESISTIVITY [1000/CILDED IF ILDED <=1 THEN ILDED]
DTWS  .US/F  : COMPRESSIONAL SONIC [ACED]
GRNED .GAPI  : GAMMA RAY FROM NEUTRON LOG [ADJ.TO RESISTIVITY LOG]
GRSED .GAPI  : GAMMA RAY FROM SONIC LOG
GRWS  .GAPI  : GAMMA RAY [GRSED]
ILDED .OHMM  : DEEP INDUCTION FROM RESISTIVITY LOG
MCALED.IN    : MICRO CALIPER FROM MLL LOG [ADJ.TO RESISTIVITY LOG]
NEUTED.NAPI  : NEUTRON FROM NEUTRON LOG [ADJ.TO RESISTIVITY LOG]
NEUTWS.NAPI  : NEUTRON [NEUTED]
SNED  .OHMM  : SHORT NORMAL FROM RESISTIVITY LOG
SPRED .MV    : SPONTANEOUS POTENTIAL FROM RESISTIVITY LOG
SPWS  .MV    : SPONTANEOUS POTENTIAL [BASELINE 0 MV, SPRED]
SRESWS.OHMM  : SHALLOW RESISTIVITY [SNED]
~Params ----------------------------------------------------
PD  .                     GL : PERMANENT DATUM
EPD .FT                 2238 : ELEVATION PERMANENT DATUM
LMF .                     KB : LOG MEASURED FROM
DAPD.FT                 15.1 : FEET ABOVE PERMANENT DATUM
DMF .                     KB : DRILLING MEASURED FROM
EKB .FT                 2253 : KELLY BUSHING
EGL .FT                 2238 : GROUND LEVEL
DATE.               04/15/65 : RUN DATE
RUN .                      2 : RUN NUMBER
DD  .FT                12655 : DEPTH DRILLER
DL  .FT                12596 : DEPTH LOGGER
BLI .FT                12592 : BOTTOM LOG INTERVAL
TLI .FT                11054 : TOP LOG INTERVAL
CS  .IN               13.375 : CASING SIZE
CBD .FT                 1389 : CASING BOTTOM DRILLER
CBL .FT                 1389 : CASING BOTTOM LOGGER
BS  .IN                6.125 : BIT SIZE
BSD .FT                12655 : BIT SIZE AT DEPTH
DFT .                MUD GEL : DRILLING FLUID TYPE
DFD .                    9.8 : DRILLING FLUID DENSITY
DFV .                    120 : DRILLING FLUID VISCOSITY
DFPH.                   10.5 : DRILLING FLUID PH
DFL .                      7 : DRILLING FLUID LOSS
MSS .               MUD TANK : MUD SAMPLE SOURCE
RMS .OHMM                1.4 : RESISTIVITY MUD SAMPLE
MST .DEGF                 40 : MUD SAMPLE TEMPERATURE
RMF .OHMM                0.8 : RESISTIVITY MUD FILTRATE SAMPLE
MFST.DEGF                 55 : MUD FILTRATE SAMPLE TEMPERATURE
RMC .OHMM               1.15 : RESISTIVITY MUD CAKE
MCST.DEGF                 60 : MUD CAKE SAMPLE TEMPERATURE
MFSS.                   MEAS : MUD FILTRATE SAMPLE SOURCE
MCSS.                   MEAS : MUD CAKE SAMPLE SOURCE
RMB .OHMM               0.25 : RESISTIVITY MUD AT BHT
TCS .HRS                   7 : TIME CIRCULATED STOPPED
LUN .                   8054 : LOGGING UNIT NUMBER
LUL .                     WC : LOGGING UNIT LOCATION
ENGI.        MOORE MCFADZEAN : RECORDING ENGINEER
WITN.                  SAMIS : WITNESSED BY
CLNT.                A2DTECH : CLIENT CODE
ORIG.            2" 5" PRINT : ORIGIN OF DATA
UWI .       100061706804W600 : UNIQUE WELL ID
DICO. A2D Technologies, Inc. : DIGITIZING COMPANY
~Other -----------------------------------------------------
IEL-AC-NEUTRON LOG RUN
~ASCII -----------------------------------------------------
# ...
 7250.00000   56.33020   62.22880   10.08570   37.15390   31.03300   32.22380   62.22880    -999.25   64.44440   64.44440   32.22380   10.08570    -999.25    -999.25   41.06870 -119.44590 -128.33280   41.06870
 7300.00000   52.61550   62.96710   10.40430   36.10970   30.73000   32.57290   62.96710    -999.25   44.35030   44.35030   32.57290   10.40430    -999.25    -999.25   51.24540 -165.05870 -185.73260   51.24540
 7350.00000   59.54290   59.15790   10.50470   19.26970   12.68790   78.81500   59.15790    -999.25   64.85710   64.85710   78.81500   10.50470    -999.25    -999.25   65.01030  -82.89240 -113.56750   65.01030
 7400.00000    -999.25   60.56620   10.17040   12.80770    6.30810  158.52730   60.56620    -999.25   74.74420   74.74420  158.52730   10.17040    -999.25    -999.25  183.74170  -54.35020  -95.19890  183.74170
 7450.00000    -999.25   61.18410   10.18850   32.39130   26.75230   37.37990   61.18410    -999.25   56.72400   56.72400   37.37990   10.18850    -999.25    -999.25    -999.25 -127.20070 -178.16480    -999.25
 7500.00000    -999.25   65.30320    9.65400   69.92010   64.58910   15.48250   65.30320    -999.25   72.78860   72.78860   15.48250    9.65400    -999.25    -999.25   39.84950 -143.85740 -194.56460   39.84950
 7550.00000    -999.25   65.13780   10.15710   32.84900   26.15450   38.23460   65.13780    -999.25   68.51790   68.51790   38.23460   10.15710    -999.25    -999.25   48.74550  -90.62560 -141.07850   48.74550
 7600.00000    -999.25   62.05480    9.98250   21.29920   15.71160   63.64730   62.05480    -999.25   57.79290   57.79290   63.64730    9.98250    -999.25    -999.25   58.22330  -71.49130 -121.68680   58.22330
 7650.00000    -999.25   60.66540    9.95620   21.42150   15.23940   65.61920   60.66540    -999.25   63.19350   63.19350   65.61920    9.95620    -999.25    -999.25   74.46210  -81.16360 -131.10490   74.46210
 7700.00000    -999.25   62.69790   10.01220   21.74590   16.65970   60.02500   62.69790    -999.25   73.12570   73.12570   60.02500   10.01220    -999.25    -999.25   66.93290  -81.71940 -131.40240   66.93290
 7750.00000    -999.25   65.08760   10.16940   24.04630   19.09490   52.36990   65.08760    -999.25   68.54670   68.54670   52.36990   10.16940    -999.25    -999.25   50.21100  -98.99380 -148.41980   50.21100
 7800.00000    -999.25   63.22770   10.38880   23.17630   18.68330   53.52360   63.22770    -999.25   69.79020   69.79020   53.52360   10.38880    -999.25    -999.25   58.82890  -72.93910 -122.11090   58.82890
 7850.00000    -999.25   62.00130   10.42580   21.40620   16.55640   60.39970   62.00130    -999.25   75.60090   75.60090   60.39970   10.42580    -999.25    -999.25   78.80190  -61.49170 -110.40610   78.80190
 7900.00000    -999.25   63.11710   10.25410   21.82580   17.89840   55.87090   63.11710    -999.25   65.03480   65.03480   55.87090   10.25410    -999.25    -999.25   67.45210  -60.74370 -109.40380   67.45210
 7950.00000    -999.25   71.00120   10.66170   27.99770   21.12220   47.34350   71.00120    -999.25   80.19830   80.19830   47.34350   10.66170    -999.25    -999.25   48.07930  -57.77080 -106.17260   48.07930
 8000.00000    -999.25   63.50290   10.29400   20.60720   15.11690   66.15130   63.50290    -999.25   71.62730   71.62730   66.15130   10.29400    -999.25    -999.25   71.19170  -49.10490  -97.24980   71.19170
 8050.00000    -999.25   64.28940   10.18840   19.65470   13.57650   73.65910   64.28940    -999.25   81.73690   81.73690   73.65910   10.18840    -999.25    -999.25    -999.25  -54.63220 -102.52290    -999.25
 8100.00000   64.91430   63.11790   10.12270   21.81100   17.60790   56.79280   63.11790    -999.25   79.38830   79.38830   56.79280   10.12270    -999.25    -999.25    -999.25  -34.58970  -82.22290    -999.25
 8150.00000   68.51100   69.11500    8.56190   64.55370   62.42510   16.01920   69.11500    -999.25   17.11660   17.11660   16.01920    8.56190    -999.25    -999.25   36.76000 -151.00790 -197.30820   36.76000
 8200.00000   58.55490   62.21350    7.91290   64.42790   61.53240   16.25160   62.21350    -999.25   20.65700   20.65700   16.25160    7.91290    -999.25    -999.25   59.14230 -124.23130 -167.76980   59.14230
 8250.00000   58.69400   56.81980   11.45730   34.94100   30.00260   33.33040   56.81980    -999.25   53.87270   53.87270   33.33040   11.45730    -999.25    -999.25   37.60200  -84.13700 -124.92750   37.60200
 8300.00000   53.23030   52.40050   10.50960   22.45330   16.64720   60.07170   52.40050    -999.25   19.20680   19.20680   60.07170   10.50960    -999.25    -999.25  134.97110  -88.78490 -121.48890  134.97110
 8350.00000   68.72560   65.75660   11.47950  156.30120  143.57910    6.96480   65.75660    -999.25   47.86970   47.86970    6.96480   11.47950    -999.25    -999.25   16.16390  -62.22900  -85.80970   16.16390
 8400.00000    -999.25   99.86760   13.10500  188.65430  166.86130    5.99300   99.86760    -999.25   62.32040   62.32040    5.99300   13.10500    -999.25    -999.25    6.74580  -88.88570 -103.43250    6.74580
 8450.00000   50.69980   49.41280   10.03030   24.24610   18.52660   53.97640   49.41280    -999.25   16.22940   16.22940   53.97640   10.03030    -999.25    -999.25  131.40940  -54.35310  -59.77810  131.40940
 8500.00000   51.53340   46.87990   10.11710   19.89760   13.73230   72.82110   46.87990    -999.25   24.31110   24.31110   72.82110   10.11710    -999.25    -999.25  147.18890  -65.00920  -61.35790  147.18890
 8550.00000   60.37270   55.05390    9.64160   34.95560   28.93520   34.57820   55.05390    -999.25   17.69760   17.69760   34.57820    9.64160    -999.25    -999.25   49.83960 -102.17570  -89.64480   49.83960
 8600.00000   45.17650   48.03320    9.88880   29.15680   19.88020   50.30130   48.03320    -999.25   18.45160   18.45160   50.30130    9.88880    -999.25    -999.25   57.82970 -114.63860  -96.99040   57.82970
 8650.00000   64.32210   60.28150   10.86880   65.02730   58.81970   17.00110   60.28150    -999.25   36.27290   36.27290   17.00110   10.86880    -999.25    -999.25   25.81330  -89.38360  -70.44380   25.81330
 8700.00000   49.94130   53.83580   10.12770   55.80010   50.17360   19.93080   53.83580    -999.25   20.67140   20.67140   19.93080   10.12770    -999.25    -999.25   46.51960 -118.74910  -98.50520   46.51960
 8750.00000   59.86750   58.10520   11.17870   46.12410   38.11920   26.23350   58.10520    -999.25   29.53640   29.53640   26.23350   11.17870    -999.25    -999.25   40.64540 -101.01580  -79.47430   40.64540
 8800.00000   59.50470   75.23440   10.42810   37.29630   30.52600   32.75920   75.23440    -999.25   20.65710   20.65710   32.75920   10.42810    -999.25    -999.25   48.55960 -139.03470 -116.20190   48.55960
 8850.00000   64.64920   52.43350   15.95850   24.01390   15.15210   65.99730   52.43350    -999.25   20.76310   20.76310   65.99730   15.95850    -999.25    -999.25  108.16030 -203.46840 -179.33150  108.16030
 8900.00000   59.03870   52.02850    9.76230   40.84230   33.85940   29.53390   52.02850    -999.25   18.07300   18.07300   29.53390    9.76230    -999.25    -999.25   60.74790 -187.45700 -162.02860   60.74790
 8950.00000   53.52130   50.06070   10.71700   37.76780   31.20020   32.05110   50.06070    -999.25   28.02990   28.02990   32.05110   10.71700    -999.25    -999.25   43.00910 -181.72680 -154.99430   43.00910
 9000.00000   57.84790   52.78640   12.83100   40.80320   32.17350   31.08150   52.78640    -999.25   23.20550   23.20550   31.08150   12.83100    -999.25    -999.25   53.17170 -236.14420 -208.11410   53.17170
 9050.00000    -999.25   48.11880   13.41150   30.08400   22.88070   43.70870   48.11880    -999.25   16.65580   16.65580   43.70870   13.41150    -999.25    -999.25  107.15630 -206.29260 -176.97120  107.15630
 9100.00000    -999.25   53.96130   11.50950   37.99300   32.02720   31.22350   53.96130    -999.25   24.97870   24.97870   31.22350   11.50950    -999.25    -999.25   48.12420 -171.61660 -140.99110   48.12420
 9150.00000    -999.25   51.25420   10.64270   27.87270   20.11490   49.71430   51.25420    -999.25   15.99900   15.99900   49.71430   10.64270    -999.25    -999.25  114.16430 -215.31170 -183.39460  114.16430
