~Version ---------------------------------------------------
VERS.      2.0 : CWLS log ASCII Standard -VERSION 2.0
WRAP.       NO : One line per depth step
CREA. 12/29/17 : LAS Creation Date
~Well ------------------------------------------------------
STRT.FT                       1500.0 : START DEPTH
STOP.FT                      10000.0 : STOP DEPTH
STEP.FT                     50.00000 : STEP LENGTH
NULL.                        -999.25 : NULL VALUE
COMP. PHILLIPS PETROLEUM CANADA LTD. : COMPANY
WELL.    PHILLIPS KAYBOB 10-17-64-19 : WELL
FLD .                         KAYBOB : FIELD
LOC .                                : LOCATION
CTRY.                         CANADA : COUNTRY
SRVC.                          Welex : SERVICE COMPANY
DATE.                    17-Sep-1958 : LOGDATE
PROV.                        Alberta : PROVINCE
UWI .               100101706419W500 : UNIQUE WELL ID
SLAT.WGS84                  54.54004 : SURFACE LATITUDE
SLON.WGS84                 -116.8321 : SURFACE LONGITUDE
~Curve Information -----------------------------------------
DEPT   .FT    : Depth Curve
CALWS  .IN    : CALIPER [MCALED]
CONDED .MMHO  : CONDUCTIVITY  [RESCALED FR. 0.4-0 TO 400-0]]
CONDWS .MMHO  : CONDUCTIVITY [1000/DRESWS]
DRESWS .OHMM  : DEEP RESISTIVITY [GUARDED]
GRNED  .CPS   : GAMMA RAY FROM NEUTRON LOG [CASEDHOLE][DEP. ADJ TO SPRED]
GRWS   .CPS   : GAMMA RAY [GRNED]
GUARDED.OHMM  : GUARD LOG RESISTIVITY
MCALED .IN    : CALIPER FROM MICROLOG
NEUTED .CPS   : NEUTRON FROM NEUTRON LOG [CASEDHOLE][DEP. ADJ TO SPRED]
NEUTWS .CPS   : NEUTRON [NEUTED]
SPRED  .MV    : SPONTANEOUS POTENTIAL FROM RESISTIVITY LOG [REMOVED SHIFT]
SPWS   .MV    : SPONTANEOUS POTENTIAL [BASELINE 0 MV] [SPRED]
~Params ----------------------------------------------------
LMF .                              KB : LOG MEASURED FROM
DAPD.FT                            14 : FEET ABOVE PERMANENT DATUM
DMF .                              KB : DRILLING MEASURED FROM
EKB .FT                          2588 : KELLY BUSHING
EDF .FT                          2586 : DRILLING FLOOR
EGL .FT                          2575 : GROUND LEVEL
DATE.                        09/17/58 : RUN DATE
RUN .                               1 : RUN NUMBER
DD  .FT                         10049 : DEPTH DRILLER
DL  .FT                         10047 : DEPTH LOGGER
BLI .FT                         10042 : BOTTOM LOG INTERVAL
TLI .FT                          1498 : TOP LOG INTERVAL
CS  .IN                         9.625 : CASING SIZE
CBD .FT                          1504 : CASING BOTTOM DRILLER
CBL .FT                          1498 : CASING BOTTOM LOGGER
BS  .IN                         7.875 : BIT SIZE
BSD .FT                         10049 : BIT SIZE AT DEPTH
DFT . OIL EMULSION GEL CAUSTIC TANNEX : DRILLING FLUID TYPE
DFD .                            10.9 : DRILLING FLUID DENSITY
DFV .                             114 : DRILLING FLUID VISCOSITY
DFPH.                             8.5 : DRILLING FLUID PH
DFL .                             4.1 : DRILLING FLUID LOSS
MSS .                      CIRCULATED : MUD SAMPLE SOURCE
RMS .OHMM                        3.84 : RESISTIVITY MUD SAMPLE
MST .DEGF                          54 : MUD SAMPLE TEMPERATURE
RMF .OHMM                           2 : RESISTIVITY MUD FILTRATE SAMPLE
MFST.DEGF                          72 : MUD FILTRATE SAMPLE TEMPERATURE
RMC .OHMM                        2.62 : RESISTIVITY MUD CAKE
MCST.DEGF                          69 : MUD CAKE SAMPLE TEMPERATURE
RMB .OHMM                        1.15 : RESISTIVITY MUD AT BHT
ENGI.                          FOWLER : RECORDING ENGINEER
WITN.                    HANKINS MOTE : WITNESSED BY
CLNT.                         A2DTECH : CLIENT CODE
ORIG.                     2" 5" PRINT : ORIGIN OF DATA
UWI .                100101706419W500 : UNIQUE WELL ID
DICO.          A2D Technologies, Inc. : DIGITIZING COMPANY
~Other -----------------------------------------------------
~ASCII -----------------------------------------------------
 1500.00000   10.62090    -999.25    -999.25    -999.25   71.61480   71.61480    -999.25   10.62090  292.97030  292.97030 -115.06740  -68.65230
 1550.00000    9.57310  194.10000  223.86890    4.46690   96.12700   96.12700    4.46690    9.57310  326.98240  326.98240  -90.02020  -43.60510
 1600.00000    8.99080  223.75000  225.86620    4.42740   74.27030   74.27030    4.42740    8.99080  330.51140  330.51140  -88.47140  -42.05630
 1650.00000    9.97070  341.40000  394.99150    2.53170  100.06180  100.06180    2.53170    9.97070  296.87340  296.87340  -88.30690  -41.89180
 1700.00000    9.95370  232.90000  312.15370    3.20350   77.54880   77.54880    3.20350    9.95370  339.31580  339.31580  -90.59220  -44.17710
 1750.00000    9.79860  341.00000  391.84950    2.55200   93.17480   93.17480    2.55200    9.79860  304.46850  304.46850  -87.81380  -41.39870
 1800.00000    9.56590  199.00000  236.26140    4.23260   85.72790   85.72790    4.23260    9.56590  341.91560  341.91560  -81.39900  -34.98390
 1850.00000   10.63260  343.20000  349.35110    2.86240   76.80480   76.80480    2.86240   10.63260  360.19260  360.19260  -84.33330  -37.91820
 1900.00000    9.84700   79.50000   92.28070   10.83650  120.89750  120.89750   10.83650    9.84700  362.76860  362.76860  -80.49610  -34.08100
 1950.00000    9.30690  100.25000  104.55600    9.56420   77.00990   77.00990    9.56420    9.30690  396.34800  396.34800  -82.01420  -35.98390
 2000.00000    8.24880   80.00000   84.84070   11.78680   63.17950   63.17950   11.78680    8.24880  351.66780  351.66780  -96.59860  -51.04390
 2050.00000    9.59130  340.30000  338.85670    2.95110   78.50970   78.50970    2.95110    9.59130  318.64590  318.64590  -79.63320  -34.55640
 2100.00000    9.66890  293.40000  335.34540    2.98200   74.37290   74.37290    2.98200    9.66890  312.99380  312.99380  -78.97500  -34.37860
 2150.00000    9.95320  280.90000  324.51730    3.08150   67.67660   67.67660    3.08150    9.95320  298.60600  298.60600  -89.70200  -45.58120
 2200.00000    9.24970  164.05000  156.09510    6.40630   74.92970   74.92970    6.40630    9.24970  370.89820  370.89820  -78.61280  -34.97240
 2250.00000    8.79710   89.50000   87.12770   11.47740   57.27800   57.27800   11.47740    8.79710  346.68230  346.68230  -88.39590  -45.23100
 2300.00000    9.75040  318.30000  363.63640    2.75000   75.47490   75.47490    2.75000    9.75040  297.87630  297.87630  -77.83440  -35.14750
 2350.00000    9.20100  279.85000  317.28910    3.15170   55.17690   55.17690    3.15170    9.20100  308.29550  308.29550  -79.85580  -37.64930
 2400.00000   10.20500  272.20000  317.87410    3.14590   68.81400   68.81400    3.14590   10.20500  323.03590  323.03590  -78.87650  -37.14560
 2450.00000    9.24920   60.65000   41.96100   23.83170   71.12040   71.12040   23.83170    9.24920  356.84930  356.84930  -83.58960  -42.33900
 2500.00000   11.15420  263.60000  287.39760    3.47950   82.10320   82.10320    3.47950   11.15420  331.23550  331.23550  -77.78370  -37.00870
 2550.00000   10.42520  307.10000  362.76570    2.75660   75.96680   75.96680    2.75660   10.42520  317.99190  317.99190  -78.12490  -37.82790
 2600.00000    9.98650  317.95000  345.35750    2.89560   71.56510   71.56510    2.89560    9.98650  308.42480  308.42480  -77.14630  -37.32960
 2650.00000   10.14350  174.60000  187.01730    5.34710   56.61810   56.61810    5.34710   10.14350  323.60050  323.60050  -77.63510  -38.29410
 2700.00000    9.89340   86.05000   75.71200   13.20800   68.42900   68.42900   13.20800    9.89340  352.22900  352.22900  -80.81280  -41.95210
 2750.00000   10.79990  328.00000  336.34930    2.97310   77.94740   77.94740    2.97310   10.79990  292.12610  292.12610  -77.43690  -39.05180
 2800.00000   11.05480  280.50000  309.71260    3.22880   80.83950   80.83950    3.22880   11.05480  284.33690  284.33690  -75.54600  -37.63890
 2850.00000   10.84180  256.15000  251.12380    3.98210   81.20900   81.20900    3.98210   10.84180  292.51540  292.51540  -74.36220  -36.91460
 2900.00000   10.96490  190.50000  204.80470    4.88270  102.73190  102.73190    4.88270   10.96490  301.85720  301.85720  -76.95160  -39.70170
 2950.00000   10.38780  189.10000  196.18040    5.09730   93.28260   93.28260    5.09730   10.38780  275.38980  275.38980  -77.06820  -40.01800
 3000.00000   10.84760  177.60000  193.76840    5.16080  113.60650  113.60650    5.16080   10.84760  279.11610  279.11610  -74.36260  -37.51020
 3050.00000   11.13860   81.10000   91.08800   10.97840  117.55190  117.55190   10.97840   11.13860  311.95480  311.95480  -75.45360  -38.80000
 3100.00000   10.92630  174.15000  175.06540    5.71210  109.77620  109.77620    5.71210   10.92630  286.03060  286.03060  -76.68380  -40.22990
 3150.00000   10.67560  180.70000  196.65680    5.08500  108.80500  108.80500    5.08500   10.67560  291.14980  291.14980  -76.99310  -40.73700
 3200.00000   10.74220  216.10000  228.37310    4.37880   94.45880   94.45880    4.37880   10.74220  265.66570  265.66570  -77.29250  -41.23610
 3250.00000   11.28490  164.30000  164.68220    6.07230   84.63860   84.63860    6.07230   11.28490  275.44120  275.44120  -77.34030  -41.48180
 3300.00000   10.96190  130.50000  142.88780    6.99850   88.32500   88.32500    6.99850   10.96190  287.02080  287.02080  -78.61320  -42.95340
 3350.00000   11.40760  172.60000  188.04770    5.31780   99.59720   99.59720    5.31780   11.40760  283.61940  283.61940  -76.07300  -40.61300
 3400.00000    9.75740  228.20000  218.52190    4.57620  107.22550  107.22550    4.57620    9.75740  277.54500  277.54500  -79.43330  -44.17110
 3450.00000   11.41880  194.10000  196.30550    5.09410  107.16660  107.16660    5.09410   11.41880  300.33710  300.33710  -79.33610  -44.27360
 3500.00000   11.36180  195.60000  188.45520    5.30630  102.79230  102.79230    5.30630   11.36180  285.64760  285.64760  -77.66160  -42.79690
 3550.00000   10.79330  163.30000  166.68330    5.99940   95.43090   95.43090    5.99940   10.79330  320.68470  320.68470  -80.03270  -45.36680
 3600.00000    9.82990  158.35000  162.17710    6.16610  109.84020  109.84020    6.16610    9.82990  299.79580  299.79580  -76.72080  -42.25460
 3650.00000   10.63140  173.40000  168.73370    5.92650  100.86780  100.86780    5.92650   10.63140  288.53800  288.53800  -76.47540  -42.20700
 3700.00000   10.12790  167.25000  158.71760    6.30050  101.31300  101.31300    6.30050   10.12790  301.19610  301.19610  -76.34450  -42.27580
 3750.00000   10.19170  192.50000  197.14920    5.07230  101.41910  101.41910    5.07230   10.19170  295.83710  295.83710  -74.98650  -41.11560
 3800.00000   10.73090  183.00000  192.03440    5.20740  112.23800  112.23800    5.20740   10.73090  308.50510  308.50510  -77.22120  -43.54910
 3850.00000   10.73980  197.10000  191.25940    5.22850  111.96700  111.96700    5.22850   10.73980  280.81450  280.81450  -75.15830  -41.68600
 3900.00000   10.61570  160.60000  163.21730    6.12680  114.75450  114.75450    6.12680   10.61570  285.37360  285.37360  -77.17710  -43.90250
 3950.00000   10.28040  169.00000  165.62050    6.03790  110.13870  110.13870    6.03790   10.28040  294.44580  294.44580  -77.88880  -44.81400
 4000.00000   10.36210  113.00000  118.52550    8.43700  125.28510  125.28510    8.43700   10.36210  269.37480  269.37480  -74.00990  -41.13290
 4050.00000    9.75340  136.00000  131.23700    7.61980  124.91190  124.91190    7.61980    9.75340  287.49180  287.49180  -73.44190  -40.76360
 4100.00000    9.54020  145.95000  134.86900    7.41460  113.76520  113.76520    7.41460    9.54020  292.77460  292.77460  -72.03020  -39.55170
 4150.00000    9.33180  135.80000  136.62510    7.31930  135.96680  135.96680    7.31930    9.33180  318.69090  318.69090  -71.31680  -39.03610
 4200.00000    9.72240  228.50000  241.96960    4.13280  100.82030  100.82030    4.13280    9.72240  327.76830  327.76830  -72.89910  -40.81820
 4250.00000    9.11840  143.20000  116.58540    8.57740   84.59360   84.59360    8.57740    9.11840  306.59620  306.59620  -78.89930  -47.01610
