~Version ---------------------------------------------------
VERS.      2.0 : CWLS log ASCII Standard -VERSION 2.0
WRAP.       NO : One line per depth step
CREA. 12/18/17 : LAS Creation Date
~Well ------------------------------------------------------
STRT.FT                               950.0 : START DEPTH
STOP.FT                              9500.0 : STOP DEPTH
STEP.FT                            50.00000 : STEP LENGTH
NULL.                               -999.25 : NULL VALUE
COMP.                 TEXACO CANADA LIMITED : COMPANY
WELL. TEXACO AMERADA SNIPE LAKE 14-29-69-19 : WELL
FLD .                                       : FIELD
LOC .                                       : LOCATION
CTRY.                                CANADA : COUNTRY
SRVC.                Schlumberger of Canada : SERVICE COMPANY
DATE.                           13-Mar-1960 : LOGDATE
PROV.                               Alberta : PROVINCE
UWI .                      100142906919W500 : UNIQUE WELL ID
SLAT.WGS84                         55.00866 : SURFACE LATITUDE
SLON.WGS84                        -116.8632 : SURFACE LONGITUDE
~Curve Information -----------------------------------------
DEPT   .FT     : Depth Curve
CALWS  .IN     : CALIPER [MCALED]
CILDED .MMHO   : CONDUCTIVITY FROM RESISTIVITY LOG
CONDWS .MMHO   : CONDUCTIVITY [1000/DRESWS]
DRESWS .OHMM   : DEEP RESISTIVITY [1000/CILDED IF ILDED<1, ILDED]
DTED   .US/F   : DELTA-T FROM SONIC LOG
DTWS   .US/F   : COMPRESSIONAL SONIC [DTED]
GRED   .GAPI   : GAMMA RAY FROM GR-CCL LOG
GRN1ED .GAPI   : GAMMA RAY FROM GR-CCL-N LOG
GRNED  .UR/HR  : GAMMA RAY FROM GRN LOG [ADJ TO RESISTIVITY LOG]
GRWS   .GAPI   : GAMMA RAY [GRED SPL. TO GRN1ED @ 4242' @ 8497' TO GRNED*10.4]
ILDED  .OHMM   : DEEP INDUCTION RESISTIVITY FROM RESISTIVITY LOG
MCALED .IN     : MICRO CALIPER FROM ML LOG [ADJ TO RESISTIVITY LOG]
NEUT1ED.NAPI   : NEUTRON FROM GR-CCL-N LOG
NEUTED .NAPI   : NEUTRON FROM GRN LOG [ADJ TO RESISTIVITY LOG]
NEUTWS .NAPI   : NEUTRON [NEUT1ED SPL. TO NEUTED @ 4954']
SNED   .OHMM   : SHORT NORMAL RESISTIVITY FROM RESISTIVITY LOG
SPRED  .MV     : SPONTANEOUS POTENTIAL FROM RESISTIVITY LOG
SPWS   .MV     : SPONTANEOUS POTENTIAL [BASELINE 0MV, SPRED]
SRESWS .OHMM   : SHALLOW RESISTIVITY [SNED]
~Params ----------------------------------------------------
LMF .                     KB : LOG MEASURED FROM
DMF .                     KB : DRILLING MEASURED FROM
EKB .FT                 2397 : KELLY BUSHING
DATE.               03/13/60 : RUN DATE
RUN .                      1 : RUN NUMBER
DD  .FT                 9513 : DEPTH DRILLER
DL  .FT                 9508 : DEPTH LOGGER
BLI .FT                 9503 : BOTTOM LOG INTERVAL
TLI .FT                  945 : TOP LOG INTERVAL
CBD .FT                  948 : CASING BOTTOM DRILLER
CBL .FT                  945 : CASING BOTTOM LOGGER
BS  .IN                    9 : BIT SIZE
BSD .FT                 9513 : BIT SIZE AT DEPTH
DFT .                    GEL : DRILLING FLUID TYPE
DFD .                   10.6 : DRILLING FLUID DENSITY
DFV .                    110 : DRILLING FLUID VISCOSITY
DFPH.                   10.5 : DRILLING FLUID PH
DFL .                    5.2 : DRILLING FLUID LOSS
RMS .OHMM                  3 : RESISTIVITY MUD SAMPLE
MST .DEGF                 60 : MUD SAMPLE TEMPERATURE
RMF .OHMM                1.3 : RESISTIVITY MUD FILTRATE SAMPLE
MFST.DEGF                 70 : MUD FILTRATE SAMPLE TEMPERATURE
RMC .OHMM                3.1 : RESISTIVITY MUD CAKE
MCST.DEGF                 70 : MUD CAKE SAMPLE TEMPERATURE
RMB .OHMM               0.95 : RESISTIVITY MUD AT BHT
TCS .HRS                   4 : TIME CIRCULATED STOPPED
LUN .                   2742 : LOGGING UNIT NUMBER
LUL .                     VV : LOGGING UNIT LOCATION
ENGI.                    GAU : RECORDING ENGINEER
WITN.                  IRVIN : WITNESSED BY
CLNT.                A2DTECH : CLIENT CODE
ORIG.            2" 5" PRINT : ORIGIN OF DATA
UWI .       100142906919W500 : UNIQUE WELL ID
DICO. A2D Technologies, Inc. : DIGITIZING COMPANY
~Other -----------------------------------------------------
GR-CCL-N-GRN-IEL-ML-SONIC LOG
~ASCII -----------------------------------------------------
# ...
 6500.00000    9.63360  131.25820  119.74900    8.35080   68.62530   68.62530    -999.25    -999.25    -999.25    -999.25    8.35080    9.63360    -999.25    -999.25    -999.25   11.19890 -127.07820  -25.96880   11.19890
 6550.00000    9.13320   24.66060    8.44470  118.41690   52.43810   52.43810    -999.25    -999.25    -999.25    -999.25  118.41690    9.13320    -999.25    -999.25    -999.25   89.55520 -130.02040  -28.95100   89.55520
 6600.00000    9.20580   21.14080    7.89880  126.60210   53.06290   53.06290    -999.25    -999.25    -999.25    -999.25  126.60210    9.20580    -999.25    -999.25    -999.25   86.86010 -178.97110  -77.94190   86.86010
 6650.00000    9.16240   17.62500    4.24300  235.68460   52.19480   52.19480    -999.25    -999.25    -999.25    -999.25  235.68460    9.16240    -999.25    -999.25    -999.25  131.20820 -163.18130  -62.19210  131.20820
 6700.00000    9.24080   17.98530    4.18000  239.23250   51.91590   51.91590    -999.25    -999.25    -999.25    -999.25  239.23250    9.24080    -999.25    -999.25    -999.25  111.18180 -173.58760  -72.63860  111.18180
 6750.00000    9.16220   18.60030    6.34290  157.65550   51.49390   51.49390    -999.25    -999.25    -999.25    -999.25  157.65550    9.16220    -999.25    -999.25    -999.25   88.46830 -168.54320  -67.63420   88.46830
 6800.00000    9.10500   24.97950   10.34710   96.64520   53.23490   53.23490    -999.25    -999.25    -999.25    -999.25   96.64520    9.10500    -999.25    -999.25    -999.25   89.02210 -208.24680 -107.37770   89.02210
 6850.00000    9.19620   19.25070    4.91650  203.39870   50.49580   50.49580    -999.25    -999.25    -999.25    -999.25  203.39870    9.19620    -999.25    -999.25    -999.25  111.72990 -231.81000 -130.98120  111.72990
 6900.00000    9.20570   19.53710    5.07520  197.03610   51.65760   51.65760    -999.25    -999.25    -999.25    -999.25  197.03610    9.20570    -999.25    -999.25    -999.25   97.44270 -243.27310 -142.48420   97.44270
 6950.00000    9.24250   14.77390    1.99710  500.71980   51.15910   51.15910    -999.25    -999.25    -999.25    -999.25  500.71980    9.24250    -999.25    -999.25    -999.25  135.16170 -199.02440  -98.27580  135.16170
 7000.00000    9.22280   23.39310    8.43670  118.53020   52.88190   52.88190    -999.25    -999.25    -999.25    -999.25  118.53020    9.22280    -999.25    -999.25    -999.25   68.58410 -195.07070  -94.36200   68.58410
 7050.00000    9.37680   18.97730    3.92310  254.89980   51.41040   51.41040    -999.25    -999.25    -999.25    -999.25  254.89980    9.37680    -999.25    -999.25    -999.25  100.32200 -190.53270  -89.86400  100.32200
 7100.00000    9.09220   31.37020   16.10980   62.07410   53.91780   53.91780    -999.25    -999.25    -999.25    -999.25   62.07410    9.09220    -999.25    -999.25    -999.25   78.71300 -208.51870 -107.89020   78.71300
 7150.00000    9.33940   16.29760    2.20060  454.41320   51.68330   51.68330    -999.25    -999.25    -999.25    -999.25  454.41320    9.33940    -999.25    -999.25    -999.25  124.64770 -215.83300 -115.24450  124.64770
 7200.00000    8.40110   30.42990   15.19250   65.82190   52.35690   52.35690    -999.25    -999.25    -999.25    -999.25   65.82190    8.40110    -999.25    -999.25    -999.25   90.44080 -272.36540 -171.81710   90.44080
 7250.00000    8.57380   24.54150   10.27080   97.36310   50.67900   50.67900    -999.25    -999.25    -999.25    -999.25   97.36310    8.57380    -999.25    -999.25    -999.25   84.82900 -254.77900 -154.27070   84.82900
 7300.00000    9.51730  152.93410  141.98900    7.04280   55.60180   55.60180    -999.25    -999.25    -999.25    -999.25    7.04280    9.51730    -999.25    -999.25    -999.25   22.20550 -193.08950  -92.62110   22.20550
 7350.00000    8.97810  263.01010  288.19270    3.46990   72.21090   72.21090    -999.25    -999.25    -999.25    -999.25    3.46990    8.97810    -999.25    -999.25    -999.25   19.99150 -212.90630 -112.47810   19.99150
 7400.00000    9.01080   20.38270    5.90620  169.31410   50.65610   50.65610    -999.25    -999.25    -999.25    -999.25  169.31410    9.01080    -999.25    -999.25    -999.25  112.68640 -255.11220 -154.72400  112.68640
 7450.00000    9.14460  122.57040  116.29660    8.59870   57.66470   57.66470    -999.25    -999.25    -999.25    -999.25    8.59870    9.14460    -999.25    -999.25    -999.25   18.48360 -173.30890  -72.96090   18.48360
 7500.00000    9.09600   26.08910   11.71090   85.39080   53.84120   53.84120    -999.25    -999.25    -999.25    -999.25   85.39080    9.09600    -999.25    -999.25    -999.25   64.45460 -138.00640  -37.69840   64.45460
 7550.00000    9.60930  111.21180  102.21600    9.78320   70.14220   70.14220    -999.25    -999.25    -999.25    -999.25    9.78320    9.60930    -999.25    -999.25    -999.25   13.45250 -130.01490  -29.74690   13.45250
 7600.00000    9.11990   16.50040    3.97540  251.54760   53.01060   53.01060    -999.25    -999.25    -999.25    -999.25  251.54760    9.11990    -999.25    -999.25    -999.25   84.97360 -154.30550  -54.07770   84.97360
 7650.00000    9.26060   58.94640   48.25650   20.72260   57.48830   57.48830    -999.25    -999.25    -999.25    -999.25   20.72260    9.26060    -999.25    -999.25    -999.25   27.31010 -112.81720  -12.62930   27.31010
 7700.00000    9.32220   82.17090   72.97140   13.70400   76.28990   76.28990    -999.25    -999.25    -999.25    -999.25   13.70400    9.32220    -999.25    -999.25    -999.25   16.52710 -111.88360  -11.73600   16.52710
 7750.00000   14.21060  199.46750  198.66890    5.03350   82.82290   82.82290    -999.25    -999.25    -999.25    -999.25    5.03350   14.21060    -999.25    -999.25    -999.25    6.80290 -106.30180   -6.19410    6.80290
 7800.00000   16.73590  277.78490  302.35230    3.30740   87.59670   87.59670    -999.25    -999.25    -999.25    -999.25    3.30740   16.73590    -999.25    -999.25    -999.25    4.38710 -133.83090  -35.37160    4.38710
 7850.00000   16.73720  276.33290  285.47770    3.50290   77.19700   77.19700    -999.25    -999.25    -999.25    -999.25    3.50290   16.73720    -999.25    -999.25    -999.25    4.56940 -131.19420  -34.75980    4.56940
 7900.00000   16.75380  276.43680  276.96990    3.61050   82.57750   82.57750    -999.25    -999.25    -999.25    -999.25    3.61050   16.75380    -999.25    -999.25    -999.25    4.67060 -132.19730  -37.77450    4.67060
 7950.00000   16.76490  269.62230  278.34220    3.59270   82.83190   82.83190    -999.25    -999.25    -999.25    -999.25    3.59270   16.76490    -999.25    -999.25    -999.25    4.71090 -118.62770  -26.22970    4.71090
 8000.00000   16.78320  324.94520  344.12750    2.90590   84.91530   84.91530    -999.25    -999.25    -999.25    -999.25    2.90590   16.78320    -999.25    -999.25    -999.25    4.03840 -117.34220  -26.95580    4.03840
 8050.00000   16.76530  341.93880  378.20050    2.64410   84.41510   84.41510    -999.25    -999.25    -999.25    -999.25    2.64410   16.76530    -999.25    -999.25    -999.25    3.90040 -134.01290  -45.63810    3.90040
 8100.00000   16.78300  324.36960  345.23230    2.89660   89.73120   89.73120    -999.25    -999.25    -999.25    -999.25    2.89660   16.78300    -999.25    -999.25    -999.25    4.16080 -123.98560  -37.63570    4.16080
 8150.00000    9.75190  108.78810  102.61990    9.74470   65.54840   65.54840    -999.25    -999.25    -999.25    -999.25    9.74470    9.75190    -999.25    -999.25    -999.25   13.42570  -92.50470   -8.16640   13.42570
 8200.00000    9.33900  116.43110  108.61770    9.20660   67.63810   67.63810    -999.25    -999.25    -999.25    -999.25    9.20660    9.33900    -999.25    -999.25    -999.25   13.17030  -95.25230  -12.78060   13.17030
 8250.00000   10.63720  168.16420  160.27180    6.23940   72.82200   72.82200    -999.25    -999.25    -999.25    -999.25    6.23940   10.63720    -999.25    -999.25    -999.25    8.65920 -128.36170  -47.30030    8.65920
 8300.00000    9.99650  123.85610  116.58410    8.57750   74.25630   74.25630    -999.25    -999.25    -999.25    -999.25    8.57750    9.99650    -999.25    -999.25    -999.25   11.54350 -122.08750  -42.43640   11.54350
