~Version ---------------------------------------------------
VERS.      2.0 : CWLS log ASCII Standard -VERSION 2.0
WRAP.       NO : One line per depth step
CREA. 07/24/13 : LAS Creation Date
~Well ------------------------------------------------------
STRT.FT                        300.0 : START DEPTH
STOP.FT                      12850.0 : STOP DEPTH
STEP.FT                     50.00000 : STEP LENGTH
NULL.                        -999.25 : NULL VALUE
COMP.  WESTERN DECALTA PETROLEUM LTD : COMPANY
WELL. DECALTA ET AL BRAZR 6-31-47-13 : WELL
FLD .                  BRAZEAU RIVER : FIELD
LOC .                                : LOCATION
CTRY.                         CANADA : COUNTRY
SRVC.                   Schlumberger : SERVICE COMPANY
DATE.                    15-Mar-1978 : LOGDATE
PROV.                        Alberta : PROVINCE
UWI .               100063104713W500 : UNIQUE WELL ID
SLAT.WGS84                  53.09535 : SURFACE LATITUDE
SLON.WGS84                 -115.8946 : SURFACE LONGITUDE
~Curve Information -----------------------------------------
DEPT   .FT    : DEPTH FEET
CALD   .IN    : CALIPER FROM DENSITY LOG
CALS   .IN    : DENSITY POROSITY LIMESTONE [M=2.71, F=1.0] FROM DENSITY LOG
DPHI_LS.DEC   : DENSITY POROSITY LIMESTONE [M=2.71, F=1.0] FROM DENSITY LOG
DPHI_SS.DEC   : DENSITY POROSITY SANDSTONE [M=2.65, F=1.0] FROM DENSITY LOG
DRHO   .G/C3  : DENSITY CORRECTION FROM DENSITY LOG
DT     .US/F  : DELTA TIME FROM SONIC LOG
GRD    .GAPI  : GAMMA RAY FROM DENSITY LOG
GRS    .GAPI  : GAMMA RAY FROM SONIC LOG
ILD    .OHMM  : DEEP INDUCTION RESISTIVITY FROM RESISTIVITY LOG
ILM    .OHMM  : MEDIUM INDUCTION RESISTIVITY FROM RESISTIVITY LOG
LL8    .OHMM  : 8 INCH LATEROLOG RESISTIVITY FROM RESISTIVITY LOG
NPHI_LS.DEC   : NEUTRON POROSITY LIMESTONE FROM DENSITY LOG
NPHI_SS.DEC   : NEUTRON POROSITY SANDSTONE FROM DENSITY LOG
RHOB   .G/C3  : BULK DENSITY FROM DENSITY LOG
SPR    .MV    : SPONTANEOUS POTENTIAL FROM RESISTIVITY LOG
~Params ----------------------------------------------------
PD  .                     GL : PERMANENT DATUM
EPD .FT                 3420 : ELEVATION PERMANENT DATUM
LMF .                     KB : LOG MEASURED FROM
DAPD.FT                   27 : FEET ABOVE PERMANENT DATUM
DMF .                     KB : DRILLING MEASURED FROM
EGL .FT                 3420 : GROUND LEVEL
DATE.               03/15/78 : RUN DATE
RUN .                      2 : RUN NUMBER
DD  .FT                12857 : DEPTH DRILLER
DL  .FT                12856 : DEPTH LOGGER
BLI .FT                12850 : BOTTOM LOG INTERVAL
TLI .FT                10390 : TOP LOG INTERVAL
CS  .IN                9.625 : CASING SIZE
CBD .FT                10395 : CASING BOTTOM DRILLER
CBL .FT                10390 : CASING BOTTOM LOGGER
BS  .IN                6.125 : BIT SIZE
BSD .FT                12857 : BIT SIZE AT DEPTH
DFT .                    GEL : DRILLING FLUID TYPE
DFD .                   10.3 : DRILLING FLUID DENSITY
DFV .                     44 : DRILLING FLUID VISCOSITY
DFPH.                   11.5 : DRILLING FLUID PH
DFL .                    8.8 : DRILLING FLUID LOSS
MSS .               FLOWLINE : MUD SAMPLE SOURCE
RMS .OHMM               0.89 : RESISTIVITY MUD SAMPLE
MST .DEGF                 62 : MUD SAMPLE TEMPERATURE
TCS .HRS                 2.5 : TIME CIRCULATED STOPPED
LUN .                   7687 : LOGGING UNIT NUMBER
LUL .                    EDA : LOGGING UNIT LOCATION
ENGI.               BERNISKY : RECORDING ENGINEER
WITN.                  COWAN : WITNESSED BY
CLNT.                A2DTECH : CLIENT CODE
ORIG.            2" 5" PRINT : ORIGIN OF DATA
UWI .       100063104713W500 : UNIQUE WELL ID
DICO. A2D Technologies, Inc. : DIGITIZING COMPANY
~Other -----------------------------------------------------
~ASCII -----------------------------------------------------
# ...
 7200.00000   10.04420    9.52830    -999.25    0.15590    0.23610   75.74860  108.15610  107.56740    9.33480    8.86270    9.83230    -999.25    0.28150    2.37780  -33.68140
 7250.00000    8.68710    8.94250    -999.25    0.09390    0.11720   73.59590   73.90090   75.39140   19.78220   18.73660   18.06430    -999.25    0.21520    2.55010  -34.05840
 7300.00000   10.03650    9.49730    -999.25    0.14550    0.25570   75.81620  106.32110  101.45770    9.94260    9.66670   10.93070    -999.25    0.26900    2.38220  -34.12180
 7350.00000    9.85590    9.07100    -999.25   -0.01940    0.26490   67.05730   99.78570   75.46980   25.70920   15.74710   45.53940    -999.25    0.23280    2.56960  -33.60120
 7400.00000   10.34560    9.24690    -999.25    0.12000    0.24310   75.14650  107.98570  106.23450   10.30540    9.70050   12.09590    -999.25    0.25830    2.45660  -33.38400
 7450.00000   10.05680    9.08720    -999.25    0.12010    0.22090   77.18060  109.30710  107.80370    9.50510    9.08620   10.04640    -999.25    0.28300    2.59370  -32.99580
 7500.00000   10.01740    9.33810    -999.25    0.10620    0.21040   74.45350   99.78950  103.45730    9.86990    9.26890   11.08850    -999.25    0.26990    2.51530  -32.11780
 7550.00000   10.26760    9.88750    -999.25    0.19540    0.26410   81.59250  117.03960  117.01760    8.40710    8.04680   10.23530    -999.25    0.32440    2.40590  -31.81180
 7600.00000   10.96520    9.61810    -999.25    0.24710    0.22920   87.86110  120.36610  113.09250    7.69410    7.37550    9.40010    -999.25    0.38730    2.28330  -31.73260
 7650.00000    9.30960    8.89450    -999.25    0.09730    0.25500   82.69730  122.50940  117.01690   12.95690   12.54280   15.55170    -999.25    0.33880    2.49840  -30.53570
 7700.00000    9.76180    8.92900    -999.25    0.10060    0.23650   84.04560  119.41550  117.95670   11.39040   10.49030   14.78850    -999.25    0.33840    2.47840  -31.11570
 7750.00000    9.87050    9.13560    -999.25    0.15650    0.26260   87.23700  123.56890  123.48560    9.68160    9.11150   12.06400    -999.25    0.37420    2.40380  -29.99660
 7800.00000    9.74490    9.17930    -999.25    0.12800    0.26470   86.47570  125.92330  113.73250   10.83080    9.99530   14.60070    -999.25    0.34850    2.44610  -29.86650
 7850.00000    9.97130    9.08730    -999.25    0.11990    0.26670   83.43570  117.13260  101.81690   14.87650   13.94000   20.34000    -999.25    0.31060    2.42710  -29.40770
 7900.00000    9.52140    9.51380    -999.25    0.18040    0.23470   81.44250  116.29060  102.37040   10.03370    9.58540   13.75500    -999.25    0.35030    2.40560  -29.57230
 7950.00000   10.92740   10.22660    -999.25    0.19980    0.23120   87.06220  116.86750  112.73120    8.28990    7.83320   10.20680    -999.25    0.35530    2.35880  -29.14050
 8000.00000   11.04300   10.07180    -999.25    0.18630    0.10550   87.16270  146.16380  139.43180   10.21100   10.61770   13.82570    -999.25    0.35310    2.36340  -29.53020
 8050.00000   10.49410    9.97710    -999.25    0.10960    0.19430   84.45870  107.52550  107.54950    5.85170    5.59570    6.85480    -999.25    0.32310    2.48180  -32.11420
 8100.00000   10.74460    9.52790    -999.25    0.03160    0.07600   77.91450  117.28660  112.02150    8.05410    7.57390    9.29260    -999.25    0.26650    2.52730  -28.85990
 8150.00000   12.13280   10.08750    -999.25    0.08320    0.14020   83.09200  116.33200  108.80930    6.25320    5.93190    8.13890    -999.25    0.28800    2.51360  -29.13220
 8200.00000   12.81240   10.59110    -999.25    0.08630    0.17730   82.14870  113.00450  108.37290    6.15400    5.96090    7.49920    -999.25    0.31240    2.51910  -29.37570
 8250.00000   12.55410   10.76710    -999.25    0.09410    0.12800   87.77440  163.20790  158.27480    6.43560    6.02910    8.66600    -999.25    0.33950    2.51330  -28.90000
 8300.00000   14.51910   11.56110    -999.25    0.13400    0.15560   93.37730  108.27600  114.50090    3.19980    3.00760    3.90210    -999.25    0.37080    2.42560  -26.72730
 8350.00000   14.38750   11.25780    -999.25    0.13280    0.14690   87.33670  105.24320  107.21840    4.29460    4.51410    5.51590    -999.25    0.33920    2.47190  -25.81730
 8400.00000    9.37460    9.36110    -999.25    0.03030    0.00660   69.33940   65.63780   58.26180   20.25530   17.67640   22.52050    -999.25    0.14340    2.58810  -25.95660
 8450.00000   10.82520   10.55710    -999.25    0.14560    0.15950   90.40120  103.37190   90.32430    2.98110    3.16320    3.77400    -999.25    0.39430    2.43580  -23.29210
 8500.00000   10.01730   10.04730    -999.25    0.07430    0.01550   75.02130   51.01840   49.48530   16.42860   15.23280   20.27390    -999.25    0.18990    2.51810  -33.61610
 8550.00000   10.63160   11.91750    -999.25    0.18580    0.00740   91.69690   84.51720   86.35970   10.08550    8.90080   15.14110    -999.25    0.44490    2.32620  -24.56430
 8600.00000    9.51130    9.44280    -999.25   -0.03100    0.02000   57.77090   35.71270   35.99360   34.38270   24.36030  104.42680    -999.25    0.09870    2.67190  -24.82290
 8650.00000   10.48930    9.74550    -999.25    0.03630    0.01150   76.77750   84.49180   90.60000    9.41920   10.27320   12.71300    -999.25    0.29080    2.61260  -25.76630
 8700.00000   10.76820   10.34760    -999.25    0.02510    0.01200   73.26560   74.65380   78.01480   13.34390   12.25210   19.47440    -999.25    0.23950    2.64190  -30.39620
 8750.00000   10.52180   10.40160    -999.25   -0.00100    0.01280   68.89180   80.86100   77.53640   11.75710   11.05990   13.51880    -999.25    0.18640    2.62110 -117.16370
 8800.00000   10.51080   10.61440    -999.25    0.00110    0.01180   68.51240   71.26030   73.70700   15.81140   14.87980   24.38570    -999.25    0.23060    2.63770  -99.74460
 8850.00000    9.66370    9.41420    -999.25    0.02180    0.03650   65.54350   44.84070   51.27500   30.51320   29.55490   48.56330    -999.25    0.09560    2.59050 -101.91780
 8900.00000    9.75340    9.69220    -999.25    0.01580    0.02860   69.07130   59.31160   72.82540   17.98290   16.01800   21.29630    -999.25    0.17650    2.66040 -100.76920
 8950.00000    9.87340    9.77300    -999.25   -0.01360    0.01120   60.45180   35.25000   38.57680   30.77630   32.60230   44.50830    -999.25    0.10290    2.67630  -99.41820
 9000.00000   13.45440    9.97060    -999.25    0.20220    0.24250   67.40650   30.79380   31.38760   30.46440   39.21260   44.59940    -999.25    0.08710    2.30670 -101.49960
 9050.00000   11.67310    9.88560    -999.25    0.04740    0.18510   68.27620   92.25900   68.86030   15.84040   19.52880   21.89280    -999.25    0.19870    2.46020  -90.87220
 9100.00000    9.40990    9.47010    -999.25   -0.01630    0.01630   61.73980   77.76560   66.63150   47.93360   51.44060   91.98100    -999.25    0.15010    2.65260  -85.92360
 9150.00000    9.40950    9.30990    -999.25   -0.01220    0.00470   65.31230   86.47320   88.48810   28.44510   30.90360   56.34060    -999.25    0.15210    2.67730  -89.26850
 9200.00000   11.53500    9.84460    -999.25    0.14970    0.24190   71.62180  107.10850   95.25480   22.32100   25.55660   40.37350    -999.25    0.28510    2.38830  -91.54700
 9250.00000   10.61090    9.52780    -999.25    0.07370    0.24370   74.44800  118.95380  109.77000   13.55400   14.52170   19.72430    -999.25    0.25060    2.55590  -97.15810
 9300.00000    8.86800    9.63360    0.21010    0.01290    0.01530   63.59570   19.88410   19.97330 1557.51390  446.58150  422.59200    0.00560    0.03690    2.65050  -84.51040
 9350.00000    8.89450    8.90080   -0.00170   -0.00320    0.01680   67.89550   75.87520   74.74470   16.67390   15.39700   22.08560    0.13100    0.16330    2.63860 -100.99380
 9400.00000    8.70680    8.63180    0.01580   -0.00120   -0.00330   55.72970   64.91840   48.98550  119.29290  102.04140  198.80780    0.05690    0.08650    2.68340  -83.34020
 9450.00000    8.59810    8.60210    0.05840    0.00840    0.00720   56.68340   28.37920   23.45670 1499.61520 1589.08650 1346.68050    0.01440    0.04590    2.63430 -106.62420
