~Version ---------------------------------------------------
VERS. 2.0 : CWLS log ASCII Standard -VERSION 2.0
WRAP.  NO : ONE LINE PER DEPTH STEP
~Well ------------------------------------------------------
STRT.F                            1100.0 : START DEPTH
STOP.F                           10400.0 : STOP DEPTH
STEP.F                          50.00000 : STEP LENGTH
NULL.                            -999.25 : NULL VALUE
COMP.               CHEVRON STANDARD LTD : COMPANY
WELL. CHEVRON GULF PASS CREEK 7-36-61-18 : WELL
FLD .                                    : FIELD
LOC .                                    : LOCATION
CTRY.                             CANADA : COUNTRY
SRVC.                       Schlumberger : SERVICE COMPANY
DATE.                        11-Jan-1976 : LOGDATE
PROV.                            Alberta : PROVINCE
UWI .                   100073606118W500 : UNIQUE WELL ID
SLAT.WGS84                      54.31663 : SURFACE LATITUDE
SLON.WGS84                      -116.558 : SURFACE LONGITUDE
~Curve Information -----------------------------------------
DEPT   .F    0   1   0  0 : 1 MEASURED DEPTH
SPR    .MV   07 010 01 00 : SPONTANEOUS POTENTIAL FROM RESISTIVITY LOG
ILD    .OHMM 07 120 46 00 : INDUCTION DEEP RESISTIVITY
ILM    .OHMM 07 120 44 00 : INDUCTION MEDIUM RESISTIVITY
LL8    .OHMM 07 220 08 00 : LATEROLOG 8
GRS    .GAPI 60 310 01 00 : GAMMA RAY FROM SONIC LOG
DT     .US/F 60 500 00 00 : DELTA-T (INTERVAL TRANSIT TIME)
CALS   .IN   60 280 50 00 : CALIPER FROM SONIC LOG
DCOR   .G/C3 45 356 01 00 : DENSITY CORRECTION
CALD   .IN   45 280 60 00 : CALIPER FROM DENSITY LOG
RHOB   .G/C3 45 350 01 00 : BULK DENSITY
GRD    .GAPI 45 310 01 00 : GAMMA RAY FROM DENSITY LOG
DPHI_SS.DEC  45 890 12 00 : DENSITY POROSITY SANDSTONE
NPHI_SS.DEC  42 890 03 00 : NEUTRON POROSITY SANDSTONE
NPHI_LS.DEC  42 890 01 00 : NEUTRON POROSITY LIMESTONE
DPHI_LS.DEC  45 890 10 00 : DENSITY POROSITY LIMESTONE
~Params ----------------------------------------------------
PD  .                     GL : PERMANENT DATUM
EPD .FT                 2874 : ELEVATION PERMANENT DATUM
LMF .                     KB : LOG MEASURED FROM
DAPD.FT                   15 : FEET ABOVE PERMANENT DATUM
EKB .FT                 2889 : KELLY BUSHING
EGL .FT                 2874 : GROUND LEVEL
DATE.               01/11/76 : RUN DATE
RUN .                      1 : RUN NUMBER
DD  .FT                10410 : DEPTH DRILLER
DL  .FT                10421 : DEPTH LOGGER
BLI .FT                10415 : BOTTOM LOG INTERVAL
TLI .FT                 1118 : TOP LOG INTERVAL
CBD .FT                 1118 : CASING BOTTOM DRILLER
CBL .FT                 1121 : CASING BOTTOM LOGGER
BS  .IN                 8.75 : BIT SIZE
BSD .FT                10410 : BIT SIZE AT DEPTH
DFT .               GEL CHEM : DRILLING FLUID TYPE
DFD .                    9.5 : DRILLING FLUID DENSITY
DFV .                    137 : DRILLING FLUID VISCOSITY
DFPH.                    9.5 : DRILLING FLUID PH
DFL .                      9 : DRILLING FLUID LOSS
MSS .               FLOWLINE : MUD SAMPLE SOURCE
RMS .OHMM               2.38 : RESISTIVITY MUD SAMPLE
MST .DEGF                 54 : MUD SAMPLE TEMPERATURE
RMF .OHMM               2.06 : RESISTIVITY MUD FILTRATE SAMPLE
MFST.DEGF                 60 : MUD FILTRATE SAMPLE TEMPERATURE
RMC .OHMM               1.88 : RESISTIVITY MUD CAKE
MCST.DEGF                 42 : MUD CAKE SAMPLE TEMPERATURE
RMB .OHMM               0.66 : RESISTIVITY MUD AT BHT
TCS .HRS                 5.5 : TIME CIRCULATED STOPPED
LUN .                   7657 : LOGGING UNIT NUMBER
ENGI.                STANDEN : RECORDING ENGINEER
WITN.                   WONG : WITNESSED BY
CLNT.                A2DTECH : CLIENT CODE
ORIG.            2" 5" PRINT : ORIGIN OF DATA
UWI .       100073606118W500 : UNIQUE WELL ID
DICO. A2D Technologies, Inc. : DIGITIZING COMPANY
~Other -----------------------------------------------------
~ASCII -----------------------------------------------------
# ...
 3400.00000  -28.05860    6.77020    7.03360    7.82770   68.30890   81.51710   10.65920    0.03720   11.44340    2.52140   73.55330    0.07260    0.27540    -999.25    -999.25
 3450.00000  -27.05190    5.57370    5.74420    6.19210   84.57330   88.53770   11.51770    0.02830   12.14800    2.51790   89.21710    0.07630    0.32760    -999.25    -999.25
 3500.00000  -31.05560    6.57060    6.94030    7.20130   93.60020   89.76660   11.46650    0.04940   14.05260    2.49940  101.61050    0.08960    0.31820    -999.25    -999.25
 3550.00000  -28.49490    7.87480    8.12600    8.43840   87.83810   85.48350   11.97950    0.05970   13.47010    2.59990  101.34250    0.02910    0.28430    -999.25    -999.25
 3600.00000  -29.53320    6.79030    7.16970    7.72030   97.75090   85.13250   12.05540    0.10490   13.97890    2.62300  100.89090    0.01720    0.33540    -999.25    -999.25
 3650.00000  -27.21190    6.63810    7.09870    8.71330  170.19260  103.19430   11.49660    0.06460   12.19930    2.55660  170.98410    0.06870    0.43890    -999.25    -999.25
 3700.00000  -25.49040    9.18950    9.76600   11.40820  102.23050   85.06510   11.18030    0.01150   11.33680    2.57830  112.80050    0.04340    0.28260    -999.25    -999.25
 3750.00000  -27.15820    8.40530    8.67550    9.01010  105.53610   88.05340   10.91880    0.09040   10.68590    2.59170  112.77150    0.03160    0.29570    -999.25    -999.25
 3800.00000  -29.62170    8.08280    8.33470    8.64830   99.80590   87.27750   10.45420    0.03450   10.09600    2.54880   99.13460    0.05810    0.35680    -999.25    -999.25
 3850.00000  -31.48920    6.11830    6.62220    6.87110  100.25090   91.94350   10.42130    0.15290   10.92240    1.94800  105.20670    0.41990    0.40990    -999.25    -999.25
 3900.00000  -31.81450    8.09990    8.38070    8.72860   90.81610   80.31720   10.09810    0.17050   11.56540    1.98030   90.34720    0.38010    0.33360    -999.25    -999.25
 3950.00000  -32.01330    9.21070    9.79810    8.83960   86.53460   83.21000   10.16340    0.06470   12.36550    1.85660   93.18260    0.44110    0.33890    -999.25    -999.25
 4000.00000  -30.96080    6.45950    6.66130    7.17650   98.03580   87.48910   10.23290    0.13740   13.84950    1.85400   97.60370    0.46980    0.46820    -999.25    -999.25
 4050.00000  -32.00100    6.67040    6.87840    7.25500  107.93270   90.18970   10.58920    0.09310   13.12640    1.71980   99.42230    0.52730    0.42750    -999.25    -999.25
 4100.00000  -33.29470    5.74330    5.92250    6.31020  104.42890   90.77960   10.56710    0.10390   13.39830    1.75630  107.86820    0.51120    0.39310    -999.25    -999.25
 4150.00000  -33.45280    7.56020    7.79550    8.24340  106.85500   85.96000   10.35650    0.12800   11.61140    2.00600   90.43760    0.40950    0.43850    -999.25    -999.25
 4200.00000  -33.83660    6.00750    6.44290    6.69010   93.57880   91.17140   10.77790    0.13740   12.27670    1.93040   91.78550    0.44650    0.45000    -999.25    -999.25
 4250.00000  -31.05400    8.38790    8.78610    9.11730  100.36140   82.18580   10.25470    0.11530   10.26690    2.44610  102.41250    0.11640    0.36090    -999.25    -999.25
 4300.00000  -31.16080    9.28750    9.57660   10.72100   97.03560   77.92900   10.04570    0.17400    9.75750    2.58540   99.85140    0.03000    0.31580    -999.25    -999.25
 4350.00000  -33.72290    7.37120    7.63640    8.05640  104.71570   86.46320   10.93110    0.17370   10.10570    2.48940  104.15260    0.09410    0.32340    -999.25    -999.25
 4400.00000  -32.68390    8.20590    8.48760    8.84000  105.68460   82.68360   10.95320    0.16240   10.65930    2.51890  103.22780    0.07330    0.30630    -999.25    -999.25
 4450.00000  -31.64810    6.68450    7.15520    7.78920  109.41990   88.59050   10.99210    0.23000   10.92070    2.35970  102.43870    0.16450    0.39510    -999.25    -999.25
 4500.00000  -29.75870    6.39880    6.90200    7.72950  115.80020   94.50850   10.72220    0.20590   10.86230    2.23260  108.96830    0.27220    0.39260    -999.25    -999.25
 4550.00000  -30.91720    8.53060    8.96840   10.30220  124.64180   90.48620   10.36580    0.12400   10.85270    2.50250  120.48720    0.10240    0.36560    -999.25    -999.25
 4600.00000  -29.94110    7.90210    8.34680   10.39400  118.21280   90.78560   10.58130    0.17830   10.78190    2.43070  111.36230    0.13560    0.38930    -999.25    -999.25
 4650.00000  -27.01090    9.68950   10.04120   12.39950  135.38520   93.31390   10.40600    0.26390   10.43590    2.41550  126.51750    0.14180    0.39560    -999.25    -999.25
 4700.00000  -25.80760   10.96200   11.36980   14.30520  127.10280   89.83490   10.20310    0.17780    9.30410    2.49950  126.63940    0.10760    0.32780    -999.25    -999.25
 4750.00000  -25.65780    7.11430    7.77520    9.10230  119.42920   90.92730   10.93710    0.22340   11.09780    2.19970  112.08490    0.25830    0.37600    -999.25    -999.25
 4800.00000  -30.09040    9.36450   10.52580   14.74150  154.58370  104.08660    9.83310    0.20460    9.82440    2.22240  146.65780    0.23190    0.40390    -999.25    -999.25
 4850.00000  -39.09380    7.70310    8.01330    8.41020   79.45050   81.52410   10.27120    0.16620   10.69890    2.33690   78.27140    0.25170    0.29870    -999.25    -999.25
 4900.00000  -35.77160    4.93930    5.36340    5.79500   87.33130   91.63800   11.63310    0.14480   14.90410    2.05140   97.74260    0.47900    0.21360    -999.25    -999.25
 4950.00000  -36.01790    7.05190    7.62350   10.00470   98.66540   75.31260   10.02640    0.22310   10.46870    2.21640  108.89780    0.23420    0.25640    -999.25    -999.25
 5000.00000  -34.31250    5.93120    6.27350    7.32360  102.03790   83.22960   10.44830    0.13160    9.84550    2.50200  104.42320    0.08150    0.34170    -999.25    -999.25
 5050.00000  -30.91040    8.14870    8.40270    9.40580   99.23330   76.60100   10.72880    0.05570   10.68400    2.58270  103.44450    0.02600    0.32640    -999.25    -999.25
 5100.00000  -32.59370    5.79010    5.97070    6.83720  108.61910   85.26230   11.38590    0.22660   12.87600    2.29930  106.38050    0.20760    0.38190    -999.25    -999.25
 5150.00000  -31.72870    4.48550    4.81380    5.76250  126.12450   89.64930    9.31170    0.09740    -999.25    1.70970  119.70030    0.54540    0.42320    -999.25    -999.25
 5200.00000  -26.80960    3.54770    3.83980    4.59900  130.83610   97.16170    9.02630    0.02340    -999.25    1.42060  134.98870    -999.25    0.40770    -999.25    -999.25
 5250.00000  -29.66460    2.67750    3.05010    3.36510  120.96930   93.03080    8.51840    0.01620   14.60110    1.41510  117.94670    -999.25    0.42940    -999.25    -999.25
 5300.00000  -28.77630    3.46660    3.74030    3.93640  110.31370   93.12390   11.88560    0.03690    -999.25    1.43300  109.24890    -999.25    0.45340    -999.25    -999.25
 5350.00000  -27.26780    4.79770    4.94630    5.75130   99.73080   84.70400   12.63410    0.14380   12.72280    2.05540   95.45650    0.34960    0.39500    -999.25    -999.25
 5400.00000  -32.13640   11.63310   12.25470   16.24940   90.69440   74.48880    9.97010    0.07310   10.30740    2.56420   88.63260    0.03870    0.21740    -999.25    -999.25
 5450.00000  -19.16420    1.63550    1.80780    2.30570   93.06380  135.16180   12.14900    0.10900   12.75060    2.25620   92.94260    0.23540    0.47210    -999.25    -999.25
 5500.00000  -26.12400    3.91180    4.31440    8.64560   88.49240  134.06300   12.97430    0.05360   14.54100    2.47040   83.77220    0.14810    0.47000    -999.25    -999.25
 5550.00000  -28.35190    7.62910    8.18450   10.19230   92.31780   76.83020   11.97320    0.08850   12.46130    2.59930  106.65120    0.01470    0.30060    -999.25    -999.25
 5600.00000  -50.07460   10.45080   11.39070   13.25360   52.18960   73.99940   10.44040    0.05920   11.65080    2.62560   47.36150    0.03060    0.20380    -999.25    -999.25
 5650.00000  -23.76340   15.56900   12.78370   40.71570   62.54680  117.03540   11.52640    0.01890   13.57740    2.02910   82.04250    0.50150    0.55520    -999.25    -999.25
