~Version ---------------------------------------------------
VERS.      2.0 : CWLS log ASCII Standard -VERSION 2.0
WRAP.       NO : One line per depth step
CREA. 12/13/17 : LAS Creation Date
~Well ------------------------------------------------------
STRT.FT                        950.0 : START DEPTH
STOP.FT                      10700.0 : STOP DEPTH
STEP.FT                     50.00000 : STEP LENGTH
NULL.                        -999.25 : NULL VALUE
COMP.         CALIFORNIA STANDARD CO : COMPANY
WELL. CALSTAN B.A. KAYBOB 4-16-62-19 : WELL
FLD .                                : FIELD
LOC .                                : LOCATION
CTRY.                         CANADA : COUNTRY
SRVC.         Schlumberger of Canada : SERVICE COMPANY
DATE.                    22-Apr-1959 : LOGDATE
PROV.                        Alberta : PROVINCE
UWI .               100041606219W500 : UNIQUE WELL ID
SLAT.WGS84                  54.35778 : SURFACE LATITUDE
SLON.WGS84                  -116.797 : SURFACE LONGITUDE
~Curve Information -----------------------------------------
DEPT  .FT         : Depth Curve
CALWS .IN         : CALIPER [CALSED]
CILDED.MMHO       : CONDUCTIVITY FROM RESISTIVITY LOG
CONDWS.MMHO       : CONDUCTIVITY [1000/DRESWS]
DRESWS.OHMM       : DEEP RESISTIVITY [1000/CILDED IF ILDED <1.5,ILDED]
DTED  .US/F       : DELTA-T FROM SONIC LOG [ADJ. TO RESISTIVITY LOG]
DTWS  .US/F       : COMPRESSIONAL SONIC [DTED]
GRSED .UgRa-Eq/T  : GAMMA RAY FROM SONIC LOG [ADJ. TO RESISTIVITY LOG]
GRWS  .GAPI       : GAMMA RAY [GRSED*16.5]
ILDED .OHMM       : DEEP INDUCTION FROM RESISTIVITY LOG
MCALED.IN         : MLT CALIPER FROM ML LOG
SNED  .OHMM       : SHORT NORMAL FROM RESISTIVITY LOG
SPRED .MV         : SPONTANEOUS POTENTIAL FROM RESISTIVITY LOG
SPWS  .MV         : SPONTANEOUS POTENTIAL [BASELINE 0 MV, SPRED]
SRESWS.OHMM       : SHALLOW RESISTIVITY [SNED]
~Params ----------------------------------------------------
LMF .                     KB : LOG MEASURED FROM
DMF .                     KB : DRILLING MEASURED FROM
EKB .FT               2867.8 : KELLY BUSHING
DATE.               04/22/59 : RUN DATE
RUN .                      2 : RUN NUMBER
DD  .FT                10705 : DEPTH DRILLER
DL  .FT                10705 : DEPTH LOGGER
BLI .FT                10700 : BOTTOM LOG INTERVAL
TLI .FT                 7054 : TOP LOG INTERVAL
BS  .IN                    9 : BIT SIZE
BSD .FT                10705 : BIT SIZE AT DEPTH
DFT .               OIL EMUL : DRILLING FLUID TYPE
DFD .                   10.1 : DRILLING FLUID DENSITY
DFV .                    130 : DRILLING FLUID VISCOSITY
DFPH.                      9 : DRILLING FLUID PH
DFL .                    5.2 : DRILLING FLUID LOSS
RMS .OHMM                3.2 : RESISTIVITY MUD SAMPLE
MST .DEGF                 57 : MUD SAMPLE TEMPERATURE
RMF .OHMM               1.75 : RESISTIVITY MUD FILTRATE SAMPLE
MFST.DEGF                 79 : MUD FILTRATE SAMPLE TEMPERATURE
RMC .OHMM                2.9 : RESISTIVITY MUD CAKE
MCST.DEGF                 79 : MUD CAKE SAMPLE TEMPERATURE
RMB .OHMM                0.8 : RESISTIVITY MUD AT BHT
TCS .HRS                   3 : TIME CIRCULATED STOPPED
LUN .                   1573 : LOGGING UNIT NUMBER
LUL .                     WC : LOGGING UNIT LOCATION
ENGI.               SHERRIFF : RECORDING ENGINEER
WITN.                RITCHIE : WITNESSED BY
CLNT.                A2DTECH : CLIENT CODE
ORIG.            2" 5" PRINT : ORIGIN OF DATA
UWI .       100041606219W500 : UNIQUE WELL ID
DICO. A2D Technologies, Inc. : DIGITIZING COMPANY
~Other -----------------------------------------------------
IEL-BHC LOG RUN
ALL DATA VERIFY FROM IEL LOG FROM TOP - 4100' FROM 2" SCALE & ALL DATA VERIFY FROM BHC LOG FROM TOP - 4048' FROM 2" SCALE
~ASCII -----------------------------------------------------
  950.00000    -999.25    -999.25    -999.25    -999.25    -999.25    -999.25    3.02400   49.89600    -999.25    -999.25    -999.25    -999.25    -999.25    -999.25
 1000.00000    -999.25    -999.25    -999.25    -999.25    -999.25    -999.25    2.45460   40.50090    -999.25    -999.25    -999.25    -999.25    -999.25    -999.25
 1050.00000    -999.25  241.36870  286.32870    3.49280  122.75120  122.75120    5.02760   82.95540    3.49280    -999.25    5.90840  -65.21230   -2.96040    5.90840
 1100.00000    -999.25  274.75250  309.39640    3.23210  134.12510  134.12510    4.12990   68.14330    3.23210    -999.25    5.93980  -65.41340   -3.16150    5.93980
 1150.00000    -999.25  251.08460  292.56880    3.41800  111.41270  111.41270    5.25300   86.67450    3.41800    -999.25    5.32000  -67.58390   -5.33200    5.32000
 1200.00000    -999.25  190.29030  221.13620    4.52210  114.36140  114.36140    4.81300   79.41450    4.52210    -999.25    6.25210  -69.44250   -5.99520    6.25210
 1250.00000    -999.25  177.83550  213.32880    4.68760  103.45200  103.45200    4.87160   80.38140    4.68760    -999.25    6.53820  -68.74370   -4.18230    6.53820
 1300.00000    -999.25  200.19230  237.62530    4.20930  102.17350  102.17350    4.86980   80.35090    4.20930    -999.25    5.99370  -69.65390   -5.81780    5.99370
 1350.00000    -999.25  266.83450  306.19430    3.26590  137.00750  137.00750    4.71260   77.75790    3.26590    -999.25    5.28630  -69.26110   -6.15510    5.28630
 1400.00000    -999.25  233.48430  268.21880    3.72830  118.39250  118.39250    4.65830   76.86190    3.72830    -999.25    6.02650  -68.05910   -5.67830    6.02650
 1450.00000    -999.25  231.95020  270.47500    3.69720  114.33160  114.33160    5.27380   87.01770    3.69720    -999.25    5.75910  -66.59000   -4.61260    5.75910
 1500.00000    -999.25  320.23140  362.59470    2.75790  117.97840  117.97840    4.59630   75.83900    2.75790    -999.25    4.26890  -65.98270   -4.33660    4.26890
 1550.00000    -999.25  194.18070  230.51780    4.36320  113.04840  113.04840    4.94720   81.62880    4.36320    -999.25    6.06220  -67.64850   -6.33370    6.06220
 1600.00000    -999.25  212.81100  252.90840    3.95400  104.60890  104.60890    5.07280   83.70120    3.95400    -999.25    5.77920  -64.06870   -3.08720    5.77920
 1650.00000    -999.25  454.99100  479.01900    2.08760  113.88950  113.88950    5.92830   97.81700    2.08760    -999.25    3.68840  -64.19660   -3.54630    3.68840
 1700.00000    -999.25   95.01190  105.87160    9.44540   94.51730   94.51730    4.24160   69.98640    9.44540    -999.25   12.38980  -66.62180   -6.30500   12.38980
 1750.00000    -999.25  101.99040  110.12850    9.08030   86.84710   86.84710    4.29560   70.87740    9.08030    -999.25   12.17480  -64.77890   -4.79330   12.17480
 1800.00000    -999.25  277.35950  321.97820    3.10630  100.46470  100.46470    4.93860   81.48690    3.10630    -999.25    4.60690  -64.34950   -4.69520    4.60690
 1850.00000    -999.25  194.53700  230.52630    4.33790  137.35360  137.35360    5.64370   93.12100    4.33790    -999.25    7.93710  -65.18470   -5.86370    7.93710
 1900.00000    -999.25  279.75050  333.53350    2.99820  105.83100  105.83100    5.63080   92.90820    2.99820    -999.25    4.39240  -63.92650   -4.93680    4.39240
 1950.00000    -999.25  258.48750  295.57820    3.38320  105.12330  105.12330    5.13850   84.78520    3.38320    -999.25    5.04210  -63.63500   -4.97870    5.04210
 2000.00000   11.25690  153.86270  160.55750    6.22830   87.87810   87.87810    5.41030   89.26910    6.22830   11.25690   10.94160  -66.26760   -7.94250   10.94160
 2050.00000    9.19120   73.83730   84.71010   11.80500  101.60250  101.60250    4.01810   66.29870   11.80500    9.19120   16.17680  -82.50220  -24.50830   16.17680
 2100.00000   12.20760  366.86760  401.28410    2.49200  121.29900  121.29900    5.43130   89.61650    2.49200   12.20760    3.45760  -63.93050   -6.27000    3.45760
 2150.00000   11.20800  251.80690  297.14150    3.36540  117.60000  117.60000    6.07020  100.15830    3.36540   11.20800    5.62340  -64.03620   -6.68190    5.62340
 2200.00000   10.93260  192.84470  224.56270    4.45310  109.50050  109.50050    5.86710   96.80710    4.45310   10.93260    7.58730  -63.78490   -6.28440    7.58730
 2250.00000   10.49460  245.74660  287.64560    3.47650   92.99360   92.99360    5.11150   84.33980    3.47650   10.49460    5.03400  -62.47900   -4.83330    5.03400
 2300.00000    9.90110  225.72510  260.65310    3.83730  100.23100  100.23100    4.99760   82.46040    3.83730    9.90110    5.82780  -63.60590   -5.81500    5.82780
 2350.00000   11.75520  245.56470  282.38220    3.54130  102.93770  102.93770    4.80260   79.24290    3.54130   11.75520    5.17680  -62.38040   -4.44340    5.17680
 2400.00000   13.28310  276.84380  320.11270    3.12390   94.74750   94.74750    4.68360   77.27940    3.12390   13.28310    4.69290  -63.54570   -5.46340    4.69290
 2450.00000   11.11060  226.70380  261.77330    3.82010  105.80960  105.80960    4.79970   79.19500    3.82010   11.11060    5.77430  -63.38820   -5.15980    5.77430
 2500.00000    9.28820   89.34870  106.53940    9.38620   85.58930   85.58930    4.72020   77.88330    9.38620    9.28820   12.42330  -65.00970   -6.63610   12.42330
 2550.00000    9.64440  111.78700   98.15800   10.38310   96.05530   96.05530    4.56940   75.39430   10.38310    9.64440   16.29180  -73.80750  -15.28870   16.29180
 2600.00000   11.74870  227.28530  267.40110    3.73970  101.10500  101.10500    4.71680   77.82720    3.73970   11.74870    5.24370  -62.53390   -3.86890    5.24370
 2650.00000    9.90320  215.39780  247.31050    4.04350  116.92090  116.92090    4.24790   70.08950    4.04350    9.90320    7.07800  -62.91170   -4.10150    7.07800
 2700.00000   10.40730  188.60950  221.75410    4.50950   91.65490   91.65490    4.61370   76.12600    4.50950   10.40730    6.24120  -62.75830   -3.80190    6.24120
 2750.00000   10.42850  152.06240  172.86680    5.78480   93.83960   93.83960    3.77330   62.25950    5.78480   10.42850    8.07910  -62.62720   -3.52560    8.07910
 2800.00000   12.13560  248.52580  273.77420    3.65550   94.77700   94.77700    3.85790   63.65490    3.65550   12.13560    5.33190  -63.16440   -3.91760    5.33190
 2850.00000    9.52970  121.22610  129.31260    7.73320   96.31080   96.31080    4.50530   74.33750    7.73320    9.52970   11.28190  -64.14920   -4.75630   11.28190
 2900.00000   11.35460  189.73990  213.74370    4.67850   96.60380   96.60380    4.06210   67.02460    4.67850   11.35460    6.69800  -63.46250   -3.92430    6.69800
 2950.00000   12.94800  180.53260  201.11820    4.97220   90.48980   90.48980    4.43510   73.17920    4.97220   12.94800    7.45800  -62.91800   -3.23370    7.45800
 3000.00000    9.19070   53.76420   57.20270   17.48170   89.18080   89.18080    3.04670   50.27060   17.48170    9.19070   23.28350  -80.15750  -20.32800   23.28350
 3050.00000   14.00550  225.90560  257.89570    3.87750  101.73780  101.73780    4.19030   69.13990    3.87750   14.00550    5.61540  -62.25030   -2.27560    5.61540
 3100.00000   10.25360   99.95820  112.64560    8.87740   85.57870   85.57870    2.90980   48.01170    8.87740   10.25360   12.65300  -65.20380   -5.39370   12.65300
 3150.00000    8.39980   47.03470   46.17620   21.65620   88.03850   88.03850    2.92390   48.24440   21.65620    8.39980   30.43900  -89.25580  -29.62420   30.43900
 3200.00000    9.76300  207.29550  224.90100    4.44640   83.28400   83.28400    3.84680   63.47220    4.44640    9.76300    6.93750  -62.83000   -3.37590    6.93750
 3250.00000    9.37990  140.50490  152.65780    6.55060   87.55890   87.55890    3.65410   60.29270    6.55060    9.37990   10.42680  -63.82340   -4.54780   10.42680
 3300.00000   14.37470  179.70230  205.85670    4.85780  143.69670  143.69670    3.63810   60.02860    4.85780   14.37470    8.22990  -63.50910   -4.41040    8.22990
 3350.00000   11.27500  132.30160  153.86510    6.49920   92.05030   92.05030    4.27000   70.45500    6.49920   11.27500    9.79680  -64.46530   -5.54580    9.79680
