~Version ---------------------------------------------------
VERS.      2.0 : CWLS log ASCII Standard -VERSION 2.0
WRAP.       NO : One line per depth step
CREA. 10/03/17 : LAS Creation Date
~Well ------------------------------------------------------
STRT.FT                              1000.0 : START DEPTH
STOP.FT                             10700.0 : STOP DEPTH
STEP.FT                            50.00000 : STEP LENGTH
NULL.                               -999.25 : NULL VALUE
COMP. HUDSONS BAY OIL & GAS COMPANY LIMITED : COMPANY
WELL.        H.B. UNION KAYBOBS 11-27-62-20 : WELL
FLD .                                       : FIELD
LOC .                                       : LOCATION
CTRY.                                CANADA : COUNTRY
SRVC.                Schlumberger of Canada : SERVICE COMPANY
DATE.                           19-Sep-1961 : LOGDATE
PROV.                               Alberta : PROVINCE
UWI .                      100112706220W500 : UNIQUE WELL ID
SLAT.WGS84                          54.3942 : SURFACE LATITUDE
SLON.WGS84                        -116.9147 : SURFACE LONGITUDE
~Curve Information -----------------------------------------
DEPT  .FT         : Depth Curve
CALWS .IN         : CALIPER [MCALED]
CILDED.MMHO       : DEEP INDUCTION CONDUCTIVITY FROM RESISTIVITY LOG
CONDWS.MMHO       : CONDUCTIVITY [1000/DRESWS]
DRESWS.OHMM       : DEEP RESISTIVITY [CILDED/1000.IF ILDED <=5,ILDED]
DTED  .US/F       : DELTA-T FROM SONIC LOG [ADJ. TO RESISTIVITY LOG]
DTWS  .US/F       : COMPRESSIONAL SONIC [DTED]
GRNED .GAPI       : GAMMA RAY FROM GRN LOG [ADJ. TO RESISTIVITY LOG]
GRSED .UgRa-Eq/T  : GAMMA RAY FROM SONIC LOG [ADJ. TO RESISTIVITY LOG]
GRWS  .GAPI       : GAMMA RAY [GRSED*16.5]
ILDED .OHMM       : DEEP INDUCTION RESISTIVITY FROM RESISTIVITY LOG
MCALED.IN         : CALIPER FROM MICROLOG
NEUTED.NAPI       : NEUTRON FROM GRN LOG [ADJ. TO RESISTIVITY LOG]
NEUTWS.NAPI       : NEUTRON [NEUTED]
SNED  .OHMM       : SHORT NORMAL RESISTIVITY FROM RESISTIVITY LOG
SPRED .MV         : SPONTANEOUS POTENTIAL FROM RESISTIVITY LOG
SPWS  .MV         : SPONTANEOUS POTENTIAL [BASELINE 0 MV,SPRED]
SRESWS.OHMM       : SHALLOW RESISTIVITY [SNED]
~Params ----------------------------------------------------
PD  .                    CBF : PERMANENT DATUM
EPD .FT                 2733 : ELEVATION PERMANENT DATUM
LMF .                     KB : LOG MEASURED FROM
DAPD.FT                 15.6 : FEET ABOVE PERMANENT DATUM
EKB .FT               2748.6 : KELLY BUSHING
EDF .FT                 2733 : DRILLING FLOOR
EGL .FT                 2733 : GROUND LEVEL
DATE.               09/19/61 : RUN DATE
RUN .                      1 : RUN NUMBER
DD  .FT                10742 : DEPTH DRILLER
DL  .FT                10737 : DEPTH LOGGER
BLI .FT                10736 : BOTTOM LOG INTERVAL
TLI .FT                 1078 : TOP LOG INTERVAL
CBD .FT                 1078 : CASING BOTTOM DRILLER
CBL .FT                 1078 : CASING BOTTOM LOGGER
BS  .IN                    9 : BIT SIZE
BSD .FT                10742 : BIT SIZE AT DEPTH
DFT .                    GEL : DRILLING FLUID TYPE
DFD .                    9.8 : DRILLING FLUID DENSITY
DFV .                     90 : DRILLING FLUID VISCOSITY
DFPH.                      9 : DRILLING FLUID PH
DFL .                    7.8 : DRILLING FLUID LOSS
RMS .OHMM                1.7 : RESISTIVITY MUD SAMPLE
MST .DEGF                 74 : MUD SAMPLE TEMPERATURE
RMF .OHMM               1.42 : RESISTIVITY MUD FILTRATE SAMPLE
MFST.DEGF                 76 : MUD FILTRATE SAMPLE TEMPERATURE
RMC .OHMM               1.65 : RESISTIVITY MUD CAKE
MCST.DEGF                 77 : MUD CAKE SAMPLE TEMPERATURE
RMB .OHMM                0.6 : RESISTIVITY MUD AT BHT
TCS .HRS                 500 : TIME CIRCULATED STOPPED
LUN .                   1574 : LOGGING UNIT NUMBER
ENGI.                 BENNER : RECORDING ENGINEER
WITN.         BRITTON WALKER : WITNESSED BY
CLNT.                A2DTECH : CLIENT CODE
ORIG.            2" 5" PRINT : ORIGIN OF DATA
UWI .       100112706220W500 : UNIQUE WELL ID
DICO. A2D Technologies, Inc. : DIGITIZING COMPANY
~Other -----------------------------------------------------
IEL/GRN/SONIC LOG RAN
~ASCII -----------------------------------------------------
# ...
 3050.00000    -999.25  158.03320  163.30330    6.12450  125.28750  125.28750    -999.25    3.41200   56.29840    6.12450    -999.25    -999.25    -999.25    5.63370 -105.60630   -4.09240    5.63370
 3100.00000    -999.25   16.13150   23.63780   42.30520   74.72890   74.72890    -999.25    2.65030   43.73080   42.30520    -999.25    -999.25    -999.25   22.32060 -118.73000  -17.40080   22.32060
 3150.00000    -999.25   28.86940   31.18330   32.06840   81.65520   81.65520    -999.25    2.49260   41.12790   32.06840    -999.25    -999.25    -999.25   24.43710 -122.49610  -21.35030   24.43710
 3200.00000    -999.25  129.65640  135.04390    7.40500  114.29230  114.29230    -999.25    4.04290   66.70870    7.40500    -999.25    -999.25    -999.25    7.00320 -104.78950   -3.82840    7.00320
 3250.00000    -999.25   62.06930   68.11800   14.68040   85.82440   85.82440    -999.25    3.24080   53.47320   14.68040    -999.25    -999.25    -999.25   13.82880 -117.77370  -16.99610   13.82880
 3300.00000    -999.25   98.07440  106.77200    9.36930   83.72100   83.72100    -999.25    3.50480   57.82840    9.36930    -999.25    -999.25    -999.25    8.73060 -104.56470   -3.97050    8.73060
 3350.00000    -999.25  123.35740  129.27410    7.73550   91.84940   91.84940    -999.25    3.87690   63.96890    7.73550    -999.25    -999.25    -999.25    6.50430 -103.98060   -2.97910    6.50430
 3400.00000    -999.25   40.47380   51.00610   19.60550   77.68630   77.68630    -999.25    3.28890   54.26680   19.60550    -999.25    -999.25    -999.25   13.93430 -106.01950   -4.56330   13.93430
 3450.00000    -999.25  107.89200  119.03200    8.40110   89.34010   89.34010    -999.25    5.24380   86.52270    8.40110    -999.25    -999.25    -999.25    7.55230 -106.52810   -4.80570    7.55230
 3500.00000    -999.25  110.76400  119.05190    8.39970   87.59770   87.59770    -999.25    4.79710   79.15220    8.39970    -999.25    -999.25    -999.25    7.53340 -106.30100   -4.57860    7.53340
 3550.00000    -999.25  115.22260  126.40190    7.91210   94.97590   94.97590    -999.25    4.86400   80.25520    7.91210    -999.25    -999.25    -999.25    7.37890 -106.45850   -4.73610    7.37890
 3600.00000    -999.25   91.91660   97.99500   10.20460  111.23960  111.23960    -999.25    5.98640   98.77560   10.20460    -999.25    -999.25    -999.25    9.77370 -105.30090   -3.57850    9.77370
 3650.00000    -999.25   65.76710   75.76910   13.19800   87.48040   87.48040    -999.25    5.70400   94.11600   13.19800    -999.25    -999.25    -999.25   13.29330 -105.19870   -3.47630   13.29330
 3700.00000    -999.25   92.67890  101.81430    9.82180   92.42810   92.42810    -999.25    5.17860   85.44690    9.82180    -999.25    -999.25    -999.25    9.47950 -106.28330   -4.56090    9.47950
 3750.00000    -999.25  108.54660  120.91900    8.27000   93.30130   93.30130    -999.25    5.65090   93.23990    8.27000    -999.25    -999.25    -999.25    8.00110 -105.46290   -3.74050    8.00110
 3800.00000    -999.25  121.71980  128.98640    7.75280   94.70160   94.70160    -999.25    4.88020   80.52250    7.75280    -999.25    -999.25    -999.25    7.33080 -105.84580   -4.12340    7.33080
 3850.00000    -999.25   92.17050   99.55300   10.04490   83.43140   83.43140    -999.25    5.06190   83.52130   10.04490    -999.25    -999.25    -999.25    9.14010 -106.24040   -4.51800    9.14010
 3900.00000    -999.25   95.36390  102.44330    9.76150   82.35890   82.35890    -999.25    4.41720   72.88380    9.76150    -999.25    -999.25    -999.25    8.99600 -106.67000   -5.43980    8.99600
 3950.00000    -999.25  100.67410  111.85310    8.94030   94.92150   94.92150    -999.25    4.84560   79.95320    8.94030    -999.25    -999.25    -999.25    8.40610 -105.84940   -5.29170    8.40610
 4000.00000   15.56910  112.23910  124.08030    8.05930   89.55900   89.55900    -999.25    4.52660   74.68890    8.05930   15.56910    -999.25    -999.25    7.64840 -104.75910   -4.86940    7.64840
 4050.00000   15.20660  133.11110  143.95540    6.94660  106.53410  106.53410    -999.25    5.71360   94.27440    6.94660   15.20660    -999.25    -999.25    6.54130 -104.44400   -5.22240    6.54130
 4100.00000   13.60880   96.44370  105.19780    9.50590   99.84720   99.84720    -999.25    5.63600   92.99400    9.50590   13.60880    -999.25    -999.25    8.78690 -103.47640   -4.92720    8.78690
 4150.00000   12.07580   57.79780   68.31910   14.63720   84.48460   84.48460    -999.25    4.49530   74.17240   14.63720   12.07580    -999.25    -999.25   16.70140 -112.75210  -14.87090   16.70140
 4200.00000   12.05620   77.97850   85.55120   11.68890   81.27570   81.27570    -999.25    4.43460   73.17090   11.68890   12.05620    -999.25    -999.25   11.21060 -100.22360   -3.01490   11.21060
 4250.00000   11.96060   67.00890   73.23110   13.65540   81.17220   81.17220    -999.25    4.61930   76.21850   13.65540   11.96060    -999.25    -999.25   13.09430 -101.46820   -4.65850   13.09430
 4300.00000   10.39120   94.91800  100.37340    9.96280   89.09630   89.09630    -999.25    4.85240   80.06460    9.96280   10.39120    -999.25    -999.25    9.53450 -101.03290   -4.59720    9.53450
 4350.00000   12.02850   85.09180   95.06970   10.51860   84.63150   84.63150    -999.25    5.23630   86.39890   10.51860   12.02850    -999.25    -999.25    9.83080 -101.27960   -5.22030    9.83080
 4400.00000   12.48510  119.12080  121.60420    8.22340   92.15850   92.15850    -999.25    5.71930   94.36840    8.22340   12.48510    -999.25    -999.25    7.65930 -100.01760   -4.33220    7.65930
 4450.00000   14.07110  114.69190  125.72450    7.95390   91.09250   91.09250    -999.25    5.27230   86.99210    7.95390   14.07110    -999.25    -999.25    9.27820  -99.27250   -3.96350    9.27820
 4500.00000   15.72340  124.25000  134.58230    7.43040  105.52020  105.52020    -999.25    5.00470   82.57760    7.43040   15.72340    -999.25    -999.25    8.15480  -99.28020   -4.34510    8.15480
 4550.00000   14.55900   90.13310  106.19190    9.45230  100.80090  100.80090    -999.25    5.50440   90.82260    9.45230   14.55900    -999.25    -999.25   14.14130  -98.03570   -3.47450   14.14130
 4600.00000   15.80650  103.70590  113.19770    8.83410  111.09130  111.09130    -999.25    5.11530   84.40250    8.83410   15.80650    -999.25    -999.25   10.57260  -97.54560   -3.36080   10.57260
 4650.00000   10.34800   82.30620   88.46500   11.30390   88.54920   88.54920    -999.25    6.37760  105.23040   11.30390   10.34800    -999.25    -999.25   14.46460  -96.65270   -2.84190   14.46460
 4700.00000   12.28740   97.39950  106.67350    9.37440   91.35720   91.35720    -999.25    5.92270   97.72450    9.37440   12.28740    -999.25    -999.25   11.90850  -97.24690   -3.81250   11.90850
 4750.00000   12.69560   65.32350   77.19030   12.95500   91.81560   91.81560    -999.25    5.31080   87.62820   12.95500   12.69560    -999.25    -999.25   17.07640  -95.42380   -2.36330   17.07640
 4800.00000   12.13700   84.92680   92.46250   10.81810  100.48580  100.48580    -999.25    6.11450  100.88970   10.81810   12.13700    -999.25    -999.25   14.70960  -95.12820   -2.44160   14.70960
 4850.00000   13.71570   92.33150  105.69710    9.46100   90.16570   90.16570    -999.25    4.13770   68.27200    9.46100   13.71570    -999.25    -999.25   10.60840 -100.67540   -8.09460   10.60840
 4900.00000   14.09190  150.24610  165.64520    6.03700   97.78820   97.78820    -999.25    5.62580   92.82570    6.03700   14.09190    -999.25    -999.25    6.64710  -97.38960   -4.80880    6.64710
 4950.00000   14.08340  156.49090  174.73660    5.72290   86.90450   86.90450    -999.25    4.74380   78.27270    5.72290   14.08340    -999.25    -999.25    6.82770  -95.14900   -2.56820    6.82770
 5000.00000   13.24470  154.77670  175.64810    5.69320   87.75270   87.75270    -999.25    5.61490   92.64580    5.69320   13.24470    -999.25    -999.25    7.15960  -94.49860   -2.81260    7.15960
 5050.00000   10.48650  101.93580  116.29170    8.59930   80.34190   80.34190    -999.25    4.68500   77.30170    8.59930   10.48650    -999.25    -999.25   10.11800  -95.79800   -5.87830   10.11800
