~Version ---------------------------------------------------
VERS.      2.0 : CWLS log ASCII Standard -VERSION 2.0
WRAP.       NO : One line per depth step
CREA. 12/14/17 : LAS Creation Date
~Well ------------------------------------------------------
STRT.FT                       1400.0 : START DEPTH
STOP.FT                       9950.0 : STOP DEPTH
STEP.FT                     50.00000 : STEP LENGTH
NULL.                        -999.25 : NULL VALUE
COMP.         PHILLIPS PETROLEUM CO. : COMPANY
WELL.            PHILLIPS KAYBOB B-1 : WELL
FLD .                                : FIELD
LOC .                                : LOCATION
CTRY.                         CANADA : COUNTRY
SRVC. HALLIBURTON OIL WELL CEMENT CO : SERVICE COMPANY
DATE.                    14-Sep-1957 : LOGDATE
PROV.                        Alberta : PROVINCE
UWI .               100050506418W500 : UNIQUE WELL ID
SLAT.WGS84                  54.50709 : SURFACE LATITUDE
SLON.WGS84                 -116.6935 : SURFACE LONGITUDE
~Curve Information -----------------------------------------
DEPT  .FT    : Depth Curve
CALMED.IN    : CALIPER FROM MICROLOG
CALWS .IN    : CALIPER [CALMED]
CONDWS.MMHO  : CONDUCTIVITY [1000/DRESWS]
DRESWS.OHMM  : DEEP RESISTIVITY [LAT9ED]
GRED  .GAPI  : GAMMA RAY FROM CEMENT LOG, DEPTH ADJUSTED WITH [LAT9ED]
GRNED .CPS   : GAMMA RAY FROM NEUTRON LOG, DEPTH ADJUSTED WITH [LAT9ED]
GRWS  .CPS   : GAMMA RAY [GRNED], SPLICED WITH [GRED] FROM TOP-1492'
LAT9ED.OHMM  : LATERAL 9'
LT16ED.OHMM  : LATERAL 16'
NEUTED.CPS   : NEUTRON FROM NEUTRON LOG, DEPTH ADJUSTED WITH [LAT9ED]
NEUTWS.CPS   : NEUTRON [NEUTED]
SNED  .OHMM  : 16 INCH SHORT NORMAL RESISTIVITY FROM IEL
SPRED .MV    : SPONTANEOUS POTENTIAL FROM RESISTIVITY LOG
SPWS  .MV    : SPONTANEOUS POTENTIAL [BASELINE 0 MV] [SPRED]
SRESWS.OHMM  : SHALLOW RESISTIVITY [SNED]
~Params ----------------------------------------------------
PD  .                              GL : PERMANENT DATUM
EPD .FT                          2600 : ELEVATION PERMANENT DATUM
LMF .                              KB : LOG MEASURED FROM
DMF .                              KB : DRILLING MEASURED FROM
EKB .FT                          2600 : KELLY BUSHING
DATE.                        09/14/57 : RUN DATE
RUN .                               1 : RUN NUMBER
DD  .FT                          9955 : DEPTH DRILLER
DL  .FT                          9949 : DEPTH LOGGER
CS  .IN                        13.375 : CASING SIZE
CBD .FT                          1512 : CASING BOTTOM DRILLER
CBL .FT                          1510 : CASING BOTTOM LOGGER
BS  .IN                             9 : BIT SIZE
BSD .FT                          9955 : BIT SIZE AT DEPTH
DFT . OIL EMULSION GEL CAUSTIC MILBAR : DRILLING FLUID TYPE
DFD .                            11.2 : DRILLING FLUID DENSITY
DFV .                              64 : DRILLING FLUID VISCOSITY
DFPH.                               9 : DRILLING FLUID PH
DFL .                             4.8 : DRILLING FLUID LOSS
RMS .OHMM                         1.7 : RESISTIVITY MUD SAMPLE
MST .DEGF                          70 : MUD SAMPLE TEMPERATURE
RMB .OHMM                        0.64 : RESISTIVITY MUD AT BHT
MRT .DEGF                         192 : MAXIMUM RECORDED TEMPERATURE
LUN .                             447 : LOGGING UNIT NUMBER
ENGI.                         EDWARDS : RECORDING ENGINEER
WITN.                    MOTE HANKINS : WITNESSED BY
CLNT.                         A2DTECH : CLIENT CODE
ORIG.                     2" 5" PRINT : ORIGIN OF DATA
UWI .                100050506418W500 : UNIQUE WELL ID
DICO.          A2D Technologies, Inc. : DIGITIZING COMPANY
~Other -----------------------------------------------------
~ASCII -----------------------------------------------------
 1400.00000    -999.25    -999.25    -999.25    -999.25   28.46150    -999.25   58.46150    -999.25    -999.25    -999.25    -999.25    -999.25    -999.25    -999.25    -999.25
 1450.00000    -999.25    -999.25    -999.25    -999.25   27.35760    -999.25   57.35760    -999.25    -999.25    -999.25    -999.25    -999.25    -999.25    -999.25    -999.25
 1500.00000    -999.25    -999.25    -999.25    -999.25   35.86630   58.40640   58.40640    -999.25    -999.25  220.33620  220.33620    -999.25    -999.25    -999.25    -999.25
 1550.00000    -999.25    -999.25  129.78590    7.70500   52.51700   78.67090   78.67090    7.70500    4.97310  275.72920  275.72920    7.49210  -51.64980   -9.57890    7.49210
 1600.00000    -999.25    -999.25  261.28180    3.82740   45.44450   79.73110   79.73110    3.82740    3.72830  277.93270  277.93270    2.75190  -46.63130   -4.48550    2.75190
 1650.00000    -999.25    -999.25  130.39000    7.66930   41.28250   67.89100   67.89100    7.66930    4.87350  337.48240  337.48240    6.99570  -54.08240  -11.86240    6.99570
 1700.00000    -999.25    -999.25  182.52220    5.47920   42.11870   72.65120   72.65120    5.47920    3.79010  283.78960  283.78960    5.64860  -44.61820   -2.32330    5.64860
 1750.00000    -999.25    -999.25  235.76560    4.24150    -999.25   95.70070   95.70070    4.24150    2.81780  306.78940  306.78940    3.75830  -45.76120   -3.39210    3.75830
 1800.00000    -999.25    -999.25  178.24360    5.61030    -999.25   80.39240   80.39240    5.61030    4.12350  325.38530  325.38530    5.15910  -51.71280   -9.26910    5.15910
 1850.00000    -999.25    -999.25  145.04710    6.89940    -999.25   76.53660   76.53660    6.89940    6.50240  292.12390  292.12390    4.71990  -44.95840   -2.43980    4.71990
 1900.00000    -999.25    -999.25  276.44930    3.61730    -999.25   81.88790   81.88790    3.61730    3.19410  264.41520  264.41520    2.78420  -43.89920   -1.30640    2.78420
 1950.00000    -999.25    -999.25  127.21520    7.86120    -999.25   66.74130   66.74130    7.86120    6.83850  268.08370  268.08370    4.51240  -44.61490   -1.94710    4.51240
 2000.00000    -999.25    -999.25   84.76370   11.79750    -999.25   52.53490   52.53490   11.79750    5.98170  288.07020  288.07020   14.13560  -47.15130   -4.40930   14.13560
 2050.00000    -999.25    -999.25   64.63410   15.47170    -999.25   58.41950   58.41950   15.47170   12.65270  316.07470  316.07470   11.75730  -47.52820   -4.71160   11.75730
 2100.00000    -999.25    -999.25  142.43710    7.02130    -999.25   68.52160   68.52160    7.02130    6.86140  282.28860  282.28860    4.96690  -46.16960   -3.27810    4.96690
 2150.00000    -999.25    -999.25  198.69260    5.03290    -999.25   71.24390   71.24390    5.03290    4.48090  315.52920  315.52920    4.41610  -48.96340   -5.99770    4.41610
 2200.00000    -999.25    -999.25   97.18470   10.29470    -999.25   62.48750   62.48750   10.29470    6.64280  261.38150  261.38150    9.74500  -47.95110   -4.91050    9.74500
 2250.00000    -999.25    -999.25  186.48370    5.36240    -999.25   63.73470   63.73470    5.36240    4.58490  274.95880  274.95880    5.98250  -49.65210   -6.53730    5.98250
 2300.00000    -999.25    -999.25  236.54640    4.22750    -999.25   61.48810   61.48810    4.22750    5.29200  307.86720  307.86720    4.47040  -49.00000   -5.81060    4.47040
 2350.00000    -999.25    -999.25  184.70990    5.42160    -999.25   67.30890   67.30890    5.42160    6.91510  262.73980  262.73980    4.44600  -44.56430   -1.29990    4.44600
 2400.00000    -999.25    -999.25  141.84400    7.05000    -999.25   64.65070   64.65070    7.05000    7.42660  299.22740  299.22740    4.19140  -48.72660   -5.38810    4.19140
 2450.00000    -999.25    -999.25   61.45530   16.27450    -999.25   48.91820   48.91820   16.27450   13.86630  339.43870  339.43870   11.31500  -58.92170  -15.50820   11.31500
 2500.00000    -999.25    -999.25  135.46280    7.38210    -999.25   64.21150   64.21150    7.38210    6.12070  307.71860  307.71860    5.19910  -50.09020   -6.78260    5.19910
 2550.00000    -999.25    -999.25  170.94020    5.85000    -999.25   78.91250   78.91250    5.85000    3.71950  291.09750  291.09750    5.09430  -53.39930  -10.45640    5.09430
 2600.00000    -999.25    -999.25  289.85150    3.45020    -999.25   71.02660   71.02660    3.45020    3.13660  264.17380  264.17380    4.85060  -55.86720  -13.29080    4.85060
 2650.00000    -999.25    -999.25   88.70200   11.27370    -999.25   58.94940   58.94940   11.27370    7.68430  307.88940  307.88940   11.39230  -72.30050  -30.08690   11.39230
 2700.00000    -999.25    -999.25  123.68660    8.10350    -999.25   55.26800   55.26800    8.10350    4.80430  269.89540  269.89540    8.74110  -62.06280  -20.21580    8.74110
 2750.00000    -999.25    -999.25  139.15560    7.18620    -999.25   68.07350   68.07350    7.18620    7.21100  285.40040  285.40040    5.65890  -61.55590  -20.07170    5.65890
 2800.00000    -999.25    -999.25  169.81970    5.88860    -999.25   79.60530   79.60530    5.88860    4.93410  269.12350  269.12350    4.72760  -59.30810  -18.18850    4.72760
 2850.00000    -999.25    -999.25  147.19080    6.79540    -999.25   83.33940   83.33940    6.79540    6.23800  282.44820  282.44820    5.40000  -62.81190  -22.05890    5.40000
 2900.00000    -999.25    -999.25  102.74110    9.73320    -999.25   99.47490   99.47490    9.73320    7.14660  260.15390  260.15390    7.04940  -62.55210  -22.16190    7.04940
 2950.00000    -999.25    -999.25  109.16430    9.16050    -999.25   98.42060   98.42060    9.16050    7.49390  270.30760  270.30760    6.53090  -63.00320  -22.97940    6.53090
 3000.00000   11.95960   11.95960  113.36070    8.82140    -999.25  107.40560  107.40560    8.82140    6.64790  242.85190  242.85190    6.75180  -61.76400  -22.10310    6.75180
 3050.00000   11.72050   11.72050   70.02600   14.28040    -999.25  117.33800  117.33800   14.28040    9.46200  294.29820  294.29820   10.16410  -62.85580  -23.55960   10.16410
 3100.00000   11.78400   11.78400   78.02490   12.81680    -999.25  100.42270  100.42270   12.81680   10.97910  253.13990  253.13990    8.94720  -59.74390  -20.81420    8.94720
 3150.00000   12.06600   12.06600   89.45580   11.17870    -999.25  105.50860  105.50860   11.17870    8.11620  272.86410  272.86410    8.44240  -61.88670  -23.31980    8.44240
 3200.00000   11.35390   11.35390  114.80660    8.71050    -999.25  114.36760  114.36760    8.71050    7.00420  250.28760  250.28760    6.37860  -61.89060  -23.69020    6.37860
 3250.00000   12.08310   12.08310  101.33870    9.86790    -999.25  106.10730  106.10730    9.86790    7.18030  275.93300  275.93300    7.08640  -60.71140  -22.87380    7.08640
 3300.00000   12.54410   12.54410   87.95850   11.36900    -999.25  104.55030  104.55030   11.36900    8.17560  310.04790  310.04790    7.60950  -65.04700  -27.57410    7.60950
 3350.00000   12.16360   12.16360   95.98600   10.41850    -999.25  100.66050  100.66050   10.41850    7.90620  260.64550  260.64550    7.55820  -57.83610  -20.72960    7.55820
 3400.00000   12.15030   12.15030  104.64630    9.55600    -999.25  100.50790  100.50790    9.55600    7.46880  260.19950  260.19950    6.75340  -55.20450  -18.46090    6.75340
 3450.00000   11.88070   11.88070  119.36010    8.37810    -999.25  101.36550  101.36550    8.37810    6.42980  235.97360  235.97360    6.30190  -52.85530  -16.47820    6.30190
 3500.00000   11.34450   11.34450   87.80330   11.38910    -999.25  107.93560  107.93560   11.38910    8.24570  252.70410  252.70410    7.64110  -48.60560  -12.59140    7.64110
 3550.00000   11.06360   11.06360  111.88940    8.93740    -999.25  108.65750  108.65750    8.93740    6.32680  256.63970  256.63970    7.08970  -46.04290  -10.39330    7.08970
 3600.00000   11.14480   11.14480   78.71880   12.70340    -999.25  100.95650  100.95650   12.70340    9.38080  263.01860  263.01860    9.10440  -43.83110   -8.54810    9.10440
 3650.00000   10.46380   10.46380   98.87970   10.11330    -999.25   91.10090   91.10090   10.11330    7.54980  236.34900  236.34900    8.92570  -41.51710   -6.59690    8.92570
