~Version ---------------------------------------------------
VERS.      2.0 : CWLS log ASCII Standard -VERSION 2.0
WRAP.       NO : One line per depth step
CREA. 08/31/17 : LAS Creation Date
~Well ------------------------------------------------------
STRT.FT                        1200.0 : START DEPTH
STOP.FT                       12200.0 : STOP DEPTH
STEP.FT                      50.00000 : STEP LENGTH
NULL.                         -999.25 : NULL VALUE
COMP.                SULPETRO LIMITED : COMPANY
WELL. CAN DELHI ET AL WOLF 6-10-52-16 : WELL
FLD .                                 : FIELD
LOC .                                 : LOCATION
CTRY.                          CANADA : COUNTRY
SRVC.                    Schlumberger : SERVICE COMPANY
DATE.                     19-Apr-1969 : LOGDATE
PROV.                         Alberta : PROVINCE
UWI .                100061005216W500 : UNIQUE WELL ID
SLAT.WGS84              53.4730048794 : SURFACE LATITUDE
SLON.WGS84            -116.2792429971 : SURFACE LONGITUDE
~Curve Information -----------------------------------------
DEPT  .FT    : Depth Curve
CALSED.IN    : CALIPER FROM SLC-GR LOG
CALWS .IN    : CALIPER [CALSED]
CONDWS.MMHO  : CONDUCTIVITY [1000/DRESWS]
DRESWS.OHMM  : DEEP RESISTIVITY [ILDED]
DTED  .US/F  : DELTA-T (INTERVAL TRANSIT TIME) FROM SLC-GR LOG
DTWS  .US/F  : COMPRESSIONAL  SONIC [DTED]
GRSED .GAPI  : GAMMA RAY FROM SLC-GR LOG
GRWS  .GAPI  : GAMMA RAY [GRSED]
ILDED .OHMM  : DEEP INDUCTION RESISTIVITY FROM DIL LOG
ILMED .OHMM  : MEDIUM INDUCTION RESISTIVITY FROM DIL LOG
LL8ED .OHMM  : LATEROLOG 8 FROM DIL LOG
MRESWS.OHMM  : MEDIUM RESISTIVITY [ILMED]
SPRED .MV    : SPONTANEOUS POTENTIAL FROM DIL LOG
SPWS  .MV    : SPONTANEOUS POTENTIAL [BASELINE 0 MV, SPRED]
SRESWS.OHMM  : SHALLOW RESISTIVITY [LL8ED]
~Params ----------------------------------------------------
PD  .                     GL : PERMANENT DATUM
EPD .FT                 3113 : ELEVATION PERMANENT DATUM
LMF .                     KB : LOG MEASURED FROM
DAPD.FT                   14 : FEET ABOVE PERMANENT DATUM
EKB .FT                 3127 : KELLY BUSHING
EGL .FT                 3113 : GROUND LEVEL
DATE.               04/19/69 : RUN DATE
RUN .                      1 : RUN NUMBER
DD  .FT                12226 : DEPTH DRILLER
DL  .FT                12210 : DEPTH LOGGER
BLI .FT                12206 : BOTTOM LOG INTERVAL
TLI .FT                 1240 : TOP LOG INTERVAL
CBD .FT                 1240 : CASING BOTTOM DRILLER
CBL .FT                 1240 : CASING BOTTOM LOGGER
BS  .IN                 8.75 : BIT SIZE
BSD .FT                12226 : BIT SIZE AT DEPTH
DFT .                    GEL : DRILLING FLUID TYPE
DFD .                    9.3 : DRILLING FLUID DENSITY
DFV .                    118 : DRILLING FLUID VISCOSITY
DFPH.                     11 : DRILLING FLUID PH
DFL .                    6.2 : DRILLING FLUID LOSS
MSS .    CIRCULATED FLOWLINE : MUD SAMPLE SOURCE
RMS .OHMM               1.35 : RESISTIVITY MUD SAMPLE
MST .DEGF                 59 : MUD SAMPLE TEMPERATURE
RMF .OHMM               0.95 : RESISTIVITY MUD FILTRATE SAMPLE
MFST.DEGF                 61 : MUD FILTRATE SAMPLE TEMPERATURE
RMC .OHMM               1.16 : RESISTIVITY MUD CAKE
MCST.DEGF                 61 : MUD CAKE SAMPLE TEMPERATURE
TCS .HRS                 330 : TIME CIRCULATED STOPPED
LUN .                   7501 : LOGGING UNIT NUMBER
LUL .                    EDM : LOGGING UNIT LOCATION
ENGI.               CHADDOCK : RECORDING ENGINEER
WITN.                   HALL : WITNESSED BY
CLNT.                A2DTECH : CLIENT CODE
ORIG.            2" 5" PRINT : ORIGIN OF DATA
UWI .       100061005216W500 : UNIQUE WELL ID
DICO. A2D Technologies, Inc. : DIGITIZING COMPANY
~Other -----------------------------------------------------
~ASCII -----------------------------------------------------
# ...
 5800.00000    9.13660    9.13660   89.27510   11.20140   92.58470   92.58470   99.99890   99.99890   11.20140   11.60700   11.99760   11.60700 -102.21370   -7.13210   11.99760
 5850.00000    8.79910    8.79910  113.70740    8.79450   80.95750   80.95750   93.66290   93.66290    8.79450    8.46340    7.80860    8.46340 -103.03760   -8.13180    7.80860
 5900.00000    9.45310    9.45310  105.46680    9.48230   79.27200   79.27200   86.02310   86.02310    9.48230    8.95070    8.17390    8.95070 -102.98420   -8.25300    8.17390
 5950.00000   10.19180   10.19180   87.31340   11.45300   76.01880   76.01880   93.82140   93.82140   11.45300   10.87440   10.23710   10.87440 -102.54790   -7.99250   10.23710
 6000.00000   11.95000   11.95000   99.79440   10.02060  161.16670  161.16670   84.88990   84.88990   10.02060    9.39840    8.63360    9.39840 -102.06290   -7.68210    8.63360
 6050.00000   10.03440   10.03440   91.46350   10.93420   79.36590   79.36590   89.46020   89.46020   10.93420   10.49220    9.62170   10.49220 -101.41350   -7.20730    9.62170
 6100.00000   10.21360   10.21360  101.54450    9.84790   82.86160   82.86160   92.55040   92.55040    9.84790   10.34950   10.61450   10.34950 -100.14970   -6.11930   10.61450
 6150.00000    9.25680    9.25680  112.93570    8.85460   80.01660   80.01660   98.97800   98.97800    8.85460    9.33670    9.63840    9.33670 -100.66030   -6.80450    9.63840
 6200.00000   10.93820   10.93820  113.09790    8.84190   79.02520   79.02520   90.00270   90.00270    8.84190    8.91040    8.97130    8.91040  -99.41390   -5.73390    8.97130
 6250.00000    8.82290    8.82290   90.31470   11.07240   79.14890   79.14890   94.65090   94.65090   11.07240   10.43290    9.88680   10.43290  -98.88310   -5.37770    9.88680
 6300.00000   11.51190   11.51190   74.93460   13.34540   76.31980   76.31980   85.49230   85.49230   13.34540   12.72870   12.28010   12.72870  -98.59650   -5.26580   12.28010
 6350.00000    9.56330    9.56330   51.91300   19.26300   73.62270   73.62270   71.16760   71.16760   19.26300   19.65160   21.63420   19.65160  -99.74500   -6.59000   21.63420
 6400.00000   10.10890   10.10890   55.57900   17.99270   69.17940   69.17940   80.65480   80.65480   17.99270   20.20070   20.69440   20.20070  -98.50810   -5.52780   20.69440
 6450.00000    9.57780    9.57780   68.46310   14.60640   75.88670   75.88670   94.07500   94.07500   14.60640   14.16790   13.12270   14.16790  -97.99660   -5.19200   13.12270
 6500.00000   11.10430   11.10430   70.85520   14.11330  124.59220  124.59220   94.95110   94.95110   14.11330   13.72100   13.29000   13.72100  -97.63830   -5.00840   13.29000
 6550.00000   11.10070   11.10070   87.62430   11.41280   84.12180   84.12180  104.26750  104.26750   11.41280   11.02790   10.27810   11.02790  -97.34520   -4.88990   10.27810
 6600.00000   11.10840   11.10840   72.58580   13.77680   78.16220   78.16220   88.10670   88.10670   13.77680   14.00220   13.05630   14.00220  -96.94610   -4.66660   13.05630
 6650.00000   11.12890   11.12890   84.22010   11.87380   79.44300   79.44300   99.88640   99.88640   11.87380   12.22070   11.15970   12.22070  -96.35090   -4.24600   11.15970
 6700.00000   12.47560   12.47560   93.33320   10.71430   89.27030   89.27030  102.30440  102.30440   10.71430   11.06720   10.26010   11.06720  -96.13210   -4.20300   10.26010
 6750.00000    9.80820    9.80820   54.41380   18.37770   81.01560   81.01560  106.36950  106.36950   18.37770   21.88830   23.10120   21.88830  -96.45010   -4.69560   23.10120
 6800.00000   10.60980   10.60980   71.28960   14.02750  106.72130  106.72130  113.44680  113.44680   14.02750   14.62900   15.46380   14.62900  -96.05020   -4.47030   15.46380
 6850.00000   11.00140   11.00140   70.67140   14.15000  113.16530  113.16530  104.14960  104.14960   14.15000   15.99240   18.53170   15.99240  -96.27940   -4.87530   18.53170
 6900.00000    9.63770    9.63770   66.25570   15.09400   84.33140   84.33140  105.83410  105.83410   15.09400   16.75590   19.66520   16.75590  -95.53270   -4.30320   19.66520
 6950.00000    9.59700    9.59700   64.87480   15.41430   85.88050   85.88050  107.28300  107.28300   15.41430   17.65970   21.26060   17.65970  -94.71760   -3.66390   21.26060
 7000.00000    9.11860    9.11860   59.58870   16.78170   81.69050   81.69050   90.41330   90.41330   16.78170   17.52100   22.19450   17.52100  -94.46850   -3.58940   22.19450
 7050.00000   11.24610   11.24610   62.16220   16.09030   83.61980   83.61980   76.34820   76.34820   16.09030   21.89380   23.49470   21.89380  -94.31150   -3.60700   23.49470
 7100.00000   13.56890   13.56890   54.93420   18.20360   91.92450   91.92450   95.42790   95.42790   18.20360   20.94540   17.53310   20.94540  -93.63370   -3.10500   17.53310
 7150.00000    9.93590    9.93590   97.21050   10.29810   87.12640   87.12640   83.26930   83.26930   10.29810   11.60870   12.85940   11.60870  -95.30820   -4.95410   12.85940
 7200.00000   10.27140   10.27140   89.06230   11.22810   83.47500   83.47500   96.58400   96.58400   11.22810   10.83860   12.35890   10.83860  -95.09440   -4.91610   12.35890
 7250.00000   12.44520   12.44520  123.74710    8.08100   85.26620   85.26620   89.03620   89.03620    8.08100    8.50970    8.46050    8.50970  -93.91800   -3.91430    8.46050
 7300.00000   11.04790   11.04790   97.28500   10.27950   84.08760   84.08760   90.12360   90.12360   10.27950   10.72990   11.53740   10.72990  -95.22500   -5.39600   11.53740
 7350.00000   11.30660   11.30660  113.05180    8.84550   82.25970   82.25970   99.91650   99.91650    8.84550    9.33650    9.66640    9.33650  -94.00850   -4.35520    9.66640
 7400.00000   12.96050   12.96050  139.22580    7.18260   86.24240   86.24240  100.47880  100.47880    7.18260    7.46490    8.02240    7.46490  -93.11820   -3.63960    8.02240
 7450.00000   12.36280   12.36280  192.40390    5.19740   92.37180   92.37180   77.89700   77.89700    5.19740    5.06720    4.70590    5.06720  -91.91350   -2.61070    4.70590
 7500.00000   12.83570   12.83570  193.87360    5.15800   96.55400   96.55400   85.72730   85.72730    5.15800    4.75550    5.33880    4.75550  -93.98210   -5.18490    5.33880
 7550.00000   11.65530   11.65530  113.18520    8.83510   81.50790   81.50790   81.89990   81.89990    8.83510    8.33800    9.60260    8.33800  -94.80530   -6.64860    9.60260
 7600.00000    9.72970    9.72970   52.80050   18.93920   70.91580   70.91580   81.71480   81.71480   18.93920   20.65270   21.25600   20.65270  -95.56880   -8.05680   21.25600
 7650.00000   11.21000   11.21000  129.34570    7.75400   88.08590   88.08590   61.31960   61.31960    7.75400    7.69550    7.67180    7.69550  -96.78110   -9.90960    7.67180
 7700.00000    9.23730    9.23730   90.77710   11.01600   74.62180   74.62180   80.25030   80.25030   11.01600    9.07810    9.79080    9.07810  -92.94690   -6.72010    9.79080
 7750.00000    9.89970    9.89970   48.72530   20.52320   68.40310   68.40310   59.79230   59.79230   20.52320   27.21820   21.88420   27.21820  -98.98210  -13.39580   21.88420
 7800.00000    9.95270    9.95270   44.46360   22.52640   76.39280   76.39280   76.52530   76.52530   22.52640   16.31690   18.83750   16.31690  -95.13350  -10.18770   18.83750
 7850.00000    9.08840    9.08840   50.60040   19.76270   66.22650   66.22650   57.97600   57.97600   19.76270   27.65390   43.66210   27.65390  -93.91070   -9.60960   43.66210
 7900.00000    9.93090    9.93090  106.67770    9.37870   77.29970   77.29970   79.72500   79.72500    9.37870    6.62520    8.59990    6.62520  -94.95750  -11.29690    8.59990
 7950.00000    8.78060    8.78060   65.38550   15.29390   68.53600   68.53600   56.57070   56.57070   15.29390   16.36670   17.32410   16.36670  -99.38390  -16.36800   17.32410
 8000.00000    9.42510    9.42510   49.72750   20.10960   68.25650   68.25650   60.62030   60.62030   20.10960   21.75010   23.87090   21.75010  -97.40800  -15.03260   23.87090
 8050.00000    9.37250    9.37250   40.00710   25.00430   67.56810   67.56810   48.28890   48.28890   25.00430   26.35930   31.55250   26.35930  -98.07070  -16.33580   31.55250
