~Version ---------------------------------------------------
VERS.      2.0 : CWLS log ASCII Standard -VERSION 2.0
WRAP.       NO : One line per depth step
CREA. 12/14/17 : LAS Creation Date
~Well ------------------------------------------------------
STRT.FT                          1300.0 : START DEPTH
STOP.FT                         13000.0 : STOP DEPTH
STEP.FT                        50.00000 : STEP LENGTH
NULL.                           -999.25 : NULL VALUE
COMP.            AMERADA PETROLEUM CORP : COMPANY
WELL. AMERADA HB CR DR SUNDRE 4-16-33-5 : WELL
FLD .                           WILDCAL : FIELD
LOC .                                   : LOCATION
CTRY.                            CANADA : COUNTRY
SRVC.                      Schlumberger : SERVICE COMPANY
DATE.                       14-Sep-1963 : LOGDATE
PROV.                           Alberta : PROVINCE
UWI .                  100041603305W500 : UNIQUE WELL ID
SLAT.WGS84                     51.82557 : SURFACE LATITUDE
SLON.WGS84                    -114.6593 : SURFACE LONGITUDE
~Curve Information -----------------------------------------
DEPT  .FT    : Depth Curve
CALSED.IN    : CALIPER FROM SONIC LOG, DEPTH ADJUSTED WITH [ILDED]
CALWS .IN    : CALIPER [CALSED]
CILDED.MMHO  : CONDUCTIVITY FROM RESISTIVITY LOG
CONDWS.MMHO  : CONDUCTIVITY [1000/DRESWS]
DRESWS.OHMM  : DEEP RESISTIVITY [ILDED] IF DRESWS<1;1000/CONDWS
DTED  .US/F  : DELTA TIME FROM SONIC LOG, DEPTH ADJUSTED WITH [ILDED]
DTWS  .US/F  : DELTA TIME [DTED]
GRSED .GAPI  : GAMMA RAY FROM SONIC LOG, DEPTH ADJUSTED WITH [ILDED]
GRWS  .GAPI  : GAMMA RAY [GRSED]
ILDED .OHMM  : INDUCTION LOG DEEP RESISTIVITY
SNED  .OHMM  : 16 INCH SHORT NORMAL RESISTIVITY FROM IEL
SPRED .MV    : SPONTANEOUS POTENTIAL FROM RESISTIVITY LOG
SPWS  .MV    : SPONTANEOUS POTENTIAL [BASELINE 0 MV] [SPRED]
SRESWS.OHMM  : SHALLOW RESISTIVITY [SNED]
~Params ----------------------------------------------------
PD  .                     GL : PERMANENT DATUM
EPD .FT                 3748 : ELEVATION PERMANENT DATUM
LMF .                     KB : LOG MEASURED FROM
DAPD.FT                   15 : FEET ABOVE PERMANENT DATUM
EKB .FT                 3763 : KELLY BUSHING
EGL .FT                 3748 : GROUND LEVEL
DATE.               09/14/63 : RUN DATE
RUN .                      3 : RUN NUMBER
DD  .FT                13033 : DEPTH DRILLER
DL  .FT                13033 : DEPTH LOGGER
BLI .FT                13032 : BOTTOM LOG INTERVAL
TLI .FT                12190 : TOP LOG INTERVAL
BS  .IN                 8.75 : BIT SIZE
BSD .FT                13033 : BIT SIZE AT DEPTH
DFT .                    GEL : DRILLING FLUID TYPE
DFD .                     10 : DRILLING FLUID DENSITY
DFV .                    255 : DRILLING FLUID VISCOSITY
DFPH.                     11 : DRILLING FLUID PH
DFL .                    5.8 : DRILLING FLUID LOSS
RMS .OHMM               1.42 : RESISTIVITY MUD SAMPLE
MST .DEGF                 56 : MUD SAMPLE TEMPERATURE
RMF .OHMM               0.91 : RESISTIVITY MUD FILTRATE SAMPLE
MFST.DEGF                 57 : MUD FILTRATE SAMPLE TEMPERATURE
RMC .OHMM               1.56 : RESISTIVITY MUD CAKE
MCST.DEGF                 58 : MUD CAKE SAMPLE TEMPERATURE
RMB .OHMM               0.42 : RESISTIVITY MUD AT BHT
TCS .HRS                   2 : TIME CIRCULATED STOPPED
LUN .                   4508 : LOGGING UNIT NUMBER
LUL .                     RD : LOGGING UNIT LOCATION
ENGI.                   LYNN : RECORDING ENGINEER
WITN.                MERRETT : WITNESSED BY
CLNT.                A2DTECH : CLIENT CODE
ORIG.            2" 5" PRINT : ORIGIN OF DATA
UWI .       100041603305W500 : UNIQUE WELL ID
DICO. A2D Technologies, Inc. : DIGITIZING COMPANY
~Other -----------------------------------------------------
~ASCII -----------------------------------------------------
# ...
 3750.00000    -999.25    -999.25   74.90680   74.91370   13.34870    -999.25    -999.25    -999.25    -999.25   13.34870   13.36870  -33.26720  -13.12720   13.36870
 3800.00000    -999.25    -999.25   40.18680   39.32980   25.42600    -999.25    -999.25    -999.25    -999.25   25.42600   21.03520  -41.64660  -21.65520   21.03520
 3850.00000    -999.25    -999.25   88.25780   94.04770   10.63290    -999.25    -999.25    -999.25    -999.25   10.63290    9.79910  -30.41750  -10.57470    9.79910
 3900.00000    -999.25    -999.25   99.04750   99.06580   10.09430    -999.25    -999.25    -999.25    -999.25   10.09430   10.59620  -30.52960  -10.83540   10.59620
 3950.00000    -999.25    -999.25  153.76450  153.05500    6.53360    -999.25    -999.25    -999.25    -999.25    6.53360    7.21550  -31.61010  -12.06450    7.21550
 4000.00000    -999.25    -999.25  148.64430  149.68270    6.68080    -999.25    -999.25    -999.25    -999.25    6.68080    6.49990  -32.95720  -13.56020    6.49990
 4050.00000    -999.25    -999.25   83.08370   83.36320   11.99570    -999.25    -999.25    -999.25    -999.25   11.99570   11.33320  -33.61690  -14.36840   11.33320
 4100.00000    -999.25    -999.25  143.81710  142.54760    7.01520    -999.25    -999.25    -999.25    -999.25    7.01520    9.76390  -33.14160  -14.04170    9.76390
 4150.00000    -999.25    -999.25  169.51220  171.74460    5.82260    -999.25    -999.25    -999.25    -999.25    5.82260    6.15480  -33.23700  -14.28570    6.15480
 4200.00000    -999.25    -999.25  143.16940  144.96540    6.89820    -999.25    -999.25    -999.25    -999.25    6.89820    9.32430  -36.42670  -17.62400    9.32430
 4250.00000    -999.25    -999.25  135.11660  135.29970    7.39100    -999.25    -999.25    -999.25    -999.25    7.39100    9.00080  -36.50910  -17.85500    9.00080
 4300.00000    -999.25    -999.25  161.61900  160.83380    6.21760    -999.25    -999.25    -999.25    -999.25    6.21760    6.84040  -31.53640  -13.03090    6.84040
 4350.00000    -999.25    -999.25   85.34770   86.17420   11.60440    -999.25    -999.25    -999.25    -999.25   11.60440   11.08760  -29.69630  -11.33940   11.08760
 4400.00000    -999.25    -999.25  144.79970  135.95080    7.35560    -999.25    -999.25    -999.25    -999.25    7.35560    8.04770  -30.57390  -12.36550    8.04770
 4450.00000    -999.25    -999.25  108.44440  108.43630    9.22200    -999.25    -999.25    -999.25    -999.25    9.22200    9.87780  -31.98860  -13.92880    9.87780
 4500.00000    -999.25    -999.25  131.13580  131.23530    7.61990    -999.25    -999.25    -999.25    -999.25    7.61990    9.43000  -32.82850  -14.91730    9.43000
 4550.00000    -999.25    -999.25   36.46880   37.17750   26.89800    -999.25    -999.25    -999.25    -999.25   26.89800   22.77230  -44.91800  -27.15540   22.77230
 4600.00000    -999.25    -999.25  162.49770  161.03320    6.20990    -999.25    -999.25    -999.25    -999.25    6.20990    8.71690  -28.90960  -11.29560    8.71690
 4650.00000    -999.25    -999.25   75.96360   75.10720   13.31430    -999.25    -999.25    -999.25    -999.25   13.31430   13.72450  -30.70580  -13.24040   13.72450
 4700.00000    -999.25    -999.25  110.78490  109.99530    9.09130    -999.25    -999.25    -999.25    -999.25    9.09130    9.42950  -29.99110  -12.67430    9.42950
 4750.00000    -999.25    -999.25   57.50700   66.72720   14.98640    -999.25    -999.25    -999.25    -999.25   14.98640   19.68630  -31.00750  -13.83920   19.68630
 4800.00000    -999.25    -999.25  186.04360  180.74360    5.53270    -999.25    -999.25    -999.25    -999.25    5.53270    6.33220  -27.37450  -10.35480    6.33220
 4850.00000    -999.25    -999.25  160.22810  145.95770    6.85130    -999.25    -999.25    -999.25    -999.25    6.85130    7.63990  -26.69350   -9.82240    7.63990
 4900.00000    -999.25    -999.25  289.46540  242.54770    4.12290    -999.25    -999.25    -999.25    -999.25    4.12290    4.80490  -25.49270   -8.77020    4.80490
 4950.00000    -999.25    -999.25   70.44590   74.53400   13.41670    -999.25    -999.25    -999.25    -999.25   13.41670   14.43740  -25.27510   -8.70120   14.43740
 5000.00000    -999.25    -999.25   90.35090   90.34730   11.06840    -999.25    -999.25    -999.25    -999.25   11.06840   11.16940  -24.54110   -8.11580   11.16940
 5050.00000    -999.25    -999.25   83.67940   83.92220   11.91580    -999.25    -999.25    -999.25    -999.25   11.91580   13.42510  -26.18840   -9.91170   13.42510
 5100.00000    -999.25    -999.25  170.28470  160.82860    6.21780    -999.25    -999.25    -999.25    -999.25    6.21780    7.61460  -25.26260   -9.13440    7.61460
 5150.00000    -999.25    -999.25   88.34250   90.95620   10.99430    -999.25    -999.25    -999.25    -999.25   10.99430   11.22870  -26.04560  -10.06600   11.22870
 5200.00000    -999.25    -999.25   93.12990   93.11850   10.73900    -999.25    -999.25    -999.25    -999.25   10.73900    9.90950  -24.23130   -8.40030    9.90950
 5250.00000    -999.25    -999.25   96.21140   96.19550   10.39550    -999.25    -999.25    -999.25    -999.25   10.39550   10.71510  -24.25930   -8.57690   10.71510
 5300.00000    -999.25    -999.25   48.49180   49.54150   20.18510    -999.25    -999.25    -999.25    -999.25   20.18510   22.72410  -27.21060  -11.67680   22.72410
 5350.00000    -999.25    -999.25  125.80320  125.82730    7.94740    -999.25    -999.25    -999.25    -999.25    7.94740    9.21460  -23.37120   -7.98600    9.21460
 5400.00000    -999.25    -999.25   65.88010   59.92110   16.68860    -999.25    -999.25    -999.25    -999.25   16.68860   15.26090  -20.86880   -5.63220   15.26090
 5450.00000    -999.25    -999.25   22.13860   23.82150   41.97880    -999.25    -999.25    -999.25    -999.25   41.97880   31.27220  -44.39520  -29.30710   31.27220
 5500.00000    -999.25    -999.25   82.37340   77.69220   12.87130    -999.25    -999.25    -999.25    -999.25   12.87130   14.48210  -16.61490   -1.68070   14.48210
 5550.00000    -999.25    -999.25   52.17850   52.31520   19.11490    -999.25    -999.25    -999.25    -999.25   19.11490   22.39640  -21.99340   -7.25190   22.39640
 5600.00000    -999.25    -999.25   83.28820   79.87090   12.52020    -999.25    -999.25    -999.25    -999.25   12.52020   13.48170  -16.41060   -1.86190   13.48170
 5650.00000    -999.25    -999.25   39.53420   41.98910   23.81570    -999.25    -999.25    -999.25    -999.25   23.81570   19.84980  -18.72440   -4.36840   19.84980
 5700.00000    -999.25    -999.25   96.85930   90.85050   11.00710    -999.25    -999.25    -999.25    -999.25   11.00710   13.84030  -21.27180   -7.10850   13.84030
 5750.00000    -999.25    -999.25   29.27580   26.40200   37.87590    -999.25    -999.25    -999.25    -999.25   37.87590   37.27140  -39.43700  -25.46640   37.27140
 5800.00000    -999.25    -999.25   36.08520   34.56110   28.93430    -999.25    -999.25    -999.25    -999.25   28.93430   25.81810  -21.59310   -7.81520   25.81810
 5850.00000    -999.25    -999.25  117.85120  115.33230    8.67060    -999.25    -999.25    -999.25    -999.25    8.67060   11.77900  -17.40750   -3.82230   11.77900
 5900.00000   11.65720   11.65720   85.87180   80.04030   12.49370    -999.25    -999.25    -999.25    -999.25   12.49370   15.64130  -19.47510   -6.08270   15.64130
 5950.00000   12.15720   12.15720  104.20130  104.21880    9.59520   66.15550   66.15550   79.71540   79.71540    9.59520   11.83090  -17.36260   -4.16290   11.83090
 6000.00000   12.02770   12.02770   97.04760   98.95900   10.10520   76.16460   76.16460   70.27870   70.27870   10.10520   12.15030  -19.59300   -6.58600   12.15030
 6050.00000   10.48780   10.48780   20.01360   15.91540   62.83220   75.92790   75.92790   75.17460   75.17460   62.83220   54.21470  -59.71190  -46.89760   54.21470
 6100.00000   11.55960   11.55960   51.94040   46.91420   21.31550   67.46650   67.46650   86.16360   86.16360   21.31550   21.75030  -21.08800   -8.46640   21.75030
 6150.00000   11.19170   11.19170   18.54580   14.59420   68.52040   61.41370   61.41370   73.05270   73.05270   68.52040   54.39580  -28.01720  -15.58830   54.39580
