~Version ---------------------------------------------------
VERS.      2.0 : CWLS log ASCII Standard -VERSION 2.0
WRAP.       NO : One line per depth step
CREA. 11/16/17 : LAS Creation Date
~Well ------------------------------------------------------
STRT.FT                       1050.0 : START DEPTH
STOP.FT                      11200.0 : STOP DEPTH
STEP.FT                     50.00000 : STEP LENGTH
NULL.                        -999.25 : NULL VALUE
COMP.         CALIFORNIA STANDARD CO : COMPANY
WELL. CALSTAN B.A. KAYBOB 2-18-62-18 : WELL
FLD .                             WC : FIELD
LOC .                                : LOCATION
CTRY.                         CANADA : COUNTRY
SRVC.                   Schlumberger : SERVICE COMPANY
DATE.                    31-Mar-1959 : LOGDATE
PROV.                        Alberta : PROVINCE
UWI .               100021806218W500 : UNIQUE WELL ID
SLAT.WGS84                  54.35781 : SURFACE LATITUDE
SLON.WGS84                 -116.6847 : SURFACE LONGITUDE
~Curve Information -----------------------------------------
DEPT  .FT         : Depth Curve
CALWS .IN         : CALIPER [MCALED]
CILDED.MMHO       : CONDUCTIVITY FROM RESISTIVITY LOG
CONDWS.MMHO       : CONDUCTIVITY [1000/DRESWS]
DRESWS.OHMM       : DEEP RESISTIVITY [1000/CILDED IF ILDED < 1, ILDED]
DT1ED .US/F       : SONIC FROM SONIC LOG [ADJ TO RESISTIVITY LOG]
DTED  .US/F       : SONIC FROM SONIC LOG [ADJ TO RESISTIVITY LOG]
DTWS  .US/F       : COMPRESSIONAL SONIC [DTED]
GRSED .UgRa-Eq/T  : GAMMA RAY FROM SONIC LOG [ADJ TO RESISTIVITY LOG]
GRWS  .GAPI       : GAMMA RAY [GRSED*16.50]
ILDED .OHMM       : INDUCTION DEEP FROM RESISTIVITY LOG
MCALED.IN         : CALIPER FROM MICROLOG [ADJ TO RESISTIVITY LOG]
SNED  .OHMM       : SHORT NORMAL FROM RESISTIVITY LOG
SPRED .MV         : SPONTANEOUS POTENTIAL FROM RESISTIVITY LOG
SPWS  .MV         : SPONTANEOUS POTENTIAL [BASELINE 0 MV, SPRED]
SRESWS.OHMM       : SHALLOW RESISTIVITY [SNED]
~Params ----------------------------------------------------
LMF .                     KB : LOG MEASURED FROM
DMF .                     KB : DRILLING MEASURED FROM
EKB .FT                 2888 : KELLY BUSHING
EGL .FT                 2876 : GROUND LEVEL
DATE.               03/31/59 : RUN DATE
RUN .                      2 : RUN NUMBER
DD  .FT                11256 : DEPTH DRILLER
DL  .FT                11246 : DEPTH LOGGER
BLI .FT                11241 : BOTTOM LOG INTERVAL
TLI .FT                 2250 : TOP LOG INTERVAL
BS  .IN                    9 : BIT SIZE
BSD .FT                11256 : BIT SIZE AT DEPTH
DFT .               OIL EMUL : DRILLING FLUID TYPE
DFD .                   10.6 : DRILLING FLUID DENSITY
DFV .                    112 : DRILLING FLUID VISCOSITY
DFPH.                    9.5 : DRILLING FLUID PH
DFL .                    5.4 : DRILLING FLUID LOSS
RMS .OHMM                  3 : RESISTIVITY MUD SAMPLE
MST .DEGF                 64 : MUD SAMPLE TEMPERATURE
RMF .OHMM                  2 : RESISTIVITY MUD FILTRATE SAMPLE
MFST.DEGF                 77 : MUD FILTRATE SAMPLE TEMPERATURE
RMC .OHMM                3.3 : RESISTIVITY MUD CAKE
MCST.DEGF                 77 : MUD CAKE SAMPLE TEMPERATURE
RMB .OHMM               0.96 : RESISTIVITY MUD AT BHT
TCS .HRS                 7.5 : TIME CIRCULATED STOPPED
LUN .                   1573 : LOGGING UNIT NUMBER
LUL .                    W C : LOGGING UNIT LOCATION
ENGI.               SHERRIFF : RECORDING ENGINEER
WITN.                  SMITH : WITNESSED BY
CLNT.                A2DTECH : CLIENT CODE
ORIG.            2" 5" PRINT : ORIGIN OF DATA
UWI .       100021806218W500 : UNIQUE WELL ID
DICO. A2D Technologies, Inc. : DIGITIZING COMPANY
~Other -----------------------------------------------------
~ASCII -----------------------------------------------------
# ...
 5650.00000   10.03420   87.89650   86.46330   11.56560    -999.25   77.84710   77.84710    7.82590  129.12740   11.56560   10.03420   16.13160 -136.70540  -11.40640   16.13160
 5700.00000    9.86940   92.84110   98.03440   10.20050    -999.25   75.54230   75.54230    6.74950  111.36680   10.20050    9.86940   13.59370 -146.18280  -21.65340   13.59370
 5750.00000   10.23880   73.18710   76.31140   13.10420    -999.25   87.87700   87.87700    7.88950  130.17680   13.10420   10.23880   20.96260 -132.37110   -8.60630   20.96260
 5800.00000   10.14480  124.52180  132.84090    7.52780    -999.25   79.78950   79.78950    6.19050  102.14320    7.52780   10.14480    9.72890 -133.58140  -10.58120    9.72890
 5850.00000    9.90130   57.01580   58.93100   16.96900    -999.25   74.28440   74.28440    7.43980  122.75670   16.96900    9.90130   23.54170 -126.90320   -6.27070   23.54170
 5900.00000   10.07630   37.81340   39.93260   25.04220    -999.25   81.42770   81.42770    6.59130  108.75650   25.04220   10.07630   40.16370 -122.45860   -7.17400   40.16370
 5950.00000   10.53550   57.85480   63.41360   15.76950    -999.25   79.28980   79.28980    8.32360  137.33940   15.76950   10.53550   21.57800 -126.12220  -12.45050   21.57800
 6000.00000   11.09790   49.87430   52.71760   18.96900    -999.25  101.28050  101.28050    7.77120  128.22480   18.96900   11.09790   30.58890 -121.91030   -9.49300   30.58890
 6050.00000   10.43350   71.82380   76.12900   13.13560    -999.25   76.16010   76.16010    6.38640  105.37560   13.13560   10.43350   18.51750 -123.35450  -12.19170   18.51750
 6100.00000   10.35500   58.52260   61.44430   16.27490    -999.25   74.64270   74.64270    7.78380  128.43270   16.27490   10.35500   21.14020 -116.71540   -6.81540   21.14020
 6150.00000   10.20570  133.96950  144.08810    6.94020    -999.25   76.75760   76.75760    6.60940  109.05510    6.94020   10.20570    9.86540 -118.60380   -9.73770    9.86540
 6200.00000   10.15270   95.57060   99.57780   10.04240    -999.25   80.81340   80.81340    7.77310  128.25620   10.04240   10.15270   14.28550 -116.12280   -7.87050   14.28550
 6250.00000    9.96110   42.66400   44.10490   22.67320    -999.25   72.21610   72.21610    8.04090  132.67490   22.67320    9.96110   30.29610 -113.80140   -6.15880   30.29610
 6300.00000    9.67570   10.52250    8.87490  112.67770    -999.25   61.87180   61.87180    5.41620   89.36730  112.67770    9.67570   83.25330 -127.42370  -20.12500   83.25330
 6350.00000   10.78440   55.55200   59.90530   16.69300    -999.25   83.91710   83.91710    8.71200  143.74800   16.69300   10.78440   24.82380 -120.92910  -12.93190   24.82380
 6400.00000    9.75570  111.46440  108.23330    9.23930    -999.25   74.55600   74.55600    6.75800  111.50700    9.23930    9.75570   15.34190 -144.70850  -36.01730   15.34190
 6450.00000   14.50540  279.75880  376.19440    2.65820    -999.25  120.12660  120.12660    9.39310  154.98620    2.65820   14.50540    4.69990 -118.67420  -11.62880    4.69990
 6500.00000   14.09130  217.21390  264.52930    3.78030    -999.25   94.78450   94.78450    7.68430  126.79100    3.78030   14.09130    5.86710 -115.96160  -13.38640    5.86710
 6550.00000    9.32360   15.77980   10.39890   96.16370    -999.25   94.59190   94.59190   16.58380  273.63270   96.16370    9.32360   97.50490 -107.97520   -9.87020   97.50490
 6600.00000    9.43000   63.59860   55.06060   18.16180    -999.25   97.15750   97.15750    8.26560  136.38240   18.16180    9.43000   36.22970 -108.29130  -14.68600   36.22970
 6650.00000    9.40120    6.71720    3.83390  260.83430   74.11170   89.43420   89.43420   16.50690  272.36390  260.83430    9.40120  119.21660 -120.94380  -30.49550  119.21660
 6700.00000    9.39880   47.19040   49.80870   20.07680   64.10440   63.98130   63.98130    8.92530  147.26750   20.07680    9.39880   27.43830 -119.35160  -25.67490   27.43830
 6750.00000    9.16080   60.71020   64.19430   15.57770   67.82340   67.56200   67.56200    8.74460  144.28590   15.57770    9.16080   21.13640 -140.52140  -43.63750   21.13640
 6800.00000    8.70690  106.00660  113.16830    8.83640   57.61070   57.40260   57.40260    4.73440   78.11760    8.83640    8.70690   22.41170 -210.11660 -110.02540   22.41170
 6850.00000    8.82700   44.40490   45.20610   22.12090   56.19830   56.22200   56.22200    5.34030   88.11500   22.12090    8.82700   37.88850 -179.70250  -76.38290   37.88850
 6900.00000    9.34870   94.29710   94.63510   10.56690   60.25430   59.85500   59.85500    6.62600  109.32900   10.56690    9.34870   23.11400 -139.77630  -44.77130   23.11400
 6950.00000    9.35270   38.74220   30.41560   32.87790   53.84980   53.84150   53.84150    6.57870  108.54860   32.87790    9.35270   61.14940  -89.67770   -8.59590   61.14940
 7000.00000    8.39460  127.06410  133.91360    7.46750   61.47830   61.23350   61.23350    7.44320  122.81280    7.46750    8.39460   31.36020 -215.78720 -127.14160   31.36020
 7050.00000    9.28310   54.49650   49.09010   20.37070   59.89290   59.75480   59.75480    7.05120  116.34480   20.37070    9.28310   37.85090 -144.11580  -47.90630   37.85090
 7100.00000    9.35810  117.74560  115.01660    8.69440   55.19680   55.02950   55.02950    5.77270   95.24950    8.69440    9.35810   25.20720 -174.05420  -70.23110   25.20720
 7150.00000    9.67490    9.70730    3.09720  322.87260   57.17150   56.96140   56.96140    5.43200   89.62800  322.87260    9.67490  203.47530 -200.50960  -93.35240  203.47530
 7200.00000    8.58720   41.73320   36.20380   27.62140   58.59670   58.62080   58.62080    4.84810   79.99360   27.62140    8.58720   85.53370 -277.19010 -170.03290   85.53370
 7250.00000    8.93010   18.14050   10.80770   92.52620   55.61880   55.40770   55.40770    4.61770   76.19210   92.52620    8.93010  133.81090 -247.89390 -140.73670  133.81090
 7300.00000    9.22390  227.33360  245.82710    4.06790   61.60500   61.44570   61.44570    7.29770  120.41200    4.06790    9.22390   12.28370 -182.56480  -75.40760   12.28370
 7350.00000    9.08570   56.65260   50.00430   19.99830   60.41740   60.45900   60.45900    7.82790  129.16030   19.99830    9.08570   30.96140 -113.89040  -10.83450   30.96140
 7400.00000    9.22030  119.23520  121.00240    8.26430   64.92660   64.64520   64.64520    7.23140  119.31810    8.26430    9.22030   14.22960  -97.87140  -11.93310   14.22960
 7450.00000    9.25840   22.56770   18.03150   55.45850   59.00850   58.83250   58.83250    6.52810  107.71370   55.45850    9.25840   63.29870  -93.82150  -10.64510   63.29870
 7500.00000    9.44160   46.42930   20.19590   49.51490   56.59550   56.39080   56.39080    4.88940   80.67510   49.51490    9.44160   64.00490 -133.44840  -53.01590   64.00490
 7550.00000    9.18720   38.32070   32.28700   30.97220   58.02880   57.89100   57.89100    5.58990   92.23340   30.97220    9.18720   61.10870 -172.02130  -94.33270   61.10870
 7600.00000    9.07430   35.32680   29.00950   34.47150   58.56570   58.37050   58.37050    7.47590  123.35240   34.47150    9.07430   43.17900  -89.76150  -14.83480   43.17900
 7650.00000    9.15020   20.66880   14.98540   66.73150   58.48670   58.29970   58.29970    6.57550  108.49580   66.73150    9.15020   71.53100  -88.15920  -15.97640   71.53100
 7700.00000    9.26870   14.61220    7.64030  130.88460   56.34700   56.14070   56.14070    6.12510  101.06420  130.88460    9.26870   99.66990  -78.40940   -8.98850   99.66990
 7750.00000    9.09620    9.70770    3.34150  299.26390   53.02680   52.87890   52.87890    5.92170   97.70810  299.26390    9.09620  170.28240  -90.15020  -18.80080  170.28240
 7800.00000    9.12140    9.70570    1.66670  600.00000   55.90900   55.66360   55.66360    6.18610  102.07070  600.00000    9.12140  141.41580  -83.75750   -9.13330  141.41580
 7850.00000    9.09670    9.16980    1.66670  600.00000   64.02050   63.79900   63.79900    8.55280  141.12120  600.00000    9.09670  151.86060  -85.01080   -7.09020  151.86060
 7900.00000    9.21000   72.06410   48.91150   20.44510   72.29940   71.30170   71.30170   18.91280  312.06120   20.44510    9.21000   49.28390 -101.96090  -10.03080   49.28390
