~Version ---------------------------------------------------
VERS.      2.0 : CWLS log ASCII Standard -VERSION 2.0
WRAP.       NO : One line per depth step
CREA. 11/07/17 : LAS Creation Date
~Well ------------------------------------------------------
STRT.FT                            700.0 : START DEPTH
STOP.FT                           5900.0 : STOP DEPTH
STEP.FT                         50.00000 : STEP LENGTH
NULL.                            -999.25 : NULL VALUE
COMP. CANADIAN NATURAL RESOURCES LIMITED : COMPANY
WELL.             MOBIL NIPISI 2-30-80-8 : WELL
FLD .                                    : FIELD
LOC .                                    : LOCATION
CTRY.                             CANADA : COUNTRY
SRVC.                         Lane Wells : SERVICE COMPANY
DATE.                        30-Mar-1966 : LOGDATE
PROV.                            Alberta : PROVINCE
UWI .                   100023008008W500 : UNIQUE WELL ID
SLAT.WGS84                 55.9582138062 : SURFACE LATITUDE
SLON.WGS84               -115.2373886108 : SURFACE LONGITUDE
~Curve Information -----------------------------------------
DEPT  .FT    : Depth Curve
ACED  .US/F  : DELTA TIME (ACOUSTIC) FROM SONIC LOG [DEPTH SHIFTED TO RES.]
CALSED.IN    : CALIPER FROM SONIC LOG [DEPTH SHIFTED TO RES.]
CALWS .IN    : CALIPER [CALSED]
CILDED.MMHO  : CONDUCTIVITY FROM IEL LOG
CONDWS.MMHO  : CONDUCTIVITY [1000/DRESWS]
DRESWS.OHMM  : DEEP RESISTIVITY [ILDED. NO VALUES LESS THAN 1 OHMM]
DTWS  .US/F  : DELTA TIME [ACED]
GRSED .GAPI  : GAMMA RAY FROM SONIC LOG [DEPTH SHIFTED TO RES.]
GRWS  .GAPI  : GAMMA RAY [GRSED]
ILDED .OHMM  : INDUCTION LOG DEEP RESISTIVITY
SNED  .OHMM  : 16 INCH SHORT NORMAL RESISTIVITY FROM IEL LOG
SPRED .MV    : SPONTANEOUS POTENTIAL FROM IEL LOG
SPWS  .MV    : SPONTANEOUS POTENTIAL [BASELINE 0 MV] [SPRED]
SRESWS.OHMM  : SHALLOW RESISTIVITY [SNED]
~Params ----------------------------------------------------
PD  .                     GL : PERMANENT DATUM
EPD .FT               2164.4 : ELEVATION PERMANENT DATUM
LMF .                     KB : LOG MEASURED FROM
DAPD.FT                   13 : FEET ABOVE PERMANENT DATUM
DMF .                     KB : DRILLING MEASURED FROM
EKB .FT               2177.4 : KELLY BUSHING
EGL .FT               2164.4 : GROUND LEVEL
DATE.               30/03/66 : RUN DATE
RUN .                      1 : RUN NUMBER
DD  .FT                 5937 : DEPTH DRILLER
DL  .FT                 5946 : DEPTH LOGGER
BLI .FT                 5942 : BOTTOM LOG INTERVAL
TLI .FT                  685 : TOP LOG INTERVAL
CS  .IN                8.625 : CASING SIZE
CBD .FT                  677 : CASING BOTTOM DRILLER
CBL .FT                  685 : CASING BOTTOM LOGGER
BS  .IN                7.875 : BIT SIZE
BSD .FT                 5937 : BIT SIZE AT DEPTH
DFT .                MUD GEL : DRILLING FLUID TYPE
DFD .                    9.7 : DRILLING FLUID DENSITY
DFV .                     65 : DRILLING FLUID VISCOSITY
DFPH.                      9 : DRILLING FLUID PH
DFL .                    6.2 : DRILLING FLUID LOSS
MSS .                   CIRC : MUD SAMPLE SOURCE
RMS .OHMM               0.61 : RESISTIVITY MUD SAMPLE
MST .DEGF                 68 : MUD SAMPLE TEMPERATURE
RMF .OHMM               0.38 : RESISTIVITY MUD FILTRATE SAMPLE
MFST.DEGF                 68 : MUD FILTRATE SAMPLE TEMPERATURE
RMC .OHMM                0.9 : RESISTIVITY MUD CAKE
MCST.DEGF                 68 : MUD CAKE SAMPLE TEMPERATURE
MFSS.                   MEAS : MUD FILTRATE SAMPLE SOURCE
MCSS.                   MEAS : MUD CAKE SAMPLE SOURCE
RMB .OHMM               0.31 : RESISTIVITY MUD AT BHT
TCS .HRS                   2 : TIME CIRCULATED STOPPED
LUN .                 L 8036 : LOGGING UNIT NUMBER
LUL .                    R D : LOGGING UNIT LOCATION
ENGI.         BLAND  DONSTAD : RECORDING ENGINEER
WITN.                  BOOTH : WITNESSED BY
CLNT.                A2DTECH : CLIENT CODE
ORIG.            2" 5" PRINT : ORIGIN OF DATA
UWI .       100023008008W500 : UNIQUE WELL ID
DICO. A2D Technologies, Inc. : DIGITIZING COMPANY
~Other -----------------------------------------------------
~ASCII -----------------------------------------------------
# ...
 3150.00000   66.03180    9.05300    9.05300  110.74340  101.04280    9.89680   66.03180   13.86240   13.86240    9.89680   35.68820 -112.40200  -77.10590   35.68820
 3200.00000   55.15290    8.23220    8.23220   27.87060   21.63110   46.24290   55.15290   14.14240   14.14240   46.24290   44.47970  -82.59830  -47.39280   44.47970
 3250.00000   56.12140    8.07060    8.07060   31.68950   28.02860   35.67790   56.12140   15.25970   15.25970   35.67790   47.83840  -90.49690  -55.38130   47.83840
 3300.00000   53.84720    8.07210    8.07210   26.76470   20.94400   47.74630   53.84720   13.52360   13.52360   47.74630   61.86210  -74.86380  -39.83840   61.86210
 3350.00000   57.07050    8.22860    8.22860   31.94380   28.71210   34.82850   57.07050   14.46540   14.46540   34.82850   60.39810  -78.84330  -43.90820   60.39810
 3400.00000   53.73050    8.10920    8.10920   24.41070   18.25140   54.79030   53.73050   11.27660   11.27660   54.79030   64.29610  -74.24730  -39.40240   64.29610
 3450.00000   53.91030    8.18580    8.18580   25.33300   21.94550   45.56960   53.91030   11.76960   11.76960   45.56960   61.82760  -77.82810  -43.07400   61.82760
 3500.00000   54.34120    8.45500    8.45500   35.03860   29.38580   34.03000   54.34120   11.67350   11.67350   34.03000   47.65880  -82.96580  -48.30140   47.65880
 3550.00000   56.89050    8.40610    8.40610   89.02890   84.58450   11.82250   56.89050   16.15760   16.15760   11.82250   34.98570  -97.80990  -63.23580   34.98570
 3600.00000   58.66380    8.30800    8.30800  143.28840  124.04640    8.06150   58.66380   18.33670   18.33670    8.06150   24.92020  -90.97490  -56.49100   24.92020
 3650.00000   71.31710    7.74490    7.74490  188.73340  172.06960    5.81160   71.31710   39.46240   39.46240    5.81160   18.86850  -95.75500  -61.36140   18.86850
 3700.00000   60.48920    7.75570    7.75570  102.75990   93.11600   10.73930   60.48920   14.01560   14.01560   10.73930   29.69510 -103.68790  -69.38490   29.69510
 3750.00000   54.65180    8.47520    8.47520   68.83370   58.47240   17.10210   54.65180   35.84730   35.84730   17.10210   23.65230  -61.93730  -27.72420   23.65230
 3800.00000   57.39710    8.41690    8.41690   44.60070   40.56120   24.65410   57.39710   19.87420   19.87420   24.65410   31.03290  -69.46760  -35.34470   31.03290
 3850.00000   65.46550    8.08720    8.08720   80.72170   75.01430   13.33080   65.46550   15.87040   15.87040   13.33080   36.05700  -99.65780  -65.62520   36.05700
 3900.00000   54.29990    7.79770    7.79770   61.48360   57.83990   17.28910   54.29990   25.82830   25.82830   17.28910   48.12500  -99.57350  -65.63110   48.12500
 3950.00000   59.01070    7.96090    7.96090   88.49780   83.08310   12.03790   59.01070   40.09300   40.09300   12.03790   28.50600  -80.44280  -46.59110   28.50600
 4000.00000   59.86080    7.88170    7.88170   45.58130   40.77540   24.52460   59.86080   31.31640   31.31640   24.52460   33.04550  -48.56800  -14.80610   33.04550
 4050.00000   62.49370    7.83900    7.83900   58.95640   56.11170   17.82160   62.49370   37.86910   37.86910   17.82160   24.17270  -36.54080   -3.00930   24.17270
 4100.00000   83.02630   10.13240   10.13240  197.96000  182.50170    5.47940   83.02630   63.94940   63.94940    5.47940    6.62510  -40.16080   -7.02430    6.62510
 4150.00000   79.88190    9.55310    9.55310  166.95620  152.35540    6.56360   79.88190   52.31870   52.31870    6.56360    7.82090  -40.36310   -7.62160    7.82090
 4200.00000   82.36580    8.46190    8.46190  209.92400  185.32030    5.39610   82.36580   59.75860   59.75860    5.39610    7.21860  -35.33400   -2.98950    7.21860
 4250.00000   93.04470   12.92470   12.92470  290.13660  241.91400    4.13370   93.04470   68.38530   68.38530    4.13370    4.74310  -46.49620  -14.54470    4.74310
 4300.00000   92.55350   11.92330   11.92330  294.08370  249.36410    4.01020   92.55350   70.12400   70.12400    4.01020    4.46200  -44.62620  -13.06970    4.46200
 4350.00000   77.95300    8.37730    8.37730  161.86350  147.51440    6.77900   77.95300   49.29050   49.29050    6.77900    9.71620  -32.45970   -1.29820    9.71620
 4400.00000  130.49950   13.96460   13.96460  395.14600  321.42970    3.11110  130.49950   72.23370   72.23370    3.11110    3.42460  -49.06130  -18.29480    3.42460
 4450.00000  107.75800   12.95930   12.95930  439.89420  351.72590    2.84320  107.75800   66.09740   66.09740    2.84320    3.16430  -48.02010  -17.65070    3.16430
 4500.00000   72.94940    8.54150    8.54150  134.97820  124.63390    8.02350   72.94940   53.15170   53.15170    8.02350   10.84230  -40.57030  -10.59380   10.84230
 4550.00000   56.75350    8.11680    8.11680   56.01070   50.99310   19.61050   56.75350   27.77460   27.77460   19.61050   22.58130  -39.63360  -10.05210   22.58130
 4600.00000   58.98090    7.95030    7.95030   62.42260   58.57990   17.07070   58.98090   20.34720   20.34720   17.07070   22.62390  -47.82060  -18.63410   22.62390
 4650.00000   68.23780    8.19350    8.19350  117.91060  110.64520    9.03790   68.23780   43.58930   43.58930    9.03790   12.27760  -32.64190   -3.85040   12.27760
 4700.00000   76.69190    8.95520    8.95520  181.90950  162.79260    6.14300   76.69190   59.29530   59.29530    6.14300    7.87060  -33.98990   -5.59540    7.87060
 4750.00000   68.81710    8.13830    8.13830  118.51180  110.18680    9.07550   68.81710   55.95330   55.95330    9.07550   13.05120  -33.09370   -5.09220   13.05120
 4800.00000   97.76920   10.66480   10.66480  297.94800  258.20440    3.87290   97.76920   70.70980   70.70980    3.87290    5.22420  -46.15040  -18.54390    5.22420
 4850.00000   90.45620   13.92090   13.92090  285.06960  244.53470    4.08940   90.45620   73.58040   73.58040    4.08940    4.41910  -45.62230  -18.41080    4.41910
 4900.00000  111.44480   13.24250   13.24250  455.01350  340.90140    2.93340  111.44480  104.70280  104.70280    2.93340    3.33090  -44.92910  -18.11260    3.33090
 4950.00000   70.97230   10.75850   10.75850  312.10610  251.74210    3.97240   70.97230   78.12770   78.12770    3.97240    5.05340  -46.38910  -19.96960    5.05340
 5000.00000   85.90150    9.88670    9.88670  269.11770  227.90980    4.38770   85.90150   75.88970   75.88970    4.38770    5.62680  -47.29980  -21.27330    5.62680
 5050.00000   79.43740    8.41020    8.41020  223.10670  189.76410    5.26970   79.43740   59.70310   59.70310    5.26970    7.83290  -42.62100  -16.98950    7.83290
 5100.00000   73.74480   10.40880   10.40880  162.85040  146.23300    6.83840   73.74480   54.53870   54.53870    6.83840    8.20230  -40.65470  -15.41820    8.20230
 5150.00000   82.30170   10.28330   10.28330  164.25870  152.63910    6.55140   82.30170   54.47120   54.47120    6.55140    8.49240  -36.50950  -11.66800    8.49240
 5200.00000   64.70410    8.59670    8.59670  155.00650  137.18800    7.29740   64.70410   41.34030   41.34030    7.29740   10.96610  -32.95840   -8.51390   10.96610
 5250.00000   76.04130    8.37680    8.37680  172.09090  156.07930    6.40700   76.04130   76.92150   76.92150    6.40700    9.03660  -34.14540  -10.09390    9.03660
 5300.00000   73.22100    8.26160    8.26160  149.33870  136.81950    7.30890   73.22100   69.26430   69.26430    7.30890   11.24690  -27.05760   -3.40110   11.24690
 5350.00000   65.83330    8.09030    8.09030   93.77310   91.77680   10.89600   65.83330   51.69820   51.69820   10.89600   16.33360  -31.74820   -8.48670   16.33360
 5400.00000   74.54320    8.06050    8.06050  145.63740  134.63480    7.42750   74.54320   69.06270   69.06270    7.42750   11.01710  -27.95390   -5.08740   11.01710
 5450.00000   82.78810    -999.25    -999.25  165.84480  148.69130    6.72540   82.78810   76.91350   76.91350    6.72540   10.36790  -24.10620   -1.62990   10.36790
 5500.00000    -999.25    7.90890    7.90890   33.28260   29.52770   33.86650    -999.25   23.99820   23.99820   33.86650   41.85210  -50.63600  -28.10810   41.85210
 5550.00000   61.66490    8.05840    8.05840   22.50960   20.00380   49.99040   61.66490   14.59620   14.59620   49.99040   63.54660  -30.80150   -8.22170   63.54660
