~Version ---------------------------------------------------
VERS.      2.0 : CWLS log ASCII Standard -VERSION 2.0
WRAP.       NO : One line per depth step
CREA. 11/17/17 : LAS Creation Date
~Well ------------------------------------------------------
STRT.FT                  950.0 : START DEPTH
STOP.FT                 9500.0 : STOP DEPTH
STEP.FT               50.00000 : STEP LENGTH
NULL.                  -999.25 : NULL VALUE
COMP.    CANADIAN FINA OIL LTD : COMPANY
WELL. FINA GOOSE R 11-16-68-19 : WELL
FLD .                          : FIELD
LOC .                          : LOCATION
CTRY.                   CANADA : COUNTRY
SRVC.                  Unknown : SERVICE COMPANY
DATE.              04-Mar-1970 : LOGDATE
PROV.                  Alberta : PROVINCE
UWI .         100111606819W500 : UNIQUE WELL ID
SLAT.WGS84            54.88958 : SURFACE LATITUDE
SLON.WGS84           -116.8394 : SURFACE LONGITUDE
~Curve Information -----------------------------------------
DEPT   .FT    : Depth Curve
CALDED .IN    : CALIPER FROM DENSITY LOG
CALSED .IN    : CALIPER FROM SONIC LOG
CALWS  .IN    : CALIPER [SPIL. CALSED TO CALDED @ 5005']
CONDWS .MMHO  : CONDUCTIVITY [1000/DRESWS]
DCORWS .G/C3  : DENSITY CORRECTION [DRHOED]
DENWS  .G/C3  : FORMATION BULK DENSITY [RHOBED]
DPOLSWS.V/V   : DENSITY POROSITY LIMESTONE [CALC. FROM DENWS, M=2.71, F=1.00]
DRESWS .OHMM  : DEEP RESISTIVITY [ILDED]
DRHOED .G/C3  : DENSITY CORRECTION FROM DENSITY LOG
DTED   .US/F  : DELTA TIME FROM SONIC LOG
DTWS   .US/F  : COMPRESSIONAL SONIC [DTED]
GRDED  .GAPI  : GAMMA RAY FROM DENSITY LOG
GRWS   .GAPI  : GAMMA RAY [GRDED]
ILDED  .OHMM  : DEEP  INDUCTION RESISTIVITY FROM RESISTIVITY LOG
ILMED  .OHMM  : MEDIUM INDUCTION RESISTIVITY FROM RESISTIVITY LOG
LL8ED  .OHMM  : 8 INCH LATEROLOG RESISTIVITY FROM RESISTIVITY LOG
MRESWS .OHMM  : MEDIUM RESISTIVITY [ILMED]
RHOBED .G/C3  : BULK DENSITY FROM DENSITY LOG
SPRED  .MV    : SPONTANEOUS POTENTIAL FROM RESISTIVITY LOG
SPWS   .MV    : SPONTANEOUS POTENTIAL [BASELINE 0 MV, SPRED]
SRESWS .OHMM  : SHALLOW RESISTIVITY [LL8ED]
~Params ----------------------------------------------------
PD  .                     GL : PERMANENT DATUM
EPD .FT                 2553 : ELEVATION PERMANENT DATUM
LMF .                     KB : LOG MEASURED FROM
DAPD.FT                   13 : FEET ABOVE PERMANENT DATUM
EKB .FT                 2566 : KELLY BUSHING
EGL .FT                 2553 : GROUND LEVEL
DATE.               03/04/70 : RUN DATE
RUN .                      1 : RUN NUMBER
DD  .FT                 9523 : DEPTH DRILLER
DL  .FT                 9520 : DEPTH LOGGER
BLI .FT                 9514 : BOTTOM LOG INTERVAL
TLI .FT                  972 : TOP LOG INTERVAL
CBD .FT                  972 : CASING BOTTOM DRILLER
CBL .FT                  972 : CASING BOTTOM LOGGER
BS  .IN                7.875 : BIT SIZE
BSD .FT                 9523 : BIT SIZE AT DEPTH
DFT .               GEL CHEM : DRILLING FLUID TYPE
DFD .                    9.3 : DRILLING FLUID DENSITY
DFV .                    100 : DRILLING FLUID VISCOSITY
DFPH.                    9.5 : DRILLING FLUID PH
DFL .                    6.4 : DRILLING FLUID LOSS
RMS .OHMM               1.46 : RESISTIVITY MUD SAMPLE
MST .DEGF                 82 : MUD SAMPLE TEMPERATURE
RMF .OHMM               1.39 : RESISTIVITY MUD FILTRATE SAMPLE
MFST.DEGF                 65 : MUD FILTRATE SAMPLE TEMPERATURE
RMB .OHMM               0.59 : RESISTIVITY MUD AT BHT
TCS .HRS                   3 : TIME CIRCULATED STOPPED
LUN .                   7003 : LOGGING UNIT NUMBER
LUL .                     RD : LOGGING UNIT LOCATION
ENGI.               ROBINSON : RECORDING ENGINEER
WITN.               MCINTYRE : WITNESSED BY
CLNT.                A2DTECH : CLIENT CODE
ORIG.            2" 5" PRINT : ORIGIN OF DATA
UWI .       100111606819W500 : UNIQUE WELL ID
DICO. A2D Technologies, Inc. : DIGITIZING COMPANY
~Other -----------------------------------------------------
~ASCII -----------------------------------------------------
# ...
 2600.00000    -999.25   11.39130   11.39130  140.69640    -999.25    -999.25    -999.25    7.10750    -999.25  107.58970  107.58970   80.55970   80.55970    7.10750    6.04620    5.78160    6.04620    -999.25   28.63220   -7.59630    5.78160
 2650.00000    -999.25   13.33230   13.33230  151.98260    -999.25    -999.25    -999.25    6.57970    -999.25  114.35580  114.35580   72.17920   72.17920    6.57970    5.63970    5.36920    5.63970    -999.25   29.40850   -6.91270    5.36920
 2700.00000    -999.25    9.78920    9.78920  106.32870    -999.25    -999.25    -999.25    9.40480    -999.25  103.26260  103.26260   85.50480   85.50480    9.40480    7.96680    7.61050    7.96680    -999.25   29.49020   -6.92370    7.61050
 2750.00000    -999.25   10.83020   10.83020  151.89950    -999.25    -999.25    -999.25    6.58330    -999.25   94.05810   94.05810   79.39770   79.39770    6.58330    5.62110    6.23480    5.62110    -999.25   28.97300   -7.53350    6.23480
 2800.00000    -999.25   10.52080   10.52080  131.70780    -999.25    -999.25    -999.25    7.59280    -999.25  103.30830  103.30830   88.47190   88.47190    7.59280    6.91800    6.42200    6.91800    -999.25   30.26540   -6.33330    6.42200
 2850.00000    -999.25   12.25290   12.25290  169.46280    -999.25    -999.25    -999.25    5.90100    -999.25  105.65790  105.65790   90.81240   90.81240    5.90100    5.09890    6.09570    5.09890    -999.25   33.52030   -3.17160    6.09570
 2900.00000    -999.25   14.82910   14.82910  155.84090    -999.25    -999.25    -999.25    6.41680    -999.25  107.25740  107.25740   80.33310   80.33310    6.41680    5.38890    5.82480    5.38890    -999.25   31.09420   -5.69040    5.82480
 2950.00000    -999.25   12.83010   12.83010  163.50290    -999.25    -999.25    -999.25    6.11610    -999.25  113.35460  113.35460  102.45200  102.45200    6.11610    5.44950    6.52420    5.44950    -999.25   30.66020   -6.21700    6.52420
 3000.00000    -999.25   14.70240   14.70240  128.65540    -999.25    -999.25    -999.25    7.77270    -999.25  110.94810  110.94810  102.20230  102.20230    7.77270    7.35130   11.48620    7.35130    -999.25   32.75670   -4.21320   11.48620
 3050.00000    -999.25   11.85940   11.85940  150.84660    -999.25    -999.25    -999.25    6.62920    -999.25  106.63350  106.63350  103.73950  103.73950    6.62920    6.07390    7.38300    6.07390    -999.25   31.70970   -5.35240    7.38300
 3100.00000    -999.25   10.66600   10.66600  146.26510    -999.25    -999.25    -999.25    6.83690    -999.25  106.27170  106.27170  113.43410  113.43410    6.83690    6.47540    7.69950    6.47540    -999.25   31.64440   -5.51090    7.69950
 3150.00000    -999.25    9.86280    9.86280  103.90040    -999.25    -999.25    -999.25    9.62460    -999.25  108.17970  108.17970  126.54550  126.54550    9.62460    9.45740   12.44560    9.45740    -999.25   33.42380   -3.82420   12.44560
 3200.00000    -999.25    9.49880    9.49880  165.14730    -999.25    -999.25    -999.25    6.05520    -999.25   92.80910   92.80910   78.03460   78.03460    6.05520    5.49820    6.26250    5.49820    -999.25   33.74160   -3.59910    6.26250
 3250.00000    -999.25   10.38070   10.38070  182.28880    -999.25    -999.25    -999.25    5.48580    -999.25   97.29860   97.29860   86.50700   86.50700    5.48580    5.28540    4.96900    5.28540    -999.25   31.45540   -5.97790    4.96900
 3300.00000    -999.25   11.13030   11.13030  177.38130    -999.25    -999.25    -999.25    5.63760    -999.25   94.38280   94.38280   96.73250   96.73250    5.63760    5.28190    5.79070    5.28190    -999.25   34.41590   -3.10970    5.79070
 3350.00000    -999.25    9.15370    9.15370  137.34570    -999.25    -999.25    -999.25    7.28090    -999.25   87.54350   87.54350   95.69510   95.69510    7.28090    6.61170    7.49380    6.61170    -999.25   28.48940   -9.12930    7.49380
 3400.00000    -999.25   10.21750   10.21750  239.17150    -999.25    -999.25    -999.25    4.18110    -999.25   99.98880   99.98880   90.13050   90.13050    4.18110    3.95770    4.88100    3.95770    -999.25   31.04940   -6.64220    4.88100
 3450.00000    -999.25   11.77970   11.77970  239.10860    -999.25    -999.25    -999.25    4.18220    -999.25   95.65160   95.65160   85.53030   85.53030    4.18220    3.96770    4.52090    3.96770    -999.25   29.44520   -8.24470    4.52090
 3500.00000    -999.25   12.19750   12.19750  239.36620    -999.25    -999.25    -999.25    4.17770    -999.25  108.98790  108.98790   93.90090   93.90090    4.17770    3.87500    4.13480    3.87500    -999.25   28.89210   -8.79610    4.13480
 3550.00000    -999.25   11.74060   11.74060  223.58130    -999.25    -999.25    -999.25    4.47260    -999.25   99.21330   99.21330   97.95960   97.95960    4.47260    4.08380    4.70600    4.08380    -999.25   32.15610   -5.53040    4.70600
 3600.00000    -999.25   10.48160   10.48160  270.09510    -999.25    -999.25    -999.25    3.70240    -999.25  102.80360  102.80360  112.03760  112.03760    3.70240    3.34790    4.38770    3.34790    -999.25   35.33850   -2.34620    4.38770
 3650.00000    -999.25   10.09480   10.09480  474.76620    -999.25    -999.25    -999.25    2.10630    -999.25  119.11290  119.11290   90.70090   90.70090    2.10630    1.95950    2.68930    1.95950    -999.25   35.42230   -2.26070    2.68930
 3700.00000    -999.25   10.23980   10.23980  395.53830    -999.25    -999.25    -999.25    2.52820    -999.25  110.20990  110.20990   90.67360   90.67360    2.52820    2.33350    2.98410    2.33350    -999.25   36.81800   -0.86330    2.98410
 3750.00000    -999.25   10.56870   10.56870  246.08720    -999.25    -999.25    -999.25    4.06360    -999.25   96.62710   96.62710   87.34700   87.34700    4.06360    3.91440    4.43170    3.91440    -999.25   35.03400   -2.34850    4.43170
 3800.00000    -999.25   10.00150   10.00150  288.78650    -999.25    -999.25    -999.25    3.46300    -999.25  102.93100  102.93100   88.35030   88.35030    3.46300    3.32960    4.00280    3.32960    -999.25   32.88110   -4.10550    4.00280
 3850.00000    -999.25    8.68590    8.68590  177.45280    -999.25    -999.25    -999.25    5.63530    -999.25   98.33340   98.33340  139.52910  139.52910    5.63530    5.45570    7.13440    5.45570    -999.25   30.71450   -5.87220    7.13440
 3900.00000    -999.25   10.43810   10.43810  429.25820    -999.25    -999.25    -999.25    2.32960    -999.25  104.83660  104.83660   93.06270   93.06270    2.32960    2.17530    3.04110    2.17530    -999.25   31.75620   -4.43260    3.04110
 3950.00000    -999.25    9.36860    9.36860  233.81970    -999.25    -999.25    -999.25    4.27680    -999.25   92.59590   92.59590   70.71410   70.71410    4.27680    3.89350    6.44390    3.89350    -999.25   29.99800   -5.79290    6.44390
 4000.00000    -999.25   10.42440   10.42440  178.21820    -999.25    -999.25    -999.25    5.61110    -999.25   97.00280   97.00280   67.89920   67.89920    5.61110    7.07170   11.33570    7.07170    -999.25   -4.68560  -40.07860   11.33570
 4050.00000    -999.25    9.84410    9.84410  122.30990    -999.25    -999.25    -999.25    8.17600    -999.25   84.80540   84.80540   64.01460   64.01460    8.17600    8.66270   13.17670    8.66270    -999.25   23.74930  -11.24770   13.17670
 4100.00000    -999.25    9.11830    9.11830  152.45300    -999.25    -999.25    -999.25    6.55940    -999.25   98.13560   98.13560   45.91130   45.91130    6.55940    8.86320   15.51740    8.86320    -999.25  -15.51150  -50.10870   15.51740
 4150.00000    -999.25    7.93330    7.93330   94.41000    -999.25    -999.25    -999.25   10.59210    -999.25   73.02150   73.02150   20.45720   20.45720   10.59210   17.44480   33.10880   17.44480    -999.25  -58.09480  -92.29410   33.10880
 4200.00000    -999.25   10.12390   10.12390  198.76370    -999.25    -999.25    -999.25    5.03110    -999.25   86.05250   86.05250   61.79840   61.79840    5.03110    5.95520   10.47570    5.95520    -999.25   24.57650   -9.22490   10.47570
