~Version ---------------------------------------------------
VERS.      2.0 : CWLS log ASCII Standard -VERSION 2.0
WRAP.       NO : One line per depth step
CREA. 10/01/14 : LAS Creation Date
~Well ------------------------------------------------------
STRT.FT                                  935.9 : START DEPTH
STOP.FT                                 9375.9 : STOP DEPTH
STEP.FT                                0.50000 : STEP LENGTH
NULL.                                  -999.25 : NULL VALUE
COMP. THE BRITISH AMERICAN OIL COMPANY LIMITED : COMPANY
WELL.        B.A. EAST GOOSE RIVER 10-22-66-15 : WELL
FLD .                                          : FIELD
LOC .                                          : LOCATION
CTRY.                                   CANADA : COUNTRY
SRVC.                   Schlumberger of Canada : SERVICE COMPANY
DATE.                              16-Mar-1960 : LOGDATE
PROV.                                  Alberta : PROVINCE
UWI .                         100102206615W500 : UNIQUE WELL ID
SLAT.WGS84                            54.72873 : SURFACE LATITUDE
SLON.WGS84                           -116.1771 : SURFACE LONGITUDE
~Curve Information -----------------------------------------
DEPT.FT      : DEPTH FEET
CILD.MMHO    : CONDUCTIVITY FROM RESISTIVITY LOG
DT  .US/F    : DELTA-T FROM SONIC LOG
GRS .MG/TON  : GAMMA RAY FROM SONIC LOG
ILD .OHMM    : DEEP INDUCTION FROM RESISTIVITY LOG
MCAL.IN      : MLT CALIPER FROM MICRO LOG
SN  .OHMM    : SHORT NORMAL FROM RESISTIVITY LOG
SPR .MV      : SPONTANEOUS POTENTIAL FROM RESISTIVITY LOG
~Params ----------------------------------------------------
LMF .                     KB : LOG MEASURED FROM
DMF .                     KB : DRILLING MEASURED FROM
EKB .FT                 3222 : KELLY BUSHING
EGL .FT                 3205 : GROUND LEVEL
DATE.               03/16/60 : RUN DATE
RUN .                      2 : RUN NUMBER
DD  .FT                 9370 : DEPTH DRILLER
DL  .FT                 9378 : DEPTH LOGGER
BLI .FT                 9373 : BOTTOM LOG INTERVAL
TLI .FT                 5000 : TOP LOG INTERVAL
CBD .FT                  975 : CASING BOTTOM DRILLER
BS  .IN                    9 : BIT SIZE
BSD .FT                 9370 : BIT SIZE AT DEPTH
DFT .                    GEL : DRILLING FLUID TYPE
DFD .                     10 : DRILLING FLUID DENSITY
DFV .                    120 : DRILLING FLUID VISCOSITY
DFPH.                     10 : DRILLING FLUID PH
DFL .                    6.2 : DRILLING FLUID LOSS
RMS .OHMM                2.8 : RESISTIVITY MUD SAMPLE
MST .DEGF                 59 : MUD SAMPLE TEMPERATURE
RMF .OHMM               1.41 : RESISTIVITY MUD FILTRATE SAMPLE
MFST.DEGF                 68 : MUD FILTRATE SAMPLE TEMPERATURE
RMC .OHMM               2.56 : RESISTIVITY MUD CAKE
MCST.DEGF                 67 : MUD CAKE SAMPLE TEMPERATURE
RMB .OHMM               0.94 : RESISTIVITY MUD AT BHT
TCS .HRS                 4.5 : TIME CIRCULATED STOPPED
LUN .                  1573C : LOGGING UNIT NUMBER
LUL .                     WC : LOGGING UNIT LOCATION
ENGI.              HAUSEGGER : RECORDING ENGINEER
WITN.                   COTE : WITNESSED BY
CLNT.                A2DTECH : CLIENT CODE
ORIG.            2" 5" PRINT : ORIGIN OF DATA
UWI .       100102206615W500 : UNIQUE WELL ID
DICO. A2D Technologies, Inc. : DIGITIZING COMPANY
~Other -----------------------------------------------------
~ASCII -----------------------------------------------------
# ...
 3770.90000  132.31000  119.48690    7.94230    7.60280    9.33360   10.58090  -38.48890
 3771.40000  134.86390  118.16800    7.70740    7.57640    9.35030   10.54120  -38.49580
 3771.90000  135.97540  117.99330    7.28840    7.46200    9.44400   10.41990  -38.57610
 3772.40000  137.04730  118.03290    7.12060    7.44750    9.44560   10.32670  -38.70730
 3772.90000  137.04910  116.53650    6.60590    7.42540    9.40700   10.45710  -39.10060
 3773.40000  137.12950  115.00850    6.46480    7.42380    9.44510   10.52580  -39.23250
 3773.90000  136.27310  112.49960    6.03340    7.42400    9.63900   10.45080  -39.71860
 3774.40000  136.22060  112.59710    5.97040    7.43720    9.73250   10.20630  -39.78850
 3774.90000  135.96490  112.25020    5.95010    7.51430    9.63210    9.64100  -39.77170
 3775.40000  135.43080  112.57380    6.00730    7.54830    9.53360    9.59430  -39.69170
 3775.90000  133.81880  111.91120    6.26090    7.55410    9.43850    9.73260  -39.50160
 3776.40000  133.74840  112.28650    6.36020    7.56860    9.47300    9.80360  -39.71200
 3776.90000  134.65820  109.05280    6.53550    7.49340    9.55870    9.82760  -40.17090
 3777.40000  135.70110  108.01480    6.55080    7.42720    9.56190    9.66480  -40.22080
 3777.90000  139.32350  107.57960    6.57950    7.28470    9.58190    9.01570  -40.23730
 3778.40000  140.63690  109.80000    6.48210    7.20340    9.42750    8.52600  -40.38040
 3778.90000  141.85740  110.19890    6.30160    7.11200    9.53180    8.30660  -40.69750
 3779.40000  145.15930  107.90760    6.01870    6.91580   10.14110    8.19600  -40.99810
 3779.90000  149.90730  109.64010    5.78530    6.68160   10.83490    8.07900  -41.00760
 3780.40000  155.51900  113.05990    5.54720    6.48280   11.10550    7.99990  -41.12030
 3780.90000  159.95130  110.64990    5.39990    6.35400   11.92120    8.02790  -42.05530
 3781.40000  161.02030   99.11490    5.34420    6.32440   12.35320    8.08960  -42.61580
 3781.90000  159.82030   98.82110    5.30700    6.34860   12.13380    8.07310  -42.83490
 3782.40000  157.45540  101.82770    5.09920    6.44520   10.64060    7.93470  -43.20410
 3782.90000  156.34410  102.52930    5.08900    6.48770   10.42020    7.87040  -43.20590
 3783.40000  153.25310  102.61700    5.25700    6.62570   10.86300    7.59350  -43.21130
 3783.90000  153.73620  103.02030    5.33830    6.62730   11.30680    7.47090  -43.21310
 3784.40000  158.17610  111.34730    5.52050    6.41520   12.68540    7.12440  -43.43300
 3784.90000  160.68440  111.54850    5.56140    6.30830   12.98170    7.01250  -43.51090
 3785.40000  168.42170  107.17570    5.73640    5.98780   13.08820    6.73550  -43.77630
 3785.90000  170.82770  106.89860    5.78860    5.92550   13.11370    6.68220  -43.93550
 3786.40000  176.34530  107.89620    5.97930    5.78200   13.57160    6.50280  -44.28180
 3786.90000  177.58470  108.52610    6.04620    5.74140   13.26850    6.42770  -44.30940
 3787.40000  182.43170  106.60120    6.20080    5.58810   12.79520    6.14140  -44.41880
 3787.90000  184.87170  105.76470    6.16580    5.56130   12.75390    6.11520  -44.42560
 3788.40000  188.29470  108.26880    6.02570    5.46700   12.63700    6.02630  -44.38890
 3788.90000  191.47200  107.56690    5.96770    5.35240   12.69470    5.96100  -44.35010
 3789.40000  192.98220  108.34940    5.76040    5.29290   12.14690    5.90650  -44.35740
 3789.90000  193.27320  109.96310    5.53490    5.25600   11.47200    5.86700  -44.14570
 3790.40000  192.84970  111.01340    5.52910    5.21910   11.63730    5.82750  -43.99270
 3790.90000  191.65900  111.20550    5.57940    5.18220   11.81610    5.89500  -43.80070
 3791.40000  188.59640  111.29680    5.64700    5.35250   12.73570    6.04370  -43.65990
 3791.90000  184.08220  110.57560    5.63200    5.57480   13.08940    6.31210  -43.85070
 3792.40000  177.78930  106.77480    5.58390    5.68590   13.03960    6.48960  -44.01430
 3792.90000  171.01980   94.12600    5.36690    6.01940   13.00690    7.09530  -44.60330
 3793.40000  167.33300   89.05980    5.25960    6.15810   12.54160    7.28370  -44.84950
 3793.90000  153.59040   79.93870    4.93670    6.69960   11.95500    7.86760  -45.73000
 3794.40000  148.81510   79.94780    4.85610    6.93220   11.58640    8.02320  -45.80620
 3794.90000  135.35860   80.74230    4.60490    7.52800   10.23380    8.34770  -45.97320
 3795.40000  132.27290   83.20190    4.56530    7.69080   10.35530    8.42230  -46.10340
 3795.90000  126.17630   90.54540    4.52140    8.04160   10.68850    8.37820  -46.20940
 3796.40000  126.60280   93.93420    4.55010    7.98100   10.62880    8.24660  -46.17040
 3796.90000  130.38440  104.92520    4.70580    7.63190   10.81730    7.79180  -46.03960
 3797.40000  133.12730  103.72620    4.74460    7.48770   10.89180    7.63750  -46.00660
 3797.90000  140.65480  104.22360    4.74650    7.05490   11.96530    7.30450  -45.74990
 3798.40000  143.37130  104.47260    4.70570    6.91070   12.43990    7.18630  -45.66030
 3798.90000  153.18430  103.53210    4.65970    6.47800   12.25650    6.83160  -45.56690
 3799.40000  159.76320  106.47010    4.69760    6.25870   12.22580    6.59520  -45.56310
 3799.90000  166.05260  105.29570    4.81510    6.06910   12.58690    6.35880  -45.57140
 3800.40000  172.98800  104.38370    5.00210    5.87950   12.42490    6.14180  -45.52920
 3800.90000  178.98780  102.55170    5.13940    5.68990   12.21980    5.95780  -45.35400
 3801.40000  184.06290  105.45480    5.28950    5.50030   12.98160    5.77380  -45.10650
 3801.90000  189.14200  109.97780    5.37430    5.31070   13.38810    5.58980  -44.90040
 3802.40000  194.04820  109.04930    5.34730    5.17610   12.42920    5.40580  -44.70620
 3802.90000  198.92530  108.33970    5.26410    5.13420   12.32950    5.37990  -44.63720
 3803.40000  203.60350  108.69450    5.14480    5.00830   13.53810    5.30340  -44.55760
 3803.90000  205.65550  110.28350    5.16870    4.96670   14.10620    5.27810  -44.55470
 3804.40000  210.43190  110.57260    5.26500    4.92390   13.95460    5.24060  -44.55730
 3804.90000  210.85080  109.96750    5.37470    4.92320   13.47310    5.24010  -44.56000
 3805.40000  210.99220  110.79750    5.70670    4.92130   13.29520    5.23840  -44.56790
 3805.90000  210.65040  111.44350    5.77470    4.92060   13.01980    5.23760  -44.57060
 3806.40000  208.71440  110.03100    5.76400    4.97850   13.58610    5.27770  -44.57860
 3806.90000  207.53960  109.40200    5.72490    5.02280   13.79040    5.30770  -44.58120
 3807.40000  202.70500  107.52190    5.58780    5.15580   12.79110    5.61920  -44.58920
 3807.90000  200.08420  105.38430    5.60520    5.20010   12.33390    5.76550  -44.63320
 3808.40000  190.45380   98.34110    5.50270    5.33310   12.18460    6.20410  -44.94190
 3808.90000  185.80980   96.15830    5.46880    5.46640   12.44190    6.35030  -45.06270
 3809.40000  172.96220   93.03420    5.31700    5.90960   13.05090    6.78890  -45.35400
 3809.90000  163.90070   87.25840    5.18240    6.21960   12.42100    7.13900  -45.49890
 3810.40000  156.73750   81.98790    5.11090    6.52950   12.50430    7.50470  -45.78260
 3810.90000  151.65250   82.05520    4.98220    6.77130   12.22550    7.75200  -46.06450
 3811.40000  147.56070   83.80560    4.82640    6.97780   10.55470    7.90960  -45.99390
 3811.90000  143.68440   87.99520    4.71530    7.16370    9.97650    7.91650  -45.72400
 3812.40000  141.30760   91.31400    4.69540    7.15260    9.94760    7.76810  -45.50350
 3812.90000  142.78540   94.63090    4.75450    7.02030   10.26480    7.37730  -45.40110
 3813.40000  148.17340   97.62870    4.75550    6.91730   10.50870    7.18510  -45.39670
 3813.90000  155.81640  109.28530    4.67490    6.50030   10.71130    6.71040  -45.38500
 3814.40000  160.03900  111.15960    4.66370    6.34320   10.26230    6.56920  -45.38770
 3814.90000  172.15530  113.93140    4.78420    5.87200   11.10640    6.14560  -45.39560
 3815.40000  175.62300  114.35750    4.81830    5.71490   11.82590    6.05510  -45.39830
