~Version ---------------------------------------------------
VERS.      2.0 : CWLS log ASCII Standard -VERSION 2.0
WRAP.       NO : One line per depth step
CREA. 11/07/17 : LAS Creation Date
~Well ------------------------------------------------------
STRT.FT                            700.0 : START DEPTH
STOP.FT                           5900.0 : STOP DEPTH
STEP.FT                         50.00000 : STEP LENGTH
NULL.                            -999.25 : NULL VALUE
COMP. CANADIAN NATURAL RESOURCES LIMITED : COMPANY
WELL.             MOBIL NIPISI 2-30-80-8 : WELL
FLD .                                    : FIELD
LOC .                                    : LOCATION
CTRY.                             CANADA : COUNTRY
SRVC.                         Lane Wells : SERVICE COMPANY
DATE.                        30-Mar-1966 : LOGDATE
PROV.                            Alberta : PROVINCE
UWI .                   100023008008W500 : UNIQUE WELL ID
SLAT.WGS84                 55.9582138062 : SURFACE LATITUDE
SLON.WGS84               -115.2373886108 : SURFACE LONGITUDE
~Curve Information -----------------------------------------
DEPT  .FT    : Depth Curve
ACED  .US/F  : DELTA TIME (ACOUSTIC) FROM SONIC LOG [DEPTH SHIFTED TO RES.]
CALSED.IN    : CALIPER FROM SONIC LOG [DEPTH SHIFTED TO RES.]
CALWS .IN    : CALIPER [CALSED]
CILDED.MMHO  : CONDUCTIVITY FROM IEL LOG
CONDWS.MMHO  : CONDUCTIVITY [1000/DRESWS]
DRESWS.OHMM  : DEEP RESISTIVITY [ILDED. NO VALUES LESS THAN 1 OHMM]
DTWS  .US/F  : DELTA TIME [ACED]
GRSED .GAPI  : GAMMA RAY FROM SONIC LOG [DEPTH SHIFTED TO RES.]
GRWS  .GAPI  : GAMMA RAY [GRSED]
ILDED .OHMM  : INDUCTION LOG DEEP RESISTIVITY
SNED  .OHMM  : 16 INCH SHORT NORMAL RESISTIVITY FROM IEL LOG
SPRED .MV    : SPONTANEOUS POTENTIAL FROM IEL LOG
SPWS  .MV    : SPONTANEOUS POTENTIAL [BASELINE 0 MV] [SPRED]
SRESWS.OHMM  : SHALLOW RESISTIVITY [SNED]
~Params ----------------------------------------------------
PD  .                     GL : PERMANENT DATUM
EPD .FT               2164.4 : ELEVATION PERMANENT DATUM
LMF .                     KB : LOG MEASURED FROM
DAPD.FT                   13 : FEET ABOVE PERMANENT DATUM
DMF .                     KB : DRILLING MEASURED FROM
EKB .FT               2177.4 : KELLY BUSHING
EGL .FT               2164.4 : GROUND LEVEL
DATE.               30/03/66 : RUN DATE
RUN .                      1 : RUN NUMBER
DD  .FT                 5937 : DEPTH DRILLER
DL  .FT                 5946 : DEPTH LOGGER
BLI .FT                 5942 : BOTTOM LOG INTERVAL
TLI .FT                  685 : TOP LOG INTERVAL
CS  .IN                8.625 : CASING SIZE
CBD .FT                  677 : CASING BOTTOM DRILLER
CBL .FT                  685 : CASING BOTTOM LOGGER
BS  .IN                7.875 : BIT SIZE
BSD .FT                 5937 : BIT SIZE AT DEPTH
DFT .                MUD GEL : DRILLING FLUID TYPE
DFD .                    9.7 : DRILLING FLUID DENSITY
DFV .                     65 : DRILLING FLUID VISCOSITY
DFPH.                      9 : DRILLING FLUID PH
DFL .                    6.2 : DRILLING FLUID LOSS
MSS .                   CIRC : MUD SAMPLE SOURCE
RMS .OHMM               0.61 : RESISTIVITY MUD SAMPLE
MST .DEGF                 68 : MUD SAMPLE TEMPERATURE
RMF .OHMM               0.38 : RESISTIVITY MUD FILTRATE SAMPLE
MFST.DEGF                 68 : MUD FILTRATE SAMPLE TEMPERATURE
RMC .OHMM                0.9 : RESISTIVITY MUD CAKE
MCST.DEGF                 68 : MUD CAKE SAMPLE TEMPERATURE
MFSS.                   MEAS : MUD FILTRATE SAMPLE SOURCE
MCSS.                   MEAS : MUD CAKE SAMPLE SOURCE
RMB .OHMM               0.31 : RESISTIVITY MUD AT BHT
TCS .HRS                   2 : TIME CIRCULATED STOPPED
LUN .                 L 8036 : LOGGING UNIT NUMBER
LUL .                    R D : LOGGING UNIT LOCATION
ENGI.         BLAND  DONSTAD : RECORDING ENGINEER
WITN.                  BOOTH : WITNESSED BY
CLNT.                A2DTECH : CLIENT CODE
ORIG.            2" 5" PRINT : ORIGIN OF DATA
UWI .       100023008008W500 : UNIQUE WELL ID
DICO. A2D Technologies, Inc. : DIGITIZING COMPANY
~Other -----------------------------------------------------
~ASCII -----------------------------------------------------
  700.00000  125.73880   15.10830   15.10830  239.82410  199.98030    5.00050  125.73880   44.31360   44.31360    5.00050    5.40650  -41.50870   -2.79980    5.40650
  750.00000  125.93940   12.20860   12.20860  243.97040  206.04540    4.85330  125.93940   63.19040   63.19040    4.85330    4.47140  -45.02490   -4.38250    4.47140
  800.00000  125.36700   11.63710   11.63710  147.76170  129.21230    7.73920  125.36700   65.99210   65.99210    7.73920    5.06220  -48.38940   -5.80380    5.06220
  850.00000  100.32680   13.36180   13.36180  147.07580  116.39550    8.59140  100.32680   57.98790   57.98790    8.59140    4.48810  -50.57180   -6.04290    4.48810
  900.00000   74.29800   11.99780   11.99780  374.70400  291.80040    3.42700   74.29800   96.21180   96.21180    3.42700    3.61760  -54.79170   -9.35950    3.61760
  950.00000   80.75310   14.19480   14.19480  435.47500  361.32310    2.76790   80.75310   71.89820   71.89820    2.76790    3.00610  -53.51300   -8.13770    3.00610
 1000.00000   89.25090   11.13220   11.13220  322.64690  273.44070    3.65710   89.25090   80.28660   80.28660    3.65710    3.97700  -57.76170  -12.44280    3.97700
 1050.00000   92.04430   10.26870   10.26870  328.09300  261.73210    3.82070   92.04430   80.86770   80.86770    3.82070    3.83960  -58.79090  -13.52860    3.83960
 1100.00000   53.06640    8.16340    8.16340  227.11630  193.02410    5.18070   53.06640   44.90760   44.90760    5.18070    6.42660  -69.23110  -24.02550    6.42660
 1150.00000   45.31250    8.38310    8.38310  184.62570  153.28250    6.52390   45.31250   52.45360   52.45360    6.52390    7.17470  -67.93970  -22.79070    7.17470
 1200.00000    8.68190    7.69590    7.69590  191.62500  174.68800    5.72730    8.68190   58.90700   58.90700    5.72730    8.43400  -74.72920  -29.63710    8.43400
 1250.00000   87.35670   14.20070   14.20070  372.23120  291.17170    3.43440   87.35670   54.87130   54.87130    3.43440    3.36310  -59.75370  -14.71800    3.36310
 1300.00000   42.22280    7.68530    7.68530  233.27570  195.37740    5.11830   42.22280   69.48670   69.48670    5.11830    7.83200  -67.89000  -22.91100    7.83200
 1350.00000   41.70990    7.99630    7.99630  245.49560  216.42680    4.62050   41.70990   64.98130   64.98130    4.62050    6.74180  -73.58060  -28.65820    6.74180
 1400.00000   31.36500    7.95720    7.95720  314.11070  262.98490    3.80250   31.36500   47.64510   47.64510    3.80250    4.92080  -79.32120  -34.45550    4.92080
 1450.00000  107.07850    8.16050    8.16050  309.18350  256.98410    3.89160  107.07850   48.80610   48.80610    3.89160    5.29690  -77.03730  -32.22850    5.29690
 1500.00000   97.81840    7.97560    7.97560  256.30920  212.71170    4.70120   97.81840   68.12710   68.12710    4.70120    6.36910  -67.76570  -23.01330    6.36910
 1550.00000  116.43780    7.76040    7.76040  195.30380  164.15510    6.09180  116.43780   56.42640   56.42640    6.09180   11.91220  -69.82170  -25.12590   11.91220
 1600.00000  125.96970   13.67910   13.67910  312.63060  262.15760    3.81450  125.96970   68.55880   68.55880    3.81450    4.58940  -63.12280  -18.48370    4.58940
 1650.00000  117.05840    8.89320    8.89320  219.51180  193.90740    5.15710  117.05840   61.63690   61.63690    5.15710    7.45540  -70.94850  -26.36600    7.45540
 1700.00000  131.22960    9.62950    9.62950  220.13760  183.94160    5.43950  131.22960   69.74460   69.74460    5.43950    6.57330  -60.78260  -16.25700    6.57330
 1750.00000  109.48000   10.89510   10.89510  240.50190  206.08780    4.85230  109.48000   66.75760   66.75760    4.85230    5.21470  -58.22570  -13.75650    5.21470
 1800.00000  111.31240    9.27360    9.27360  175.63390  153.89110    6.49810  111.31240   73.70430   73.70430    6.49810    8.88140  -64.07200  -19.65950    8.88140
 1850.00000   84.05320    8.71980    8.71980   88.17350   78.13840   12.79780   84.05320   45.36740   45.36740   12.79780   13.08750  -60.66810  -16.31220   13.08750
 1900.00000   90.48640    9.35980    9.35980  137.13330  103.92740    9.62210   90.48640   54.81520   54.81520    9.62210    9.06380  -62.58110  -18.28190    9.06380
 1950.00000   98.35080    9.11750    9.11750  130.43870  115.00550    8.70090   98.35080   52.88160   52.88160    8.70090   14.18180  -59.87400  -15.63170   14.18180
 2000.00000   90.14180    9.14980    9.14980  114.06180   60.96410   16.40310   90.14180   30.10040   30.10040   16.40310   20.76140  -56.67150  -12.48560   20.76140
 2050.00000   85.54180    9.12630    9.12630  229.53190  197.70660    5.05800   85.54180   34.19920   34.19920    5.05800    8.72790  -56.85360  -12.72430    8.72790
 2100.00000   76.69580    8.33540    8.33540  117.09330  105.49970    9.47870   76.69580   34.16230   34.16230    9.47870   15.45380  -54.22200  -10.14940   15.45380
 2150.00000   69.79780    8.54010    8.54010  123.74810  109.14880    9.16180   69.79780   34.26520   34.26520    9.16180   12.69640  -61.43470  -17.41880   12.69640
 2200.00000   92.12230    8.80740    8.80740  172.18020  139.10190    7.20430   92.12230   22.41180   22.41180    7.20430   12.14810  -46.46280   -2.50380   12.14810
 2250.00000   72.39630    8.62340    8.62340  154.31220  139.24280    7.18170   72.39630   33.95550   33.95550    7.18170    9.10230  -42.64880   -1.62960    9.10230
 2300.00000   75.67210    9.41540    9.41540  129.27610  116.26830    8.60080   75.67210   38.46800   38.46800    8.60080   10.05810  -40.31850   -2.98150   10.05810
 2350.00000  108.14200   12.33340   12.33340  315.23110  270.66530    3.69460  108.14200   44.40810   44.40810    3.69460    4.20210  -40.26830   -3.52820    4.20210
 2400.00000   86.14900   10.00230   10.00230  206.19180  179.75910    5.56300   86.14900   30.15840   30.15840    5.56300    5.95290  -37.66790   -1.01810    5.95290
 2450.00000   67.10260    8.07510    8.07510   77.62610   73.02640   13.69380   67.10260   23.91980   23.91980   13.69380   17.86630  -50.36720  -13.80810   17.86630
 2500.00000   66.60070    8.11780    8.11780   73.17300   67.25490   14.86880   66.60070   20.60440   20.60440   14.86880   17.81930  -43.54010   -7.07080   17.81930
 2550.00000   75.68150    8.86540    8.86540  140.24670  113.72170    8.79340   75.68150   30.57050   30.57050    8.79340   13.95010  -42.89270   -6.51360   13.95010
 2600.00000   67.74220    7.99750    7.99750   79.93930   73.04010   13.69110   67.74220   22.92720   22.92720   13.69110   17.69490  -52.99690  -16.70800   17.69490
 2650.00000   89.54430   10.62850   10.62850  292.84840  239.24020    4.17990   89.54430   56.75880   56.75880    4.17990    5.33560  -45.46460   -9.26600    5.33560
 2700.00000  145.10300   14.77530   14.77530  396.02210  309.68880    3.22910  145.10300  111.03430  111.03430    3.22910    3.67360  -45.13670   -9.02870    3.67360
 2750.00000   60.65000    8.84450    8.84450   56.88350   52.90890   18.90040   60.65000   24.99940   24.99940   18.90040   25.42570  -63.14710  -27.12900   25.42570
 2800.00000   59.83360    8.25150    8.25150   53.40650   48.88280   20.45710   59.83360   14.33550   14.33550   20.45710   39.30520 -102.23880  -66.31090   39.30520
 2850.00000   54.66650    8.10410    8.10410   13.51930    8.59330  116.36960   54.66650   17.98310   17.98310  116.36960   69.85840  -82.81390  -46.97630   69.85840
 2900.00000   57.98230    8.10740    8.10740   31.32780   26.60790   37.58280   57.98230   12.74880   12.74880   37.58280   59.74650 -103.64240  -67.89500   59.74650
 2950.00000   61.01200    8.24000    8.24000   62.78540   60.28960   16.58960   61.01200   17.97740   17.97740   16.58960   41.41570 -110.19490  -74.53820   41.41570
 3000.00000   60.26380    8.34600    8.34600   42.00340   37.28570   26.81990   60.26380   13.24710   13.24710   26.81990   61.80550 -113.34110  -77.77420   61.80550
 3050.00000   63.16160    8.91470    8.91470   58.97550   55.61180   17.98180   63.16160   14.01160   14.01160   17.98180   59.06760 -113.24780  -77.77120   59.06760
 3100.00000   52.72900    8.40450    8.40450   16.00970    8.03300  124.48600   52.72900   13.28220   13.28220  124.48600   65.41360  -74.72680  -39.34040   65.41360
