~Version ---------------------------------------------------
VERS.      2.0 : CWLS log ASCII Standard -VERSION 2.0
WRAP.       NO : One line per depth step
CREA. 12/15/17 : LAS Creation Date
~Well ------------------------------------------------------
STRT.FT                                  850.0 : START DEPTH
STOP.FT                                 9450.0 : STOP DEPTH
STEP.FT                               50.00000 : STEP LENGTH
NULL.                                  -999.25 : NULL VALUE
COMP. THE BRITISH AMERICAN OIL COMPANY LIMITED : COMPANY
WELL.                 BA SNIPE LAKE 4-22-69-18 : WELL
FLD .                                          : FIELD
LOC .                                          : LOCATION
CTRY.                                   CANADA : COUNTRY
SRVC.                                  Unknown : SERVICE COMPANY
DATE.                              19-Nov-1961 : LOGDATE
PROV.                                  Alberta : PROVINCE
UWI .                         100042206918W500 : UNIQUE WELL ID
SLAT.WGS84                            54.98301 : SURFACE LATITUDE
SLON.WGS84                           -116.6662 : SURFACE LONGITUDE
~Curve Information -----------------------------------------
DEPT  .FT         : Depth Curve
CALWS .IN         : CALIPER [MCALED]
CILDED.MMHO       : CONDUCTIVITY FROM RESISTIVITY LOG
CONDWS.MMHO       : CONDUCTIVITY [1000/DRESWS]
DRESWS.OHMM       : DEEP RESISTIVITY [1000/CILDED, IF ILDED < 1, ILDED]
GRNED .UgRa-Eq/T  : GAMMA RAY FROM GRN LOG [ADJ. TO RESISTIVITY LOG]
GRWS  .GAPI       : GAMMA RAY [UgRa-Eq/T*16.5][GRNED]
ILDED .OHMM       : DEEP INDUCTION LOG RESISTIVITY FROM RESISTIVITY LOG
MCALED.IN         : MLT [MICROLOG][IN*25.4] CALIPER FROM MICROLOG
NEUTED.CPS        : NEUTRON FROM GRN LOG [ADJ. TO RESISTIVITY LOG]
NEUTWS.CPS        : NEUTRON [NEUTED]
SNED  .OHMM       : 16 INCH SHORT NORMAL RESISTIVITY FROM RESISTIVITY LOG
SPRED .MV         : SPONTANEOUS POTENTIAL FROM RESISTIVITY LOG [SPR IS DIVIDED BY 2 TO REDUCE READINGS]
SPWS  .MV         : SPONTANEOUS POTENTIAL [BASELINE TO 0 MV, SPRED]
SRESWS.OHMM       : SHALLOW RESISTIVITY [SNED]
~Params ----------------------------------------------------
PD  .                     GL : PERMANENT DATUM
EPD .FT               2982.5 : ELEVATION PERMANENT DATUM
LMF .                     KB : LOG MEASURED FROM
DAPD.FT                 13.5 : FEET ABOVE PERMANENT DATUM
EKB .FT                 2996 : KELLY BUSHING
EGL .FT               2982.5 : GROUND LEVEL
DATE.               11/19/61 : RUN DATE
RUN .                      2 : RUN NUMBER
DD  .FT                 9486 : DEPTH DRILLER
DL  .FT                 9484 : DEPTH LOGGER
BLI .FT                 9483 : BOTTOM LOG INTERVAL
TLI .FT                 6200 : TOP LOG INTERVAL
CBD .FT                  950 : CASING BOTTOM DRILLER
BS  .IN                    9 : BIT SIZE
BSD .FT                 9486 : BIT SIZE AT DEPTH
DFT .                    GEL : DRILLING FLUID TYPE
DFD .                   10.2 : DRILLING FLUID DENSITY
DFV .                    160 : DRILLING FLUID VISCOSITY
DFPH.                    8.5 : DRILLING FLUID PH
DFL .                    7.6 : DRILLING FLUID LOSS
RMS .OHMM                3.2 : RESISTIVITY MUD SAMPLE
MST .DEGF                 60 : MUD SAMPLE TEMPERATURE
RMF .OHMM                1.6 : RESISTIVITY MUD FILTRATE SAMPLE
MFST.DEGF                 71 : MUD FILTRATE SAMPLE TEMPERATURE
RMC .OHMM                3.0 : RESISTIVITY MUD CAKE
MCST.DEGF                 74 : MUD CAKE SAMPLE TEMPERATURE
RMB .OHMM                1.1 : RESISTIVITY MUD AT BHT
TCS .HRS                   3 : TIME CIRCULATED STOPPED
LUN .                   1534 : LOGGING UNIT NUMBER
LUL .                     WC : LOGGING UNIT LOCATION
ENGI.        MILLS HAUSEGGER : RECORDING ENGINEER
WITN.               ANDERSON : WITNESSED BY
CLNT.                A2DTECH : CLIENT CODE
ORIG.            2" 5" PRINT : ORIGIN OF DATA
UWI .       100042206918W500 : UNIQUE WELL ID
DICO. A2D Technologies, Inc. : DIGITIZING COMPANY
~Other -----------------------------------------------------
~ASCII -----------------------------------------------------
  850.00000    -999.25    -999.25    -999.25    -999.25    2.66700   44.00550    -999.25    -999.25  158.97450  158.97450    -999.25    -999.25    -999.25    -999.25
  900.00000    -999.25    -999.25    -999.25    -999.25    2.66750   44.01380    -999.25    -999.25  184.85680  184.85680    -999.25    -999.25    -999.25    -999.25
  950.00000    -999.25    -999.25    -999.25    -999.25    2.45710   40.54210    -999.25    -999.25  154.78720  154.78720    -999.25    -999.25    -999.25    -999.25
 1000.00000    9.25120  170.65170  154.80600    6.45970    4.51490   74.49590    6.45970    9.25120  201.99550  201.99550    5.30460  -55.84730  -16.14660    5.30460
 1050.00000   12.55900  446.37730  329.03400    3.03920    5.10460   84.22670    3.03920   12.55900  182.03470  182.03470    2.44020  -53.47950  -13.77880    2.44020
 1100.00000   14.25220  404.90160  305.54880    3.27280    2.83450   46.76930    3.27280   14.25220  190.15550  190.15550    2.97470  -51.84430  -12.14360    2.97470
 1150.00000   14.10420  314.13950  255.06950    3.92050    4.90110   80.86810    3.92050   14.10420  194.10580  194.10580    2.84880  -52.67240  -12.97180    2.84880
 1200.00000    8.66390   75.45320   72.47270   13.79830    3.59810   59.36870   13.79830    8.66390  200.35660  200.35660    8.29860  -58.36740  -18.66670    8.29860
 1250.00000   13.63720  228.08580  205.76560    4.85990    4.51450   74.48920    4.85990   13.63720  197.78730  197.78730    4.18590  -52.74090  -13.04020    4.18590
 1300.00000   13.42870  329.65340  268.78110    3.72050    5.02850   82.97020    3.72050   13.42870  191.78230  191.78230    3.98030  -52.21090  -12.51020    3.98030
 1350.00000   13.23860  144.68980  145.07470    6.89300    4.72870   78.02360    6.89300   13.23860  179.34150  179.34150    5.27280  -53.30660  -13.60590    5.27280
 1400.00000    8.48500   56.83610   54.10960   18.48100    2.83870   46.83850   18.48100    8.48500  208.32110  208.32110   15.13810  -58.45260  -18.75200   15.13810
 1450.00000   13.77840  228.98890  217.44800    4.59880    3.34330   55.16450    4.59880   13.77840  185.84000  185.84000    5.05440  -52.65660  -12.95600    5.05440
 1500.00000   13.10300  284.93770  246.49970    4.05680    3.82000   63.03000    4.05680   13.10300  186.74440  186.74440    3.39140  -51.53180  -11.83110    3.39140
 1550.00000    8.49920   76.05690   76.22300   13.11940    2.98250   49.21130   13.11940    8.49920  200.19280  200.19280   10.89720  -57.96590  -18.26520   10.89720
 1600.00000   12.84310  188.67110  166.77790    5.99600    3.60860   59.54190    5.99600   12.84310  195.46030  195.46030    4.54650  -52.60390  -12.90320    4.54650
 1650.00000   12.79920  296.76760  244.69620    4.08670    3.80480   62.77920    4.08670   12.79920  179.10100  179.10100    3.67440  -52.29290  -12.59220    3.67440
 1700.00000    9.61590  259.92530  211.77470    4.72200    3.96430   65.41100    4.72200    9.61590  192.98960  192.98960    3.92360  -52.54680  -12.84620    3.92360
 1750.00000    8.57710  121.25380  116.40220    8.59090    3.46450   57.16430    8.59090    8.57710  214.46780  214.46780    7.64150  -55.93650  -16.23580    7.64150
 1800.00000   13.43480  307.12910  283.06960    3.53270    3.74000   61.71000    3.53270   13.43480  191.35760  191.35760    3.99190  -52.22590  -12.52520    3.99190
 1850.00000   14.14170  293.82380  227.20040    4.40140    3.45030   56.92990    4.40140   14.14170  190.90980  190.90980    3.76110  -51.88300  -12.18230    3.76110
 1900.00000   11.63880  238.51780  202.67530    4.93400    3.32740   54.90210    4.93400   11.63880  182.16630  182.16630    3.99260  -51.73110  -12.03040    3.99260
 1950.00000   14.02970  227.56450  200.02800    4.99930    4.10390   67.71440    4.99930   14.02970  165.35640  165.35640    5.39730  -51.53750  -11.83680    5.39730
 2000.00000   11.92380  207.22630  171.87150    5.81830    3.31850   54.75520    5.81830   11.92380  181.34790  181.34790    5.13140  -51.74630  -12.04560    5.13140
 2050.00000   10.50980  164.54090  158.88900    6.29370    3.31040   54.62080    6.29370   10.50980  190.60370  190.60370    7.05070  -57.57220  -17.87150    7.05070
 2100.00000   11.68680  261.73770  232.61220    4.29900    3.69260   60.92790    4.29900   11.68680  189.87380  189.87380    4.01450  -52.79180  -13.09110    4.01450
 2150.00000   10.84330  221.67980  198.31830    5.04240    3.51340   57.97110    5.04240   10.84330  206.23190  206.23190    5.44480  -52.86220  -13.16150    5.44480
 2200.00000   11.01380  282.75180  255.15410    3.91920    3.87640   63.96060    3.91920   11.01380  181.00000  181.00000    4.34420  -52.50870  -12.80800    4.34420
 2250.00000   10.23800  218.03630  191.99750    5.20840    3.78330   62.42450    5.20840   10.23800  180.98390  180.98390    4.83540  -52.05280  -12.35210    4.83540
 2300.00000   13.36890  152.27130  141.19710    7.08230    5.65340   93.28030    7.08230   13.36890  171.01220  171.01220    6.56170  -52.03420  -12.33350    6.56170
 2350.00000   14.20710  184.62660  175.30940    5.70420    5.84940   96.51510    5.70420   14.20710  173.37960  173.37960    6.18040  -53.63040  -13.92970    6.18040
 2400.00000   13.69610  179.25100  168.00230    5.95230    6.39790  105.56540    5.95230   13.69610  166.22250  166.22250    6.82810  -53.03620  -13.33550    6.82810
 2450.00000   12.87310  162.67400  155.17590    6.44430    8.10980  133.81170    6.44430   12.87310  161.90940  161.90940    7.96800  -52.91210  -13.21140    7.96800
 2500.00000   13.92230  182.18890  175.07000    5.71200    6.20030  102.30500    5.71200   13.92230  171.95310  171.95310    6.44410  -52.36680  -12.66620    6.44410
 2550.00000   14.22220  166.01750  162.13500    6.16770    6.23850  102.93520    6.16770   14.22220  172.97050  172.97050    6.62350  -54.99900  -15.29830    6.62350
 2600.00000   14.23580  172.33050  165.35210    6.04770    5.88920   97.17180    6.04770   14.23580  181.88250  181.88250    6.71350  -54.82270  -15.12210    6.71350
 2650.00000   14.24370  131.17570  128.12790    7.80470    6.19220  102.17130    7.80470   14.24370  190.58870  190.58870    7.29720  -55.63050  -15.92980    7.29720
 2700.00000   14.26150  139.24460  135.60790    7.37420    6.57550  108.49580    7.37420   14.26150  174.67610  174.67610    6.90290  -55.05790  -15.35720    6.90290
 2750.00000   14.28690  150.06380  138.55980    7.21710    5.82120   96.04980    7.21710   14.28690  175.96900  175.96900    6.77240  -54.64410  -14.94340    6.77240
 2800.00000   14.30480  107.93920  103.58940    9.65350    5.27430   87.02590    9.65350   14.30480  198.86080  198.86080    7.82690  -54.96280  -15.26210    7.82690
 2850.00000   14.29440  139.54750  136.09700    7.34770    6.00340   99.05610    7.34770   14.29440  182.40670  182.40670    6.83550  -53.57690  -13.87620    6.83550
 2900.00000   14.22100  139.07400  132.04110    7.57340    5.89020   97.18830    7.57340   14.22100  175.84500  175.84500    7.17280  -53.60090  -13.90030    7.17280
 2950.00000   14.31790  127.65590  122.96490    8.13240    6.13090  101.15980    8.13240   14.31790  185.64220  185.64220    7.27360  -54.03110  -14.33040    7.27360
 3000.00000   14.31950  169.77320  159.55580    6.26740    6.73740  111.16710    6.26740   14.31950  180.12590  180.12590    6.69510  -54.06320  -14.36250    6.69510
 3050.00000   14.01300  165.58780  158.45850    6.31080    6.82910  112.68100    6.31080   14.01300  183.97710  183.97710    7.15300  -52.95320  -13.25250    7.15300
 3100.00000   12.94680  171.51880  160.72780    6.22170    7.37070  121.61660    6.22170   12.94680  175.74360  175.74360    7.88860  -53.01190  -13.31120    7.88860
 3150.00000   11.12580  149.99490  146.08350    6.84540    8.65390  142.78940    6.84540   11.12580  165.21300  165.21300    8.93950  -51.83630  -12.13560    8.93950
 3200.00000   10.57310  101.39290   97.51720   10.25460    9.86720  162.80880   10.25460   10.57310  192.19590  192.19590   13.15820  -53.01400  -13.31330   13.15820
 3250.00000   13.74900  222.51060  195.45370    5.11630    5.60130   92.42150    5.11630   13.74900  175.82370  175.82370    5.38980  -53.11720  -13.41650    5.38980
