~Version ---------------------------------------------------
VERS.      2.0 : CWLS log ASCII Standard -VERSION 2.0
WRAP.       NO : One line per depth step
CREA. 06/29/13 : LAS Creation Date
~Well ------------------------------------------------------
STRT.M                          450.0 : START DEPTH
STOP.M                         3050.0 : STOP DEPTH
STEP.M                       50.00000 : STEP LENGTH
NULL.                         -999.25 : NULL VALUE
COMP.               SABINE CANADA LTD : COMPANY
WELL. SABINE ET AL GIROUX 10-33-65-20 : WELL
FLD .                                 : FIELD
LOC .                                 : LOCATION
CTRY.                          CANADA : COUNTRY
SRVC.                    Schlumberger : SERVICE COMPANY
DATE.                     19-Jan-1979 : LOGDATE
PROV.                         Alberta : PROVINCE
UWI .                100103306520W500 : UNIQUE WELL ID
SLAT.WGS84                   54.67172 : SURFACE LATITUDE
SLON.WGS84                  -116.9569 : SURFACE LONGITUDE
~Curve Information -----------------------------------------
DEPT    .M                                       : DEPTH METER
CALDED  .MM                                      : CALIPER FROM DENSITY LOG
CALSED  .MM                                      : CALIPER FROM SONIC LOG [ADJ. TO RESISTIVITY LOG]
CALWS   .MM                                      : CALIPER [CALDED]
CONDWS  .MMHO                                    : CONDUCTIVITY [1000/DRESWS]
DCORED  .KG/M3                                   : DENSITY CORRECTION FROM DENSITY LOG
DCORWS  .KG/M3                                   : DENSITY CORRECTION [DCORED]
DENWS   .KG/M3                                   : FORMATION BULK DENSITY  [CALC. FROM DPOLSWS, M=2710, F=1000]
DPHILSED.V/V                                     : DENSITY POROSITY LIMESTONE [M=2710, F=1000] FROM DENSITY LOG
DPHISSED.V/V                                     : DENSITY POROSITY SANDSTONE [M=2650, F=1000] FROM DENSITY LOG
DPOLSWS .V/V                                     : DENSITY POROSITY LIMESTONE [DPHISSED CONVERTED TO LIMESTONE MATRIX, M=2710, F=1000, SPL. TO NPHILSED @ 1819.9 M]
DRESWS  .OHMM                                    : DEEP RESISTIVITY [ILDED]
DTED    .US/M                                    : DELTA T FROM SONIC LOG [ADJ. TO RESISTIVITY LOG]
DTWS    .US/M                                    : COMPRESSIONAL SONIC [DTED]
GRDED   .GAPI                                    : GAMMA RAY FROM DENSITY LOG
GRSED   .GAPI                                    : GAMMA RAY FROM SONIC LOG [ADJ. TO RESISTIVITY LOG]
GRWS    .GAPI                                    : GAMMA RAY [GRSED]
ILDED   .OHMM                                    : DEEP INDUCTION FROM RESISTIVITY LOG
ILMED   .OHMM                                    : MEDIUM INDUCTION FROM RESISTIVITY LOG
MRESWS  .OHMM                                    : MEDIUM RESISTIVITY [ILMED]
NPHILSED.V/V                                     : NEUTRON POROSITY LIMESTONE FROM DENSITY LOG
NPHISSED.V/V                                     : NEUTRON POROSITY SANDSTONE FROM DENSITY LOG
NPOLSWS .V/V :   NEUTRON POROSITY LIMESTONE [SLB : NPHISSED MATRIX CONVERSION FOR LIMESTONE, SPL.TO NPHILSED @ 1820M]
RHOBED  .KG/M3                                   : BULK DENSITY FROM DENSITY LOG
SFLED   .OHMM                                    : PHERICALLY FOCUSED FROM RESISTIVITY LOG
SPRED   .MV                                      : SPONTANEOUS POTENTIAL FROM RESISTIVITY LOG
SPWS    .MV                                      : SPONATENOUS POTENTIAL [BASELINE 0 MV, SPRED]
SRESWS  .OHMM                                    : SHALLOW RESISTIVITY [SFLED]
~Params ----------------------------------------------------
PD  .                       GL : PERMANENT DATUM
EPD .M                  737.78 : ELEVATION PERMANENT DATUM
LMF .                       KB : LOG MEASURED FROM
DAPD.M                    3.54 : FEET ABOVE PERMANENT DATUM
DMF .                       KB : DRILLING MEASURED FROM
EKB .M                  741.32 : KELLY BUSHING
EGL .M                  737.78 : GROUND LEVEL
DATE.                 01/19/79 : RUN DATE
RUN .                        2 : RUN NUMBER
DD  .M                    3067 : DEPTH DRILLER
DL  .M                    3065 : DEPTH LOGGER
BLI .M                    3063 : BOTTOM LOG INTERVAL
TLI .M                    1300 : TOP LOG INTERVAL
CS  .MM                    244 : CASING SIZE
CBD .M                     463 : CASING BOTTOM DRILLER
BS  .MM                    222 : BIT SIZE
BSD .M                    3067 : BIT SIZE AT DEPTH
DFT .                      GEL : DRILLING FLUID TYPE
DFD .                     1130 : DRILLING FLUID DENSITY
DFV .                      102 : DRILLING FLUID VISCOSITY
DFL .                     10.7 : DRILLING FLUID LOSS
MSS .                    PRESS : MUD SAMPLE SOURCE
RMS .OHMM                  2.9 : RESISTIVITY MUD SAMPLE
MST .DEGC                   68 : MUD SAMPLE TEMPERATURE
RMF .OHMM                 2.53 : RESISTIVITY MUD FILTRATE SAMPLE
MFST.DEGC                   68 : MUD FILTRATE SAMPLE TEMPERATURE
RMB .OHMM                 1.11 : RESISTIVITY MUD AT BHT
TCS .HRS                  1600 : TIME CIRCULATED STOPPED
TLAB.HRS                   600 : TIME LOGGER AT BOTTOM
LUN .                     7809 : LOGGING UNIT NUMBER
LUL .                      EDM : LOGGING UNIT LOCATION
ENGI.                SEVOUGIAN : RECORDING ENGINEER
WITN.                  TAXBOCK : WITNESSED BY
CLNT.                  A2DTECH : CLIENT CODE
ORIG. 6IN/100M 16IN/100M PRINT : ORIGIN OF DATA
UWI .         100103306520W500 : UNIQUE WELL ID
DICO.   A2D Technologies, Inc. : DIGITIZING COMPANY
~Other -----------------------------------------------------
CNFD-DI-SFL-BCS LOG RAN
RHOBED IS FROM SMALL SCALE
~ASCII -----------------------------------------------------
# ...
 1750.00000  235.53150  245.55430  235.53150   10.50090    0.24150    0.24150 2400.52000    -999.25    0.15120    0.18100   95.22990  277.69350  277.69350  304.68030  304.99950  304.99950   95.22990  159.83970  159.83970    -999.25    0.33500    0.24900 2392.21020  999.03750  -12.81420  -30.90820  999.03750
 1800.00000  233.56900  247.59700  233.56900  129.17230   -2.96210   -2.96210 2621.95000    -999.25    0.01700    0.05150    7.74160  207.12970  207.12970   70.17240   90.46220   90.46220    7.74160    8.06230    8.06230    -999.25    0.14420    0.05620 2617.87870   13.55520  -37.83250  -45.37880   13.55520
 1850.00000  225.65380  227.23840  225.65380   20.32300   75.85630   75.85630 2642.96800    0.03920    -999.25    0.03920   49.20540  171.98030  171.98030   31.54920   41.77740   41.77740   49.20540   70.61040   70.61040    0.06800    -999.25    0.06800 2639.04390  322.13780  -43.39400  -58.09260  322.13780
 1900.00000  225.32350  230.45070  225.32350  249.79390   28.29490   28.29490 2508.90400    0.11760    -999.25    0.11760    4.00330  205.33700  205.33700   22.06940   31.97480   31.97480    4.00330    6.50990    6.50990    0.20780    -999.25    0.20780 2534.67530   20.50280  -67.01460 -119.49070   20.50280
 1950.00000  235.36970  241.94780  235.36970  264.00550   12.92110   12.92110 2647.41400    0.03660    -999.25    0.03660    3.78780  213.15000  213.15000   62.10400   86.31490   86.31490    3.78780    4.87540    4.87540    0.16160    -999.25    0.16160 2654.85250   17.43090  -36.73290  -62.28650   17.43090
 2000.00000  237.74950  251.13810  237.74950    5.36780   10.74110   10.74110 2725.04800   -0.00880    -999.25   -0.00880  186.29680  173.98810  173.98810   24.73220   37.76970   37.76970  186.29680  327.52740  327.52740    0.01040    -999.25    0.01040 2758.23970 1392.03470 -119.82480  -99.22390 1392.03470
 2050.00000  233.10230  246.87280  233.10230  140.70440   12.29170   12.29170 2657.33200    0.03080    -999.25    0.03080    7.10710  216.47990  216.47990  106.76200  125.37840  125.37840    7.10710    8.08230    8.08230    0.12020    -999.25    0.12020 2643.08080    8.80050  -54.60570   -3.11530    8.80050
 2100.00000  278.71430  255.16370  278.71430   13.30820  153.16450  153.16450 2529.76600    0.10540    -999.25    0.10540   75.14190  170.03980  170.03980   24.43090   37.53820   37.53820   75.14190  141.30160  141.30160    0.01080    -999.25    0.01080 2575.10230  339.27150 -108.41480  -54.47010  339.27150
 2150.00000  226.28580  237.47570  226.28580   14.17820   87.12570   87.12570 2799.94600   -0.05260    -999.25   -0.05260   70.53100  178.46780  178.46780   42.10960   51.58540   51.58540   70.53100   78.93520   78.93520    0.01880    -999.25    0.01880 2905.58370  101.99640 -136.52020  -69.21530  101.99640
 2200.00000  228.97020  236.72560  228.97020   27.83970   -7.47620   -7.47620 2695.97800    0.00820    -999.25    0.00820   35.91990  187.92050  187.92050   53.20590   73.11850   73.11850   35.91990   39.71900   39.71900    0.04220    -999.25    0.04220 2683.53200   48.52280 -111.11450  -40.82260   48.52280
 2250.00000  230.03820  240.19520  230.03820   10.14300   29.03630   29.03630 2323.54000    0.22600    -999.25    0.22600   98.59050  318.69090  318.69090  304.92180  304.10440  304.10440   98.59050  247.80640  247.80640    0.29400    -999.25    0.29400 2325.36380  359.80700  -99.15680  -99.97160  359.80700
 2300.00000  244.38130  246.80150  244.38130   11.87150 -151.51640 -151.51640 2734.28200   -0.01420    -999.25   -0.01420   84.23520  170.34920  170.34920   18.54680   24.67590   24.67590   84.23520   90.15150   90.15150    0.00660    -999.25    0.00660 2721.16020  160.60340   15.72990  -50.92250  160.60340
 2350.00000  249.54150  242.34000  249.54150   19.76780   97.87290   97.87290 2660.06800    0.02920    -999.25    0.02920   50.58740  170.53580  170.53580   12.33190   17.94730   17.94730   50.58740   56.78430   56.78430    0.00560    -999.25    0.00560 2657.99880   98.05980   49.81460  -17.93990   98.05980
 2400.00000  282.97790  257.72160  282.97790    3.17440   66.76600   66.76600 2522.24200    0.10980    -999.25    0.10980  315.02130  180.40950  180.40950   18.13650   25.05620   25.05620  315.02130  341.51150  341.51150    0.00800    -999.25    0.00800 2481.55270  483.42120  -76.66580 -130.64470  483.42120
 2450.00000  223.09700  235.37520  223.09700   11.18880    9.00900    9.00900 2699.39800    0.00620    -999.25    0.00620   89.37500  172.55330  172.55330   10.69440   20.19650   20.19650   89.37500  115.69970  115.69970    0.01900    -999.25    0.01900 2682.14010  378.39550 -110.98690 -151.19030  378.39550
 2500.00000  233.50230  243.27750  233.50230    6.45120    9.77990    9.77990 2831.41000   -0.07100    -999.25   -0.07100  155.01100  157.32580  157.32580   32.37200   46.33700   46.33700  155.01100  144.81620  144.81620    0.03080    -999.25    0.03080 2815.99980  313.56090  -61.95540  -88.38320  313.56090
 2550.00000  230.77630  242.65140  230.77630   23.41710   -0.92020   -0.92020 2702.47600    0.00440    -999.25    0.00440   42.70390  186.72450  186.72450   67.16990   82.38960   82.38960   42.70390   68.32960   68.32960    0.02320    -999.25    0.02320 2673.91110  221.58790    7.40060  -17.05830  221.58790
 2600.00000  220.81260  236.29280  220.81260    6.47420    1.44090    1.44090 2718.55000   -0.00500    -999.25   -0.00500  154.46040  178.20500  178.20500   27.74640   33.69400   33.69400  154.46040  207.75460  207.75460    0.02780    -999.25    0.02780 2705.83130  444.15970    9.86780  -38.05630  444.15970
 2650.00000  315.12070  302.68580  315.12070  299.48190  230.64220  230.64220 2463.76000    0.14400    -999.25    0.14400    3.33910  265.57020  265.57020  100.04350  120.20570  120.20570    3.33910    3.76750    3.76750    0.27780    -999.25    0.27780 2485.72560    4.52320   89.48090  -10.20020    4.52320
 2700.00000  291.39930  266.44010  291.39930  308.43250  112.50180  112.50180 2592.69400    0.06860    -999.25    0.06860    3.24220  275.18380  275.18380  115.57080  140.60220  140.60220    3.24220    3.64680    3.64680    0.25720    -999.25    0.25720 2597.54760    4.90640   20.41470 -113.61880    4.90640
 2750.00000  226.76010  234.18170  226.76010  122.66480   87.78900   87.78900 2713.07800   -0.00180    -999.25   -0.00180    8.15230  214.66400  214.66400   81.94490   93.34440   93.34440    8.15230    9.87090    9.87090    0.13960    -999.25    0.13960 2698.25950   12.25290  110.31830  -56.90990   12.25290
 2800.00000  231.84620  235.55250  231.84620  152.72310  124.22020  124.22020 2729.49400   -0.01140    -999.25   -0.01140    6.54780  235.89540  235.89540   95.63840  127.80860  127.80860    6.54780    8.03710    8.03710    0.18500    -999.25    0.18500 2763.29080    8.75660  167.87030  -24.01310    8.75660
 2850.00000  220.73420  233.62820  220.73420  134.14900   -4.52130   -4.52130 2713.42000   -0.00200    -999.25   -0.00200    7.45440  227.24170  227.24170   91.29390  110.39190  110.39190    7.45440    8.73570    8.73570    0.15840    -999.25    0.15840 2699.57960   11.85690  189.18460   -5.34800   11.85690
 2900.00000  222.96050  234.68250  222.96050   28.09460  -14.07650  -14.07650 2529.08200    0.10580    -999.25    0.10580   35.59400  268.86150  268.86150  141.55970  177.11350  177.11350   35.59400   79.50050   79.50050    0.22000    -999.25    0.22000 2547.58450  451.73390  205.52650  -16.08190  451.73390
 2950.00000  222.05300  232.40550  222.05300   35.15460   -0.69110   -0.69110 2699.74000    0.00600    -999.25    0.00600   28.44580  183.18470  183.18470   35.41420   48.01250   48.01250   28.44580   21.80540   21.80540    0.04060    -999.25    0.04060 2703.14360   23.81080  190.44690  -32.89250   23.81080
 3000.00000  221.99260  235.59560  221.99260    4.74660   -8.94880   -8.94880 2656.99000    0.03100    -999.25    0.03100  210.67770  172.72760  172.72760   22.62730   33.71140   33.71140  210.67770  305.96470  305.96470    0.01000    -999.25    0.01000 2664.72780  570.22880  134.16600  -65.37190  570.22880
