~Version ---------------------------------------------------
VERS.      2.0 : CWLS log ASCII Standard -VERSION 2.0
WRAP.       NO : One line per depth step
CREA. 11/22/17 : LAS Creation Date
~Well ------------------------------------------------------
STRT.FT                         900.0 : START DEPTH
STOP.FT                        8350.0 : STOP DEPTH
STEP.FT                      50.00000 : STEP LENGTH
NULL.                         -999.25 : NULL VALUE
COMP.         QUINTANA EXPLORATION CO : COMPANY
WELL. QUINTANA ET AL SNIPE 6-23-72-18 : WELL
FLD .                                 : FIELD
LOC .                                 : LOCATION
CTRY.                          CANADA : COUNTRY
SRVC.          Schlumberger of Canada : SERVICE COMPANY
DATE.                     22-Mar-1977 : LOGDATE
PROV.                         Alberta : PROVINCE
UWI .                100062307218W500 : UNIQUE WELL ID
SLAT.WGS84                   55.24794 : SURFACE LATITUDE
SLON.WGS84                  -116.6597 : SURFACE LONGITUDE
~Curve Information -----------------------------------------
DEPT    .FT    : Depth Curve
CALDED  .IN    : CALIPER FROM DENSITY LOG
CALSED  .IN    : CALIPER FROM SONIC LOG
CALWS   .IN    : CALIPER [CALSED]
CONDWS  .MMHO  : CONDUCTIVITY [1000/DRESWS]
DCORWS  .G/C3  : DENSITY CORRECTION [DRHOED]
DENWS   .G/C3  : FORMATION BULK DENSITY [CALC FROM DPOLSWS, M=2.71, F=1.00]
DPHILSED.V/V   : DENSITY POROSITY LIMESTONE [M=2.71, F=1.00] FROM DENSITY LOG
DPHISSED.V/V   : DENSITY POROSITY SANDSTONE [M=2.65, F=1.00] FROM DENSITY LOG
DPOLSWS .V/V   : DENSITY POROSITY LIMESTONE [DPHISSED CONVERTED TO LS, SPL TO DPHILSED @1274M & SPL TO CALC FROM RHOBED, SEE the Other Information]
DRESWS  .OHMM  : DEEP RESISTIVITY [ILDED]
DRHOED  .G/C3  : DENSITY CORRECTION FROM DENSITY LOG
DTED    .US/F  : DELTA TIME FROM SONIC LOG
DTWS    .US/F  : COMPRESSIONAL SONIC [DTED]
GRDED   .GAPI  : GAMMA RAY FROM DENSITY LOG
GRSED   .GAPI  : GAMMA RAY FROM SONIC LOG
GRWS    .GAPI  : GAMMA RAY [GRSED SPL. TO GRDED @ 964'-8333']
ILDED   .OHMM  : DEEP INDUCTION FROM RESISTIVITY LOG
ILMED   .OHMM  : MEDIUM INDUCTION FROM RESISTIVITY LOG
LL8ED   .OHMM  : 8 INCH LATEROLOG RESISTIVITY FROM RESISTIVITY LOG
MRESWS  .OHMM  : MEDIUM RESISTIVITY [ILMED]
NPHILSED.V/V   : NEUTRON POROSITY LIMESTONE FROM DENSITY LOG
NPHISSED.V/V   : NEUTRON POROSITY SANDSTONE FROM DENSITY LOG
NPOLSWS .V/V   : NEUTRON POROSITY LIMESTONE [NPHISSED MATRIX CONVERSION FOR LIMESTONE & SPL. TO NPHILSED @ 4200']
RHOBED  .G/C3  : BULK DENSITY FROM DENSITY LOG
SPRED   .MV    : SPONTANEOUS POTENTIAL FROM RESISTIVITY LOG
SPWS    .MV    : SPONTANEOUS POTENTIAL [BASELINE 0 MV, SPRED]
SRESWS  .OHMM  : SHALLOW RESISTIVITY [LL8ED]
~Params ----------------------------------------------------
PD  .                     GL : PERMANENT DATUM
EPD .FT                 2330 : ELEVATION PERMANENT DATUM
LMF .                     KB : LOG MEASURED FROM
DAPD.FT                    7 : FEET ABOVE PERMANENT DATUM
EKB .FT                 2347 : KELLY BUSHING
EGL .FT                 2330 : GROUND LEVEL
DATE.               03/22/77 : RUN DATE
RUN .                      1 : RUN NUMBER
DD  .FT                 8390 : DEPTH DRILLER
DL  .FT                 8389 : DEPTH LOGGER
BLI .FT                 8383 : BOTTOM LOG INTERVAL
TLI .FT                  615 : TOP LOG INTERVAL
CBD .FT                  918 : CASING BOTTOM DRILLER
CBL .FT                  916 : CASING BOTTOM LOGGER
BS  .IN                 8.75 : BIT SIZE
BSD .FT                 8390 : BIT SIZE AT DEPTH
DFT .               GEL CHEM : DRILLING FLUID TYPE
DFD .                    9.3 : DRILLING FLUID DENSITY
DFV .                     76 : DRILLING FLUID VISCOSITY
DFPH.                    9.0 : DRILLING FLUID PH
DFL .                    6.0 : DRILLING FLUID LOSS
MSS .               FLOWLINE : MUD SAMPLE SOURCE
RMS .OHMM               3.18 : RESISTIVITY MUD SAMPLE
MST .DEGF                 68 : MUD SAMPLE TEMPERATURE
RMF .OHMM               2.96 : RESISTIVITY MUD FILTRATE SAMPLE
MFST.DEGF                 70 : MUD FILTRATE SAMPLE TEMPERATURE
RMB .OHMM               1.48 : RESISTIVITY MUD AT BHT
TCS .HRS                 1.5 : TIME CIRCULATED STOPPED
LUN .                   7802 : LOGGING UNIT NUMBER
LUL .                    EDM : LOGGING UNIT LOCATION
ENGI.              CERANTOLA : RECORDING ENGINEER
WITN.                  SKOKO : WITNESSED BY
CLNT.                A2DTECH : CLIENT CODE
ORIG.            2" 5" PRINT : ORIGIN OF DATA
UWI .       100062307218W500 : UNIQUE WELL ID
DICO. A2D Technologies, Inc. : DIGITIZING COMPANY
~Other -----------------------------------------------------
DPOLSWS.(@5685'-5705',7139'-7303', 7342'-7345',7375'-7378',7539'-7552' & 7884'-7890']
DIL-CNFD-BCS LOG RUN
RHOB & DRHO HAVE BEEN VERIFIED FROM 2" SECTION
NEUTRON CONVERSION [CNL (NPHI)] USING SCHLUMBERGER CHART
~ASCII -----------------------------------------------------
# ...
 2200.00000   15.37000    9.84700    9.84700  222.99030    0.15070    1.82500    -999.25    0.50000    0.51750    4.48450    0.15070  111.97240  111.97240  140.83740  142.13050  140.83740    4.48450    4.30200    4.86960    4.30200    -999.25    0.47510    0.43420    1.81870  -54.72090   -8.51990    4.86960
 2250.00000   15.37000    9.55290    9.55290  245.58560    0.15810    1.83290    -999.25    0.49520    0.51290    4.07190    0.15810  111.79690  111.79690  136.28180  130.19590  136.28180    4.07190    4.12130    5.07970    4.12130    -999.25    0.49290    0.45280    1.81360  -50.35890   -5.05810    5.07970
 2300.00000   15.37000   10.20360   10.20360  206.96220    0.07750    1.86180    -999.25    0.47770    0.49600    4.83180    0.07750  111.44290  111.44290  131.53280  136.85500  131.53280    4.83180    5.30740    5.55210    5.30740    -999.25    0.52180    0.48310    1.83310  -53.15200   -8.75130    5.55210
 2350.00000   13.52590   10.35270   10.35270  387.94270    0.13650    1.91250    -999.25    0.44700    0.46640    2.57770    0.13650  126.41340  126.41340  169.82820  178.47570  169.82820    2.57770    2.86250    3.85100    2.86250    -999.25    0.49260    0.45250    1.88460  -45.05580   -1.55530    3.85100
 2400.00000   14.00430   10.17690   10.17690  572.04970    0.11820    1.89250    -999.25    0.45910    0.47810    1.74810    0.11820  158.08280  158.08280  135.97930  141.88220  135.97930    1.74810    1.66790    2.83130    1.66790    -999.25    0.59190    0.55740    1.88130  -46.63450   -3.33520    2.83130
 2450.00000   13.38570   10.47760   10.47760  339.72010    0.18040    2.06620    -999.25    0.35380    0.37650    2.94360    0.18040  119.57800  119.57800  131.86780  136.61200  131.86780    2.94360    2.75350    3.87970    2.75350    -999.25    0.50170    0.46200    2.06620  -47.57690   -3.75400    3.87970
 2500.00000   13.25410   12.97670   12.97670  324.93910    0.13890    1.91940    -999.25    0.44280    0.46240    3.07750    0.13890  117.72830  117.72830  130.62610  123.56390  130.62610    3.07750    2.89220    3.92940    2.89220    -999.25    0.56860    0.53260    1.90400  -47.92740   -4.03250    3.92940
 2550.00000   12.47760   11.86940   11.86940  335.77330    0.15860    2.09610    -999.25    0.33570    0.35900    2.97820    0.15860  118.83720  118.83720  152.60490  132.92220  152.60490    2.97820    2.70090    3.73710    2.70090    -999.25    0.51790    0.47900    2.09610  -47.39420   -3.42730    3.73710
 2600.00000   10.54540   11.59750   11.59750  216.62370    0.11850    2.34670    -999.25    0.18380    0.21240    4.61630    0.11850   97.01480   97.01480   64.82460   58.05640   64.82460    4.61630    7.38220   12.73050    7.38220    -999.25    0.29630    0.25230    2.34670  -77.44490  -33.40590   12.73050
 2650.00000   11.04040   10.35870   10.35870  361.66370    0.23080    1.94380    -999.25    0.42800    0.44810    2.76500    0.23080  110.26520  110.26520  118.32560  103.14000  118.32560    2.76500    2.63640    4.01140    2.63640    -999.25    0.49130    0.45110    1.92350  -46.24450   -2.13350    4.01140
 2700.00000   11.45420   10.27910   10.27910  291.97080    0.08620    2.35370    -999.25    0.17960    0.20840    3.42500    0.08620  105.26840  105.26840  133.25600  115.52980  133.25600    3.42500    3.79460    5.02740    3.79460    -999.25    0.38320    0.34000    2.35370  -73.39500  -29.26140    5.02740
 2750.00000    8.84990    8.65680    8.65680  273.71010    0.08470    2.20240    -999.25    0.27130    0.29690    3.65350    0.08470  100.81780  100.81780   74.83740   67.06190   74.83740    3.65350    5.95840   15.33770    5.95840    -999.25    0.37650    0.33320    2.20240 -115.12390  -71.02590   15.33770
 2800.00000    9.58000    9.31270    9.31270  305.36220    0.11090    2.39710    -999.25    0.15330    0.18300    3.27480    0.11090  105.25690  105.25690  130.12020  108.52480  130.12020    3.27480    3.42540    4.46780    3.42540    -999.25    0.40690    0.36420    2.39710  -54.92210  -10.85980    4.46780
 2850.00000    8.71170    8.64170    8.64170  244.45690    0.09420    2.24160    -999.25    0.24750    0.27390    4.09070    0.09420  105.20880  105.20880   83.31590   64.96750   83.31590    4.09070    6.67360   12.66140    6.67360    -999.25    0.38280    0.33960    2.24160 -120.35870  -76.33210   12.66140
 2900.00000    8.93660    8.84280    8.84280  206.97930    0.10270    2.24950    -999.25    0.24280    0.26930    4.83140    0.10270   99.50130   99.50130   76.23520   68.86620   76.23520    4.83140    7.43000   13.69790    7.43000    -999.25    0.35360    0.31000    2.24950 -107.49570  -63.50480   13.69790
 2950.00000    9.96430    9.40960    9.40960  319.97950    0.11760    2.27000    -999.25    0.23030    0.25730    3.12520    0.11760  104.16460  104.16460   92.10500   82.95350   92.10500    3.12520    3.86750    6.70040    3.86750    -999.25    0.37050    0.32710    2.27000  -87.42700  -43.47170    6.70040
 3000.00000    9.41330    9.20990    9.20990  297.16800    0.09920    2.35960    -999.25    0.17600    0.20490    3.36510    0.09920   99.08400   99.08400   88.28650   86.67220   88.28650    3.36510    4.50050    7.46780    4.50050    -999.25    0.32940    0.28560    2.35960  -82.90910  -38.98950    7.46780
 3050.00000    9.91370    9.69620    9.69620  288.19270    0.06660    2.34430    -999.25    0.18530    0.21390    3.46990    0.06660   99.90940   99.90940  114.02520   95.98310  114.02520    3.46990    3.56370    5.44660    3.56370    -999.25    0.38500    0.34180    2.34430  -56.66920  -12.68670    5.44660
 3100.00000    9.31870    9.16840    9.16840  394.36840    0.09870    2.23490    -999.25    0.25160    0.27790    2.53570    0.09870  106.16130  106.16130  101.75300   94.43070  101.75300    2.53570    2.87350    4.31850    2.87350    -999.25    0.41920    0.37670    2.23490  -78.94390  -34.73230    4.31850
 3150.00000    9.32630    9.37730    9.37730  214.75360    0.08950    2.26870    -999.25    0.23110    0.25810    4.65650    0.08950   96.54850   96.54850   91.34150   82.74660   91.34150    4.65650    6.26040   12.03120    6.26040    -999.25    0.35480    0.31120    2.26870 -100.77630  -56.33570   12.03120
 3200.00000   11.48590   10.56760   10.56760  345.65000    0.22140    2.21720    -999.25    0.26230    0.28820    2.89310    0.22140  105.89850  105.89850  125.19400  108.49460  125.19400    2.89310    2.54360    3.39570    2.54360    -999.25    0.41760    0.37510    2.21720  -47.73190   -3.06230    3.39570
 3250.00000    9.51710    9.38030    9.38030  405.35060    0.06110    2.26080    -999.25    0.23590    0.26270    2.46700    0.06110  103.48630  103.48630  109.23140   94.12570  109.23140    2.46700    2.92760    5.22740    2.92760    -999.25    0.38260    0.33940    2.26080  -63.75110  -18.85250    5.22740
 3300.00000    9.80230    9.52830    9.52830  230.34570    0.06200    2.22970    -999.25    0.25470    0.28090    4.34130    0.06200  102.26940  102.26940  108.71250   86.12310  108.71250    4.34130    6.48100   10.58060    6.48100    -999.25    0.38230    0.33920    2.22970  -95.28620  -50.15860   10.58060
 3350.00000   10.01060    9.61850    9.61850  188.58320    0.07380    2.25580    -999.25    0.23890    0.26560    5.30270    0.07380   95.16520   95.16520  107.35250   95.00890  107.35250    5.30270    6.35440    9.43060    6.35440    -999.25    0.32750    0.28370    2.25580  -63.24420  -17.88760    9.43060
 3400.00000   10.60130   11.03480   11.03480  308.88980    0.12490    2.40780    -999.25    0.14680    0.17670    3.23740    0.12490   99.62640   99.62640  129.25440  110.87350  129.25440    3.23740    3.14370    4.45910    3.14370    -999.25    0.36730    0.32390    2.40780  -51.14440   -5.55870    4.45910
 3450.00000    9.99150    9.90070    9.90070  215.20650    0.08770    2.26560    -999.25    0.23300    0.25990    4.64670    0.08770  102.26010  102.26010   95.96500   87.76030   95.96500    4.64670    6.35510   10.32840    6.35510    -999.25    0.37770    0.33440    2.26560  -96.36780  -50.55310   10.32840
