~Version ---------------------------------------------------
VERS.      2.0 : CWLS log ASCII Standard -VERSION 2.0
WRAP.       NO : One line per depth step
CREA. 08/04/17 : LAS Creation Date
~Well ------------------------------------------------------
STRT.FT                       1050.0 : START DEPTH
STOP.FT                      11000.0 : STOP DEPTH
STEP.FT                     50.00000 : STEP LENGTH
NULL.                        -999.25 : NULL VALUE
COMP.           PETROFINA CANADA LTD : COMPANY
WELL. FINA AMOCO HB GROAT 10-9-58-16 : WELL
FLD .                             WC : FIELD
LOC .                                : LOCATION
CTRY.                         CANADA : COUNTRY
SRVC.         Schlumberger of Canada : SERVICE COMPANY
DATE.                    08-Apr-1977 : LOGDATE
PROV.                        Alberta : PROVINCE
UWI .               100100905816W500 : UNIQUE WELL ID
SLAT.WGS84                  54.00097 : SURFACE LATITUDE
SLON.WGS84                 -116.3132 : SURFACE LONGITUDE
~Curve Information -----------------------------------------
DEPT    .FT    : Depth Curve
CALDED  .IN    : CALIPER FROM COMPENSATED NEUTRON FORMATION DENSITY LOG
CALSED  .IN    : CALIPER FROM BOREHOLE COMPENSATED SONIC LOG [ADJ. TO ILDED/CALDED]
CALWS   .IN    : CALIPER [CALSED SPL. TO CALDED @ 6213']
CONDWS  .MMHO  : CONDUCTIVITY [1000/DRESWS]
DCORED  .G/C3  : DENSITY CORRECTION FROM COMPENSATED NEUTRON FORMATION DENSITY LOG
DCORWS  .G/C3  : DENSITY CORRECTION [DCORED]
DENWS   .G/C3  : FORMATION BULK DENSITY [RHOBED]
DPHILSED.V/V   : DENSITY POROSITY LIMESTONE [M=2.71 F=1.0] FROM COMPENSATED NEUTRON FORMATION DENSITY LOG [ADJ. TO RHOBED]
DPHISSED.V/V   : DENSITY POROSITY SANDSTONE [M=2.65 F=1.0] FROM COMPENSATED NEUTRON FORMATION DENSITY LOG [ADJ. TO RHOBED]
DPOLSWS .V/V   : DENSITY POROSITY LIMESTONE [M=2.71 F=1.0 CALCULATED FROM DENWS]
DRESWS  .OHMM  : DEEP RESISTIVITY [ILDED]
DTED    .US/F  : DELTA-T (INTERVAL TRANSIT TIME)  FROM BOREHOLE COMPENSATED SONIC LOG [ADJ. TO ILDED]
DTWS    .US/F  : COMPRESSIONAL SONIC [DTED]
GRDED   .GAPI  : GAMMA RAY FROM COMPENSATED NEUTRON FORMATION DENSITY LOG
GRSED   .GAPI  : GAMMA RAY  FROM BOREHOLE COMPENSATED SONIC LOG [GRSED IN CASING FROM 1045 - 1158.5'] [ADJ. TO ILDED]
GRWS    .GAPI  : GAMMA RAY [GRSED]
ILDED   .OHMM  : DEEP INDUCTION RESISTIVITY  FROM DUAL INDUCTION-LATEROLOG
ILMED   .OHMM  : MEDIUM INDUCTION RESISTIVITY  FROM DUAL INDUCTION-LATEROLOG
LL8ED   .OHMM  : LATEROLOG 8 FROM DUAL INDUCTION-LATEROLOG
MRESWS  .OHMM  : MEDIUM RESISTIVITY [ILMED]
NPHILSED.V/V   : NEUTRON POROSITY LIMESTONE FROM COMPENSATED NEUTRON FORMATION DENSITY LOG [ADJ. TO RHOBED]
NPHISSED.V/V   : NEUTRON POROSITY SANDSTONE FROM COMPENSATED NEUTRON FORMATION DENSITY LOG [ADJ. TO RHOBED]
NPOLSWS .V/V   : NEUTRON POROSITY LIMESTONE [NPHISSED MATRIX CONVERTED TO LIMESTONE AND SPL. TO NPHILSED FROM 2478 - 7249']
RHOBED  .G/C3  : FORMATION BULK DENSITY FROM COMPENSATED NEUTRON FORMATION DENSITY LOG
SPRED   .MV    : SPONTANEOUS POTENTIAL FROM DUAL INDUCTION-LATEROLOG
SPWS    .MV    : SPONTANEOUS POTENTIAL [BASELINE 0 MV, SPRED]
SRESWS  .OHMM  : SHALLOW RESISTIVITY [LL8ED]
~Params ----------------------------------------------------
PD  .                     GL : PERMANENT DATUM
EPD .FT               3310.2 : ELEVATION PERMANENT DATUM
LMF .                     KB : LOG MEASURED FROM
DAPD.FT                 13.5 : FEET ABOVE PERMANENT DATUM
EKB .FT                 3324 : KELLY BUSHING
EGL .FT               3310.2 : GROUND LEVEL
DATE.               04/08/77 : RUN DATE
RUN .                      1 : RUN NUMBER
DD  .FT                11000 : DEPTH DRILLER
DL  .FT                11005 : DEPTH LOGGER
BLI .FT                10999 : BOTTOM LOG INTERVAL
TLI .FT                 1159 : TOP LOG INTERVAL
CBD .FT                 1159 : CASING BOTTOM DRILLER
CBL .FT                 1159 : CASING BOTTOM LOGGER
BS  .IN                 8.75 : BIT SIZE
BSD .FT                11000 : BIT SIZE AT DEPTH
DFT .                    GEL : DRILLING FLUID TYPE
DFD .                    9.2 : DRILLING FLUID DENSITY
DFV .                    245 : DRILLING FLUID VISCOSITY
DFPH.                     10 : DRILLING FLUID PH
DFL .                    7.2 : DRILLING FLUID LOSS
MSS .               FLOWLINE : MUD SAMPLE SOURCE
RMS .OHMM               2.52 : RESISTIVITY MUD SAMPLE
MST .DEGF                 56 : MUD SAMPLE TEMPERATURE
RMF .OHMM               2.35 : RESISTIVITY MUD FILTRATE SAMPLE
MFST.DEGF                 50 : MUD FILTRATE SAMPLE TEMPERATURE
TCS .HRS                 3.5 : TIME CIRCULATED STOPPED
LUN .                   7809 : LOGGING UNIT NUMBER
LUL .                    EDM : LOGGING UNIT LOCATION
ENGI.               BERNISKY : RECORDING ENGINEER
WITN.                 HALKOW : WITNESSED BY
CLNT.                A2DTECH : CLIENT CODE
ORIG.            2" 5" PRINT : ORIGIN OF DATA
UWI .       100100905816W500 : UNIQUE WELL ID
DICO. A2D Technologies, Inc. : DIGITIZING COMPANY
~Other -----------------------------------------------------
~ASCII -----------------------------------------------------
# ...
 8850.00000    9.08970    9.16090    9.08970   38.76070    0.13140    0.13140    2.64570    0.04040    -999.25    0.03760   25.79930   50.29900   50.29900    7.92160    5.38320    5.38320   25.79930   32.73130  149.76070   32.73130    0.03050    -999.25    0.03050    2.64570 -183.31090 -147.34930  149.76070
 8900.00000    9.47540    9.44540    9.47540   12.67800    0.01460    0.01460    2.67410    0.02390    -999.25    0.02100   78.87670   50.14940   50.14940    7.17410    5.93290    5.93290   78.87670   92.11920  140.49510   92.11920    0.00790    -999.25    0.00790    2.67410 -142.69090 -106.86160  140.49510
 8950.00000    9.72580    9.23040    9.72580   10.91070    0.14380    0.14380    2.70920   -0.00220    -999.25    0.00050   91.86380   48.37160   48.37160    8.74450    6.66050    6.66050   91.86380  120.66250  135.99570  120.66250    0.01600    -999.25    0.01600    2.70920 -142.47270 -106.77640  135.99570
 9000.00000   12.28070    9.15290   12.28070    9.40200    0.26340    0.26340    2.38920    0.17700    -999.25    0.18760  106.36010   46.71190   46.71190   16.54580   16.70130   16.70130  106.36010   84.96030  231.85970   84.96030    0.06060    -999.25    0.06060    2.38920 -135.06070  -99.49600  231.85970
 9050.00000    8.44440    8.70020    8.44440   36.29630    0.19700    0.19700    2.69060    0.01500    -999.25    0.01130   27.55100   47.66650   47.66650   17.80450   14.25480   14.25480   27.55100   57.81430  349.63900   57.81430    0.09550    -999.25    0.09550    2.69060 -142.57170 -107.13930  349.63900
 9100.00000    9.13560    9.14920    9.13560   57.59010    0.10420    0.10420    2.68000    0.01360    -999.25    0.01750   17.36410   59.34910   59.34910   73.43180   66.88290   66.88290   17.36410   18.34450   17.56320   18.34450    0.13250    -999.25    0.13250    2.68000  -96.11570  -61.60500   17.56320
 9150.00000   11.34610    9.48340   11.34610   19.90970    0.22720    0.22720    2.56760    0.06220    -999.25    0.08330   50.22670   51.87240   51.87240   18.61230   22.05330   22.05330   50.22670   41.53600   61.42480   41.53600    0.09940    -999.25    0.09940    2.56760 -119.61330  -86.91440   61.42480
 9200.00000    9.12060    8.66530    9.12060   27.76430    0.17900    0.17900    2.68400    0.00840    -999.25    0.01520   36.04550   47.97480   47.97480   17.69280   15.66640   15.66640   36.04550   72.51600  147.41090   72.51600    0.13570    -999.25    0.13570    2.68400 -128.15580  -97.27780  147.41090
 9250.00000   12.22960    9.28870   12.22960   18.51920    -999.25    -999.25    2.58180    0.07840    -999.25    0.07500   53.99790   48.39010   48.39010   25.60280   23.44780   23.44780   53.99790   57.40330   65.50810   57.40330    0.12470    -999.25    0.12470    2.58180 -116.07130  -86.99600   65.50810
 9300.00000    9.08550    8.99210    9.08550    7.52100    0.02020    0.02020    2.71180    0.00940    -999.25   -0.00110  132.96150   51.10610   51.10610   34.67130   32.51590   32.51590  132.96150  177.79930  187.55510  177.79930    0.04120    -999.25    0.04120    2.71180  -49.34380  -22.08030  187.55510
 9350.00000    8.99400    9.03770    8.99400    8.98900    0.02230    0.02230    2.71550    0.00480    -999.25   -0.00320  111.24660   52.52020   52.52020   29.64970   29.52540   29.52540  111.24660  157.89330  168.54220  157.89330    0.04730    -999.25    0.04730    2.71550  -45.53160  -20.07990  168.54220
 9400.00000    9.45450    9.41410    9.45450   48.60200   -0.00420   -0.00420    2.69010    0.00320    -999.25    0.01160   20.57530   57.53880   57.53880   49.63410   46.39080   46.39080   20.57530   22.77340   25.72560   22.77340    0.08370    -999.25    0.08370    2.69010  -28.42490   -4.75490   25.72560
 9450.00000    9.15490    9.27760    9.15490   71.71070    0.01640    0.01640    2.70250    0.00300    -999.25    0.00440   13.94670   61.01100   61.01100   68.12950   70.85680   70.85680   13.94670   15.30890   19.61840   15.30890    0.14780    -999.25    0.14780    2.70250  -32.06010   -9.95870   19.61840
 9500.00000    9.17260    9.24530    9.17260   51.30550    0.00750    0.00750    2.67710    0.01970    -999.25    0.01920   19.49110   58.17470   58.17470   57.11630   53.33550   53.33550   19.49110   22.19290   27.67770   22.19290    0.10740    -999.25    0.10740    2.67710  -33.19590  -12.64740   27.67770
 9550.00000    9.21670    9.17260    9.21670   83.00480    0.01060    0.01060    2.66200    0.02480    -999.25    0.02810   12.04750   62.75370   62.75370   66.29220   65.39190   65.39190   12.04750   13.76280   17.20420   13.76280    0.14490    -999.25    0.14490    2.66200  -29.37320  -10.38550   17.20420
 9600.00000    9.41280    9.36450    9.41280   72.07520    0.00680    0.00680    2.67710    0.01290    -999.25    0.01920   13.87440   62.05140   62.05140   65.65840   65.45850   65.45850   13.87440   15.77850   19.95080   15.77850    0.13840    -999.25    0.13840    2.67710  -25.26040   -7.83340   19.95080
 9650.00000    9.17780    9.15070    9.17780   30.91290   -0.00340   -0.00340    2.62890    0.05070    -999.25    0.04740   32.34900   62.52900   62.52900   77.97930   81.49730   81.49730   32.34900   40.13170   50.22630   40.13170    0.16130    -999.25    0.16130    2.62890  -22.54720   -6.68100   50.22630
 9700.00000   11.38000    9.77750   11.38000   87.05180    0.23800    0.23800    2.63040    0.05320    -999.25    0.04660   11.48750   64.63440   64.63440   78.75140   70.51640   70.51640   11.48750   14.17020   41.67160   14.17020    0.12440    -999.25    0.12440    2.63040  -22.37740   -8.07970   41.67160
 9750.00000   12.19820   10.85680   12.19820  132.52050    0.26210    0.26210    2.38240    0.22830    -999.25    0.19160    7.54600   77.51760   77.51760  108.13490  100.86080  100.86080    7.54600    7.59830   11.38960    7.59830    0.22030    -999.25    0.22030    2.38240  -32.42870  -19.68400   11.38960
 9800.00000    9.62110    9.26340    9.62110   48.68380    0.19090    0.19090    2.60990    0.04990    -999.25    0.05850   20.54070   64.15620   64.15620   92.30400   87.98020   87.98020   20.54070   24.90490   56.54950   24.90490    0.15550    -999.25    0.15550    2.60990  -19.66670   -8.48270   56.54950
 9850.00000    9.96000    9.42330    9.96000   90.58220    0.22880    0.22880    2.63690    0.03930    -999.25    0.04270   11.03970   66.16310   66.16310   91.78120   89.46710   89.46710   11.03970   11.84660   15.54390   11.84660    0.17070    -999.25    0.17070    2.63690  -21.59970  -11.07940   15.54390
 9900.00000    9.56700    9.17670    9.56700   59.32610    0.18400    0.18400    2.72120   -0.01930    -999.25   -0.00650   16.85600   56.99110   56.99110   56.32020   54.54360   54.54360   16.85600   19.67670   23.59070   19.67670    0.08610    -999.25    0.08610    2.72120  -19.76980   -9.08500   23.59070
 9950.00000   10.41500    9.55020   10.41500  130.40960    0.26290    0.26290    2.50320    0.12560    -999.25    0.12090    7.66810   70.99670   70.99670  106.32420  107.70970  107.70970    7.66810    8.27510   10.75930    8.27510    0.21840    -999.25    0.21840    2.50320  -23.05270  -12.20270   10.75930
 10000.00000   10.06270    9.38470   10.06270  117.46330    -999.25    -999.25    2.60600    0.07870    -999.25    0.06080    8.51330   71.57410   71.57410  105.79590  109.23460  109.23460    8.51330    9.44550   12.21770    9.44550    0.21510    -999.25    0.21510    2.60600  -22.63200  -11.61840   12.21770
 10050.00000    8.94970    8.79380    8.94970   78.95280    0.00520    0.00520    2.62320    0.05880    -999.25    0.05080   12.66580   70.18340   70.18340  108.28940  110.56290  110.56290   12.66580   15.14250   21.39660   15.14250    0.19950    -999.25    0.19950    2.62320  -18.33340   -7.15530   21.39660
 10100.00000    9.24560    8.86470    9.24560   18.45600    0.21270    0.21270    2.70010    0.01050    -999.25    0.00580   54.18300   47.90280   47.90280   28.59440   28.44450   28.44450   54.18300   94.36730 1499.91000   94.36730    0.04110    -999.25    0.04110    2.70010  -30.18560  -18.84310 1499.91000
