~Version ---------------------------------------------------
VERS. 2.0 : CWLS log ASCII Standard -VERSION 2.0
WRAP.  NO : ONE LINE PER DEPTH STEP
~Well ------------------------------------------------------
STRT.M                          300.0 : START DEPTH
STOP.M                         1750.0 : STOP DEPTH
STEP.M                       50.00000 : STEP LENGTH
NULL.                         -999.25 : NULL VALUE
COMP.        VERMILION RESOURCES LTD. : COMPANY
WELL. VERMILION RES NIPISI 2-36-80-10 : WELL
FLD .                                 : FIELD
LOC .                                 : LOCATION
CTRY.                          CANADA : COUNTRY
SRVC.                      Computalog : SERVICE COMPANY
DATE.                     09-Nov-1996 : LOGDATE
PROV.                         Alberta : PROVINCE
UWI .                100023608010W500 : UNIQUE WELL ID
SLAT.WGS84               55.971209927 : SURFACE LATITUDE
SLON.WGS84            -115.4174202394 : SURFACE LONGITUDE
~Curve Information -----------------------------------------
DEPT    .M      : DEPTH METERS
CALWS   .MM     : CALIPER [CALYED]
CALYED  .MM     : CALIPER Y FROM DENSITY LOG
CONDWS  .MMHO   : CONDUCTIVITY [1000/DRESWS]
DCORWS  .KG/M3  : DENSITY CORRECTION [DRHOED]
DENWS   .KG/M3  : BULK DENSITY [M=2650 F=1000] [RHOBED]
DPOLSWS .V/V    : DENSITY POROSITY [M=2710 F=1000] [CALCULATED FROM RHOBED]
DPORLSED.V/V    : DENSITY POROSITY [M=2710 F=1000] FROM DENSITY LOG
DPORSSED.V/V    : DENSITY POROSITY [M=2650 F=1000] FROM DENSITY LOG
DRESWS  .OHMM   : DEEP RESISTIVITY [ILDED]
DRHOED  .KG/M3  : DENSITY CORRECTION FROM DENSITY LOG
DTED    .US/M   : DELTA TIME FROM SONIC LOG
DTWS    .US/M   : DELTA TIME [DTED]
GRRED   .GAPI   : GAMMA RAY FROM RESISTIVITY LOG
GRWS    .GAPI   : GAMMA RAY [GRRED. CASED ABOVE 311]
ILDED   .OHMM   : INDUCTION LOG DEEP RESISTIVITY
ILMED   .OHMM   : INDUCTION LOG MEDIUM RESISTIVITY
MRESWS  .OHMM   : MEDIUM RESISTIVITY [ILMED]
NPOLSWS .V/V    : NEUTRON POROSITY LIMESTONE [CALCULATED FROM NPORSSED. SEE OTHER INFORMATION BELOW]
NPORLSED.V/V    : NEUTRON POROSITY LIMESTONE FROM DENSITY LOG
NPORSSED.V/V    : NEUTRON POROSITY SANDSTONE FROM DENSITY LOG
PEFED   .B/E    : PHOTOELECTRIC FACTOR FROM DENSITY LOG
PEFWS   .B/E    : PHOTOELECTRIC FACTOR [PEFED]
RHOBED  .KG/M3  : BULK DENSITY FROM DENSITY LOG [DEPTH ADJ TO DPORSSED]
SFLED   .OHMM   : SPHERICALLY FOCUSED LOG RESISTIVITY
SPRED   .MV     : SPONTANEOUS POTENTIAL FROM RESISTIVITY LOG
SPWS    .MV     : SPONTANEOUS POTENTIAL [BASELINE 0 MV] [SPRED]
SRESWS  .OHMM   : SHALLOW RESISTIVITY [SFLED]
~Params ----------------------------------------------------
PD  .                         GL : PERMANENT DATUM
EPD .M                     656.5 : ELEVATION PERMANENT DATUM
LMF .                         KB : LOG MEASURED FROM
DAPD.M                       4.5 : FEET ABOVE PERMANENT DATUM
EKB .M                       661 : KELLY BUSHING
EGL .M                     656.5 : GROUND LEVEL
DATE.                   11/09/96 : RUN DATE
RUN .                          1 : RUN NUMBER
DD  .M                      1768 : DEPTH DRILLER
DL  .M                    1761.1 : DEPTH LOGGER
BLI .M                      1759 : BOTTOM LOG INTERVAL
TLI .M                     311.8 : TOP LOG INTERVAL
CS  .MM                    219.1 : CASING SIZE
CBD .M                       312 : CASING BOTTOM DRILLER
CBL .M                     311.8 : CASING BOTTOM LOGGER
BS  .MM                      200 : BIT SIZE
BSD .M                      1768 : BIT SIZE AT DEPTH
DFT .                   GEL CHEM : DRILLING FLUID TYPE
DFD .                       1100 : DRILLING FLUID DENSITY
DFV .                         72 : DRILLING FLUID VISCOSITY
DFPH.                          9 : DRILLING FLUID PH
DFL .                          8 : DRILLING FLUID LOSS
MSS .                   FLOWLINE : MUD SAMPLE SOURCE
RMS .OHMM                    1.1 : RESISTIVITY MUD SAMPLE
MST .DEGC                     18 : MUD SAMPLE TEMPERATURE
RMF .OHMM                      1 : RESISTIVITY MUD FILTRATE SAMPLE
MFST.DEGC                     19 : MUD FILTRATE SAMPLE TEMPERATURE
RMC .OHMM                    1.2 : RESISTIVITY MUD CAKE
MCST.DEGC                     21 : MUD CAKE SAMPLE TEMPERATURE
RMB .OHMM                    0.5 : RESISTIVITY MUD AT BHT
TCS .HRS                       3 : TIME CIRCULATED STOPPED
LUN .                        352 : LOGGING UNIT NUMBER
LUL .                   EDMONTON : LOGGING UNIT LOCATION
ENGI.                     GRAHAM : RECORDING ENGINEER
WITN.                  GILCHRIST : WITNESSED BY
CLNT.                    A2DTECH : CLIENT CODE
ORIG. 6.5"/100M 16.5"/100M PRINT : ORIGIN OF DATA
UWI .           100023608010W500 : UNIQUE WELL ID
DICO.     A2D Technologies, Inc. : DIGITIZING COMPANY
~Other -----------------------------------------------------
1. NPOLSWS CALCULATED FROM NPORSSED USING FOLLOWING CALCULATIONS: LOGGING COMPANY = COMPUTALOG. TOOL TYPE = CNS. INPUT MATRIX: QUARTZ. OUTPUT MATRIX: LIME.
2. DPOLSWS CALCULATED FROM RHOBED, WHICH COVERED LONGER INTERVAL [M=2710, F=1000].
~ASCII -----------------------------------------------------
  300.00000    -999.25    -999.25    -999.25    -999.25    -999.25    -999.25    -999.25    -999.25    -999.25    -999.25    -999.25    -999.25   65.62920   65.62920    -999.25    -999.25    -999.25    -999.25    -999.25    -999.25    -999.25    -999.25    -999.25    -999.25    -999.25    -999.25    -999.25
  350.00000  198.84480  198.84480  131.64130    -999.25    -999.25    -999.25    -999.25    -999.25    7.59640    -999.25  368.49140  368.49140   56.67590   56.67590    7.59640   10.77310   10.77310    -999.25    -999.25    -999.25    -999.25    -999.25    -999.25   10.30980    9.16320  -32.13520   10.30980
  400.00000  317.51650  317.51650  224.24040    -999.25    -999.25    -999.25    -999.25    -999.25    4.45950    -999.25  424.79330  424.79330    -999.25    -999.25    4.45950    4.27800    4.27800    -999.25    -999.25    -999.25    -999.25    -999.25    -999.25    3.27610   35.35870  -10.97690    3.27610
  450.00000  204.54170  204.54170  147.54490    -999.25    -999.25    -999.25    -999.25    -999.25    6.77760    -999.25  388.04820  388.04820   75.94260   75.94260    6.77760    6.27640    6.27640    -999.25    -999.25    -999.25    -999.25    -999.25    -999.25    5.82610   36.21980  -15.15290    5.82610
  500.00000  208.90750  208.90750  204.45720    -999.25    -999.25    -999.25    -999.25    -999.25    4.89100    -999.25  381.88780  381.88780   72.35360   72.35360    4.89100    5.05570    5.05570    -999.25    -999.25    -999.25    -999.25    -999.25    -999.25    5.01070   44.75500  -11.65490    5.01070
  550.00000  222.19910  222.19910  284.81100    -999.25    -999.25    -999.25    -999.25    -999.25    3.51110    -999.25  368.10310  368.10310   91.69650   91.69650    3.51110    3.46170    3.46170    -999.25    -999.25    -999.25    -999.25    -999.25    -999.25    3.63110   50.97060  -10.47650    3.63110
  600.00000  207.30880  207.30880   26.35510    -999.25    -999.25    -999.25    -999.25    -999.25   37.94330    -999.25  230.09420  230.09420   23.87170   23.87170   37.94330   35.58040   35.58040    -999.25    -999.25    -999.25    -999.25    -999.25    -999.25   43.65040   57.64020   -8.44910   43.65040
  650.00000  214.84990  214.84990  101.28840    -999.25    -999.25    -999.25    -999.25    -999.25    9.87280    -999.25  290.36430  290.36430   51.60310   51.60310    9.87280    6.87870    6.87870    -999.25    -999.25    -999.25    -999.25    -999.25    -999.25   34.38150   39.82480  -12.30040   34.38150
  700.00000  229.96010  229.96010  134.33460    -999.25    -999.25    -999.25    -999.25    -999.25    7.44410    -999.25  269.35420  269.35420   50.21090   50.21090    7.44410    8.34080    8.34080    -999.25    -999.25    -999.25    -999.25    -999.25    -999.25   10.11600    9.88070  -19.84160   10.11600
  750.00000  210.12150  210.12150   52.00260    -999.25    -999.25    -999.25    -999.25    -999.25   19.22980    -999.25  188.52690  188.52690   26.12470   26.12470   19.22980   20.59770   20.59770    -999.25    -999.25    -999.25    -999.25    -999.25    -999.25   31.17550    8.54350  -19.96180   31.17550
  800.00000  207.76850  207.76850   41.39300    -999.25    -999.25    -999.25    -999.25    -999.25   24.15870    -999.25  199.19990  199.19990   22.08900   22.08900   24.15870   23.82180   23.82180    -999.25    -999.25    -999.25    -999.25    -999.25    -999.25   25.91150   14.18300  -13.10530   25.91150
  850.00000  225.20700  225.20700  144.59230    -999.25    -999.25    -999.25    -999.25    -999.25    6.91600    -999.25  248.66320  248.66320   42.27350   42.27350    6.91600    7.29050    7.29050    -999.25    -999.25    -999.25    -999.25    -999.25    -999.25    8.84970   23.10290   -1.37300    8.84970
  900.00000  238.47960  238.47960   38.44410    -999.25    -999.25    -999.25    -999.25    -999.25   26.01180    -999.25  184.16410  184.16410   16.41920   16.41920   26.01180   39.33370   39.33370    -999.25    -999.25    -999.25    -999.25    -999.25    -999.25   47.57010  -14.99040  -30.63650   47.57010
  950.00000  235.26190  235.26190   17.37150    -999.25    -999.25    -999.25    -999.25    -999.25   57.56560    -999.25  179.65820  179.65820   13.99270   13.99270   57.56560   53.09520   53.09520    -999.25    -999.25    -999.25    -999.25    -999.25    -999.25   79.30180  -26.41660  -41.72460   79.30180
 1000.00000  223.56290  223.56290   50.40910    -999.25    -999.25    -999.25    -999.25    -999.25   19.83770    -999.25  187.53580  187.53580   14.21050   14.21050   19.83770   21.91850   21.91850    -999.25    -999.25    -999.25    -999.25    -999.25    -999.25   54.48090  -37.48180  -52.45170   54.48090
 1050.00000  230.54300  230.54300   45.20570    -999.25    -999.25    -999.25    -999.25    -999.25   22.12110    -999.25  184.21220  184.21220   13.68290   13.68290   22.12110   22.88180   22.88180    -999.25    -999.25    -999.25    -999.25    -999.25    -999.25   53.38890  -34.99170  -49.62350   53.38890
 1100.00000  231.06110  231.06110    4.92980    -999.25    -999.25    -999.25    -999.25    -999.25  202.84880    -999.25  169.76970  169.76970   14.65220   14.65220  202.84880  308.06640  308.06640    -999.25    -999.25    -999.25    -999.25    -999.25    -999.25  187.91750  -23.87560  -38.16930  187.91750
 1150.00000  226.40520  226.40520   25.41060    -999.25    -999.25    -999.25    -999.25    -999.25   39.35360    -999.25  171.67950  171.67950   11.54060   11.54060   39.35360   75.60150   75.60150    -999.25    -999.25    -999.25    -999.25    -999.25    -999.25  143.34300  -36.11090  -50.06650  143.34300
 1200.00000  222.09300  222.09300   52.35630    -999.25    -999.25    -999.25    -999.25    -999.25   19.09990    -999.25  164.95350  164.95350   22.91330   22.91330   19.09990   23.40770   23.40770    -999.25    -999.25    -999.25    -999.25    -999.25    -999.25   55.82240  -13.44090  -27.05840   55.82240
 1250.00000  205.95450  205.95450   32.89370    -999.25    -999.25    -999.25    -999.25    -999.25   30.40100    -999.25  185.02740  185.02740   20.52230   20.52230   30.40100   36.75030   36.75030    -999.25    -999.25    -999.25    -999.25    -999.25    -999.25   34.39840  -16.03450  -29.31390   34.39840
 1300.00000  292.46250  292.46250  405.25200    -999.25    -999.25    -999.25    -999.25    -999.25    2.46760    -999.25  377.41670  377.41670   93.07430   93.07430    2.46760    2.41400    2.41400    -999.25    -999.25    -999.25    -999.25    -999.25    -999.25    2.56360   -8.88160  -23.20960    2.56360
 1350.00000  201.37710  201.37710  239.38910    -999.25    -999.25    -999.25    -999.25    -999.25    4.17730    -999.25  282.41570  282.41570   78.99570   78.99570    4.17730    4.37200    4.37200    -999.25    -999.25    -999.25    -999.25    -999.25    -999.25    4.64270    1.31040  -14.79340    4.64270
 1400.00000  242.10560  242.10560  327.63250    -999.25    -999.25    -999.25    -999.25    -999.25    3.05220    -999.25  313.04030  313.04030   86.63710   86.63710    3.05220    3.17260    3.17260    -999.25    -999.25    -999.25    -999.25    -999.25    -999.25    3.41830   -4.26850  -22.14810    3.41830
 1450.00000  278.00740  278.00740  361.49370    -999.25    -999.25    -999.25    -999.25    -999.25    2.76630    -999.25  338.14420  338.14420  100.01270  100.01270    2.76630    2.54340    2.54340    -999.25    -999.25    -999.25    -999.25    -999.25    -999.25    2.81410   -2.19000  -21.84540    2.81410
 1500.00000  200.13580  200.13580  140.12470    -999.25    -999.25    -999.25    -999.25    -999.25    7.13650    -999.25  238.04500  238.04500   61.51980   61.51980    7.13650    7.63790    7.63790    -999.25    -999.25    -999.25    -999.25    -999.25    -999.25    8.56230   19.40210   -2.02910    8.56230
 1550.00000  200.36880  200.36880  108.24380    -999.25    -999.25    -999.25    -999.25    -999.25    9.23840    -999.25  231.57940  231.57940   57.85100   57.85100    9.23840   10.12990   10.12990    -999.25    -999.25    -999.25    -999.25    -999.25    -999.25   10.89530   16.46110   -5.66760   10.89530
