~Version ---------------------------------------------------
VERS.      2.0 : CWLS log ASCII Standard -VERSION 2.0
WRAP.       NO : One line per depth step
CREA. 12/21/17 : LAS Creation Date
~Well ------------------------------------------------------
STRT.FT                             1150.0 : START DEPTH
STOP.FT                            10850.0 : STOP DEPTH
STEP.FT                           50.00000 : STEP LENGTH
NULL.                              -999.25 : NULL VALUE
COMP.             CANADIAN KEWANEE LIMITED : COMPANY
WELL. KEWANEE ET AL SAKWATAMAU 10-15-63-15 : WELL
FLD .                                   WC : FIELD
LOC .                                      : LOCATION
CTRY.                               CANADA : COUNTRY
SRVC.                         Schlumberger : SERVICE COMPANY
DATE.                          21-Mar-1965 : LOGDATE
PROV.                              Alberta : PROVINCE
UWI .                     100101506315W500 : UNIQUE WELL ID
SLAT.WGS84                        54.45235 : SURFACE LATITUDE
SLON.WGS84                        -116.177 : SURFACE LONGITUDE
~Curve Information -----------------------------------------
DEPT  .FT    : Depth Curve
CALSED.IN    : CALIPER FROM SONIC LOG LOG [ADJ. TO RESISTIVITY LOG]
CALWS .IN    : CALIPER [CALSED]
CILDED.MMHO  : CONDUCTIVITY FROM RESISTIVITY LOG
CONDWS.MMHO  : CONDUCTIVITY [1000/DRESWS]
DRESWS.OHMM  : DEEP RESISTIVITY [1000/CILDED IF ILDED < 5, ILDED]
DTED  .US/F  : DELTA T FROM SONIC LOG [ADJ. TO RESISTIVITY LOG]
DTWS  .US/F  : COMPRESSIONAL SONIC [DTED]
GRSED .GAPI  : GAMMA RAY FROM SONIC LOG LOG [ADJ. TO RESISTIVITY LOG]
GRWS  .GAPI  : GAMMA RAY [GRSED]
ILDED .OHMM  : DEEP INDUCTION RESISTIVITY FROM RESISTIVITY LOG
SNED  .OHMM  : SHORT NORMAL FROM RESISTIVITY LOG
SPRED .MV    : SPONTANEOUS POTENTIAL FROM RESISTIVITY LOG
SPWS  .MV    : SPONTANEOUS POTENTIAL [BASELINE 0 MV, SPRED]
SRESWS.OHMM  : SHALLOW RESISTIVITY [SNED]
~Params ----------------------------------------------------
PD  .                    SCF : PERMANENT DATUM
EPD .FT                 3104 : ELEVATION PERMANENT DATUM
LMF .                    SCF : LOG MEASURED FROM
EKB .FT               3117.1 : KELLY BUSHING
EGL .FT                 3103 : GROUND LEVEL
DATE.               03/12/65 : RUN DATE
RUN .                      1 : RUN NUMBER
DD  .FT                10858 : DEPTH DRILLER
DL  .FT                10864 : DEPTH LOGGER
BLI .FT                10863 : BOTTOM LOG INTERVAL
TLI .FT                 9600 : TOP LOG INTERVAL
BS  .IN                 8.75 : BIT SIZE
BSD .FT                10858 : BIT SIZE AT DEPTH
DFT .                    GEL : DRILLING FLUID TYPE
DFD .                    9.8 : DRILLING FLUID DENSITY
DFV .                     73 : DRILLING FLUID VISCOSITY
DFPH.                     10 : DRILLING FLUID PH
DFL .                    7.8 : DRILLING FLUID LOSS
RMS .OHMM               2.32 : RESISTIVITY MUD SAMPLE
MST .DEGF                 52 : MUD SAMPLE TEMPERATURE
RMF .OHMM               1.72 : RESISTIVITY MUD FILTRATE SAMPLE
MFST.DEGF                 52 : MUD FILTRATE SAMPLE TEMPERATURE
RMC .OHMM                2.1 : RESISTIVITY MUD CAKE
MCST.DEGF                 52 : MUD CAKE SAMPLE TEMPERATURE
RMB .OHMM               0.56 : RESISTIVITY MUD AT BHT
TCS .HRS                   2 : TIME CIRCULATED STOPPED
LUN .                   3534 : LOGGING UNIT NUMBER
LUL .                    WCT : LOGGING UNIT LOCATION
ENGI.                  HAYES : RECORDING ENGINEER
WITN.                 FISHER : WITNESSED BY
CLNT.                A2DTECH : CLIENT CODE
ORIG.               5" PRINT : ORIGIN OF DATA
UWI .       100101506315W500 : UNIQUE WELL ID
DICO. A2D Technologies, Inc. : DIGITIZING COMPANY
~Other -----------------------------------------------------
IEL-SONIC-GR LOG RUN
RESISTIVITY CURVES FROM SMALL SCALE SECTION FROM TOP TO 6100'
SONIC CURVES FROM SMALL SCALE SECTION FROM TOP TO 4990'
RESISTIVITY DATA FROM LANE WELLS & SCHLUMBERGER SPLICED TO CREATE SINGLE CURVES
~ASCII -----------------------------------------------------
 1150.00000   10.47200   10.47200  364.75280  364.75280    2.74160  133.32350  133.32350   51.90800   51.90800    4.06690    4.29800  -35.91850   -0.54560    4.29800
 1200.00000   10.09790   10.09790  387.49150  387.49150    2.58070  139.97880  139.97880   56.40810   56.40810    4.13920    3.79550  -37.74350   -2.37060    3.79550
 1250.00000    9.70860    9.70860  212.66730  158.88400    6.29390  106.73650  106.73650   46.98210   46.98210    6.29390    6.16850  -38.92020   -3.54730    6.16850
 1300.00000    9.07800    9.07800  145.82480  116.23310    8.60340  108.18310  108.18310   36.00290   36.00290    8.60340    7.67360  -42.76830   -7.36700    7.67360
 1350.00000   10.48880   10.48880  344.65230  344.65230    2.90150  139.80320  139.80320   47.24960   47.24960    4.31690    3.73620  -37.88450   -1.61200    3.73620
 1400.00000   10.76240   10.76240  426.92170  426.92170    2.34230  131.99390  131.99390   35.98570   35.98570    3.85440    3.55150  -39.27160   -2.53620    3.55150
 1450.00000   10.35520   10.35520  396.43550  396.43550    2.52250  133.98380  133.98380   47.05670   47.05670    4.04820    3.55740  -38.51210   -2.04600    3.55740
 1500.00000   10.24110   10.24110  336.36800  336.36800    2.97290  139.09320  139.09320   48.75990   48.75990    4.01760    4.66290  -37.26980   -1.07130    4.66290
 1550.00000   10.28640   10.28640  258.27800  198.78340    5.03060   97.12740   97.12740   44.13520   44.13520    5.03060    6.01900  -37.14730   -1.21640    6.01900
 1600.00000    9.86440    9.86440  429.26200  429.26200    2.32960  119.76050  119.76050   51.21220   51.21220    3.75990    3.24790  -36.20080   -0.53920    3.24790
 1650.00000   10.27490   10.27490  371.74990  371.74990    2.69000  119.05190  119.05190   47.61510   47.61510    3.67670    3.35670  -37.07360   -1.67960    3.35670
 1700.00000   11.59840   11.59840  444.89580  444.89580    2.24770  113.37710  113.37710   60.77820   60.77820    3.74390    4.37650  -37.19160   -2.06690    4.37650
 1750.00000   11.16090   11.16090  314.99570  314.99570    3.17460  112.34920  112.34920   54.07940   54.07940    4.44800    4.10650  -37.60400   -2.74690    4.10650
 1800.00000   10.29760   10.29760  474.11750  474.11750    2.10920  129.83610  129.83610   65.59250   65.59250    3.53690    3.31810  -36.44330   -1.85380    3.31810
 1850.00000   10.91630   10.91630  360.87140  360.87140    2.77110  117.01420  117.01420   52.64420   52.64420    4.34940    4.02510  -36.60780   -2.28760    4.02510
 1900.00000   11.27010   11.27010  404.47230  404.47230    2.47240  117.40090  117.40090   47.15400   47.15400    3.79070    3.47810  -35.66740   -1.61480    3.47810
 1950.00000   12.68980   12.68980  510.90380  510.90380    1.95730  128.71930  128.71930   46.29460   46.29460    3.53350    2.96180  -35.83450   -1.82030    2.96180
 2000.00000   10.67290   10.67290  363.90260  363.90260    2.74800  142.64670  142.64670   44.91770   44.91770    4.13280    3.87970  -41.70030   -7.48540    3.87970
 2050.00000    9.38490    9.38490  161.16440  133.71490    7.47860   97.45200   97.45200   38.09380   38.09380    7.47860    8.61450  -41.70210   -7.28670    8.61450
 2100.00000   11.36360   11.36360  286.98390  196.71490    5.08350  119.52700  119.52700   43.20900   43.20900    5.08350    5.37550  -40.21900   -5.60180    5.37550
 2150.00000   10.98400   10.98400  325.84550  325.84550    3.06890  128.27050  128.27050   44.13400   44.13400    4.08240    4.46150  -37.90650   -3.08870    4.46150
 2200.00000   10.95080   10.95080  368.49770  368.49770    2.71370  112.43540  112.43540   40.25500   40.25500    3.93990    3.56890  -37.92850   -2.90870    3.56890
 2250.00000    9.86970    9.86970  261.99440  261.99440    3.81690   96.89310   96.89310   56.50570   56.50570    4.60290    4.92630  -37.96900   -2.74870    4.92630
 2300.00000    9.59470    9.59470   51.74590   39.92960   25.04410   84.93060   84.93060   25.04810   25.04810   25.04410   19.63810  -45.36490   -9.94410   19.63810
 2350.00000    9.85500    9.85500  265.08760  265.08760    3.77230  108.33880  108.33880   34.69660   34.69660    4.73440    4.15430  -38.15950   -2.53680    4.15430
 2400.00000   10.17890   10.17890  277.25600  195.90940    5.10440  105.38710  105.38710   51.85350   51.85350    5.10440    4.36270  -37.33070   -1.50750    4.36270
 2450.00000   12.54540   12.54540  320.28250  320.28250    3.12220  115.58920  115.58920   40.99990   40.99990    4.74910    4.30440  -37.14080   -1.11570    4.30440
 2500.00000    9.61900    9.61900  126.56510  111.00010    9.00900  107.15990  107.15990   25.55680   25.55680    9.00900    9.83440  -43.40910   -7.37600    9.83440
 2550.00000   10.60800   10.60800  372.05450  372.05450    2.68780  120.89250  120.89250   30.69640   30.69640    4.01070    4.38840  -37.43880   -1.51670    4.38840
 2600.00000   11.64370   11.64370  327.05340  327.05340    3.05760  123.36540  123.36540   44.58490   44.58490    4.55430    3.94030  -37.69130   -1.88090    3.94030
 2650.00000   10.26060   10.26060  266.91430  266.91430    3.74650  104.26750  104.26750   42.84050   42.84050    4.69370    5.05110  -37.80790   -2.10840    5.05110
 2700.00000    9.37650    9.37650  191.16750  151.15330    6.61580   82.19680   82.19680   35.55820   35.55820    6.61580    6.77650  -41.77220   -6.18440    6.77650
 2750.00000    8.29770    8.29770  184.17440  133.41160    7.49560  112.92410  112.92410   34.62540   34.62540    7.49560    6.86080  -47.21870  -11.74180    6.86080
 2800.00000   10.79290   10.79290  306.01890  306.01890    3.26780  104.64400  104.64400   37.99370   37.99370    4.23230    4.74940  -36.68570   -1.31970    4.74940
 2850.00000   10.29380   10.29380  315.54670  315.54670    3.16910  105.45340  105.45340   36.71450   36.71450    4.71800    4.37960  -36.70830   -1.45400    4.37960
 2900.00000    9.48060    9.48060  119.92470  102.54940    9.75140   93.63030   93.63030   27.21530   27.21530    9.75140   11.21610  -57.39950  -22.25620   11.21610
 2950.00000    9.48350    9.48350  148.98190  110.22560    9.07230   80.57390   80.57390   32.45100   32.45100    9.07230    9.77050  -37.81840   -2.78680    9.77050
 3000.00000   10.25180   10.25180  282.35180  282.35180    3.54170   99.41860   99.41860   35.24690   35.24690    4.47580    4.75720  -36.56290   -1.64220    4.75720
 3050.00000    9.98230    9.98230  262.11410  262.11410    3.81510  106.24400  106.24400   39.65990   39.65990    4.74140    5.24400  -37.31760   -2.50780    5.24400
 3100.00000   10.44010   10.44010  330.08800  330.08800    3.02950  110.68960  110.68960   41.31600   41.31600    4.17640    4.49650  -37.05250   -2.35440    4.49650
 3150.00000   10.63110   10.63110  220.65790  174.42570    5.73310  121.21930  121.21930   50.55910   50.55910    5.73310    5.49220  -40.19990   -4.97480    5.49220
 3200.00000   12.76540   12.76540  143.26200  124.04790    8.06140   82.58020   82.58020   50.30860   50.30860    8.06140    6.96010  -43.15680   -6.79210    6.96010
 3250.00000   11.34790   11.34790  195.87660  159.82610    6.25680   99.45840   99.45840   60.19400   60.19400    6.25680    6.05350  -43.78760   -6.29070    6.05350
 3300.00000   12.02990   12.02990  221.48720  174.60230    5.72730  106.84010  106.84010   69.84230   69.84230    5.72730    5.89970  -43.39740   -4.76830    5.89970
 3350.00000   11.21460   11.21460  119.75690  103.24180    9.68600  107.69930  107.69930   59.97430   59.97430    9.68600   10.78240  -43.30260   -3.53390   10.78240
 3400.00000   11.78790   11.78790  153.48670  132.73690    7.53370   96.74580   96.74580   68.01450   68.01450    7.53370    8.07170  -42.93610   -2.03520    8.07170
 3450.00000   13.19770   13.19770  182.43400  155.46060    6.43250   98.21940   98.21940   49.04200   49.04200    6.43250    6.90070  -44.69940   -2.65890    6.90070
 3500.00000   12.09620   12.09620  197.21730  156.75950    6.37920  105.44450  105.44450   57.38670   57.38670    6.37920    6.03570  -45.58170   -2.40900    6.03570
 3550.00000   13.99970   13.99970  179.49980  149.19140    6.70280   96.35500   96.35500   54.17380   54.17380    6.70280    6.25940  -45.43490   -1.44400    6.25940
