~Version ---------------------------------------------------
VERS.      2.0 : CWLS log ASCII Standard -VERSION 2.0
WRAP.       NO : One line per depth step
CREA. 01/04/18 : LAS Creation Date
~Well ------------------------------------------------------
STRT.FT                               650.0 : START DEPTH
STOP.FT                             10100.0 : STOP DEPTH
STEP.FT                            50.00000 : STEP LENGTH
NULL.                               -999.25 : NULL VALUE
COMP. HUDSONS BAY OIL & GAS COMPANY LIMITED : COMPANY
WELL.        HUDSONS BAY KAYBOB 12-22-63-19 : WELL
FLD .                                       : FIELD
LOC .                                       : LOCATION
CTRY.                                CANADA : COUNTRY
SRVC.                Schlumberger of Canada : SERVICE COMPANY
DATE.                           23-Nov-1959 : LOGDATE
PROV.                               Alberta : PROVINCE
UWI .                      100122206319W500 : UNIQUE WELL ID
SLAT.WGS84                         54.46704 : SURFACE LATITUDE
SLON.WGS84                        -116.7943 : SURFACE LONGITUDE
~Curve Information -----------------------------------------
DEPT  .FT    : Depth Curve
CALWS .IN    : CALIPER [MCALED]
CILED .MMHO  : CONDUCTIVITY FROM RESISTIVITY LOG
CONDWS.MMHO  : CONDUCTIVITY [1000/DRESWS]
DRESWS.OHMM  : DEEP RESISTIVITY [IF ILED<1;1000/CILED;ELSE ILED]
GRED  .GAPI  : GAMMA RAY [DEPTH ADJ. TO ILED]
GRNED .RU    : GAMMA RAY FROM NEUTRON LOG [DEPTH ADJ. TO ILED]
GRWS  .GAPI  : GAMMA RAY [GRNED*2.16]
ILED  .OHMM  : INDUCTION LOG RESISTIVITY
MCALED.IN    : CALIPER MICROLOG
NEUTED.EU    : NEUTRON FROM GRN LOG [DEPTH ADJ. TO ILED]
NEUTWS.EU    : NEUTRON [NEUTED]
SNED  .OHMM  : 16 INCH SHORT NORMAL RESISTIVITY FROM IEL
SPRED .MV    : SPONTANEOUS POTENTIAL FROM RESISTIVITY LOG
SPWS  .MV    : SPONTANEOUS POTENTIAL [BASELINE 0 MV] [SPRED]
SRESWS.OHMM  : SHALLOW RESISTIVITY [SNED]
~Params ----------------------------------------------------
LMF .                     KB : LOG MEASURED FROM
DMF .                     KB : DRILLING MEASURED FROM
EKB .FT                 2583 : KELLY BUSHING
DATE.               11/23/59 : RUN DATE
RUN .                      1 : RUN NUMBER
DD  .FT                10107 : DEPTH DRILLER
DL  .FT                10109 : DEPTH LOGGER
BLI .FT                10104 : BOTTOM LOG INTERVAL
TLI .FT                  619 : TOP LOG INTERVAL
CBD .FT                  619 : CASING BOTTOM DRILLER
CBL .FT                  619 : CASING BOTTOM LOGGER
BS  .IN                 8.75 : BIT SIZE
BSD .FT                10107 : BIT SIZE AT DEPTH
DFT .                    GEL : DRILLING FLUID TYPE
DFD .                   10.4 : DRILLING FLUID DENSITY
DFV .                     97 : DRILLING FLUID VISCOSITY
DFPH.                      9 : DRILLING FLUID PH
DFL .                    5.8 : DRILLING FLUID LOSS
RMS .OHMM                1.6 : RESISTIVITY MUD SAMPLE
MST .DEGF                 62 : MUD SAMPLE TEMPERATURE
RMF .OHMM                1.5 : RESISTIVITY MUD FILTRATE SAMPLE
MFST.DEGF                 76 : MUD FILTRATE SAMPLE TEMPERATURE
RMC .OHMM                2.5 : RESISTIVITY MUD CAKE
MCST.DEGF                 74 : MUD CAKE SAMPLE TEMPERATURE
RMB .OHMM                0.5 : RESISTIVITY MUD AT BHT
TCS .HRS                 3.5 : TIME CIRCULATED STOPPED
LUN .                  15730 : LOGGING UNIT NUMBER
LUL .                     WC : LOGGING UNIT LOCATION
ENGI.              PATTERSON : RECORDING ENGINEER
WITN.                 STUART : WITNESSED BY
CLNT.                A2DTECH : CLIENT CODE
ORIG.            2" 5" PRINT : ORIGIN OF DATA
UWI .       100122206319W500 : UNIQUE WELL ID
DICO. A2D Technologies, Inc. : DIGITIZING COMPANY
~Other -----------------------------------------------------
~ASCII -----------------------------------------------------
# ...
 5250.00000   10.74310  108.65820  103.31750    9.67890    -999.25   65.24170   65.24170    9.67890   10.74310 1289.26170 1289.26170   15.69500  -87.70060  -21.99910   15.69500
 5300.00000   11.00890  105.26410  101.82520    9.82080    -999.25   71.20210   71.20210    9.82080   11.00890 1273.80500 1273.80490   18.24170  -73.27830   -7.59640   18.24170
 5350.00000   10.42500  113.50080  107.93420    9.26490    -999.25   76.50910   76.50910    9.26490   10.42500 1409.54160 1409.54160   14.17730  -86.06190  -20.39970   14.17730
 5400.00000   13.05090   79.15450   73.88530   13.53450    -999.25   89.68510   89.68510   13.53450   13.05090 1125.30760 1125.30760   27.97190  -77.90620  -12.26360   27.97190
 5450.00000   11.15580  125.65120  118.97820    8.40490    -999.25   76.71130   76.71130    8.40490   11.15580 1427.37510 1427.37510   13.62740  -74.14610   -8.52320   13.62740
 5500.00000    9.61550   84.15120   79.68570   12.54930    -999.25   92.35530   92.35530   12.54930    9.61550 1800.67720 1800.67720   23.10040 -120.86560  -55.26230   23.10040
 5550.00000   11.34400  104.47060  101.78430    9.82470    -999.25  120.25950  120.25950    9.82470   11.34400 1227.07360 1227.07360   14.69970  -69.60230   -4.01860   14.69970
 5600.00000   11.33620  107.73960  102.89970    9.71820    -999.25  110.53040  110.53040    9.71820   11.33620 1551.06740 1551.06740   16.15430  -65.86900   -0.30500   16.15430
 5650.00000   12.28260  113.45940  108.74530    9.19580    -999.25  112.18350  112.18350    9.19580   12.28260 1604.08470 1604.08470   12.14130  -77.62740  -12.08300   12.14130
 5700.00000   11.83940   93.35020   88.10810   11.34970    -999.25  143.38170  143.38170   11.34970   11.83940 1728.58400 1728.58400   17.65290  -67.65400   -2.12930   17.65290
 5750.00000   13.74610  177.47350  156.76190    6.37910    -999.25  125.49300  125.49300    6.37910   13.74610 1159.93090 1159.93090    8.32280  -68.60340   -3.09830    8.32280
 5800.00000    9.52480  108.95630  102.36150    9.76930    -999.25  112.72060  112.72060    9.76930    9.52480 1727.13790 1727.13790   18.93960  -99.03170  -33.54610   18.93960
 5850.00000   10.67640   98.93150   96.00710   10.41590    -999.25  121.60390  121.60390   10.41590   10.67640 1423.64790 1423.64790   19.79350  -71.02390   -5.55810   19.79350
 5900.00000   11.36610  125.50060  118.68450    8.42570    -999.25  134.23450  134.23450    8.42570   11.36610 1154.42910 1154.42910   14.62040  -64.16940    1.27680   14.62040
 5950.00000    9.44590   78.06240   73.33690   13.63570    -999.25   70.51000   70.51000   13.63570    9.44590 1591.38780 1591.38780   23.60430 -126.72370  -61.29710   23.60430
 6000.00000   10.78110  126.60950  115.11980    8.68660    -999.25   87.38950   87.38950    8.68660   10.78110 1329.65690 1329.65690   13.23290  -68.35770   -2.95080   13.23290
 6050.00000   13.90540  398.02290  306.96030    3.25780    -999.25   77.02890   77.02890    3.25770   13.90540 1198.91980 1198.91980    4.69860  -69.71710   -4.32960    4.69860
 6100.00000   15.45090  396.88160  299.78720    3.33570    -999.25   64.33500   64.33500    3.33570   15.45090 1048.33150 1048.33150    5.04600  -72.13860   -8.37230    5.04600
 6150.00000   10.13640   58.87350   48.34230   20.68580    -999.25  125.41330  125.41330   20.68580   10.13640 1261.49500 1261.49500   36.16550  -72.97540  -11.33570   36.16550
 6200.00000    9.71440   14.46230   10.27580   97.31630    -999.25  125.96710  125.96710   97.31630    9.71440 1885.94930 1885.94930   91.61420  -50.11180    9.40120   91.61420
 6250.00000   10.27940   53.60660   45.66810   21.89710    -999.25  109.54760  109.54760   21.89710   10.27940 1700.39170 1700.39170   27.67530 -100.38130  -42.99490   27.67530
 6300.00000   10.43230  108.55250  103.54380    9.65780    -999.25  127.23900  127.23900    9.65780   10.43230 1789.21820 1789.21820   14.95370  -71.20000  -15.92970   14.95370
 6350.00000   11.15520   81.70550   77.36290   12.92610    -999.25  122.69860  122.69860   12.92610   11.15520 1694.67350 1694.67350   18.95490  -75.98480  -22.85180   18.95490
 6400.00000   11.58820   79.24050   73.82040   13.54640    -999.25  171.52210  171.52210   13.54640   11.58820 1427.17220 1427.17220   19.34410  -87.84820  -36.84180   19.34410
 6450.00000    8.80350   29.83050   23.77510   42.06080    -999.25   98.94980   98.94980   42.06080    8.80350 2254.42500 2254.42500   74.56810 -123.34340  -74.46370   74.56810
 6500.00000    8.82180   15.13400   10.58190   94.50140    -999.25  112.38520  112.38520   94.50140    8.82180 2300.52610 2300.52610   94.89170 -171.23500 -124.48190   94.89170
 6550.00000    9.66800   20.94790   13.42730   74.47510    -999.25  118.74720  118.74720   74.47510    9.66800 2151.64190 2151.64180   99.42110 -148.79090 -104.15390   99.42110
 6600.00000    8.95820   33.78080   28.53870   35.04010    -999.25  137.04490  137.04490   35.04010    8.95820 1946.45290 1946.45290   59.55040 -106.48060  -63.98090   59.55040
 6650.00000    8.36070   68.00390   63.20830   15.82070    -999.25  109.10530  109.10530   15.82070    8.36070 1905.70790 1905.70790   41.90630 -205.11400 -164.74090   41.90630
 6700.00000    8.41230  249.63230  215.22500    4.64630    -999.25  110.37150  110.37150    4.64630    8.41230 1881.48910 1881.48910   23.97380 -221.44320 -183.19680   23.97380
 6750.00000    9.05500   40.73170   32.32010   30.94050    -999.25  144.76710  144.76710   30.94050    9.05500 2158.64670 2158.64670   68.07080 -126.80970  -90.68990   68.07080
 6800.00000    9.07370   27.76910   21.34270   46.85450    -999.25  126.54260  126.54260   46.85450    9.07370 2576.94000 2576.94000   94.81750 -143.18950 -109.18580   94.81750
 6850.00000    9.25100   36.21570   29.41940   33.99120    -999.25  109.58440  109.58440   33.99120    9.25100 2519.05860 2519.05860   89.48830 -233.45980 -201.59330   89.48830
 6900.00000    9.15470   33.33070   26.08450   38.33700    -999.25  114.71310  114.71310   38.33700    9.15470 2439.16260 2439.16260  115.78400 -216.47180 -186.73200  115.78400
 6950.00000    9.22770  451.27450  328.61230    3.04310    -999.25  109.07810  109.07810    3.04310    9.22770 1440.69980 1440.69980    7.09370 -141.68540 -114.07230    7.09370
 7000.00000    9.21380  321.84940  253.26710    3.94840    -999.25   90.26400   90.26400    3.94840    9.21380 1425.13020 1425.13020    6.02960 -111.80760  -86.32110    6.02960
 7050.00000    9.13990  334.17110  262.16100    3.81450    -999.25   91.12740   91.12740    3.81440    9.13990 1579.40640 1579.40640    8.17270 -110.80120  -87.43070    8.17270
 7100.00000    9.90490   26.67450   20.52910   48.71130    -999.25   93.94600   93.94600   48.71130    9.90490 2074.35300 2074.35300   86.94430  -44.70450  -23.47130   86.94430
 7150.00000    8.88330   49.67700   43.54110   22.96680    -999.25  122.14520  122.14520   22.96680    8.88330 2016.08150 2016.08150   48.34090  -31.29360  -11.78290   48.34090
 7200.00000    8.94920   24.99280   16.39990   60.97580    -999.25  119.55840  119.55840   60.97580    8.94920 2435.34890 2435.34890  119.30240  -39.70630  -19.62730  119.30240
 7250.00000    8.83900   25.54230   18.06420   55.35820    -999.25  115.56500  115.56500   55.35820    8.83900 2354.25150 2354.25150  126.62580  -82.05420  -61.40700  126.62580
 7300.00000    8.84260   35.61520   31.28310   31.96610    -999.25  126.05800  126.05800   31.96610    8.84260 2099.69190 2099.69190   71.72850  -72.45440  -51.24180   71.72850
 7350.00000    8.89000   28.35510   23.51450   42.52690    -999.25  130.02570  130.02570   42.52690    8.89000 2109.24560 2109.24560   96.02200  -81.21410  -59.43040   96.02200
 7400.00000    8.83690   24.70180   17.26430   57.92310    -999.25  123.31550  123.31550   57.92310    8.83690 2449.17770 2449.17770  134.84540  -95.11340  -72.76140  134.84540
 7450.00000    8.85470   32.19290   26.80910   37.30070    -999.25  138.78760  138.78760   37.30070    8.85470 2306.10330 2306.10330  112.08580  -89.32520  -66.40500  112.08580
 7500.00000    8.92850   37.58920   31.88460   31.36310    -999.25  127.47480  127.47480   31.36310    8.92850 2190.61250 2190.61250   74.20130  -89.87110  -66.38260   74.20130
