~Version ---------------------------------------------------
VERS.      2.0 : CWLS log ASCII Standard -VERSION 2.0
WRAP.       NO : One line per depth step
CREA. 08/04/17 : LAS Creation Date
~Well ------------------------------------------------------
STRT.FT                      550.0 : START DEPTH
STOP.FT                    12450.0 : STOP DEPTH
STEP.FT                   50.00000 : STEP LENGTH
NULL.                      -999.25 : NULL VALUE
COMP.       CALIFORNIA STANDARD CO : COMPANY
WELL. STANDARD CYNTHIA 16-21-49-13 : WELL
FLD .                           WC : FIELD
LOC .                              : LOCATION
CTRY.                       CANADA : COUNTRY
SRVC.                 Schlumberger : SERVICE COMPANY
DATE.                  28-Dec-1957 : LOGDATE
PROV.                      Alberta : PROVINCE
UWI .             100162104913W500 : UNIQUE WELL ID
SLAT.WGS84                53.24881 : SURFACE LATITUDE
SLON.WGS84               -115.8321 : SURFACE LONGITUDE
~Curve Information -----------------------------------------
DEPT  .FT         : Depth Curve
CALMED.IN         : CALIPER FROM FROM MLL LOG
CALWS .IN         : CALIPER [MCALED]
CILDED.MMHO       : DEEP INDUCTION CONDUCTIVITY FROM IL LOG [ADJ. TO SPRED]
CONDWS.MMHO       : CONDUCTIVITY [1000/DRESWS]
DRESWS.OHMM       : DEEP RESISTIVITY [LNED]
GRNED .UgRa-Eq/T  : GAMMA RAY FROM GRN LOG
GRWS  .GAPI       : GAMMA RAY[GRNED*16.5]
ILDED .OHMM       : DEEP INDUCTION RESISTIVITY FROM IL LOG [ADJ. TO SPRED]
LL7ED .OHMM       : LATEROLOG 7 FROM LL LOG
LNED  .OHMM       : LONG NORMAL RESISTIVITY FROM EL LOG
LT18ED.OHMM       : LATERAL 18' FROM EL LOG
MCALED.IN         : MLT (MICROLOG) CALIPER FROM ML LOG
MLLED .OHMM       : MICRO FOCUSED LATEROLOG RESISTIVITY FROM MLL LOG
MRESWS.OHMM       : MEDIUM RESISTIVITY [LL7ED]
NEUTED.CPS        : NEUTRON FROM GRN LOG
NEUTWS.CPS        : NEUTRON [NEUTED]
SNED  .OHMM       : SHORT NORMAL RESISTIVITY FROM EL LOG
SPR1ED.MV         : SPONTANEOUS POTENTIAL FROM IL LOG [ADJ. TO SPRED]
SPR2ED.MV         : SPONTANEOUS POTENTIAL FROM LL LOG
SPRED .MV         : SPONTANEOUS POTENTIAL FROM EL LOG
SPWS  .MV         : SPONTANEOUS POTENTIAL [SPR1ED SPL. TO SPRED @644']
SRESWS.OHMM       : SHALLOW RESISTIVITY [SNED]
~Params ----------------------------------------------------
PD  .                        : PERMANENT DATUM
EPD .FT                    0 : ELEVATION PERMANENT DATUM
LMF .                     KB : LOG MEASURED FROM
DAPD.FT                    0 : FEET ABOVE PERMANENT DATUM
DMF .                     KB : DRILLING MEASURED FROM
EKB .FT                 3297 : KELLY BUSHING
EDF .FT                    0 : DRILLING FLOOR
EGL .FT                    0 : GROUND LEVEL
DATE.               12/28/57 : RUN DATE
RUN .                      4 : RUN NUMBER
DD  .FT                12492 : DEPTH DRILLER
DL  .FT                12492 : DEPTH LOGGER
BLI .FT                12491 : BOTTOM LOG INTERVAL
TLI .FT                 8904 : TOP LOG INTERVAL
CS  .IN                    0 : CASING SIZE
CBD .FT                  616 : CASING BOTTOM DRILLER
CBL .FT                  616 : CASING BOTTOM LOGGER
BS  .IN                    9 : BIT SIZE
BSD .FT                12492 : BIT SIZE AT DEPTH
DFT .               OIL EMUL : DRILLING FLUID TYPE
DFD .                   10.7 : DRILLING FLUID DENSITY
DFV .                    140 : DRILLING FLUID VISCOSITY
DFPH.                     13 : DRILLING FLUID PH
DFL .                    3.6 : DRILLING FLUID LOSS
MSS .                        : MUD SAMPLE SOURCE
RMS .OHMM                1.1 : RESISTIVITY MUD SAMPLE
MST .DEGF                 50 : MUD SAMPLE TEMPERATURE
RMF .OHMM                  0 : RESISTIVITY MUD FILTRATE SAMPLE
MFST.DEGF                  0 : MUD FILTRATE SAMPLE TEMPERATURE
RMC .OHMM                  0 : RESISTIVITY MUD CAKE
MCST.DEGF                  0 : MUD CAKE SAMPLE TEMPERATURE
MFSS.                        : MUD FILTRATE SAMPLE SOURCE
MCSS.                        : MUD CAKE SAMPLE SOURCE
RMB .OHMM               0.28 : RESISTIVITY MUD AT BHT
TCS .HRS                   3 : TIME CIRCULATED STOPPED
TLAB.HRS                   0 : TIME LOGGER AT BOTTOM
LUN .                   1749 : LOGGING UNIT NUMBER
LUL .                     DV : LOGGING UNIT LOCATION
ENGI.                  GOETZ : RECORDING ENGINEER
WITN.             CHARLESTON : WITNESSED BY
CLNT.                A2DTECH : CLIENT CODE
ORIG.            2" 5" PRINT : ORIGIN OF DATA
UWI .       100162104913W500 : UNIQUE WELL ID
DICO. A2D Technologies, Inc. : DIGITIZING COMPANY
OS  .                        : OTHER SERVICES
PWI .                        : PRIMARY WELL IDENTIFIER
R1  .                        : REMARKS 1
R2  .                        : REMARKS 2
LSRV.                        : LOG MNEMONIC
~Other -----------------------------------------------------
~ASCII -----------------------------------------------------
# ...
 6950.00000    -999.25   14.71790    -999.25   53.50910   18.68840    7.44060  122.76990    -999.25    -999.25   18.68840   15.33900   14.71790    -999.25    -999.25  185.49620  185.49620   17.17700    -999.25    -999.25  -63.43210   -4.12480   17.17700
 7000.00000    -999.25   11.28980    -999.25   31.55810   31.73560    7.65760  126.35050    -999.25    -999.25   31.73560   23.16380   11.28980    -999.25    -999.25  195.25870  195.25870   26.65280    -999.25    -999.25  -61.65170   -2.79230   26.65280
 7050.00000    -999.25   14.14410    -999.25   43.06170   23.22250    6.04850   99.80030    -999.25    -999.25   23.22250   19.45330   14.14410    -999.25    -999.25  178.25820  178.25820   16.45820    -999.25    -999.25  -62.96880   -4.44700   16.45820
 7100.00000    -999.25   14.78110    -999.25   77.76050   12.86000    6.19850  102.27530    -999.25    -999.25   12.86000   13.46400   14.78110    -999.25    -999.25  192.48550  192.48550   11.97140    -999.25    -999.25  -63.34410   -5.27240   11.97140
 7150.00000    -999.25   14.78550    -999.25   63.06510   15.85770    8.49150  140.11060    -999.25    -999.25   15.85770   13.90840   14.78550    -999.25    -999.25  186.48900  186.48900   13.61460    -999.25    -999.25  -63.83850   -6.03480   13.61460
 7200.00000    -999.25   14.85320    -999.25   72.46270   13.80020    6.51950  107.57170    -999.25    -999.25   13.80020   12.34550   14.85320    -999.25    -999.25  184.57970  184.57970   12.91590    -999.25    -999.25  -62.16040   -4.76550   12.91590
 7250.00000    -999.25   14.78900    -999.25   94.43110   10.59080    6.35730  104.89580    -999.25    -999.25   10.59080    9.96400   14.78900    -999.25    -999.25  188.78240  188.78240    9.82820    -999.25    -999.25  -62.85350   -5.70760    9.82820
 7300.00000    -999.25   14.76580    -999.25  116.27100    8.60060    5.97950   98.66090    -999.25    -999.25    8.60060    8.33340   14.76580    -999.25    -999.25  187.56330  187.56330    7.50350    -999.25    -999.25  -61.88600   -5.14970    7.50350
 7350.00000    -999.25   14.77180    -999.25  113.11580    8.84050    5.98670   98.78060    -999.25    -999.25    8.84050    8.06440   14.77180    -999.25    -999.25  183.04830  183.04830    8.23080    -999.25    -999.25  -63.30250   -6.87480    8.23080
 7400.00000    -999.25   14.78970    -999.25  114.69030    8.71910    6.32290  104.32790    -999.25    -999.25    8.71910    7.77830   14.78970    -999.25    -999.25  187.54590  187.54590    8.16320    -999.25    -999.25  -61.42280   -5.36320    8.16320
 7450.00000   10.16540   14.70780  313.82910  238.52690    4.19240    5.93970   98.00500    3.03840    -999.25    4.19240    4.02930   14.70780    1.96590    -999.25  188.38670  188.38670    3.80030    -999.25    -999.25  -63.22880   -7.53950    3.80030
 7500.00000    9.87570   14.77550  210.55040  135.75050    7.36890    5.23540   86.38290    4.98020    -999.25    7.36890    6.25510   14.77550    1.82380    -999.25  179.83650  179.83650    6.43490    -999.25    -999.25  -62.74490   -7.58270    6.43490
 7550.00000    8.38930    9.63250  100.77180   61.94410   16.14360    5.89720   97.30460   15.95220    -999.25   16.14360   19.95700    9.63250   12.86500    -999.25  247.11470  247.11470   18.66350    -999.25    -999.25  -63.89050   -8.93960   18.66350
 7600.00000    9.80940   14.83580  461.34460  316.17550    3.16280    6.59870  108.87860    2.02840    -999.25    3.16280    3.22480   14.83580    1.34350    -999.25  181.51460  181.51460    3.48320    -999.25    -999.25  -61.08530   -6.20220    3.48320
 7650.00000    7.97620    9.49100   92.90530   38.41170   26.03380    3.97720   65.62380   19.09770    -999.25   26.03380   17.51980    9.49100   26.84360    -999.25  263.34600  263.34600   26.25820    -999.25    -999.25  -96.13260  -42.06610   26.25820
 7700.00000    9.42740   13.73560  115.08030   20.20430   49.49450    5.95870   98.31860   13.00620    -999.25   49.49450   25.13760   13.73560    3.11280    -999.25  187.46830  187.46830   35.14470    -999.25    -999.25  -59.98520   -6.13500   35.14470
 7750.00000    8.71020   11.83300  136.53110   58.81020   17.00390    5.34320   88.16330    9.75670    -999.25   17.00390   20.75180   11.83300    4.20310    -999.25  214.85620  214.85620   12.89680    -999.25    -999.25  -60.95740   -7.44370   12.89680
 7800.00000    9.24790   12.47630  133.45760   61.65460   16.21940    6.65250  109.76630    9.93890    -999.25   16.21940   12.03860   12.47630    2.02090    -999.25  192.84550  192.84550   14.90590    -999.25    -999.25  -61.33660   -8.17110   14.90590
 7850.00000    9.29090   12.95390   62.38020   22.77050   43.91650    3.43870   56.73850   39.58980    -999.25   43.91650   92.25710   12.95390   37.00080    -999.25  178.70950  178.70950   47.55130    -999.25    -999.25  -59.96480   -7.32970   47.55130
 7900.00000    9.26230   13.99580   53.23920   16.24560   61.84800    2.65560   43.81660   77.08830    -999.25   61.84800   52.56380   13.99580    8.57240    -999.25  178.76000  178.76000   50.03810    -999.25    -999.25  -58.82360   -6.63260   50.03810
 7950.00000    8.49170   10.39120  126.15880   43.87490   22.79210    4.91890   81.16190   11.90510    -999.25   22.79210   73.25710   10.39120    7.29890    -999.25  209.71830  209.71830   16.84590    -999.25    -999.25  -58.74540   -6.97510   16.84590
 8000.00000    8.34520    9.78090  100.82870   46.48040   21.51450    4.95660   81.78350   16.26230    -999.25   21.51450   24.32710    9.78090   18.41800    -999.25  240.59580  240.59580   18.92190    -999.25    -999.25  -56.61700   -5.42880   18.92190
 8050.00000    8.05120    9.65840   92.54030   50.30030   19.88060    4.44930   73.41340   19.09680    -999.25   19.88060   16.97380    9.65840   63.70490    -999.25  238.71790  238.71790   20.23730    -999.25    -999.25  -66.96090  -17.22170   20.23730
 8100.00000    8.36660    9.52030   84.24550   39.71070   25.18210    4.47320   73.80780   22.22960    -999.25   25.18210   27.65650    9.52030   27.13000    -999.25  229.92240  229.92240   24.81390    -999.25    -999.25  -63.88250  -15.84900   24.81390
 8150.00000    9.47410   12.63250  167.03470   60.49820   16.52960    5.76280   95.08540    6.72310    -999.25   16.52960   47.35880   12.63250    1.73080    -999.25  189.20260  189.20260   10.13450    -999.25    -999.25  -59.10110  -12.67480   10.13450
 8200.00000    9.18350   14.56290   71.86830   13.34290   74.94600    5.40060   89.10990   29.23170    -999.25   74.94600   49.68860   14.56290    5.92540    -999.25  204.66790  204.66790   44.66720    -999.25    -999.25  -51.22110   -6.51990   44.66720
 8250.00000    8.90230   11.73200   55.27850   10.75150   93.01080    3.33250   54.98670   68.62670    -999.25   93.01080   75.45250   11.73200   14.45760    -999.25  255.43810  255.43810   50.03960    -999.25    -999.25  -70.33100  -27.78270   50.03960
 8300.00000    8.39590    9.90790   51.23520    6.63100  150.80640    4.80600   79.29820   90.75800    -999.25  150.80640  202.73450    9.90790   39.41990    -999.25  243.99230  243.99230   82.73920    -999.25    -999.25  -57.21810  -13.41730   82.73920
 8350.00000    8.33400   10.19350   57.73960   11.81150   84.66360    5.95100   98.19150   55.34260    -999.25   84.66360  119.68540   10.19350   25.76050    -999.25  240.95490  240.95490   57.90440    -999.25    -999.25  -53.68540   -9.48560   57.90440
 8400.00000    8.71930   11.26530  103.07890   67.97100   14.74620    6.74000  111.21000   15.84200    -999.25   14.74620    9.05140   11.26530    4.67090    -999.25  203.20730  203.20730   19.07660    -999.25    -999.25  -51.92600   -7.46580   19.07660
 8450.00000    8.37440    9.61160   50.20140    4.37530  228.55490    3.25340   53.68110  102.76590    -999.25  228.55490  281.37340    9.61160   16.96110    -999.25  308.93260  308.93260   95.00320    -999.25    -999.25  -78.05300  -32.61460   95.00320
 8500.00000    8.80210   11.01800  131.80150   55.79240   17.92580    7.20610  118.90140   10.69510    -999.25   17.92580   41.26590   11.01800    4.64430    -999.25  195.71350  195.71350   17.13390    -999.25    -999.25  -46.98690   -1.88480   17.13390
