~Version ---------------------------------------------------
VERS.      2.0 : CWLS log ASCII Standard -VERSION 2.0
WRAP.       NO : One line per depth step
CREA. 08/16/13 : LAS Creation Date
~Well ------------------------------------------------------
STRT.M                      450.0 : START DEPTH
STOP.M                     2900.0 : STOP DEPTH
STEP.M                   50.00000 : STEP LENGTH
NULL.                     -999.25 : NULL VALUE
COMP.   BARRINGTON PETROLEUM LTD. : COMPANY
WELL. BARR SAKWATAMAU 10-12-63-15 : WELL
FLD .                             : FIELD
LOC .                             : LOCATION
CTRY.                      CANADA : COUNTRY
SRVC.               Western Atlas : SERVICE COMPANY
DATE.                 27-Mar-1997 : LOGDATE
PROV.                     Alberta : PROVINCE
UWI .            100101206315W500 : UNIQUE WELL ID
SLAT.WGS84               54.43791 : SURFACE LATITUDE
SLON.WGS84              -116.1264 : SURFACE LONGITUDE
~Curve Information -----------------------------------------
DEPT    .M      : Depth Curve
CALWS   .MM     : CALIPER [CALXSED]
CALXDED .MM     : CALIPER X FROM DENSITY LOG
CALXSED .MM     : CALIPER X FROM SONIC LOG
CALYDED .MM     : CALIPER Y FROM DENSITY LOG
CALYSED .MM     : CALIPER Y FROM SONIC LOG
CNCLSED .V/V    : BOREHOLE SIZE CORRECTED COMPENSATED NEUTRON POROSITY LIMESTONE FROM DENSITY LOG
CNCSSED .V/V    : BOREHOLE SIZE CORRECTED COMPENSATED NEUTRON POROSITY SANDSTONE FROM DENSITY LOG
CONDWS  .MMHO   : CANDUCTIVITY [1000/DRESWS]
DCORWS  .KG/M3  : DENSITY CORRECTION [ZCORED]
DENWS   .KG/M3  : FORMATION BULK DENSITY [CALC. FROM DPOLSWS M=2710,F=1000]
DPOLSWS .V/V    : DENSITY POROSITY LIMESTONE [PORZSSED CONVERTED TO LIMESTONE MATRIX M=2710,F=1000, SPL. TO PORZLSED @ 2751.9M]
DRESWS  .OHMM   : DEEP RESISTIVITY [M2RXED]
DT24QSED.US/M   : DELTA-T 24 FROM SONIC LOG
DTWS    .US/M   : COMPRESSIONAL SONIC [DT24QSED]
GRDED   .GAPI   : GAMMA RAY FROM DENSITY LOG
GRRED   .GAPI   : GAMMA RAY FROM RESISTIVITY LOG
GRWS    .GAPI   : GAMMA RAY [GRRED SPL. TO GRDED @2882M]
M2R2ED  .OHMM   : VERT RESOLUTION MATCHED (2 FT) RES - DOI 20 INCH FROM RESISTIVITY LOG
M2R3ED  .OHMM   : VERT RESOLUTION MATCHED (2 FT) RES - DOI 30 INCH FROM RESISTIVITY LOG
M2RXED  .OHMM   : VERT RESOLUTION MATCHED (2 FT) RES - DOI 120 INCH FROM RESISTIVITY LOG
MRESWS  .OHMM   : MEDIUM RESISTIVITY [M2R3ED]
NPOLSWS .V/V    : NEUTRON POROSITY LIMESTONE [CNCSSED MATRIX CONVERSION (BAKER) FOR LIMESTONE, SPL. TO CNCLSED 2750.2M]
PEED    .B/E    : PHOTO ELECTRIC CROSS SECTION FROM DENSITY LOG
PEFWS   .B/E    : PHOTOELECTRIC FACTOR [PEED]
PORZLSED.V/V    : Z-DENSITY CORRECTED POROSITY LIMESTONE [M=2710,F=1000] FROM DENSITY LOG
PORZSSED.V/V    : Z-DENSITY CORRECTED POROSITY SANDSTONE [M=2650,F=1000] FROM DENSITY LOG
SPRED   .MV     : SPONTANEOUS POTENTIAL FROM RESISTIVITY LOG
SPWS    .MV     : SPONTANEOUS POTENTIAL [BASELINE 0 MV, SPRED]
SRESWS  .OHMM   : SHALLOW RESISTIVITY [M2R2ED]
TENRED  .N      : TENSION FROM RESISTIVITY LOG
ZCORED  .KG/M3  : DENSITY CORRECTION FROM DENSITY LOG
ZDENED  .KG/M3  : FORMATION BULK DENSITY FROM DENSITY LOG
~Params ----------------------------------------------------
PD  .                         GL : PERMANENT DATUM
EPD .M                    909.26 : ELEVATION PERMANENT DATUM
LMF .                         KB : LOG MEASURED FROM
DAPD.M                       4.8 : FEET ABOVE PERMANENT DATUM
DMF .                         KB : DRILLING MEASURED FROM
EKB .M                    914.06 : KELLY BUSHING
EGL .M                    909.26 : GROUND LEVEL
DATE.                   03/27/97 : RUN DATE
RUN .                          1 : RUN NUMBER
DD  .M                      2906 : DEPTH DRILLER
DL  .M                    2907.7 : DEPTH LOGGER
BLI .M                    2896.1 : BOTTOM LOG INTERVAL
TLI .M                       422 : TOP LOG INTERVAL
CS  .MM                    244.5 : CASING SIZE
CBD .M                       422 : CASING BOTTOM DRILLER
CBL .M                       422 : CASING BOTTOM LOGGER
BS  .MM                    222.2 : BIT SIZE
BSD .M                      2906 : BIT SIZE AT DEPTH
DFT .                   GEL CHEM : DRILLING FLUID TYPE
DFD .                       1115 : DRILLING FLUID DENSITY
DFV .                         83 : DRILLING FLUID VISCOSITY
DFPH.                         10 : DRILLING FLUID PH
DFL .                        8.5 : DRILLING FLUID LOSS
MSS .                   FLOWLINE : MUD SAMPLE SOURCE
RMS .OHMM                    0.4 : RESISTIVITY MUD SAMPLE
MST .DEGC                     27 : MUD SAMPLE TEMPERATURE
RMF .OHMM                    0.6 : RESISTIVITY MUD FILTRATE SAMPLE
MFST.DEGC                   27.5 : MUD FILTRATE SAMPLE TEMPERATURE
RMC .OHMM                    1.1 : RESISTIVITY MUD CAKE
MCST.DEGC                   25.5 : MUD CAKE SAMPLE TEMPERATURE
MFSS.                   MEASURED : MUD FILTRATE SAMPLE SOURCE
MCSS.                   MEASURED : MUD CAKE SAMPLE SOURCE
RMB .OHMM                   0.15 : RESISTIVITY MUD AT BHT
TCS .HRS                      14 : TIME CIRCULATED STOPPED
LUN .                    HL 6577 : LOGGING UNIT NUMBER
LUL .                         GP : LOGGING UNIT LOCATION
ENGI.            BARSS VALOUISKI : RECORDING ENGINEER
WITN.                    SPENCER : WITNESSED BY
CLNT.                    A2DTECH : CLIENT CODE
ORIG. 6.5"/100M 16.5"/100M PRINT : ORIGIN OF DATA
UWI .           100101206315W500 : UNIQUE WELL ID
DICO.     A2D Technologies, Inc. : DIGITIZING COMPANY
~Other -----------------------------------------------------
HDIL-DAL LOG RUN IN COMBO & CN-ZDC LOG RUN
ZDEN FROM SMALL SCALE SECTION
~ASCII -----------------------------------------------------
# ...
 1550.00000  250.97470    -999.25  250.97470    -999.25  291.66700    -999.25    -999.25  186.46980    -999.25    -999.25    -999.25    5.36280  254.00790  254.00790    -999.25   55.63350   55.63350    5.13830    5.47930    5.36280    5.47930    -999.25    -999.25    -999.25    -999.25    -999.25  -38.96230   -6.82950    5.13830 -465.19840    -999.25    -999.25
 1600.00000  230.82690    -999.25  230.82690    -999.25  257.10320    -999.25    -999.25  140.87280    -999.25    -999.25    -999.25    7.09860  244.92750  244.92750    -999.25   52.12650   52.12650   11.34030    9.73440    7.09860    9.73440    -999.25    -999.25    -999.25    -999.25    -999.25  -81.62740  -50.91060   11.34030 -1861.05420    -999.25    -999.25
 1650.00000  236.36710    -999.25  236.36710    -999.25  250.89390    -999.25    -999.25  126.56790    -999.25    -999.25    -999.25    7.90090  251.88330  251.88330    -999.25   86.71340   86.71340    7.71480    7.81100    7.90090    7.81100    -999.25    -999.25    -999.25    -999.25    -999.25  -39.08230   -9.78150    7.71480 -1357.17610    -999.25    -999.25
 1700.00000  236.85560    -999.25  236.85560    -999.25  250.04570    -999.25    -999.25   12.11650    -999.25    -999.25    -999.25   82.53220  209.72460  209.72460    -999.25   43.24820   43.24820   77.54290   74.81040   82.53220   74.81040    -999.25    -999.25    -999.25    -999.25    -999.25  -46.07680  -18.19200   77.54290 -775.69600    -999.25    -999.25
 1750.00000  272.99280    -999.25  272.99280    -999.25  351.02520    -999.25    -999.25  173.44550    -999.25    -999.25    -999.25    5.76550  277.51520  277.51520    -999.25   88.05900   88.05900    4.98140    5.56720    5.76550    5.56720    -999.25    -999.25    -999.25    -999.25    -999.25  -30.62440   -6.44090    4.98140 -754.41180    -999.25    -999.25
 1800.00000  266.59960  246.13210  266.59960  252.48410  252.42240    -999.25    0.15960   58.48500    2.70810 2754.11500   -0.02580   17.09840  168.85440  168.85440   54.68040   49.41240   49.41240   25.68510   20.88050   17.09840   20.88050    0.11850    3.53700    3.53700    -999.25   -0.06310  -61.02940  -36.90770   25.68510 -1432.01190    2.70810 2768.70260
 1850.00000  224.89080    -999.25  224.89080    -999.25  229.58190    -999.25    -999.25  306.27870    -999.25    -999.25    -999.25    3.26500  193.84610  193.84610    -999.25   14.68070   14.68070    9.32280    5.63680    3.26500    5.63680    -999.25    -999.25    -999.25    -999.25    -999.25 -114.94460  -88.18180    9.32280  246.71680    -999.25    -999.25
 1900.00000  247.50530    -999.25  247.50530    -999.25  270.80080    -999.25    -999.25   34.38860    -999.25    -999.25    -999.25   29.07940  184.20090  184.20090    -999.25   37.18560   37.18560   17.37050   24.42030   29.07940   24.42030    -999.25    -999.25    -999.25    -999.25    -999.25  -52.29730  -22.89340   17.37050 -1422.59120    -999.25    -999.25
 1950.00000  246.64890    -999.25  246.64890    -999.25  256.26680    -999.25    -999.25    0.48890    -999.25    -999.25    -999.25 2045.58920  167.82920  167.82920    -999.25   21.22180   21.22180  109.51790 2016.29800 2045.58920 2016.29800    -999.25    -999.25    -999.25    -999.25    -999.25  -71.31090  -40.70270  109.51790 -1811.70550    -999.25    -999.25
 2000.00000  234.63100    -999.25  234.63100    -999.25  244.91240    -999.25    -999.25    5.91330    -999.25    -999.25    -999.25  169.10960  172.82590  172.82590    -999.25   22.88410   22.88410 2000.00000  391.18820  169.10960  391.18820    -999.25    -999.25    -999.25    -999.25    -999.25  -90.90130  -60.29310 2000.00000 -220.74470    -999.25    -999.25
 2050.00000  241.14780    -999.25  241.14780    -999.25  258.63840    -999.25    -999.25    8.79660    -999.25    -999.25    -999.25  113.68010  202.35730  202.35730    -999.25   66.60710   66.60710  131.22990  134.09900  113.68010  134.09900    -999.25    -999.25    -999.25    -999.25    -999.25  -40.64780  -10.03960  131.22990 -101.58030    -999.25    -999.25
 2100.00000  244.08240    -999.25  244.08240    -999.25  262.33870    -999.25    -999.25   16.90170    -999.25    -999.25    -999.25   59.16550  169.95950  169.95950    -999.25   14.70410   14.70410   38.39450   70.59130   59.16550   70.59130    -999.25    -999.25    -999.25    -999.25    -999.25 -109.28040  -78.67220   38.39450 -261.47210    -999.25    -999.25
 2150.00000  234.01520    -999.25  234.01520    -999.25  263.45850    -999.25    -999.25   39.20030    -999.25    -999.25    -999.25   25.51000  166.24190  166.24190    -999.25   11.84660   11.84660   32.80990   31.56030   25.51000   31.56030    -999.25    -999.25    -999.25    -999.25    -999.25 -108.29090  -77.68270   32.80990 -344.73180    -999.25    -999.25
 2200.00000  239.11760    -999.25  239.11760    -999.25  268.23270    -999.25    -999.25   22.42090    -999.25    -999.25    -999.25   44.60120  165.95560  165.95560    -999.25   12.11090   12.11090   66.80560   61.86470   44.60120   61.86470    -999.25    -999.25    -999.25    -999.25    -999.25 -130.24540  -99.63720   66.80560 -1903.75730    -999.25    -999.25
 2250.00000  238.80080    -999.25  238.80080    -999.25  263.82860    -999.25    -999.25    5.87630    -999.25    -999.25    -999.25  170.17620  163.21940  163.21940    -999.25   13.45520   13.45520  153.53590  304.73490  170.17620  304.73490    -999.25    -999.25    -999.25    -999.25    -999.25 -129.65170  -99.04350  153.53590 -682.88080    -999.25    -999.25
 2300.00000  238.50950    -999.25  238.50950    -999.25  257.16910    -999.25    -999.25    4.02990    -999.25    -999.25    -999.25  248.14320  159.70260  159.70260    -999.25   14.54930   14.54930 1135.55570  288.95320  248.14320  288.95320    -999.25    -999.25    -999.25    -999.25    -999.25 -129.47350  -98.86530 1135.55570 -1061.61340    -999.25    -999.25
 2350.00000  244.06700    -999.25  244.06700    -999.25  267.82800    -999.25    -999.25    3.47820    -999.25    -999.25    -999.25  287.50860  156.89410  156.89410    -999.25   20.12240   20.12240  847.03160  545.45360  287.50860  545.45360    -999.25    -999.25    -999.25    -999.25    -999.25 -115.72820  -85.12000  847.03160 -1003.52640    -999.25    -999.25
 2400.00000  241.68190    -999.25  241.68190    -999.25  260.32120    -999.25    -999.25   12.83050    -999.25    -999.25    -999.25   77.93910  173.81460  173.81460    -999.25   35.33690   35.33690   45.20670   89.61600   77.93910   89.61600    -999.25    -999.25    -999.25    -999.25    -999.25  -77.62080  -47.01260   45.20670 -952.48930    -999.25    -999.25
 2450.00000  245.25860    -999.25  245.25860    -999.25  277.61360    -999.25    -999.25   77.51760    -999.25    -999.25    -999.25   12.90030  205.40690  205.40690    -999.25   67.65140   67.65140   14.63040   13.28530   12.90030   13.28530    -999.25    -999.25    -999.25    -999.25    -999.25  -46.90080  -16.29260   14.63040 -1241.27160    -999.25    -999.25
 2500.00000  242.01120    -999.25  242.01120    -999.25  261.18660    -999.25    -999.25   67.50780    -999.25    -999.25    -999.25   14.81310  199.73950  199.73950    -999.25   48.51520   48.51520   17.65370   17.16940   14.81310   17.16940    -999.25    -999.25    -999.25    -999.25    -999.25  -44.33230  -13.72410   17.65370 -976.48570    -999.25    -999.25
 2550.00000  255.49180    -999.25  255.49180    -999.25  294.11910    -999.25    -999.25   93.53050    -999.25    -999.25    -999.25   10.69170  209.11450  209.11450    -999.25   56.01450   56.01450    7.82780   10.12740   10.69170   10.12740    -999.25    -999.25    -999.25    -999.25    -999.25  -46.11660  -15.50840    7.82780  378.40030    -999.25    -999.25
 2600.00000  252.71090    -999.25  252.71090    -999.25  285.64120    -999.25    -999.25  130.94150    -999.25    -999.25    -999.25    7.63700  227.91700  227.91700    -999.25   75.05050   75.05050    6.27580    7.96730    7.63700    7.96730    -999.25    -999.25    -999.25    -999.25    -999.25  -44.78450  -14.17630    6.27580 -2614.83740    -999.25    -999.25
