~Version ---------------------------------------------------
VERS.      2.0 : CWLS log ASCII Standard -VERSION 2.0
WRAP.       NO : One line per depth step
CREA. 12/14/17 : LAS Creation Date
~Well ------------------------------------------------------
STRT.FT                        1500.0 : START DEPTH
STOP.FT                        9650.0 : STOP DEPTH
STEP.FT                      50.00000 : STEP LENGTH
NULL.                         -999.25 : NULL VALUE
COMP.           OCELOT INDUSTRIES LTD : COMPANY
WELL. OIL ET AL VIRGHILLS 11-15-63-13 : WELL
FLD .                                 : FIELD
LOC .                                 : LOCATION
CTRY.                          CANADA : COUNTRY
SRVC.                   Dresser Atlas : SERVICE COMPANY
DATE.                     19-Jun-1978 : LOGDATE
PROV.                         Alberta : PROVINCE
UWI .                100111506313W500 : UNIQUE WELL ID
SLAT.WGS84                   54.45302 : SURFACE LATITUDE
SLON.WGS84                  -115.8819 : SURFACE LONGITUDE
~Curve Information -----------------------------------------
DEPT     .FT    : Depth Curve
CALD1ED  .IN    : CALIPER FROM CNFD LOG [AJ. TO RESISTIVITY LOG]
CALDED   .IN    : CALIPER FROM CDL-CNL LOG [AJ. TO RESISTIVITY LOG]
CALWS    .IN    : CALIPER [CALD1ED SPL. TO CALDED @ 1881.3M]
CONDWS   .MMHO  : CONDUCTIVITY [1000/DRESWS]
CORRED   .G/C3  : DENSITY CORRECTION FROM CDL-CNL LOG [ADJ. TO RESISTIVITY LOG/DPHILSED/DPHISSED] [CORRED*1000]
DCORED   .G/C3  : DENSITY CORRECTION FROM CNFD LOG [ADJ. TO RESISTIVITY LOG/DPHISS1ED] [DCOR1ED*1000]
DCORWS   .G/C3  : DENSITY CORRECTION [DCORED SPL.TO CORRED @ 5900']
DENWS    .G/C3  : FORMATION BULK DENSITY [CALC. FROM DPOLSWS M=2.71,F=1.00]
DPHILSED .V/V   : DENSITY POROSITY LIMESTONE [M=2.71,F=1.0] FROM CDL-CNL LOG [AJ. TO RESISTIVITY LOG]
DPHISS1ED.V/V   : DENSITY POROSITY SANDSTONE [M=2.65,F=1.0] FROM CNFD LOG [AJ. TO RESISTIVITY LOG]
DPHISSED .V/V   : DENSITY POROSITY SANDSTONE [M=2.65,F=1.0] FROM CDL-CNL LOG [AJ. TO RESISTIVITY LOG]
DPOLSWS  .V/V   : DENSITY POROSITY LIMESTONE [DPHISS1ED CONVERTED TO LIMESTONE MATRIX, M=2.71,F=1.00, SPL. TO DPHILSED @ 5604']
DRESWS   .OHMM  : DEEP RESISTIVITY [ILDED]
GRD1ED   .GAPI  : GAMMA RAY FROM CNFD LOG [AJ. TO RESISTIVITY LOG]
GRDED    .GAPI  : GAMMA RAY FROM CDL-CNL LOG [AJ. TO RESISTIVITY LOG]
GRWS     .GAPI  : GAMMA RAY [GRD1ED SPL. TO GRDED @ 5873']
ILDED    .OHMM  : DEEP INDUCTION FROM RESISTIVITY LOG
ILMED    .OHMM  : MEDIUM INDUCTION FROM RESISTIVITY LOG
MRESWS   .OHMM  : MEDIUM RESISTIVITY [ILMED]
NPHILSED .V/V   : NEUTRON POROSITY LIMESTONE FROM CDL-CNL LOG [AJ. TO RESISTIVITY LOG]
NPHISS1ED.V/V   : NEUTRON POROSITY SANDSTONE FROM CNFD LOG [AJ. TO RESISTIVITY LOG]
NPHISSED .V/V   : NEUTRON POROSITY SANDSTONE FROM CDL-CNL LOG [AJ. TO RESISTIVITY LOG]
NPOLSWS  .V/V   : NEUTRON POROSITY LIMESTONE [NPHISSED MATRIX CONVERSION FOR LIMESTONE FROM SCHLUMBERGER (CNL), SPL. TO NPHILSED @ 5604']
RHOB1ED  .G/C3  : BULK DENSITY FROM CNFD LOG [ADJ. TO RESISTIVITY LOG/DPHISS1ED]
RHOBED   .G/C3  : BULK DENSITY FROM CDL-CNL LOG [ADJ. TO RESISTIVITY LOG/DPHILSED/DPHISSED]
SFLED    .OHMM  : SPHERICALLY FOCUSED FROM RESISTIVITY LOG
SPRED    .MV    : SPONTANEOUS POTENTIAL FROM RESISTIVITY LOG
SPWS     .MV    : SPONTANEOUS POTENTIAL [BASELINE 0 MV, SPRED]
SRESWS   .OHMM  : SHALLOW RESISTIVITY [SFLED]
~Params ----------------------------------------------------
PD  .                     GL : PERMANENT DATUM
EPD .FT               3435.5 : ELEVATION PERMANENT DATUM
LMF .                     KB : LOG MEASURED FROM
DAPD.FT                 15.5 : FEET ABOVE PERMANENT DATUM
DMF .                     KB : DRILLING MEASURED FROM
EKB .FT                 3451 : KELLY BUSHING
EGL .FT               3435.5 : GROUND LEVEL
DATE.               06/19/78 : RUN DATE
RUN .                      1 : RUN NUMBER
DD  .FT                 9683 : DEPTH DRILLER
DL  .FT                 9684 : DEPTH LOGGER
BLI .FT                 9681 : BOTTOM LOG INTERVAL
TLI .FT                 1517 : TOP LOG INTERVAL
CS  .IN                8.625 : CASING SIZE
CBD .FT                 1517 : CASING BOTTOM DRILLER
CBL .FT                 1517 : CASING BOTTOM LOGGER
BS  .IN                7.875 : BIT SIZE
BSD .FT                 9683 : BIT SIZE AT DEPTH
DFT .               GEL CHEM : DRILLING FLUID TYPE
DFD .                    9.1 : DRILLING FLUID DENSITY
DFV .                     65 : DRILLING FLUID VISCOSITY
DFPH.                      9 : DRILLING FLUID PH
DFL .                     11 : DRILLING FLUID LOSS
MSS .                   CIRC : MUD SAMPLE SOURCE
RMS .OHMM                  3 : RESISTIVITY MUD SAMPLE
MST .DEGF                 76 : MUD SAMPLE TEMPERATURE
RMF .OHMM                2.8 : RESISTIVITY MUD FILTRATE SAMPLE
MFST.DEGF                 72 : MUD FILTRATE SAMPLE TEMPERATURE
RMC .OHMM                2.5 : RESISTIVITY MUD CAKE
MCST.DEGF                 72 : MUD CAKE SAMPLE TEMPERATURE
MFSS.                   MEAS : MUD FILTRATE SAMPLE SOURCE
MCSS.                   MEAS : MUD CAKE SAMPLE SOURCE
RMB .OHMM               1.23 : RESISTIVITY MUD AT BHT
TCS .HRS                   5 : TIME CIRCULATED STOPPED
LUN .                HL 6155 : LOGGING UNIT NUMBER
LUL .                     VV : LOGGING UNIT LOCATION
ENGI.                 GORDON : RECORDING ENGINEER
WITN.                  BROCK : WITNESSED BY
CLNT.                A2DTECH : CLIENT CODE
ORIG.            2" 5" PRINT : ORIGIN OF DATA
UWI .       100111506313W500 : UNIQUE WELL ID
DICO. A2D Technologies, Inc. : DIGITIZING COMPANY
~Other -----------------------------------------------------
DIL-CNFD-CNL-CDL LOG RUN
RHOBED,RHOB1ED,CORRED & DCORED VERIFY FROM 2" SCALE
~ASCII -----------------------------------------------------
# ...
 9000.00000    -999.25   12.62200   12.62200  184.66880    0.11050    -999.25    0.11050    1.89030    0.45040    -999.25    -999.25    0.47940    5.41510    -999.25   87.51280   87.51280    5.41510    5.81790    5.81790    0.30610    -999.25    -999.25    0.30610    -999.25    1.89030    8.36430  -48.87340  -28.43580    8.36430
 9050.00000    -999.25    8.79130    8.79130    0.68710   -0.00270    -999.25   -0.00270    2.70750    0.00140    -999.25    -999.25    0.00140 1455.32900    -999.25   13.03170   13.03170 1455.32900 1858.19960 1858.19960    0.00890    -999.25    -999.25    0.00890    -999.25    2.68240 2277.79060 -159.26830 -137.34100 2277.79060
 9100.00000    -999.25    8.42930    8.42930    5.29510    0.04010    -999.25    0.04010    2.50340    0.12080    -999.25    -999.25    0.12080  188.85390    -999.25   11.48560   11.48560  188.85390 1287.72670 1287.72670    0.01930    -999.25    -999.25    0.01930    -999.25    2.49930  689.91510 -160.26100 -136.83430  689.91510
 9150.00000    -999.25    8.05090    8.05090   85.82930    0.04690    -999.25    0.04690    2.58180    0.07500    -999.25    -999.25    0.07500   11.66330    -999.25    8.45690    8.45690   11.66330   19.24220   19.24220    0.06990    -999.25    -999.25    0.06990    -999.25    2.55830  136.96880 -182.49620 -157.57980  136.96880
 9200.00000    -999.25    7.63180    7.63180    2.02010    0.04940    -999.25    0.04940    2.65780    0.03050    -999.25    -999.25    0.03050  495.02060    -999.25    8.48150    8.48150  495.02060  723.29720  723.29720    0.00850    -999.25    -999.25    0.00850    -999.25    2.63680 1505.81150 -132.53680 -106.12090 1505.81150
 9250.00000    -999.25    7.87010    7.87010    0.58650    0.02960    -999.25    0.02960    2.73890   -0.01690    -999.25    -999.25   -0.01690 1705.00330    -999.25   11.68930   11.68930 1705.00330 1897.74380 1897.74380    0.01160    -999.25    -999.25    0.01160    -999.25    2.72280 2288.09060 -154.58160 -126.67610 2288.09060
 9300.00000    -999.25    8.21200    8.21200    0.57430    0.01590    -999.25    0.01590    2.66970    0.02360    -999.25    -999.25    0.02360 1741.12120    -999.25    5.43210    5.43210 1741.12120 1828.38010 1828.38010    0.01390    -999.25    -999.25    0.01390    -999.25    2.66500 2298.15720 -138.33850 -108.94330 2298.15720
 9350.00000    -999.25    8.16270    8.16270    0.55150    0.02670    -999.25    0.02670    2.73580   -0.01510    -999.25    -999.25   -0.01510 1813.17320    -999.25    7.62590    7.62590 1813.17320 1869.13550 1869.13550    0.01830    -999.25    -999.25    0.01830    -999.25    2.72610 2277.41990 -130.34120  -99.44650 2277.41990
 9400.00000    -999.25    8.19680    8.19680    0.52540    0.02200    -999.25    0.02200    2.67960    0.01780    -999.25    -999.25    0.01780 1903.48620    -999.25    7.69790    7.69790 1903.48620 2027.62720 2027.62720    0.01400    -999.25    -999.25    0.01400    -999.25    2.65380 2286.00770 -146.07260 -113.68830 2286.00770
 9450.00000    -999.25    8.02660    8.02660    0.53500    0.00670    -999.25    0.00670    2.66550    0.02600    -999.25    -999.25    0.02600 1869.01650    -999.25    4.88650    4.88650 1869.01650 1979.57290 1979.57290    0.00860    -999.25    -999.25    0.00860    -999.25    2.64800 2297.07930 -138.97930 -105.09550 2297.07930
 9500.00000    -999.25    8.04400    8.04400   51.30070    0.05190    -999.25    0.05190    2.67560    0.02010    -999.25    -999.25    0.02010   19.49290    -999.25  104.63290  104.63290   19.49290   23.20990   23.20990    0.10240    -999.25    -999.25    0.10240    -999.25    2.66430  384.47380  -43.09980   -7.72630  384.47380
 9550.00000    -999.25    8.57700    8.57700   58.52120    0.01380    -999.25    0.01380    2.65890    0.02990    -999.25    -999.25    0.02990   17.50850    -999.25  116.36580  116.36580   17.50850   10.34410   10.34410    0.12080    -999.25    -999.25    0.12080    -999.25    2.64290   54.28610  -62.28760  -26.41430   54.28610
 9600.00000    -999.25    8.36260    8.36260  115.41480    0.02300    -999.25    0.02300    2.73720   -0.01590    -999.25    -999.25   -0.01590    8.66440    -999.25  132.52130  132.52130    8.66440    9.42470    9.42470    0.18970    -999.25    -999.25    0.18970    -999.25    2.71250   15.41030  -43.97700   -8.10370   15.41030
 9650.00000    -999.25    8.36830    8.36830  110.38960    0.03070    -999.25    0.03070    2.67720    0.01920    -999.25    -999.25    0.01920    9.05880    -999.25  127.22470  127.22470    9.05880   10.08360   10.08360    0.13460    -999.25    -999.25    0.13460    -999.25    2.66010   11.33030  -50.16620  -14.29290   11.33030
