~Version ---------------------------------------------------
VERS.      2.0 : CWLS log ASCII Standard -VERSION 2.0
WRAP.       NO : One line per depth step
CREA. 09/25/17 : LAS Creation Date
~Well ------------------------------------------------------
STRT.FT                             850.0 : START DEPTH
STOP.FT                            9900.0 : STOP DEPTH
STEP.FT                          50.00000 : STEP LENGTH
NULL.                             -999.25 : NULL VALUE
COMP.         BLUEMOUNT RESOURCES LIMITED : COMPANY
WELL. BLUEMOUNT ET AL GOODWIN 11-31-58-13 : WELL
FLD .                                     : FIELD
LOC .                                     : LOCATION
CTRY.                              CANADA : COUNTRY
SRVC.              Schlumberger of Canada : SERVICE COMPANY
DATE.                         07-Apr-1973 : LOGDATE
PROV.                             Alberta : PROVINCE
UWI .                    100113105813W500 : UNIQUE WELL ID
SLAT.WGS84                       54.06009 : SURFACE LATITUDE
SLON.WGS84                      -115.9256 : SURFACE LONGITUDE
~Curve Information -----------------------------------------
DEPT    .FT    : Depth Curve
CALDED  .IN    : CALIPER FROM DENSITY LOG [ADJ.TO RESISTIVITY LOG]
CALSED  .IN    : CALIPER FROM SONIC LOG [ADJ.TO RESISTIVITY LOG]
CALWS   .IN    : CALIPER [CALSED SPL.TO CALDED @ 2963.5'-9832']
CILDED  .MMHO  : CONDUCTIVITY FROM RESISTIVITY LOG
CONDWS  .MMHO  : CONDUCTIVITY [1000/DRESWS]
DCORWS  .G/C3  : DENSITY CORRECTION [DRHOED]
DENWS   .G/C3  : FORMATION BULK DENSITY [CALC. FROM DPHILSED, M=2.71, F=1.00, SPL.TO RHOBED @ 7938']
DPHILSED.V/V   : DENSITY POROSITY LIMESTONE [M=2.71, F=1.00] FROM DENSITY LOG [ADJ.TO RESISTIVITY LOG]
DPOLSWS .V/V   : DENSITY POROSITY LIMESTONE [CALC. FROM DENWS, M=2.71, F=1.00]
DRESWS  .OHMM  : DEEP RESISTIVITY [1000/CILDED IF ILDED <=2, ILDED, SPL.TO ILDED @ 3000']
DRHOED  .G/C3  : DENSITY CORRECTION FROM DENSITY LOG [ADJ.TO RESISTIVITY LOG]
DTED    .US/F  : DELTA TIME FROM SONIC LOG [ADJ.TO RESISTIVITY LOG]
DTWS    .US/F  : COMPRESSIONAL SONIC [DTED]
GRDED   .GAPI  : GAMMA RAY FROM DENSITY LOG [ADJ.TO RESISTIVITY LOG]
GRSED   .GAPI  : GAMMA RAY FROM SONIC LOG [ADJ.TO RESISTIVITY LOG]
GRWS    .GAPI  : GAMMA RAY [GRSED SPL.TO GRDED @ 2966.5']
ILDED   .OHMM  : DEEP INDUCTION FROM RESISTIVITY LOG
ILMED   .OHMM  : MEDIUM INDUCTION FROM RESISTIVITY LOG
LL8ED   .OHMM  : LATEROLOG 8 FROM RESISTIVITY LOG
MRESWS  .OHMM  : MEDIUM RESISTIVITY [ILMED]
NPHILSED.V/V   : NEUTRON POROSITY LIMESTONE FROM DENSITY LOG [ADJ.TO RESISTIVITY LOG]
NPOLSWS .V/V   : NEUTRON POROSITY LIMESTONE [NPHILSED]
RHOBED  .G/C3  : BULK DENSITY FROM DENSITY LOG [ADJ.TO RESISTIVITY LOG]
SPRED   .MV    : SPONTANEOUS POTENTIAL FROM RESISTIVITY LOG
SPWS    .MV    : SPONTANEOUS POTENTIAL [BASELINE 0 MV, SPRED]
SRESWS  .OHMM  : SHALLOW RESISTIVITY [LL8ED]
~Params ----------------------------------------------------
PD  .                     GL : PERMANENT DATUM
EPD .FT                 3069 : ELEVATION PERMANENT DATUM
LMF .                     KB : LOG MEASURED FROM
DAPD.FT                   17 : FEET ABOVE PERMANENT DATUM
EKB .FT                 3087 : KELLY BUSHING
EGL .FT                 3069 : GROUND LEVEL
DATE.               04/07/73 : RUN DATE
RUN .                      1 : RUN NUMBER
DD  .FT                 9938 : DEPTH DRILLER
DL  .FT                 9940 : DEPTH LOGGER
BLI .FT                 9935 : BOTTOM LOG INTERVAL
TLI .FT                 1025 : TOP LOG INTERVAL
CBD .FT                 1025 : CASING BOTTOM DRILLER
CBL .FT                 1030 : CASING BOTTOM LOGGER
BS  .IN                 8.75 : BIT SIZE
BSD .FT                 9938 : BIT SIZE AT DEPTH
DFT .               GEL CHEM : DRILLING FLUID TYPE
DFD .                    9.5 : DRILLING FLUID DENSITY
DFV .                     92 : DRILLING FLUID VISCOSITY
DFPH.                      9 : DRILLING FLUID PH
DFL .                     10 : DRILLING FLUID LOSS
MSS .             CALCULATED : MUD SAMPLE SOURCE
TCS .HRS                   5 : TIME CIRCULATED STOPPED
LUN .                   7667 : LOGGING UNIT NUMBER
LUL .                    EDM : LOGGING UNIT LOCATION
ENGI.                  LEWIS : RECORDING ENGINEER
WITN.              TUDDENHAM : WITNESSED BY
CLNT.                A2DTECH : CLIENT CODE
ORIG.            2" 5" PRINT : ORIGIN OF DATA
UWI .       100113105813W500 : UNIQUE WELL ID
DICO. A2D Technologies, Inc. : DIGITIZING COMPANY
~Other -----------------------------------------------------
DI-LL-FDC-CNL-SONIC LOG RUN.
SPRED CILDED,ILDED,LL8ED DIG IN 2" SCALE @ TOP TO 3000'
~ASCII -----------------------------------------------------
# ...
 3550.00000   10.29970    8.96370   10.29970    -999.25  217.91670    0.14980    2.57830    0.07700    0.07700    4.58890    0.14980  111.30560  111.30560   64.37180   72.31820   64.37180    4.58890    4.78120    5.04780    4.78120    0.34890    0.34890    2.57160 -208.65710   -5.21230    5.04780
 3600.00000    7.48600    7.55800    7.48600    -999.25  156.04520    0.22390    2.34970    0.21070    0.21070    6.40840    0.22390  108.52370  108.52370   63.14120   65.01910   63.14120    6.40840    6.58280    7.69310    6.58280    0.40430    0.40430    2.35160 -209.61640   -6.17160    7.69310
 3650.00000    8.99630    7.79500    8.99630    -999.25  178.25990    0.31190    2.34580    0.21300    0.21300    5.61060    0.31190  108.62880  108.62880   66.46630   70.71220   66.46630    5.61060    5.77360    6.67290    5.77360    0.30740    0.30740    2.33240 -211.34150   -7.89670    6.67290
 3700.00000    8.80810    8.21250    8.80810    -999.25  167.59680    0.26590    2.16640    0.31790    0.31790    5.96670    0.26590  126.74020  126.74020   84.02820   89.35820   84.02820    5.96670    6.17540    6.57230    6.17540    0.45240    0.45240    2.16790 -209.19950   -5.85090    6.57230
 3750.00000    9.44870    8.30180    9.44870    -999.25  133.83840    0.25180    2.33650    0.21840    0.21840    7.47170    0.25180  105.87550  105.87550   72.06380   87.99640   72.06380    7.47170    7.99990    8.47130    7.99990    0.33310    0.33310    2.34440 -209.83500   -6.60830    8.47130
 3800.00000   10.44320    8.75180   10.44320    -999.25  147.04430    0.29210    2.18710    0.30580    0.30580    6.80070    0.29210  107.91600  107.91600   89.09170   99.60170   89.09170    6.80070    7.04060    7.24010    7.04060    0.37840    0.37840    2.18700 -210.21150   -7.10600    7.24010
 3850.00000   10.58310    8.84140   10.58310    -999.25  160.93210    0.26820    2.16810    0.31690    0.31690    6.21380    0.26820  115.33780  115.33780   91.07340  108.70630   91.07340    6.21380    6.43050    6.75580    6.43050    0.40360    0.40360    2.17390 -209.34870   -6.36560    6.75580
 3900.00000   10.27450    8.48840   10.27450    -999.25  153.51900    0.31660    2.18200    0.30880    0.30880    6.51380    0.31660  115.24770  115.24770   94.43650  106.80030   94.43650    6.51380    6.74110    7.74970    6.74110    0.40000    0.40000    2.18360 -208.38210   -5.52020    7.74970
 3950.00000    9.89560    8.13980    9.89560    -999.25  112.24730    0.24450    2.47710    0.13620    0.13620    8.90890    0.24450  109.74170  109.74170  101.17320  115.96700  101.17320    8.90890    9.30210   10.04660    9.30210    0.30960    0.30960    2.47610 -207.43190   -4.69250   10.04660
 4000.00000   10.28940    8.53840   10.28940    -999.25  147.15190    0.32790    2.32510    0.22510    0.22510    6.79570    0.32790  114.46440  114.46440   96.08160  108.48930   96.08160    6.79570    7.03660    8.20360    7.03660    0.35930    0.35930    2.32650 -209.11820   -6.50060    8.20360
 4050.00000   10.64530    8.53080   10.64530    -999.25  132.43720    0.31660    2.30320    0.23790    0.23790    7.55080    0.31660  107.34760  107.34760   93.77470  101.20810   93.77470    7.55080    7.81560    8.24750    7.81560    0.31730    0.31730    2.30460 -209.84900   -7.35250    8.24750
 4100.00000   10.59090    8.35750   10.59090    -999.25  152.89350    0.24090    2.12310    0.34320    0.34320    6.54050    0.24090  105.59670  105.59670   84.65550   94.59810   84.65550    6.54050    6.87740    7.14430    6.87740    0.35960    0.35960    2.12300 -208.38020   -6.00620    7.14430
 4150.00000   10.23390    8.64390   10.23390    -999.25  160.92710    0.26960    2.16960    0.31600    0.31600    6.21440    0.26960  108.58030  108.58030   85.82810  104.25620   85.82810    6.21440    6.44460    6.82790    6.44460    0.37720    0.37720    2.17110 -209.48060   -7.22780    6.82790
 4200.00000    9.75710    8.08120    9.75710    -999.25  147.09560    0.32060    2.31020    0.23380    0.23380    6.79830    0.32060  104.28480  104.28480   92.49180  109.35970   92.49180    6.79830    7.36290    8.10930    7.36290    0.27110    0.27110    2.32470 -210.57380   -8.44350    8.10930
 4250.00000    9.96210    8.36840    9.96210    -999.25  139.82100    0.30990    2.31740    0.22960    0.22960    7.15200    0.30990  107.03920  107.03920   91.28890  104.27620   91.28890    7.15200    7.81620    8.29290    7.81620    0.36240    0.36240    2.32010 -211.60320   -9.59470    8.29290
 4300.00000   10.03440    8.65290   10.03440    -999.25  164.33200    0.26710    2.42890    0.16440    0.16440    6.08530    0.26710  105.02570  105.02570   90.90780   99.26560   90.90780    6.08530    6.29790    6.54970    6.29790    0.38270    0.38270    2.42910 -210.50200   -8.61470    6.54970
 4350.00000    9.75440    8.51440    9.75440    -999.25  150.22010    0.25310    2.19020    0.30400    0.30400    6.65690    0.25310  107.98610  107.98610   89.85040   93.38510   89.85040    6.65690    6.90270    7.10720    6.90270    0.40060    0.40060    2.18010 -211.06150   -9.29660    7.10720
 4400.00000   10.74020    8.77220   10.74020    -999.25  156.86890    0.31040    2.23440    0.27810    0.27810    6.37480    0.31040  107.42780  107.42780   96.96660   98.75080   96.96660    6.37480    6.59930    6.77020    6.59930    0.33590    0.33590    2.24000 -215.80820  -14.16460    6.77020
 4450.00000    8.76470    7.86750    8.76470    -999.25   95.18370    0.20800    2.53280    0.10360    0.10360   10.50600    0.20800   97.42970   97.42970   85.34570   88.05560   85.34570   10.50600   10.88500   11.79970   10.88500    0.19530    0.19530    2.52830 -214.12040  -12.59920   11.79970
 4500.00000    9.55270    8.34940    9.55270    -999.25  133.63450    0.29720    2.31640    0.23020    0.23020    7.48310    0.29720  105.49990  105.49990  101.55960  101.25380  101.55960    7.48310    7.79570    8.13050    7.79570    0.31150    0.31150    2.31390 -215.97230  -14.57290    8.13050
 4550.00000    9.89940    8.08920    9.89940    -999.25  137.91980    0.31050    2.29960    0.24000    0.24000    7.25160    0.31050  103.64100  103.64100   87.85110  104.71030   87.85110    7.25160    7.53550    7.86660    7.53550    0.32460    0.32460    2.27750 -210.72510   -9.44690    7.86660
 4600.00000    9.12010    8.00680    9.12010    -999.25  138.28010    0.28490    2.16180    0.32060    0.32060    7.23170    0.28490  100.98700  100.98700   94.36990   97.10450   94.36990    7.23170    7.48600    8.27570    7.48600    0.28540    0.28540    2.15720 -208.34670   -7.19100    8.27570
 4650.00000    9.37700    8.19020    9.37700    -999.25  164.41160    0.30460    2.23920    0.27530    0.27530    6.08230    0.30460  107.61030  107.61030  100.92350  109.98010  100.92350    6.08230    6.29520    7.08710    6.29520    0.30750    0.30750    2.23260 -207.12820   -6.09370    7.08710
 4700.00000    9.90290    8.65420    9.90290    -999.25  172.55060    0.26250    2.12860    0.34000    0.34000    5.79540    0.26250  113.89400  113.89400   92.48790   98.62240   92.48790    5.79540    5.99920    7.02600    5.99920    0.38240    0.38240    2.12140 -208.43610   -7.52400    7.02600
 4750.00000    8.89750    7.81050    8.89750    -999.25  104.12980    0.32590    2.48090    0.13400    0.13400    9.60340    0.32590  111.35880  111.35880  118.72720  123.49690  118.72720    9.60340   10.44810   11.06530   10.44810    0.31490    0.31490    2.47850 -204.77660   -3.98630   11.06530
 4800.00000   10.02250    8.01150   10.02250    -999.25  138.50870    0.31810    2.40250    0.17980    0.17980    7.21980    0.31810  111.77660  111.77660  106.67520  112.71240  106.67520    7.21980    7.66910    8.82100    7.66910    0.40720    0.40720    2.40030 -204.35260   -3.68350    8.82100
 4850.00000    9.17680    8.16910    9.17680    -999.25  129.20230    0.30660    2.36220    0.20340    0.20340    7.73980    0.30660  113.51460  113.51460  109.15820  115.91270  109.15820    7.73980    8.85190    9.83110    8.85190    0.35860    0.35860    2.36260 -205.97940   -5.43280    9.83110
