~Version ---------------------------------------------------
VERS.      2.0 : CWLS log ASCII Standard -VERSION 2.0
WRAP.       NO : One line per depth step
CREA. 09/23/14 : LAS Creation Date
~Well ------------------------------------------------------
STRT.M                      450.0 : START DEPTH
STOP.M                     5050.0 : STOP DEPTH
STEP.M                   50.00000 : STEP LENGTH
NULL.                     -999.25 : NULL VALUE
COMP. SHELL CANADA RESOURCES LTD. : COMPANY
WELL.   SHELL STOLBERG 8-23-43-16 : WELL
FLD .                             : FIELD
LOC .                             : LOCATION
CTRY.                      CANADA : COUNTRY
SRVC.                Schlumberger : SERVICE COMPANY
DATE.                 31-Dec-1980 : LOGDATE
PROV.                     Alberta : PROVINCE
UWI .            100082304316W500 : UNIQUE WELL ID
SLAT.WGS84               52.72038 : SURFACE LATITUDE
SLON.WGS84              -116.2025 : SURFACE LONGITUDE
~Curve Information -----------------------------------------
DEPT     .M      : DEPTH METER
CALDED   .MM     : CALIPER FROM DENSITY LOG [ADJ. TO DILSFL LOG]
CALDRED  .MM     : CALIPER FROM DENSITY LOG ( REPEAT SECTION) [ADJ. TO DILSFL LOG]
CALSED   .MM     : CALIPER FROM SONIC LOG [ADJ. TO DILSFL LOG]
CALWS    .MM     : CALIPER [CALSED SPL. TO CALDED FROM (3800.6M-3811.2M)]
CILDED   .MMHO   : CONDUCTIVITY FROM DILSFL LOG
CONDWS   .MMHO   : CONDUCTIVITY [1000/DRESWS]
DCORED   .KG/M3  : DENSITY CORRECTION FROM DENSITY LOG [ADJ. TO DILSFL LOG]
DCORWS   .KG/M3  : DENSITY CORRECTION [DCORED]
DENWS    .KG/M3  : FORMATION BULK DENSITY [RHOBED SPL. TO CALC. DPHILSRED (F=2710, F=1000) FROM (3832 M - 3842.7 M)]
DPHILSED .V/V    : DENSITY POROSITY LIMESTONE [M=2710, F=1000] FROM DENSITY LOG [ADJ. TO DILSFL LOG]
DPHILSRED.V/V    : DENSITY POROSITY LIMESTONE [M=2710, F=1000] FROM DENSITY LOG ( REPEAT SECTION) [ADJ. TO DILSFL LOG]
DPHISSED .V/V    : DENSITY POROSITY SANDSTONE [M=2650, F=1000] FROM DENSITY LOG [ADJ. TO DILSFL LOG]
DPOLSWS  .V/V    : DENSITY POROSITY LIMESTONE [CALC. FROM DENWS, M=2710, F=1000]
DRESWS   .OHMM   : DEEP RESISTIVITY [ILDED SPL. TO ILDRED FROM (3833 M - 3854 M) & SPL. TO {1000/CILDED IF ILDED <1, ILDED  FROM (5018M TO FR )}]
DTED     .US/M   : DELTA-T FROM SONIC LOG [ADJ. TO DILSFL LOG]
DTWS     .US/M   : COMPRESSIONAL SONIC [DTED]
GRDED    .GAPI   : GAMMA RAY FROM DENSITY LOG [ADJ. TO DILSFL LOG]
GRDRED   .GAPI   : GAMMA RAY FROM DENSITY LOG ( REPEAT SECTION) [ADJ. TO DILSFL LOG]
GRR1ED   .GAPI   : GAMMA RAY FROM DLL LOG [ADJ. TO DILSFL LOG]
GRRED    .GAPI   : GAMMA RAY FROM DILSFL LOG
GRRRED   .GAPI   : GAMMA RAY FROM DILSFL LOG ( REPEAT SECTION) [ADJ. TO GRRED]
GRSED    .GAPI   : GAMMA RAY FROM SONIC LOG [ADJ. TO DILSFL LOG]
GRWS     .GAPI   : GAMMA RAY [GRSED SPL. TO GRDED (3790.5 M - 3809.5 M) & SPL. TO GRR1ED FROM (4607 M - 4620 M)]
ILDED    .OHMM   : DEEP INDUCTION RESISTIVITY FROM DILSFL LOG
ILDRED   .OHMM   : DEEP INDUCTION RESISTIVITY FROM DILSFL LOG ( REPEAT SECTION) [ADJ. TO ILDED]
ILMED    .OHMM   : MEDIUM INDUCTION RESISTIVITY FROM DILSFL LOG
ILMRED   .OHMM   : MEDIUM INDUCTION RESISTIVITY FROM DILSFL LOG( REPEAT SECTION) [ADJ. TO ILMED]
LLDED    .OHMM   : DEEP LATEROLOG RESISTIVITY FROM DLL LOG [ADJ. TO DILSFL LOG]
LLSED    .OHMM   : SHALLOW LATEROLOG RESISTIVITY FROM DLL LOG [ADJ. TO DILSFL LOG]
MRESWS   .OHMM   : MEDIUM RESISTIVITY [ILMED SPL. TO ILMRED FROM (3837 M - 3852 M)]
NPHILSED .V/V    : NEUTRON POROSITY LIMESTONE FROM DENSITY LOG [ADJ. TO DILSFL LOG]
NPHILSRED.V/V    : NEUTRON POROSITY LIMESTONE FROM DENSITY LOG ( REPEAT SECTION) [ADJ. TO DILSFL LOG]
NPHISSED .V/V    : NEUTRON POROSITY SANDSTONE FROM DENSITY LOG [ADJ. TO DILSFL LOG]
NPOLSWS  .V/V    : NEUTRON POROSITY LIMESTONE [NPHISSED CONVERTED INTO LIMESTONE MATRIX & SPL. TO NPHILSED @ 3600 M & SPL. TO NPHILSRED@ (3818 M - 3849 M)]
RHOBED   .KG/M3  : BULK DENSITY FROM DENSITY LOG [ADJ. TO DILSFL LOG]
SFLED    .OHMM   : SPHERICALLY FOCUSED RESISTIVITY FROM DILSFL LOG
SFLRED   .OHMM   : SPHERICALLY FOCUSED RESISTIVITY FROM DILSFL LOG ( REPEAT SECTION) [ADJ. TO SFLED]
SRESWS   .OHMM   : SHALLOW RESISTIVITY [SFLED SPL. TO SFLRED FROM (3833 M - 3852 M)]
~Params ----------------------------------------------------
PD  .                         GL : PERMANENT DATUM
EPD .M                      1268 : ELEVATION PERMANENT DATUM
LMF .                         KB : LOG MEASURED FROM
DAPD.M                        10 : FEET ABOVE PERMANENT DATUM
DMF .                         KB : DRILLING MEASURED FROM
EKB .M                      1278 : KELLY BUSHING
EGL .M                      1268 : GROUND LEVEL
DATE.                   12/31/80 : RUN DATE
RUN .                          3 : RUN NUMBER
DD  .M                    5075.6 : DEPTH DRILLER
DL  .M                      5070 : DEPTH LOGGER
BLI .M                      5068 : BOTTOM LOG INTERVAL
TLI .M                      3810 : TOP LOG INTERVAL
CS  .MM                      340 : CASING SIZE
CBD .M                      3810 : CASING BOTTOM DRILLER
CBL .M                      3810 : CASING BOTTOM LOGGER
BS  .MM                      215 : BIT SIZE
BSD .M                    5075.6 : BIT SIZE AT DEPTH
DFT .                 GEL BARITE : DRILLING FLUID TYPE
DFD .                       1250 : DRILLING FLUID DENSITY
DFV .                        133 : DRILLING FLUID VISCOSITY
DFPH.                       10.5 : DRILLING FLUID PH
DFL .                          9 : DRILLING FLUID LOSS
MSS .                   FLOWLINE : MUD SAMPLE SOURCE
RMS .OHMM                    0.8 : RESISTIVITY MUD SAMPLE
MST .DEGC                   24.4 : MUD SAMPLE TEMPERATURE
MFSS.               FILTER PRESS : MUD FILTRATE SAMPLE SOURCE
MCSS.               FILTER PRESS : MUD CAKE SAMPLE SOURCE
RMB .OHMM                   0.21 : RESISTIVITY MUD AT BHT
TCS .HRS                     930 : TIME CIRCULATED STOPPED
TLAB.HRS                     400 : TIME LOGGER AT BOTTOM
LUN .                       8063 : LOGGING UNIT NUMBER
LUL .                         RD : LOGGING UNIT LOCATION
ENGI.                JASTRZEBSKI : RECORDING ENGINEER
WITN.                        WAY : WITNESSED BY
CLNT.                    A2DTECH : CLIENT CODE
ORIG. 6.5"/100M 16.5"/100M PRINT : ORIGIN OF DATA
UWI .           100082304316W500 : UNIQUE WELL ID
DICO.     A2D Technologies, Inc. : DIGITIZING COMPANY
~Other -----------------------------------------------------
CNFD-DILSFL-DLL-BCS LOG RUN
RUN#2 : BCS-GR-DILSFL LOG RUN IM COMBOINATION
CNL RUN ONLY FROM 3761 M TO T.D
~ASCII -----------------------------------------------------
# ...
 2350.00000  336.19170    -999.25  323.19640  323.19640    -999.25   43.58840  -19.82690  -19.82690 2615.75880    -999.25    -999.25    0.02400    0.05510   22.94190  213.17800  213.17800   63.74400    -999.25    -999.25   46.87810    -999.25   44.68850   44.68850   22.94190    -999.25   24.70800    -999.25    -999.25    -999.25   24.70800    -999.25    -999.25    -999.25    -999.25 2615.75880    -999.25    -999.25    -999.25
 2400.00000  333.07050    -999.25  315.71300  315.71300    -999.25   20.39930  -14.40550  -14.40550 2611.82760    -999.25    -999.25    0.02380    0.05740   49.02120  206.53210  206.53210   30.47500    -999.25    -999.25   24.70450    -999.25   30.32950   30.32950   49.02120    -999.25   54.81400    -999.25    -999.25    -999.25   54.81400    -999.25    -999.25    -999.25    -999.25 2611.82760    -999.25    -999.25    -999.25
 2450.00000  338.57200    -999.25  319.42540  319.42540    -999.25   52.28480   -3.87370   -3.87370 2626.71170    -999.25    -999.25    0.01450    0.04870   19.12600  238.40450  238.40450   89.91640    -999.25    -999.25   70.92280    -999.25   71.68830   71.68830   19.12600    -999.25   21.15650    -999.25    -999.25    -999.25   21.15650    -999.25    -999.25    -999.25    -999.25 2626.71170    -999.25    -999.25    -999.25
 2500.00000  334.87980    -999.25  318.20260  318.20260    -999.25   46.17420   -8.10840   -8.10840 2701.77440    -999.25    -999.25   -0.03550    0.00480   21.65710  225.80440  225.80440   81.73300    -999.25    -999.25   63.98790    -999.25   65.35200   65.35200   21.65710    -999.25   23.00610    -999.25    -999.25    -999.25   23.00610    -999.25    -999.25    -999.25    -999.25 2701.77440    -999.25    -999.25    -999.25
 2550.00000  338.47990    -999.25  317.50500  317.50500    -999.25   59.51000  -24.51940  -24.51940 2657.23000    -999.25    -999.25   -0.00330    0.03090   16.80390  248.56600  248.56600  108.36120    -999.25    -999.25   75.96920    -999.25   87.31720   87.31720   16.80390    -999.25   18.08470    -999.25    -999.25    -999.25   18.08470    -999.25    -999.25    -999.25    -999.25 2657.23000    -999.25    -999.25    -999.25
 2600.00000  334.35890    -999.25  317.99130  317.99130    -999.25   48.60860  -26.38350  -26.38350 2681.12350    -999.25    -999.25   -0.01870    0.01690   20.57250  239.52910  239.52910   98.65520    -999.25    -999.25   66.85340    -999.25   71.25650   71.25650   20.57250    -999.25   22.34330    -999.25    -999.25    -999.25   22.34330    -999.25    -999.25    -999.25    -999.25 2681.12350    -999.25    -999.25    -999.25
 2650.00000  336.77220    -999.25  314.83130  314.83130    -999.25  119.51720  -22.01980  -22.01980 2640.91650    -999.25    -999.25    0.00610    0.04040    8.36700  260.53780  260.53780  107.35640    -999.25    -999.25   77.05620    -999.25   91.27530   91.27530    8.36700    -999.25    8.81760    -999.25    -999.25    -999.25    8.81760    -999.25    -999.25    -999.25    -999.25 2640.91650    -999.25    -999.25    -999.25
 2700.00000  327.35670    -999.25  312.28710  312.28710    -999.25   91.21010  -11.83930  -11.83930 2621.27420    -999.25    -999.25    0.01840    0.05190   10.96370  240.27680  240.27680   98.81980    -999.25    -999.25   67.55070    -999.25   75.91480   75.91480   10.96370    -999.25   11.64310    -999.25    -999.25    -999.25   11.64310    -999.25    -999.25    -999.25    -999.25 2621.27420    -999.25    -999.25    -999.25
 2750.00000  337.52420    -999.25  316.68380  316.68380    -999.25   70.18280  -19.73210  -19.73210 2651.21240    -999.25    -999.25    0.00270    0.03440   14.24850  230.32360  230.32360   88.47330    -999.25    -999.25   66.28450    -999.25   70.62110   70.62110   14.24850    -999.25   15.13220    -999.25    -999.25    -999.25   15.13220    -999.25    -999.25    -999.25    -999.25 2651.21240    -999.25    -999.25    -999.25
 2800.00000  226.39750    -999.25  226.21580  226.21580    -999.25   94.20190  -18.01970  -18.01970 2646.65620    -999.25    -999.25    0.00300    0.03700   10.61550  243.07230  243.07230  115.16060    -999.25    -999.25   95.95760    -999.25  101.20860  101.20860   10.61550    -999.25   11.06090    -999.25    -999.25    -999.25   11.06090    -999.25    -999.25    0.23680    0.19300 2646.65620    -999.25    -999.25    -999.25
 2850.00000  226.20800    -999.25  223.54550  223.54550    -999.25   56.28350   -8.56730   -8.56730 2635.58400    -999.25    -999.25    0.00850    0.04350   17.76720  226.06550  226.06550  100.01450    -999.25    -999.25   81.29020    -999.25   89.59620   89.59620   17.76720    -999.25   19.07190    -999.25    -999.25    -999.25   19.07190    -999.25    -999.25    0.18650    0.14330 2635.58400    -999.25    -999.25    -999.25
 2900.00000  260.34820    -999.25  226.41440  226.41440    -999.25   18.81910  -13.25120  -13.25120 2512.82150    -999.25    -999.25    0.08320    0.11530   53.13760  216.75090  216.75090   30.89750    -999.25    -999.25   23.53810    -999.25   24.02770   24.02770   53.13760    -999.25   56.79150    -999.25    -999.25    -999.25   56.79150    -999.25    -999.25    0.07080    0.03270 2512.82150    -999.25    -999.25    -999.25
 2950.00000  332.22600    -999.25  323.86320  323.86320    -999.25   80.75390    4.79910    4.79910 2663.20000    -999.25    -999.25   -0.00380    0.02740   12.38330  244.06610  244.06610   99.60350    -999.25    -999.25   79.09720    -999.25   79.47850   79.47850   12.38330    -999.25   12.76250    -999.25    -999.25    -999.25   12.76250    -999.25    -999.25    -999.25    -999.25 2663.20000    -999.25    -999.25    -999.25
 3000.00000  357.24150    -999.25  340.95020  340.95020    -999.25   96.59600   20.82790   20.82790 2643.18550    -999.25    -999.25    0.00160    0.03910   10.35240  267.58040  267.58040  116.19790    -999.25    -999.25   86.54100    -999.25   86.21200   86.21200   10.35240    -999.25   11.20260    -999.25    -999.25    -999.25   11.20260    -999.25    -999.25    -999.25    -999.25 2643.18550    -999.25    -999.25    -999.25
 3050.00000  322.77190    -999.25  322.08090  322.08090    -999.25  117.65670   -4.18340   -4.18340 2627.74830    -999.25    -999.25    0.01400    0.04810    8.49930  274.20390  274.20390  104.02350    -999.25    -999.25   87.50790    -999.25   87.44860   87.44860    8.49930    -999.25    8.78120    -999.25    -999.25    -999.25    8.78120    -999.25    -999.25    -999.25    -999.25 2627.74830    -999.25    -999.25    -999.25
 3100.00000  321.50420    -999.25  320.77110  320.77110    -999.25   53.49740   11.45690   11.45690 2642.01250    -999.25    -999.25    0.00700    0.03980   18.69250  276.44970  276.44970  104.79480    -999.25    -999.25   86.03570    -999.25   85.81460   85.81460   18.69250    -999.25   24.16040    -999.25    -999.25    -999.25   24.16040    -999.25    -999.25    -999.25    -999.25 2642.01250    -999.25    -999.25    -999.25
 3150.00000  323.02610    -999.25  321.55000  321.55000    -999.25   53.73600   -0.05090   -0.05090 2592.88210    -999.25    -999.25    0.03080    0.06850   18.60950  298.88520  298.88520  104.74480    -999.25    -999.25   82.78420    -999.25   82.09860   82.09860   18.60950    -999.25   22.42700    -999.25    -999.25    -999.25   22.42700    -999.25    -999.25    -999.25    -999.25 2592.88210    -999.25    -999.25    -999.25
 3200.00000  332.67560    -999.25  322.12580  322.12580    -999.25  133.32980   69.69540   69.69540 2508.75170    -999.25    -999.25    0.09510    0.11770    7.50020  261.59380  261.59380   93.09020    -999.25    -999.25   80.71240    -999.25   80.59370   80.59370    7.50020    -999.25    7.92360    -999.25    -999.25    -999.25    7.92360    -999.25    -999.25    -999.25    -999.25 2508.75170    -999.25    -999.25    -999.25
 3250.00000  406.81790    -999.25  349.81550  349.81550    -999.25  138.98730   32.84030   32.84030 2542.86380    -999.25    -999.25    0.07010    0.09770    7.19490  268.60760  268.60760   96.39370    -999.25    -999.25   77.81010    -999.25   76.72210   76.72210    7.19490    -999.25    7.72870    -999.25    -999.25    -999.25    7.72870    -999.25    -999.25    -999.25    -999.25 2542.86380    -999.25    -999.25    -999.25
