~Version ---------------------------------------------------
VERS.      2.0 : CWLS log ASCII Standard -VERSION 2.0
WRAP.       NO : One line per depth step
CREA. 09/29/17 : LAS Creation Date
~Well ------------------------------------------------------
STRT.FT                         1450.0 : START DEPTH
STOP.FT                        11100.0 : STOP DEPTH
STEP.FT                       50.00000 : STEP LENGTH
NULL.                          -999.25 : NULL VALUE
COMP. AMOCO CANADA PETROLEUM CO., LTD. : COMPANY
WELL.       AMOCO PEX TONY 10-16-64-22 : WELL
FLD .                                  : FIELD
LOC .                                  : LOCATION
CTRY.                           CANADA : COUNTRY
SRVC.           Schlumberger of Canada : SERVICE COMPANY
DATE.                      08-Apr-1978 : LOGDATE
PROV.                          Alberta : PROVINCE
UWI .                 100101606422W500 : UNIQUE WELL ID
SLAT.WGS84                    54.53914 : SURFACE LATITUDE
SLON.WGS84                   -117.2632 : SURFACE LONGITUDE
~Curve Information -----------------------------------------
DEPT    .FT    : Depth Curve
CALDED  .IN    : CALIPER FROM DENSITY LOG [ADJ. TO RESISTIVITY LOG]
CALSED  .IN    : CALIPER FROM SONIC LOG [ADJ. TO RESISTIVITY LOG]
CALWS   .IN    : CALIPER [CALDED]
CONDWS  .MMHO  : CONDUCTIVITY [1000/DRESWS]
DCORWS  .G/C3  : DENSITY CORRECTION [DRHOED]
DENWS   .G/C3  : BULK DENSITY [RHOBED]
DPHILSED.V/V   : DENSITY POROSITY LIMESTONE [M=2710,F=1000] FROM DENSITY LOG [ADJ. TO RESISTIVITY LOG]
DPHISSED.V/V   : DENSITY POROSITY SANDSTONE [M=2650,F=1000] FROM DENSITY LOG [ADJ. TO RESISTIVITY LOG]
DPOLSWS .V/V   : DENSITY POROSITY LIMESTONE [CALC. FROM DENWS,M=2710,F=1000]
DRESWS  .OHMM  : DEEP RESISTIVITY [ILDED]
DRHOED  .G/C3  : BULK DENSITY CORRECTION FROM DENSITY LOG [ADJ. TO RESISTIVITY LOG]
DTED    .US/F  : DELTA -T FROM SONIC LOG [ADJ. TO RESISTIVITY LOG]
DTWS    .US/F  : COMPRESSIONAL SONIC [DTED]
GRDED   .GAPI  : GAMMA RAY FROM DENSITY LOG [ADJ. TO RESISTIVITY LOG]
GRED    .GAPI  : GAMMA RAY FROM CBL LOG [ADJ. TO RESISTIVITY LOG]
GRSED   .GAPI  : GAMMA RAY FROM SONIC LOG [ADJ. TO RESISTIVITY LOG]
GRWS    .GAPI  : GAMMA RAY [GRED SPL. TO GRDED SPL. TO 458M]
ILDED   .OHMM  : DEEP INDUCTION RESISTIVITY FROM RESISTIVITY LOG
ILMED   .OHMM  : MEDIUM INDUCTION RESISTIVITY FROM RESISTIVITY LOG
LL8ED   .OHMM  : LATEROLOG-8 RESISTIVITY FROM RESISTIVITY LOG
MRESWS  .OHMM  : MEDIUM RESISTIVITY [ILMED]
NEUTED  .NAPI  : NEUTRON FROM CBL LOG [ADJ. TO RESISTIVITY LOG
NEUTWS  .NAPI  : NEUTRON [NEUTED]
NPHILSED.V/V   : NEUTRON POROSITY LIMESTONE FROM DENSITY LOG [ADJ. TO RESISTIVITY LOG]
NPHISSED.V/V   : NEUTRON POROSITY SANDSTONE FROM DENSITY LOG [ADJ. TO RESISTIVITY LOG]
NPOLSWS .V/V   : NEUTRON POROSITY LIMESTONE [NPHISSED CONVERTED TO LIMESTONE MATRIX,SPL. TO NPHILSED @2035M ]
RHOBED  .G/C3  : BULK DENSITYFROM DENSITY LOG [ADJ. TO RESISTIVITY LOG]
SPRED   .MV    : SPONTANEOUS POTENTIAL FROM RESISTIVITY LOG
SPWS    .MV    : SPONTANEOUS POTENTIAL [BASELINE 0 MV,SPRED]
SRESWS  .OHMM  : SHALLOW RESISTIVITY [LL8ED]
~Params ----------------------------------------------------
PD  .                     GL : PERMANENT DATUM
EPD .FT               2639.4 : ELEVATION PERMANENT DATUM
LMF .                     KB : LOG MEASURED FROM
DAPD.FT                 21.4 : FEET ABOVE PERMANENT DATUM
EKB .FT               2660.8 : KELLY BUSHING
EGL .FT               2639.4 : GROUND LEVEL
DATE.               04/08/78 : RUN DATE
RUN .                      2 : RUN NUMBER
DD  .FT                11105 : DEPTH DRILLER
DL  .FT                11103 : DEPTH LOGGER
BLI .FT                11099 : BOTTOM LOG INTERVAL
TLI .FT                 6000 : TOP LOG INTERVAL
CBD .FT                 1528 : CASING BOTTOM DRILLER
CBL .FT                 1528 : CASING BOTTOM LOGGER
BS  .IN                 8.75 : BIT SIZE
BSD .FT                11105 : BIT SIZE AT DEPTH
DFT .              GEL GELEX : DRILLING FLUID TYPE
DFD .                      9 : DRILLING FLUID DENSITY
DFV .                     92 : DRILLING FLUID VISCOSITY
DFPH.                      9 : DRILLING FLUID PH
DFL .                    9.8 : DRILLING FLUID LOSS
MSS .               FLOWLINE : MUD SAMPLE SOURCE
RMS .OHMM               1.91 : RESISTIVITY MUD SAMPLE
MST .DEGF                 52 : MUD SAMPLE TEMPERATURE
RMF .OHMM               1.45 : RESISTIVITY MUD FILTRATE SAMPLE
MFST.DEGF                 60 : MUD FILTRATE SAMPLE TEMPERATURE
TCS .HRS                 2.5 : TIME CIRCULATED STOPPED
LUN .              OSU C 244 : LOGGING UNIT NUMBER
LUL .                    EDM : LOGGING UNIT LOCATION
ENGI.                   GUNN : RECORDING ENGINEER
WITN.                   WALL : WITNESSED BY
CLNT.                A2DTECH : CLIENT CODE
ORIG.            2" 5" PRINT : ORIGIN OF DATA
UWI .       100101606422W500 : UNIQUE WELL ID
DICO. A2D Technologies, Inc. : DIGITIZING COMPANY
~Other -----------------------------------------------------
~ASCII -----------------------------------------------------
# ...
 9850.00000    8.69220    9.76180    8.69220   42.27780    0.00450    2.71620   -0.00460    -999.25   -0.00360   23.65310    0.00450   56.41080   56.41080   41.12780    -999.25   42.34530   41.12780   23.65310   25.39480   47.41350   25.39480    -999.25    -999.25    0.04290    -999.25    0.04290    2.71610  -93.57450  -12.94200   47.41350
 9900.00000    8.69920    9.78800    8.69920   44.21820    0.01680    2.71840   -0.00680    -999.25   -0.00490   22.61510    0.01680   57.06660   57.06660   38.48410    -999.25   38.29430   38.48410   22.61510   23.77920   51.46350   23.77920    -999.25    -999.25    0.05170    -999.25    0.05170    2.71830  -89.19510   -9.12820   51.46350
 9950.00000    9.84050   10.43990    9.84050  139.57710    0.20250    2.59290    0.07010    -999.25    0.06850    7.16450    0.20250   75.56880   75.56880  103.57540    -999.25   96.98120  103.57540    7.16450    7.78280   12.12940    7.78280    -999.25    -999.25    0.24270    -999.25    0.24270    2.59290  -89.45510   -9.95750   12.12940
 10000.00000    9.07670    9.99660    9.07670  167.58000    0.16700    2.69600    0.00740    -999.25    0.00820    5.96730    0.16700   67.80240   67.80240   69.93180    -999.25   69.78630   69.93180    5.96730    6.57360    8.98890    6.57360    -999.25    -999.25    0.14900    -999.25    0.14900    2.69600  -88.51410   -9.58200    8.98890
 10050.00000   10.69870   10.89020   10.69870  231.58930    0.20520    2.60190    0.06710    -999.25    0.06320    4.31800    0.20520   76.55450   76.55450  103.10520    -999.25   92.78800  103.10520    4.31800    4.90080    6.50820    4.90080    -999.25    -999.25    0.24330    -999.25    0.24330    2.60190  -86.95660   -8.59010    6.50820
 10100.00000   10.12460   10.53600   10.12460  255.38870    0.18510    2.65560    0.03160    -999.25    0.03180    3.91560    0.18510   77.48010   77.48010  105.13890    -999.25   95.56290  105.13890    3.91560    4.31490    5.85960    4.31490    -999.25    -999.25    0.23940    -999.25    0.23940    2.65560  -92.80490  -15.32030    5.85960
 10150.00000   11.62720   11.44360   11.62720  266.24070    0.26190    2.40530    0.18530    -999.25    0.17820    3.75600    0.26190   79.34940   79.34940   95.76740    -999.25   93.10060   95.76740    3.75600    4.13450    5.43120    4.13450    -999.25    -999.25    0.28770    -999.25    0.28770    2.40530 -109.24100  -33.07600    5.43120
 10200.00000    8.66100    9.78870    8.66100  119.27620    0.06490    2.72730   -0.01070    -999.25   -0.01010    8.38390    0.06490   65.36050   65.36050   78.56300    -999.25   73.65440   78.56300    8.38390    9.43800   11.92260    9.43800    -999.25    -999.25    0.15890    -999.25    0.15890    2.72730 -104.38100  -29.54440   11.92260
 10250.00000    8.76760    9.81150    8.76760  136.80450    0.06290    2.73770   -0.01520    -999.25   -0.01620    7.30970    0.06290   67.93240   67.93240   91.27350    -999.25   88.01930   91.27350    7.30970    8.14090   11.01960    8.14090    -999.25    -999.25    0.17960    -999.25    0.17960    2.73770  -98.34450  -24.82760   11.01960
 10300.00000    8.70520    9.79420    8.70520  100.47290    0.01240    2.72860   -0.01440    -999.25   -0.01090    9.96290    0.01240   64.63260   64.63260   83.00670    -999.25   80.53910   83.00670    9.96290   11.59240   15.70020   11.59240    -999.25    -999.25    0.13420    -999.25    0.13420    2.72870  -87.85200  -15.65470   15.70020
 10350.00000    8.65340    9.71680    8.65340  145.00530    0.03940    2.70380   -0.00130    -999.25    0.00360    6.89630    0.03940   68.58060   68.58060   88.67280    -999.25   87.88080   88.67280    6.89630    7.89900   10.96850    7.89900    -999.25    -999.25    0.16850    -999.25    0.16850    2.70380  -81.67810  -10.80920   10.96850
 10400.00000    8.60270    9.77340    8.60270  155.45570    0.09140    2.72490   -0.00200    -999.25   -0.00870    6.43270    0.09140   70.91570   70.91570  105.40880    -999.25   96.63010  105.40880    6.43270    7.11480   10.12610    7.11480    -999.25    -999.25    0.19750    -999.25    0.19750    2.72490  -80.78370  -11.23440   10.12610
 10450.00000    8.76560    9.73990    8.76560  175.84580    0.10550    2.74280   -0.02300    -999.25   -0.01920    5.68680    0.10550   72.24870   72.24870  105.71330    -999.25  101.90410  105.71330    5.68680    6.36240    8.92850    6.36240    -999.25    -999.25    0.19850    -999.25    0.19850    2.74290  -87.53230  -19.31140    8.92850
 10500.00000    9.47020    9.14880    9.47020  199.76030    0.17670    2.70900    0.00040    -999.25    0.00060    5.00600    0.17670   78.72040   78.72040  126.00750    -999.25  120.76600  126.00750    5.00600    5.60810    7.83970    5.60810    -999.25    -999.25    0.23470    -999.25    0.23470    2.70910  -91.58970  -24.68850    7.83970
 10550.00000    8.54660    8.82600    8.54660   24.76580    0.04400    2.57970    0.08180    -999.25    0.07620   40.48430    0.04400   74.41770   74.41770  117.05300    -999.25  104.28150  117.05300   40.48430   44.24240   69.11250   44.24240    -999.25    -999.25    0.16740    -999.25    0.16740    2.57980  -70.33820   -4.75660   69.11250
 10600.00000    8.55530    8.90120    8.55530   14.32310    0.00430    2.69340    0.00620    -999.25    0.00970   69.81720    0.00430   53.86250   53.86250   29.63920    -999.25   31.02000   29.63920   69.81720   71.50610  153.29140   71.50610    -999.25    -999.25    0.03900    -999.25    0.03900    2.69340  -70.77010  -10.70800  153.29140
 10650.00000    8.60200    9.02100    8.60200   19.40080    0.00140    2.57580    0.08700    -999.25    0.07850   51.54430    0.00140   82.93230   82.93230  114.01520    -999.25  101.73680  114.01520   51.54430   19.79310  247.32290   19.79310    -999.25    -999.25    0.21430    -999.25    0.21430    2.57580  -80.24910  -29.00150  247.32290
 10700.00000    8.49580    8.88160    8.49580   14.20710    0.01520    2.70860   -0.00090    -999.25    0.00080   70.38710    0.01520   56.11990   56.11990   43.97250    -999.25   41.51810   43.97250   70.38710   72.16210  113.52200   72.16210    -999.25    -999.25    0.06860    -999.25    0.06860    2.70870  -61.93530  -19.56010  113.52200
 10750.00000    8.59660    8.91590    8.59660   41.24710    0.03840    2.75340   -0.03170    -999.25   -0.02540   24.24410    0.03840   56.69960   56.69960   50.42530    -999.25   46.23790   50.42530   24.24410   28.96060   37.99160   28.96060    -999.25    -999.25    0.08590    -999.25    0.08590    2.75340  -37.02400   -1.14320   37.99160
 10800.00000    8.54640    8.82610    8.54640   14.62980    0.01820    2.71680   -0.00740    -999.25   -0.00400   69.59090    0.01820   51.01270   51.01270   28.69200    -999.25   25.20930   28.69200   69.59090   90.28810  708.81060   90.28810    -999.25    -999.25    0.02060    -999.25    0.02060    2.71680  -47.48450   -7.82360  708.81060
 10850.00000    8.53930    8.87020    8.53930   11.84200    0.02210    2.70560    0.00290    -999.25    0.00260   84.44500    0.02210   55.69690   55.69690   40.77300    -999.25   41.63240   40.77300   84.44500   89.65380  113.36270   89.65380    -999.25    -999.25    0.04090    -999.25    0.04090    2.70560  -49.95580   -6.48990  113.36270
 10900.00000    8.53590    8.89120    8.53590    3.63810    0.03280    2.76760   -0.04010    -999.25   -0.03370  274.87110    0.03280   52.28660   52.28660   27.81870    -999.25   29.08690   27.81870  274.87110  713.63290  529.36830  713.63290    -999.25    -999.25    0.02370    -999.25    0.02370    2.76760  -63.20990  -15.96390  529.36830
 10950.00000    8.52010    8.16620    8.52010    1.96600    0.00510    2.69680    0.00220    -999.25    0.00770  508.65190    0.00510   50.94950   50.94950   22.07090    -999.25   24.41190   22.07090  508.65190  694.88010 1246.84730  694.88010    -999.25    -999.25    0.01430    -999.25    0.01430    2.69680  -65.95250  -14.90150 1246.84730
 11000.00000    8.72260    8.28670    8.72260    2.09410    0.07340    2.72200    0.00100    -999.25   -0.00700  477.53760    0.07340   50.09260   50.09260   29.66780    -999.25   28.86690   29.66780  477.53760 1386.50900 1344.38110 1386.50900    -999.25    -999.25    0.00770    -999.25    0.00770    2.72200  -61.86110   -7.03000 1344.38110
