~Version ---------------------------------------------------
VERS.      2.0 : CWLS log ASCII Standard -VERSION 2.0
WRAP.       NO : One line per depth step
CREA. 01/05/18 : LAS Creation Date
~Well ------------------------------------------------------
STRT.FT                   1000.0 : START DEPTH
STOP.FT                   9850.0 : STOP DEPTH
STEP.FT                 50.00000 : STEP LENGTH
NULL.                    -999.25 : NULL VALUE
COMP.    TRIAD OIL COMPANY, LTD. : COMPANY
WELL. TRIAD BP KAYBOB 2-14-64-18 : WELL
FLD .                     KAYBOB : FIELD
LOC .                            : LOCATION
CTRY.                     CANADA : COUNTRY
SRVC.               Schlumberger : SERVICE COMPANY
DATE.                29-Feb-1964 : LOGDATE
PROV.                    Alberta : PROVINCE
UWI .           100021406418W500 : UNIQUE WELL ID
SLAT.WGS84              54.53307 : SURFACE LATITUDE
SLON.WGS84             -116.6057 : SURFACE LONGITUDE
~Curve Information -----------------------------------------
DEPT    .FT    : Depth Curve
CALWS   .IN    : CALIPER [MCALED]
CILDED  .MMHO  : DEEP CONDUCTIVITY INDUCTION FROM RESISTIVITY LOG
CONDWS  .MMHO  : CONDUCTIVITY [1000/DRESWS]
DRESWS  .OHMM  : DEEP RESISTIVITY [1000/CILDED, IF ILDED < 1, ILDED]
DT1ED   .US/F  : DELTA TIME FROM SONIC LOG [ADJ. TO RESISTIVITY LOG]
DTED    .US/F  : DELTA TIME FROM SONIC LOG [ADJ. TO RESISTIVITY LOG]
DTWS    .US/F  : COMPRESSIONAL SONIC [DTED]
GRDED   .GAPI  : GAMMA RAY FROM DENSITY LOG [ADJ. TO RESISTIVITY LOG]
GRED    .GAPI  : GAMMA RAY FROM SBT-CCL-SBL LOG [ADJ. TO RESISTIVITY LOG]
GRSED   .GAPI  : GAMMA RAY FROM SONIC LOG [ADJ. TO RESISTIVITY LOG]
GRWS    .GAPI  : GAMMA RAY [GRSED]
ILDED   .OHMM  : DEEP INDUCTION FROM RESISTIVITY LOG
MCALED  .IN    : MLT CALIPER FROM MICROLOG
NPORSSED.V/V   : NEUTRON POROSITY SANDSTONE FROM DENSITY LOG [ADJ. TO RESISTIVITY LOG]
NPOSSWS .V/V   : NEUTRON POROSITY SANDSTONE [NPORSSED]
SNED    .OHMM  : SHORT NORMAL 16" FROM RESISTIVITY LOG
SPRED   .MV    : SELF POTENTIAL FROM RESISTIVITY LOG
SPWS    .MV    : SELF POTENTIAL [BASELINE 0MV, SPRED]
SRESWS  .OHMM  : SHALLOW RESISTIVITY [SNED]
~Params ----------------------------------------------------
PD  .                     GL : PERMANENT DATUM
EPD .FT                 2679 : ELEVATION PERMANENT DATUM
LMF .                     KB : LOG MEASURED FROM
DAPD.FT                 12.5 : FEET ABOVE PERMANENT DATUM
EKB .FT               2691.5 : KELLY BUSHING
EGL .FT                 2679 : GROUND LEVEL
DATE.               02/29/64 : RUN DATE
RUN .                      1 : RUN NUMBER
DD  .FT                 9881 : DEPTH DRILLER
DL  .FT                 9881 : DEPTH LOGGER
BLI .FT                 9880 : BOTTOM LOG INTERVAL
TLI .FT                  988 : TOP LOG INTERVAL
CBD .FT                  990 : CASING BOTTOM DRILLER
CBL .FT                  988 : CASING BOTTOM LOGGER
BS  .IN                7.625 : BIT SIZE
BSD .FT                 9881 : BIT SIZE AT DEPTH
DFT .               GEL CHEM : DRILLING FLUID TYPE
DFD .                    9.9 : DRILLING FLUID DENSITY
DFV .                    148 : DRILLING FLUID VISCOSITY
DFPH.                     10 : DRILLING FLUID PH
DFL .                    7.8 : DRILLING FLUID LOSS
RMS .OHMM               2.32 : RESISTIVITY MUD SAMPLE
MST .DEGF                 70 : MUD SAMPLE TEMPERATURE
RMF .OHMM               1.83 : RESISTIVITY MUD FILTRATE SAMPLE
MFST.DEGF                 68 : MUD FILTRATE SAMPLE TEMPERATURE
RMC .OHMM               3.17 : RESISTIVITY MUD CAKE
MCST.DEGF                 60 : MUD CAKE SAMPLE TEMPERATURE
RMB .OHMM               0.91 : RESISTIVITY MUD AT BHT
TCS .HRS                   4 : TIME CIRCULATED STOPPED
LUN .                   3534 : LOGGING UNIT NUMBER
LUL .                    WCT : LOGGING UNIT LOCATION
ENGI.                HAMPTON : RECORDING ENGINEER
WITN.                OBERTOS : WITNESSED BY
CLNT.                A2DTECH : CLIENT CODE
ORIG.            2" 5" PRINT : ORIGIN OF DATA
UWI .       100021406418W500 : UNIQUE WELL ID
DICO. A2D Technologies, Inc. : DIGITIZING COMPANY
~Other -----------------------------------------------------
IEL-CNL-BHC-SBT-CCL-SBL LOG
ALL RESISTIVITY CURVES ARE FROM TOP TO 4577' FROM 2" SECTION AND FROM 4577' TO FR FROM LARGE SECTION
~ASCII -----------------------------------------------------
# ...
 6550.00000    8.29110   26.66380   27.45190   36.42740    -999.25   50.10360   50.10360    -999.25    -999.25   20.21220   20.21220   36.42740    8.29110    -999.25    -999.25  101.85360 -197.22690 -140.63040  101.85360
 6600.00000    8.35050  173.03260  196.13610    5.09850    -999.25   64.92750   64.92750    -999.25    -999.25   94.64680   94.64680    5.09850    8.35050    -999.25    -999.25   10.19570 -110.35040  -53.77940   10.19570
 6650.00000    8.39990   99.73090  107.44370    9.30720    -999.25   56.91130   56.91130    -999.25    -999.25   48.62920   48.62920    9.30720    8.39990    -999.25    -999.25   15.75440 -103.15220  -46.60670   15.75440
 6700.00000    9.31080  188.68870  195.10670    5.12540    -999.25   62.44100   62.44100    -999.25    -999.25   57.67400   57.67400    5.12540    9.31080    -999.25    -999.25    8.47890  -97.95920  -41.43910    8.47890
 6750.00000    8.90780   21.73080   23.34230   42.84070    -999.25   56.68160   56.68160    -999.25    -999.25   52.99520   52.99520   42.84070    8.90780    -999.25    -999.25   61.74400  -72.61440  -16.11980   61.74400
 6800.00000   11.08900  131.99440  146.46220    6.82770    -999.25   76.87740   76.87740    -999.25   74.71620   80.40530   80.40530    6.82770   11.08900    -999.25    -999.25   15.05260  -73.99870  -17.52960   15.05260
 6850.00000    8.00970   24.48660   27.43250   36.45310    -999.25   54.90630   54.90630    -999.25   34.93530   41.37370   41.37370   36.45310    8.00970    -999.25    -999.25   53.03130  -63.83500   -7.37340   53.03130
 6900.00000    7.96050    9.13840   10.39050   96.24160    -999.25   52.19440   52.19440   30.38180   33.54220   45.64040   45.64040   96.24160    7.96050    0.07150    0.07150   99.10040 -119.51720  -63.04010   99.10040
 6950.00000    8.00890   10.50240   11.05090   90.49000    -999.25   51.83580   51.83580   18.33930   21.34240   20.40500   20.40500   90.49000    8.00890    0.05820    0.05820  110.59670 -141.70980  -85.21730  110.59670
 7000.00000    8.01150    9.36230    8.86760  112.76960    -999.25   50.88310   50.88310   17.77710   19.18190   22.15420   22.15420  112.76960    8.01150    0.06780    0.06780  102.87740 -154.26160  -97.75360  102.87740
 7050.00000    7.93780    3.07280    4.45200  224.61920    -999.25   50.20200   50.20200   17.08500   15.96800   20.12650   20.12650  224.61920    7.93780    0.05730    0.05730  260.37160 -143.56070  -87.03730  260.37160
 7100.00000    8.23810   14.10810   15.06830   66.36470    -999.25   56.42020   56.42020   43.22670   50.54890   60.01100   60.01100   66.36470    8.23810    0.12850    0.12850   76.79870  -97.59090  -41.05200   76.79870
 7150.00000    8.26460   17.52240   17.38890   57.50810    -999.25   54.46960   54.46960   42.16610   44.85370   56.77440   56.77440   57.50810    8.26460    0.12310    0.12310   66.08670 -109.82940  -53.27510   66.08670
 7200.00000    8.53970   57.50760   62.11800   16.09840    -999.25   58.27100   58.27100   67.09290   74.12490   83.70380   83.70380   16.09840    8.53970    0.15710    0.15710   28.11350 -117.26330  -60.69350   28.11350
 7250.00000    8.43790    3.83220    3.94790  253.30240    -999.25   48.34750   48.34750   19.35590   20.78410   19.50560   19.50560  253.30240    8.43790    0.06600    0.06600  184.33380 -135.17360  -78.58840  184.33380
 7300.00000    8.63040    7.25110    6.95150  143.85430    -999.25   49.67300   49.67300   19.19260   18.64200   20.36360   20.36360  143.85430    8.63040    0.07030    0.07030  136.82530 -182.46440 -125.86370  136.82530
 7350.00000    8.87720    3.32720    3.97450  251.60430    -999.25   48.68440   48.68440   16.90260   16.11330   15.02420   15.02420  251.60430    8.87720    0.06170    0.06170  190.23160 -165.60100 -108.98490  190.23160
 7400.00000    9.22250    4.59260    6.50600  153.70330    -999.25   48.54880   48.54880   17.25820   17.21300   16.03650   16.03650  153.70330    9.22250    0.06090    0.06090  159.21150 -186.78650 -130.15490  159.21150
 7450.00000    8.28890    6.44770    6.60260  151.45460    -999.25   48.45180   48.45180   19.23750   15.78780   21.80800   21.80800  151.45460    8.28890    0.06010    0.06010  126.73540 -165.33430 -108.68730  126.73540
 7500.00000    9.17070   14.35500   15.13310   66.08020    -999.25   51.88140   51.88140   56.95420   61.82250   14.75590   14.75590   66.08020    9.17070    0.13880    0.13880  153.89960 -203.99570 -147.33320  153.89960
 7550.00000    9.47160    9.83020    8.65380  115.55610    -999.25   47.61510   47.61510   53.51160   56.28500   12.97380   12.97380  115.55610    9.47160    0.05510    0.05510  224.87110 -222.25130 -165.57340  224.87110
 7600.00000    7.21290   30.34360   31.09100   32.16370    -999.25   49.41510   49.41510   38.16110   38.00020   16.10550   16.10550   32.16370    7.21290    0.15990    0.15990  111.71710 -203.35750 -146.66410  111.71710
 7650.00000    8.37410    3.43400    5.01220  199.51150    -999.25   49.75580   49.75580   36.95060   38.20120   18.00670   18.00670  199.51150    8.37410    0.05940    0.05940  179.05130 -209.08750 -152.37870  179.05130
 7700.00000    8.95640    1.18380    2.80640  356.32250    -999.25   48.88270   48.88270   49.28430   54.12390   20.40020   20.40020  356.32250    8.95640    0.06720    0.06720  171.65630 -204.94320 -148.21890  171.65630
 7750.00000    8.99050    2.60410    3.14400  318.06220    -999.25   49.49010   49.49010   19.31360   13.40940   15.71710   15.71710  318.06220    8.99050    0.07320    0.07320  226.86200 -199.77650 -143.03680  226.86200
 7800.00000    8.56670    5.63430    5.89580  169.61310    -999.25   48.53290   48.53290   22.40290   15.46410   13.45360   13.45360  169.61310    8.56670    0.07390    0.07390  155.75650 -195.65690 -138.90170  155.75650
 7850.00000    8.23500   22.19220   23.36000   42.80830    -999.25   48.34550   48.34550    -999.25   27.95330   12.75420   12.75420   42.80830    8.23500    -999.25    -999.25  112.03860 -233.11480 -176.34420  112.03860
 7900.00000    7.00000   43.33840   46.41530   21.54460    -999.25   51.00630   51.00630    -999.25   68.48300   16.55560   16.55560   21.54460    7.00000    -999.25    -999.25  122.36000 -266.91740 -210.13130  122.36000
 7950.00000    8.14370   60.83240   68.03880   14.69750    -999.25   51.62910   51.62910    -999.25  103.49370   30.38310   30.38310   14.69750    8.14370    -999.25    -999.25   37.83840 -191.20410 -134.40260   37.83840
 8000.00000    7.82670   48.57500   56.14040   17.81250    -999.25   52.68190   52.68190    -999.25  193.47280   30.18140   30.18140   17.81250    7.82670    -999.25    -999.25   62.66270 -214.57900 -157.76200   62.66270
 8050.00000    7.54420   10.31970    9.69050  103.19420    -999.25   46.88250   46.88250    -999.25   52.87270   22.20530   22.20530  103.19420    7.54420    -999.25    -999.25  128.99180 -229.73930 -172.90690  128.99180
 8100.00000    8.86650   19.23160   21.54980   46.40420    -999.25   47.75800   47.75800    -999.25   25.16910   25.21400   25.21400   46.40420    8.86650    -999.25    -999.25   49.44340 -190.09980 -133.25190   49.44340
 8150.00000    7.14810   15.32620   15.12450   66.11800    -999.25   45.42660   45.42660    -999.25   18.14460   19.17710   19.17710   66.11800    7.14810    -999.25    -999.25  134.61260 -227.89130 -171.02800  134.61260
 8200.00000    9.13920    8.03920    8.37000  119.47410    -999.25   47.71410   47.71410    -999.25    -999.25   20.41070   20.41070  119.47410    9.13920    -999.25    -999.25  102.34620 -151.46290  -94.58410  102.34620
 8250.00000    8.56400    6.96610    7.66580  130.44900    -999.25   52.01170   52.01170    -999.25    -999.25   27.35580   27.35580  130.44900    8.56400    -999.25    -999.25  124.36670  -80.49460  -23.60040  124.36670
 8300.00000    8.62800   26.15550   28.33610   35.29070    -999.25   54.29330   54.29330    -999.25    -999.25   32.91830   32.91830   35.29070    8.62800    -999.25    -999.25   45.60220  -75.92160  -19.01190   45.60220
 8350.00000    8.67150   59.94290   66.71690   14.98870    -999.25   60.54710   60.54710    -999.25    -999.25   48.87790   48.87790   14.98870    8.67150    -999.25    -999.25   21.96700  -68.97550  -12.05040   21.96700
