~Version ---------------------------------------------------
VERS.      2.0 : CWLS log ASCII Standard -VERSION 2.0
WRAP.       NO : One line per depth step
CREA. 08/31/17 : LAS Creation Date
~Well ------------------------------------------------------
STRT.FT                                 1050.0 : START DEPTH
STOP.FT                                10100.0 : STOP DEPTH
STEP.FT                               50.00000 : STEP LENGTH
NULL.                                  -999.25 : NULL VALUE
COMP.            HUDSON'S BAY OIL & GAS CO LTD : COMPANY
WELL. HUDSONS BAY UNION SNIPE LAKE 16-19-68-19 : WELL
FLD .                                          : FIELD
LOC .                                          : LOCATION
CTRY.                                   CANADA : COUNTRY
SRVC.                   Schlumberger of Canada : SERVICE COMPANY
DATE.                              25-Mar-1962 : LOGDATE
PROV.                                  Alberta : PROVINCE
UWI .                         100161906819W500 : UNIQUE WELL ID
SLAT.WGS84                            54.90768 : SURFACE LATITUDE
SLON.WGS84                           -116.8764 : SURFACE LONGITUDE
~Curve Information -----------------------------------------
DEPT  .FT         : Depth Curve
CALWS .IN         : CALIPER [MCALDED]
CILDED.MMHO       : CONDUCTIVITY INDUCTION LOG DEEP FROM RESISTIVITY LOG
CONDWS.MMHO       : CONDUCTIVITY [1000/DRESWS]
DRESWS.OHMM       : DEEP RESISTIVITY [1000/CILDED, IF ILDED<5, ILDED]
DTED  .US/F       : ACOUSTIC TRANSIT TIME SLOWNESS, DELTA T FROM SONIC LOG
DTWS  .US/F       : COMPRESSIONAL SONIC [DTED]
GRRED .UgRa-Eq/T  : GAMMA RAY FROM SONIC LOG
GRWS  .GAPI       : GAMMA RAY [GRRED*16.50 FOR GAPI]
ILDED .OHMM       : DEEP INDUCTION RESISTIVITY FROM RESISTIVITY LOG
MCALED.IN         : MLT [MICROLOG] CALIPER FROM SONIC LOG
SNED  .OHMM       : SHORT NORMAL 10" FROM RESISTIVITY LOG
SPRED .MV         : SPONTANEOUS POTENTIAL FROM RESISTIVITY LOG
SPWS  .MV         : SPONTANEOUS POTENTIAL [BASELINE 0 MV, SPRED]
SRESWS.OHMM       : SHALLOW RESISTIVITY [SNED]
~Params ----------------------------------------------------
PD  .                     GL : PERMANENT DATUM
EPD .FT                 2478 : ELEVATION PERMANENT DATUM
LMF .                     KB : LOG MEASURED FROM
DAPD.FT                 12.6 : FEET ABOVE PERMANENT DATUM
EKB .FT               2490.6 : KELLY BUSHING
EGL .FT                 2478 : GROUND LEVEL
DATE.               03/25/62 : RUN DATE
RUN .                      1 : RUN NUMBER
DD  .FT                10135 : DEPTH DRILLER
DL  .FT                10139 : DEPTH LOGGER
BLI .FT                10138 : BOTTOM LOG INTERVAL
TLI .FT                 1010 : TOP LOG INTERVAL
CBD .FT                 1009 : CASING BOTTOM DRILLER
CBL .FT                 1010 : CASING BOTTOM LOGGER
BS  .IN                    9 : BIT SIZE
BSD .FT                10135 : BIT SIZE AT DEPTH
DFT .                    GEL : DRILLING FLUID TYPE
DFD .                     10 : DRILLING FLUID DENSITY
DFV .                    190 : DRILLING FLUID VISCOSITY
DFPH.                    8.5 : DRILLING FLUID PH
DFL .                    7.2 : DRILLING FLUID LOSS
RMS .OHMM                2.6 : RESISTIVITY MUD SAMPLE
MST .DEGF                 62 : MUD SAMPLE TEMPERATURE
RMF .OHMM                  2 : RESISTIVITY MUD FILTRATE SAMPLE
MFST.DEGF                 68 : MUD FILTRATE SAMPLE TEMPERATURE
RMC .OHMM               3.04 : RESISTIVITY MUD CAKE
MCST.DEGF                 68 : MUD CAKE SAMPLE TEMPERATURE
RMB .OHMM              0.815 : RESISTIVITY MUD AT BHT
TCS .HRS                   4 : TIME CIRCULATED STOPPED
LUN .                   1534 : LOGGING UNIT NUMBER
LUL .                    EDM : LOGGING UNIT LOCATION
ENGI.                SKILTON : RECORDING ENGINEER
WITN.                   COLE : WITNESSED BY
CLNT.                A2DTECH : CLIENT CODE
ORIG.            2" 5" PRINT : ORIGIN OF DATA
UWI .       100161906819W500 : UNIQUE WELL ID
DICO. A2D Technologies, Inc. : DIGITIZING COMPANY
~Other -----------------------------------------------------
~ASCII -----------------------------------------------------
# ...
 5950.00000   11.00460   73.00680   72.17390   14.04230   68.20860   68.20860   55.01970   55.01970   14.04230   11.00460   26.49760 -108.51230  -31.32330   26.49760
 6000.00000    9.33900   87.58120   86.01710   11.62560   60.13390   60.13390   17.53740   17.53740   11.62560    9.33900   64.31450 -221.58980 -150.24760   64.31450
 6050.00000    9.36860  137.31430  132.16150    7.56650   55.67930   55.67930   21.13930   21.13930    7.56650    9.36860   45.53740 -213.02890 -147.53350   45.53740
 6100.00000   10.90520   24.98790   24.80000   40.60800   53.65070   53.65070   17.88510   17.88510   40.60800   10.90520   81.20990 -196.20820 -136.59810   81.20990
 6150.00000   10.16310   54.73820   50.95460   19.62530   66.84670   66.84670   36.31680   36.31680   19.62530   10.16310   41.83380 -118.02750  -64.26420   41.83380
 6200.00000   10.04320  379.10250  379.10250    2.64090   63.08430   63.08430   50.20320   50.20320    3.38550   10.04320    8.20040 -112.08870  -64.21070    8.20040
 6250.00000   10.35770  231.23140  231.23140    4.32470   66.82070   66.82070   57.85350   57.85350    4.73620   10.35770    7.90940  -78.53390  -36.50270    7.90940
 6300.00000   12.85650  135.31740  120.85910    8.27410   55.36490   55.36490   50.74370   50.74370    8.27410   12.85650   11.10350  -46.23870  -10.05430   11.10350
 6350.00000    9.58000   22.73610   23.04500   43.42130   53.94510   53.94510   24.24870   24.24870   43.42130    9.58000   52.79780  -75.06220  -42.06930   52.79780
 6400.00000    9.28910   22.04780   23.09770   43.29440   54.93470   54.93470   18.80760   18.80760   43.29440    9.28910   50.15920  -88.72690  -50.51470   50.15920
 6450.00000    9.71730   22.63590   21.67120   46.14420   53.24390   53.24390   30.77540   30.77540   46.14420    9.71730   58.76860  -92.46450  -48.99860   58.76860
 6500.00000    9.28670   15.92290   14.31820   69.84140   52.65430   52.65430   31.03270   31.03270   69.84140    9.28670   59.62410  -89.96650  -41.28130   59.62410
 6550.00000    9.27710   24.50360   24.19960   41.32300   56.77650   56.77650   30.79900   30.79900   41.32300    9.27710   46.11810  -86.16120  -32.25660   46.11810
 6600.00000    9.26600   23.32580   22.28120   44.88150   57.21840   57.21840   29.88610   29.88610   44.88150    9.26600   49.95060  -98.23700  -39.07870   49.95060
 6650.00000    9.30200   20.44910   18.13980   55.12740   56.39100   56.39100   32.94490   32.94490   55.12740    9.30200   52.17160  -90.23890  -25.86130   52.17160
 6700.00000    9.22310   14.26580   12.21870   81.86740   57.22820   57.22820   29.37600   29.37600   81.86740    9.22310   75.37240  -83.51170  -13.88040   75.37240
 6750.00000    9.42250   30.25170   29.23350   34.20730   61.32690   61.32690   41.63260   41.63260   34.20730    9.42250   44.93630  -83.82140   -8.97080   44.93630
 6800.00000    9.52230   11.57530   10.58950   94.43340   53.00360   53.00360   25.74620   25.74620   94.43340    9.52230   93.82230 -111.31900  -32.14830   93.82230
 6850.00000    9.40130    6.20900    4.55490  221.39200   51.99810   51.99810   13.40600   13.40600  221.39200    9.40130  190.21110 -119.97950  -41.53700  190.21110
 6900.00000    9.86430   12.00100   11.02700   90.68670   51.93830   51.93830   18.96330   18.96330   90.68670    9.86430   82.70630 -175.71650  -97.99760   82.70630
 6950.00000   10.93350    4.18220    2.83420  353.32210   49.35180   49.35180   14.52520   14.52520  353.32210   10.93350  143.54240 -148.03110  -71.04060  143.54240
 7000.00000   10.76840    4.46450    3.45100  289.77460   49.87150   49.87150   15.58880   15.58880  289.77460   10.76840  127.70590 -171.06620  -94.79920  127.70590
 7050.00000   10.31300    4.39290    3.77840  264.65990   51.45310   51.45310   18.60670   18.60670  264.65990   10.31300  127.07760 -149.50390  -73.96050  127.07760
 7100.00000   10.89870    0.14070    2.00650  499.28850   49.30920   49.30920   19.41650   19.41650  499.28850   10.89870  174.01830 -177.36600 -102.55090  174.01830
 7150.00000    8.92610   17.87770   16.55260   60.41340   52.59530   52.59530   17.31500   17.31500   60.41340    8.92610  106.47120 -199.05320 -124.96160  106.47120
 7200.00000    9.68580   20.45400   20.96120   47.72690   50.43460   50.43460   15.94170   15.94170   47.72690    9.68580  114.88340 -207.46220 -134.09890  114.88340
 7250.00000   10.55360    2.80480    4.16250  240.23920   51.71140   51.71140   16.43300   16.43300  240.23920   10.55360  133.18530 -184.59500 -111.95530  133.18530
 7300.00000   10.58860    1.70400    1.77810  562.41050   48.63550   48.63550   19.44650   19.44650  562.41050   10.58860  151.36180 -183.94170 -112.02550  151.36180
 7350.00000   10.61780    3.46280    1.76730  565.84700   48.92120   48.92120   16.59950   16.59950  565.84700   10.61780  223.55510 -182.37200 -111.18410  223.55510
 7400.00000   10.94980    0.97260    1.77910  562.08470   47.75110   47.75110   15.74760   15.74760  562.08470   10.94980  208.83480 -185.51950 -115.05520  208.83480
 7450.00000    9.12430   21.68980   21.95870   45.55800   50.38860   50.38860   15.15000   15.15000   45.55800    9.12430  108.87890 -225.48070 -155.74470  108.87890
 7500.00000    8.71760   26.10700   26.00330   38.45660   51.37660   51.37660   18.45240   18.45240   38.45660    8.71760  113.76090 -233.37210 -164.35960  113.76090
 7550.00000    8.57650   31.52870   30.39120   32.90430   51.06200   51.06200   18.14190   18.14190   32.90430    8.57650  107.43190 -263.59680 -195.30790  107.43190
 7600.00000    9.81930    6.01610    6.09730  164.16260   49.93250   49.93250   15.63330   15.63330  164.16260    9.81930  103.06820 -156.81540  -89.25480  103.06820
 7650.00000    7.71420  127.72780  126.29450    7.91800   53.54420   53.54420   17.58380   17.58380    7.91800    7.71420   41.79170 -197.99290 -131.15580   41.79170
 7700.00000    8.08010    9.22080    9.83580  101.86350   49.15330   49.15330   18.44700   18.44700  101.86350    8.08010  145.51210 -199.93320 -133.82440  145.51210
 7750.00000    9.66180  129.63910  128.95070    7.75490   53.55460   53.55460   27.75180   27.75180    7.75490    9.66180   15.04960 -139.43780  -74.05260   15.04960
 7800.00000    9.11240   12.12270   11.98080   83.46700   49.32800   49.32800   28.03670   28.03670   83.46700    9.11240   73.37390 -100.36870  -35.70700   73.37390
 7850.00000    9.62020   54.04660   51.48140   19.46410   59.42850   59.42850   41.39570   41.39570   19.46410    9.62020   27.26780  -78.21640  -14.28310   27.26780
 7900.00000    9.10540    1.25600    5.01640  199.34550   52.06250   52.06250   15.06670   15.06670  199.34550    9.10540  140.94320 -105.71790  -43.69020  140.94320
 7950.00000    9.46110   47.01350   46.76410   21.38830   59.86450   59.86450   50.45340   50.45340   21.38830    9.46110   28.12830  -72.28780  -12.39050   28.12830
 8000.00000   11.44740   72.04180   73.56020   13.59430   66.29560   66.29560   42.75890   42.75890   13.59430   11.44740   20.67570  -70.36530  -12.58440   20.67570
 8050.00000   14.87290  146.01600  158.06030    6.32670   80.40700   80.40700   55.87880   55.87880    6.32670   14.87290   10.44770  -80.63150  -24.96700   10.44770
 8100.00000   15.07730  132.54130  139.67680    7.16340   74.05630   74.05630   52.18930   52.18930    7.16340   15.07730    8.22930  -84.31730  -30.78320    8.22930
 8150.00000   15.73480  258.34580  258.34580    3.87080   78.48970   78.48970   54.39930   54.39930    3.83710   15.73480    4.36520  -86.49500  -35.07730    4.36520
 8200.00000   15.01790  252.00090  252.00090    3.96830   80.64310   80.64310   51.55250   51.55250    3.92630   15.01790    4.57400  -84.80630  -35.51890    4.57400
 8250.00000   15.02880  205.26470  205.26470    4.87180   78.21350   78.21350   45.42960   45.42960    4.66920   15.02880    4.94390  -73.18050  -26.00960    4.94390
 8300.00000   15.01360  211.10300  211.10300    4.73700   77.04850   77.04850   47.87440   47.87440    4.58250   15.01360    5.22220  -57.52060  -12.46610    5.22220
 8350.00000   16.58880  221.39520  221.39520    4.51720   85.07530   85.07530   45.44540   45.44540    4.48760   16.58880    5.09400  -58.11820  -15.19400    5.09400
