~Version ---------------------------------------------------
VERS.      2.0 : CWLS log ASCII Standard -VERSION 2.0
WRAP.       NO : One line per depth step
CREA. 08/26/14 : LAS Creation Date
~Well ------------------------------------------------------
STRT.M                              300.0 : START DEPTH
STOP.M                             4800.0 : STOP DEPTH
STEP.M                           50.00000 : STEP LENGTH
NULL.                             -999.25 : NULL VALUE
COMP.    AMOCO CANADA PETROLEUM CO., LTD. : COMPANY
WELL. AMOCO ET AL BROWN CREEK 11-22-44-16 : WELL
FLD .                                     : FIELD
LOC .                                     : LOCATION
CTRY.                              CANADA : COUNTRY
SRVC.                        Schlumberger : SERVICE COMPANY
DATE.                         04-Apr-1979 : LOGDATE
PROV.                             Alberta : PROVINCE
UWI .                    100112204416W500 : UNIQUE WELL ID
SLAT.WGS84                       52.80888 : SURFACE LATITUDE
SLON.WGS84                       -116.243 : SURFACE LONGITUDE
~Curve Information -----------------------------------------
DEPT    .M                      : Depth Curve
CALDED  .MM                     : CALIPER FROM DENSITY LOG [ADJ TO RESISTIVITY LOG]
CALMED  .MM                     : CALIPER FROM MICROLATEROLOG [ADJ TO RESISTIVITY LOG]
CALSED  .MM                     : CALIPER FROM SONIC LOG [ADJ TO RESISTIVITY LOG]
CALWS   .MM                     : CALIPER [CALDED]
CONDWS  .MMHO                   : CONDUCTIVITY [1000/DRESWS]
CORRED  .KG/M3                  : DENSITY CORRECTION (DRESSER ATLAS<4062.7M> SCHLUMBERGER) FROM DENSITY LOG [ADJ TO RESISTIVITY LOG]
DCORWS  .KG/M3                  : DENSITY CORRECTION [CORRED]
DENWS   .KG/M3                  : FORMATION BULK DENSITY [CALC. FROM DPOLSWS M= 2710, F=1000 ]
DPHILSED.V/V                    : DENSITY POROSITY LIMESTONE [M=2710, F=1000] FROM DENSITY LOG [ADJ TO RESISTIVITY LOG]
DPHISSED.V/V                    : DENSITY POROSITY SANDSTONE [M=2650, F=1000] FROM DENSITY LOG [ADJ TO RESISTIVITY LOG]
DPOLSWS .V/V                    : DENSITY POROSITY LIMESTONE [DPHISSED MATRIX CONVERSION FOR LIMESTONE, M=2710, F=1000 & SPL. TO DPHILSED @ 2901.9 M]
DRESWS  .OHMM                   : DEEP RESISTIVITY [LLDED]
DTED    .US/M                   : DELTA-TIME FROM SONIC LOG [ADJ TO RESISTIVITY LOG]
DTWS    .US/M                   : COMPRESSIONAL SONIC [DTED]
GR1ED   .GAPI                   : GAMMA RAY FROM CBL LOG [ADJ TO RESISTIVITY LOG]
GRDED   .GAPI                   : GAMMA RAY FROM DENSITY LOG [ADJ TO RESISTIVITY LOG]
GRED    .GAPI                   : GAMMA RAY FROM CBL LOG [ADJ TO RESISTIVITY LOG]
GRRED   .GAPI                   : GAMMA RAY FROM RESISTIVITY LOG [ADJ. TO RESISTIVITY LOG]
GRSED   .GAPI                   : GAMMA RAY FROM SONIC LOG [ADJ TO RESISTIVITY LOG]
GRWS    .GAPI                   : GAMMA RAY [GRSED SPL. TO GRED @ 438-2900 M & 3982 M]
LLDED   .OHMM                   : LATEROLOG DEEP RESISTIVITY FROM RESISTIVITY LOG
LLSED   .OHMM                   : LATEROLOG SHALLOW RESISTIVITY FROM RESISTIVITY LOG
MLLED   .OHMM                   : MICRO FOCUSED LATEROLOG RESISTIVITY FROM RESISTIVITY LOG
NPHILSED.V/V                    : NEUTRON POROSITY LIMESTONE FROM DENSITY LOG [ADJ TO RESISTIVITY LOG]
NPHISSED.V/V                    : NEUTRON POROSITY SANDSTONE FROM DENSITY LOG [ADJ TO RESISTIVITY LOG]
NPOLSWS .V/V                    : NEUTRON POROSITY LIMESTONE [NPHISSED MATRIX CONVERSION FOR LIMESTONE, SPL. TO NPHILSED @ 4019.6M ]
RHOBED  .KG/M3                  : BULK DENSITY FROM DENSITY LOG [ADJ TO RESISTIVITY LOG]
SRESWS  .OHMM                   : SHALLOW RESISTIVITY [LLSED]
TENDED  .N :   TENSION LBF TO N : *4.44822162] FROM DENSITY LOG [ADJ TO RESISTIVITY LOG]
~Params ----------------------------------------------------
ORIG.          40",24"/100M PRINT : ORIGIN OF DATA
PD  .                GROUND LEVEL : PERMANENT DATUM
EPD .M                     1166.8 : ELEVATION PERMANENT DATUM
LMF .                          KB : LOG MEASURED FROM
DAPD.M                       10.7 : FEET ABOVE PERMANENT DATUM
DMF .                          KB : DRILLING MEASURED FROM
EKB .M                      11775 : KELLY BUSHING
EGL .M                     1166.8 : GROUND LEVEL
DATE.                  04/04/1979 : RUN DATE
RUN .                           1 : RUN NUMBER
DD  .M                       4805 : DEPTH DRILLER
DL  .M                       4805 : DEPTH LOGGER
BLI .M                       4805 : BOTTOM LOG INTERVAL
TLI .M                     4062.5 : TOP LOG INTERVAL
CS  .MM                       194 : CASING SIZE
CBD .M                       4060 : CASING BOTTOM DRILLER
CBL .M                     4062.5 : CASING BOTTOM LOGGER
BS  .MM                       159 : BIT SIZE
BSD .M                       4805 : BIT SIZE AT DEPTH
DFT .                    GEL CHEM : DRILLING FLUID TYPE
DFD .                        1120 : DRILLING FLUID DENSITY
DFV .                          50 : DRILLING FLUID VISCOSITY
DFPH.                           9 : DRILLING FLUID PH
DFL .                        12.2 : DRILLING FLUID LOSS
MSS .                    FLOWLINE : MUD SAMPLE SOURCE
RMS .OHMM                    1.42 : RESISTIVITY MUD SAMPLE
MST .DEGC                    22.2 : MUD SAMPLE TEMPERATURE
RMF .OHMM                    1.15 : RESISTIVITY MUD FILTRATE SAMPLE
MFST.DEGC                      20 : MUD FILTRATE SAMPLE TEMPERATURE
MFSS.                         MUD : MUD FILTRATE SAMPLE SOURCE
MCSS.                       PRESS : MUD CAKE SAMPLE SOURCE
TCS .HRS                     2330 : TIME CIRCULATED STOPPED
TLAB.HRS                     1800 : TIME LOGGER AT BOTTOM
LUN .                        8037 : LOGGING UNIT NUMBER
LUL .                          RD : LOGGING UNIT LOCATION
ENGI.     CATHCART, MAURO, DOWNIE : RECORDING ENGINEER
WITN. DIXON, MULHOLLAND, MCKELLAR : WITNESSED BY
CLNT.                     A2DTECH : CLIENT CODE
UWI .            100112204416W500 : UNIQUE WELL ID
DICO.      A2D Technologies, Inc. : DIGITIZING COMPANY
~Other -----------------------------------------------------
DLL-CND-BHC-CBL LOG RUN
RHOB, DCOR & CORR FROM 2" SECTION
~ASCII -----------------------------------------------------
# ...
 4050.00000    -999.25    -999.25    -999.25    -999.25    -999.25    -999.25    -999.25    -999.25    -999.25    -999.25    -999.25    -999.25    -999.25    -999.25    -999.25   12.64490    -999.25    -999.25   10.47360   10.47360    -999.25    -999.25    -999.25    0.04040    -999.25    0.04040    -999.25    -999.25    -999.25
 4100.00000  199.47030  178.19920  182.99340  199.47030    0.03340  250.59200  250.59200 2610.99100    0.05790    -999.25    0.05790 29935.91020  156.67900  156.67900    -999.25    8.93870    -999.25    9.30820    7.19970    7.19970 29935.91020 11410.00390    5.89230    0.00160    -999.25    0.00160 2624.05300 11410.00390    -999.25
 4150.00000  179.18910  164.17100  181.86630  179.18910    4.60550  246.13340  246.13340 2660.92300    0.02870    -999.25    0.02870  217.13380  161.41740  161.41740    -999.25    8.41060    -999.25    6.12440    5.52570    5.52570  217.13380  267.82890    3.75800    0.02400    -999.25    0.02400 2657.39280  267.82890    -999.25
 4200.00000  196.88650  158.85200  179.82040  196.88650    0.05430  249.97350  249.97350 2527.54300    0.10670    -999.25    0.10670 18418.53130  158.98700  158.98700    -999.25    6.57710    -999.25    7.22960    5.29020    5.29020 18418.53130 8285.15920    9.39220    0.00270    -999.25    0.00270 2531.26340 8285.15920    -999.25
 4250.00000  154.43770  151.56880  178.07120  154.43770    1.24110   -1.20490   -1.20490 2765.74600   -0.03260    -999.25   -0.03260  805.73430  160.87890  160.87890    -999.25   15.66050    -999.25   13.89580   12.89320   12.89320  805.73430  928.54920    1.45890    0.04900    -999.25    0.04900 2793.22410  928.54920    -999.25
 4300.00000  216.54060  200.27420  187.01040  216.54060    1.14210  221.44460  221.44460 2423.06200    0.16780    -999.25    0.16780  875.56600  168.90660  168.90660    -999.25   38.30650    -999.25   30.60600   32.68610   32.68610  875.56600  378.91710    4.75870    0.02020    -999.25    0.02020 2414.17160  378.91710    -999.25
 4350.00000  161.86510  162.88450  181.28570  161.86510    6.12130  140.27400  140.27400 2611.84600    0.05740    -999.25    0.05740  163.36480  154.90120  154.90120    -999.25   10.90020    -999.25   10.18230    8.40850    8.40850  163.36480  265.65100    2.59930    0.04730    -999.25    0.04730 2618.80690  265.65100    -999.25
 4400.00000  202.63080  162.35030  182.78990  202.63080    1.43500  248.40750  248.40750 2704.18600    0.00340    -999.25    0.00340  696.88270  161.81560  161.81560    -999.25   15.75800    -999.25   21.66290   17.92760   17.92760  696.88270  905.16400    8.73950    0.00360    -999.25    0.00360 2702.68750  905.16400    -999.25
 4450.00000  198.08720  168.73900  189.06080  198.08720  116.39280   -0.63720   -0.63720 2672.72200    0.02180    -999.25    0.02180    8.59160  230.12270  230.12270    -999.25  110.25450    -999.25  112.81510  106.09480  106.09480    8.59160    7.18840    2.25650    0.17300    -999.25    0.17300 2679.68850    7.18840    -999.25
 4500.00000  176.15330  164.63960  184.35390  176.15330  139.46810   -3.62740   -3.62740 2660.23900    0.02910    -999.25    0.02910    7.17010  227.38300  227.38300    -999.25  109.31340    -999.25  105.20220   94.41830   94.41830    7.17010    8.30020   42.32340    0.16210    -999.25    0.16210 2664.53740    8.30020    -999.25
 4550.00000  177.39280  157.57340  179.06350  177.39280  113.59510   43.39000   43.39000 2708.63200    0.00080    -999.25    0.00080    8.80320  216.04840  216.04840    -999.25   86.69460   46.12770   88.00520   76.67540   76.67540    8.80320   10.22470   33.89000    0.13090    -999.25    0.13090 2707.53690   10.22470    -999.25
 4600.00000  174.53130  155.78590  179.81910  174.53130  117.25940   13.73030   13.73030 2699.05600    0.00640    -999.25    0.00640    8.52810  223.74880  223.74880    -999.25   92.26690   49.73720   87.73510   78.10560   78.10560    8.52810    9.05440    4.30820    0.14270    -999.25    0.14270 2701.34420    9.05440    -999.25
 4650.00000  183.94080  168.66630  182.16200  183.94080   71.47760  162.05890  162.05890 2615.43700    0.05530    -999.25    0.05530   13.99040  251.87420  251.87420    -999.25  117.94620   56.78130  129.89890  116.03410  116.03410   13.99040   13.50620   12.65700    0.15880    -999.25    0.15880 2624.59840   13.50620    -999.25
 4700.00000  184.53910  154.85720  174.81190  184.53910    4.94300   15.66800   15.66800 2713.42000   -0.00200    -999.25   -0.00200  202.30790  170.25990  170.25990    -999.25   35.12800    -999.25    0.00000   31.76370   31.76370  202.30790  172.52190   39.47490    0.02700    -999.25    0.02700 2715.09500  172.52190    -999.25
 4750.00000  158.42280  155.19440  177.90760  158.42280    0.24420   36.88440   36.88440 2521.04500    0.11050    -999.25    0.11050 4094.28300  185.90800  185.90800    -999.25    6.22110    -999.25    5.30740    4.37950    4.37950 4094.28300  772.34850   11.62390    0.08860    -999.25    0.08860 2534.89280  772.34850    -999.25
 4800.00000  220.84750  210.26610  180.86290  220.84750    -999.25  244.83450  244.83450 2460.16900    0.14610    -999.25    0.14610    -999.25  149.71950  149.71950    -999.25    -999.25    -999.25    -999.25    -999.25    -999.25    -999.25    -999.25    3.83540    0.02900    -999.25    0.02900 2467.55880    -999.25    -999.25
