~Version ---------------------------------------------------
VERS.      2.0 : CWLS log ASCII Standard -VERSION 2.0
WRAP.       NO : One line per depth step
CREA. 11/14/17 : LAS Creation Date
~Well ------------------------------------------------------
STRT.FT                           1100.0 : START DEPTH
STOP.FT                          10400.0 : STOP DEPTH
STEP.FT                         50.00000 : STEP LENGTH
NULL.                            -999.25 : NULL VALUE
COMP.               CHEVRON STANDARD LTD : COMPANY
WELL. CHEVRON GULF PASS CREEK 7-36-61-18 : WELL
FLD .                                    : FIELD
LOC .                                    : LOCATION
CTRY.                             CANADA : COUNTRY
SRVC.                       Schlumberger : SERVICE COMPANY
DATE.                        11-Jan-1976 : LOGDATE
PROV.                            Alberta : PROVINCE
UWI .                   100073606118W500 : UNIQUE WELL ID
SLAT.WGS84                      54.31663 : SURFACE LATITUDE
SLON.WGS84                      -116.558 : SURFACE LONGITUDE
~Curve Information -----------------------------------------
DEPT    .FT    : Depth Curve
CALDED  .IN    : CALIPER FROM DENSITY LOG
CALSED  .IN    : CALIPER FROM SONIC LOG [ADJ.TO GRDED]
CALWS   .IN    : CALIPER [CALSED]
CONDWS  .MMHO  : CONDUCTIVITY [1000/DRESWS]
DCORED  .G/C3  : DENSITY CORRECTION FROM DENSITY LOG
DCORWS  .G/C3  : DENSITY CORRECTION [DCORED]
DENWS   .G/C3  : FORMATION BULK DENSITY [RHOBED]
DPHILSED.V/V   : DENSITY POROSITY LIME [M=2.71, F=1.00,ADJ.TO RHOBED] FROM DENSITY LOG
DPHISSED.V/V   : DENSITY POROSITY SAND [M=2.65, F=1.00,ADJ.TO RHOBED] FROM DENSITY LOG
DPOLSWS .V/V   : DENSITY POROSITY LIME [CALC FROM DENWS, M=2.71, F=1.00]
DRESWS  .OHMM  : DEEP RESISTIVITY [ILDED]
DTED    .US/F  : DELTA-T FROM SONIC LOG [ADJ.TO GRDED]
DTWS    .US/F  : COMPRESSIONAL SONIC [DTED]
GRDED   .GAPI  : GAMMA RAY FROM DENSITY LOG
GRSED   .GAPI  : GAMMA RAY FROM SONIC LOG [ADJ.TO GRDED]
GRWS    .GAPI  : GAMMA RAY [GRSED SPL.TO GRDED @ 10379']
ILDED   .OHMM  : DEEP INDUCTION FROM RESISTIVITY LOG
ILMED   .OHMM  : MEDIUM INDUCTION FROM RESISTIVITY LOG
LL8ED   .OHMM  : LATEROLOG 8 FROM RESISTIVITY LOG
MRESWS  .OHMM  : MEDIUM RESISTIVITY [ILMED]
NPHILSED.V/V   : NEUTRON POROSITY LIME FROM DENSITY LOG [ADJ.TO RHOBED]
NPHISSED.V/V   : NEUTRON POROSITY SAND FROM DENSITY LOG [ADJ.TO RHOBED]
NPOLSWS .V/V   : NEUTRON POROSITY LIME [NPHISSED MATRIX CONVERTED TO LIME SPL.TO NPHILSED @ 6655']
RHOBED  .G/C3  : BULK DENSITY FROM DENSITY LOG
SPRED   .MV    : SPONTANEOUS POTENTIAL FROM RESISTIVITY LOG
SPWS    .MV    : SPONTANEOUS POTENTIAL [BASELINE 0 MV, SPRED]
SRESWS  .OHMM  : SHALLOW RESISTIVITY [LL8ED]
~Params ----------------------------------------------------
PD  .                     GL : PERMANENT DATUM
EPD .FT                 2874 : ELEVATION PERMANENT DATUM
LMF .                     KB : LOG MEASURED FROM
DAPD.FT                   15 : FEET ABOVE PERMANENT DATUM
EKB .FT                 2889 : KELLY BUSHING
EGL .FT                 2874 : GROUND LEVEL
DATE.               01/11/76 : RUN DATE
RUN .                      1 : RUN NUMBER
DD  .FT                10410 : DEPTH DRILLER
DL  .FT                10421 : DEPTH LOGGER
BLI .FT                10415 : BOTTOM LOG INTERVAL
TLI .FT                 1118 : TOP LOG INTERVAL
CBD .FT                 1118 : CASING BOTTOM DRILLER
CBL .FT                 1121 : CASING BOTTOM LOGGER
BS  .IN                 8.75 : BIT SIZE
BSD .FT                10410 : BIT SIZE AT DEPTH
DFT .               GEL CHEM : DRILLING FLUID TYPE
DFD .                    9.5 : DRILLING FLUID DENSITY
DFV .                    137 : DRILLING FLUID VISCOSITY
DFPH.                    9.5 : DRILLING FLUID PH
DFL .                      9 : DRILLING FLUID LOSS
MSS .               FLOWLINE : MUD SAMPLE SOURCE
RMS .OHMM               2.38 : RESISTIVITY MUD SAMPLE
MST .DEGF                 54 : MUD SAMPLE TEMPERATURE
RMF .OHMM               2.06 : RESISTIVITY MUD FILTRATE SAMPLE
MFST.DEGF                 60 : MUD FILTRATE SAMPLE TEMPERATURE
RMC .OHMM               1.88 : RESISTIVITY MUD CAKE
MCST.DEGF                 42 : MUD CAKE SAMPLE TEMPERATURE
RMB .OHMM               0.66 : RESISTIVITY MUD AT BHT
TCS .HRS                 5.5 : TIME CIRCULATED STOPPED
LUN .                   7657 : LOGGING UNIT NUMBER
ENGI.                STANDEN : RECORDING ENGINEER
WITN.                   WONG : WITNESSED BY
CLNT.                A2DTECH : CLIENT CODE
ORIG.            2" 5" PRINT : ORIGIN OF DATA
UWI .       100073606118W500 : UNIQUE WELL ID
DICO. A2D Technologies, Inc. : DIGITIZING COMPANY
~Other -----------------------------------------------------
~ASCII -----------------------------------------------------
# ...
 6300.00000   14.07300   12.64800   12.64800  176.23480    0.26050    0.26050    2.22560    -999.25    0.20270    0.28320    5.76390   84.00200   84.00200   72.03540   69.83240   69.83240    5.76390    7.35300    8.18320    7.35300    -999.25    0.23660    0.19280    2.22560 -135.15820  -27.30140    8.18320
 6350.00000   11.20580   10.42140   10.42140  132.16850    0.01800    0.01800    2.57550    -999.25    0.05220    0.07870    7.56610   77.63650   77.63650  101.06000   94.67110   94.67110    7.56610    8.64310   10.05330    8.64310    -999.25    0.28590    0.24190    2.57550 -109.20110   -2.12910   10.05330
 6400.00000   14.47130   13.72270   13.72270  212.42720    0.18180    0.18180    2.53930    -999.25    0.06860    0.09980    4.70790   81.97170   81.97170   93.83590   90.75590   90.75590    4.70790    5.22720    6.14380    5.22720    -999.25    0.35940    0.31590    2.53930 -118.38190  -13.40590    6.14380
 6450.00000    -999.25   14.16350   14.16350  394.47730    0.22930    0.22930    2.17090    -999.25    0.24890    0.31530    2.53500  115.89560  115.89560   83.67870   70.56270   70.56270    2.53500    3.35700    4.17300    3.35700    -999.25    0.42940    0.38720    2.17090 -121.50500  -19.50290    4.17300
 6500.00000   10.85880   10.65400   10.65400   73.07060    0.12550    0.12550    2.13170    -999.25    0.32280    0.33820   13.68540   86.33080   86.33080  102.75720  100.55630  100.55630   13.68540   17.27660   30.33370   17.27660    -999.25    0.45460    0.41290    2.13170 -116.04150  -16.99390   30.33370
 6550.00000    9.03690    9.13320    9.13320   10.67610    0.02040    0.02040    2.48520    -999.25    0.11770    0.13150   93.85550   66.72500   66.72500  186.37580  168.21460  168.21460   93.85550   52.60320  324.31940   52.60320    -999.25    0.22810    0.18440    2.48520 -131.21370  -35.12060  324.31940
 6600.00000    9.74520    9.81660    9.81660   64.58780    0.01380    0.01380    2.63490    -999.25    0.00920    0.04390   15.48280   62.75430   62.75430   81.68130   82.71080   82.71080   15.48280   17.79080   23.09020   17.79080    -999.25    0.11520    0.07310    2.63490 -125.73260  -32.61340   23.09020
 6650.00000   10.17980   10.28070   10.28070   50.15070    0.02220    0.02220    2.64540    -999.25   -0.00310    0.03780   19.94620   64.84550   64.84550   91.14970   85.92750   85.92750   19.94620   22.66130   28.21410   22.66130    -999.25    0.12610    0.08380    2.64540 -122.75360  -32.58890   28.21410
 6700.00000   10.50230   10.30640   10.30640   39.99950    0.00680    0.00680    2.61900    0.05010    0.01840    0.05320   25.00030   63.84620   63.84620   74.00160   68.97660   68.97660   25.00030   25.77820   27.30070   25.77820    0.06790    0.11630    0.06790    2.61900 -134.29560  -47.10480   27.30070
 6750.00000    9.99770   10.07970   10.07970   74.29310    0.05610    0.05610    2.78780   -0.07800    -999.25   -0.04550   13.46020   53.00900   53.00900   36.57340   32.39120   32.39120   13.46020   14.17130   21.35680   14.17130    0.08600    0.13360    0.08600    2.78780 -138.88760  -54.65130   21.35680
 6800.00000   10.18130   10.20450   10.20450   30.42920    0.05350    0.05350    2.59440    0.05710    -999.25    0.06760   32.87530   54.32270   54.32270   51.60570   51.99480   51.99480   32.87530   35.89700   43.59340   35.89700    0.06390    -999.25    0.06390    2.59440 -118.32900  -37.04720   43.59340
 6850.00000    9.41840    9.51880    9.51880  132.54860    0.01220    0.01220    2.77420   -0.04500    -999.25   -0.03750    7.54440   54.82180   54.82180   37.40350   37.96670   37.96670    7.54440    8.65910   29.27990    8.65910    0.07210    -999.25    0.07210    2.77420 -146.41570  -68.10790   29.27990
 6900.00000    9.91460   10.06310   10.06310  118.24390    0.02140    0.02140    2.72190   -0.00990    -999.25   -0.00700    8.47690   60.30610   60.30610   52.03140   48.80810   48.80810    8.47690   13.45230   38.87510   13.45230    0.11760    -999.25    0.11760    2.72190 -136.95110  -61.59780   38.87510
 6950.00000    9.50680   10.10750   10.10750  183.82020    0.06910    0.06910    2.69240    0.01090    -999.25    0.01030    5.44010   60.08230   60.08230   38.08320   37.13020   37.13020    5.44010    9.26630   24.12150    9.26630    0.13240    -999.25    0.13240    2.69240 -151.69470  -79.31530   24.12150
 7000.00000   11.74620   10.85260   10.85260    3.98830    0.07790    0.07790    2.88700   -0.11440    -999.25   -0.10350  250.73380   51.87450   51.87450   10.85740    9.60000    9.60000  250.73380  266.08110  523.99680  266.08110   -0.01190    -999.25   -0.01190    2.88700 -218.45210 -149.02720  523.99680
 7050.00000   10.21430   10.43660   10.43660   41.02280    0.04960    0.04960    2.69650    0.00250    -999.25    0.00790   24.41540   50.57630   50.57630   19.94260   16.56780   16.56780   24.41540   41.93900  152.75650   41.93900    0.02340    -999.25    0.02340    2.69650 -188.11010 -121.63970  152.75650
 7100.00000    9.82270    9.71270    9.71270   34.54050    0.04100    0.04100    2.72850   -0.00820    -999.25   -0.01080   28.95150   50.53620   50.53620   14.61040   15.21910   15.21910   28.95150   33.08590  124.36030   33.08590    0.00620    -999.25    0.00620    2.72850 -181.62910 -118.13260  124.36030
 7150.00000   10.23700   10.42530   10.42530  230.02920    0.01800    0.01800    2.68630    0.00430    -999.25    0.01390    4.35200   60.78950   60.78950   54.65390   51.69220   51.69220    4.35200    5.34820    7.34800    5.34820    0.11930    -999.25    0.11930    2.68630  -85.55490  -24.90180    7.34800
 7200.00000    9.74670    9.75970    9.75970  121.74480    0.03340    0.03340    2.73010   -0.01480    -999.25   -0.01180    8.21390   59.58600   59.58600   84.57220   78.87720   78.87720    8.21390    8.84550   10.98350    8.84550    0.08800    -999.25    0.08800    2.73010 -106.58720  -47.36220   10.98350
 7250.00000   10.54890   10.92720   10.92720  375.71390    0.01910    0.01910    2.64430    0.03570    -999.25    0.03840    2.66160   68.62080   68.62080   62.43720   57.15390   57.15390    2.66160    3.18040    8.38080    3.18040    0.18220    -999.25    0.18220    2.64430 -125.31130  -67.50510    8.38080
 7300.00000   10.26740   10.55130   10.55130   76.27320    0.00770    0.00770    2.68230    0.01010    -999.25    0.01620   13.11160   62.17370   62.17370   68.86020   69.37970   69.37970   13.11160   14.53480   18.11810   14.53480    0.09110    -999.25    0.09110    2.68230  -75.88800  -19.50060   18.11810
 7350.00000    9.83210   10.22530   10.22530   16.66080    0.00760    0.00760    2.71880   -0.01260    -999.25   -0.00510   60.02110   51.89960   51.89960   32.08430   29.97450   29.97450   60.02110   92.66580  116.46630   92.66580    0.00980    -999.25    0.00980    2.71880  -80.34600  -25.38680  116.46630
 7400.00000    9.36050    9.50960    9.50960   27.73990    0.01890    0.01890    2.73190   -0.02680    -999.25   -0.01280   36.05450   54.42890   54.42890   39.97600   38.75630   38.75630   36.05450   38.61900   51.43310   38.61900    0.02850    -999.25    0.02850    2.73190  -76.56830  -23.02790   51.43310
 7450.00000    9.15120    9.25840    9.25840   11.98550    0.01530    0.01530    2.70860   -0.00740    -999.25    0.00080   83.43420   53.63660   53.63660   26.59830   28.27990   28.27990   83.43420   91.94600  134.47570   91.94600    0.01400    -999.25    0.01400    2.70860  -90.32300  -38.21070  134.47570
 7500.00000    9.10840    9.23990    9.23990   12.06770   -0.00150   -0.00150    2.71550   -0.00880    -999.25   -0.00320   82.86610   53.45390   53.45390   32.95610   32.93210   32.93210   82.86610   88.20710  116.76850   88.20710    0.01710    -999.25    0.01710    2.71550  -92.53780  -41.84430  116.76850
 7550.00000    9.06150    9.21120    9.21120   10.75340    0.01480    0.01480    2.72100   -0.01400    -999.25   -0.00640   92.99350   53.20410   53.20410   33.28160   30.31430   30.31430   92.99350   98.05680  143.65490   98.05680    0.01920    -999.25    0.01920    2.72100  -93.90200  -44.62730  143.65490
