~Version ---------------------------------------------------
VERS.      2.0 : CWLS log ASCII Standard -VERSION 2.0
WRAP.       NO : One line per depth step
CREA. 08/26/13 : LAS Creation Date
~Well ------------------------------------------------------
STRT.M                             350.0 : START DEPTH
STOP.M                            3450.0 : STOP DEPTH
STEP.M                          50.00000 : STEP LENGTH
NULL.                            -999.25 : NULL VALUE
COMP. CANADIAN NATURAL RESOURCES LIMITED : COMPANY
WELL.          RAX WASKAHIGAN 3-32-63-22 : WELL
FLD .                                 WC : FIELD
LOC .                                    : LOCATION
CTRY.                             CANADA : COUNTRY
SRVC.                       Schlumberger : SERVICE COMPANY
DATE.                        20-Aug-1985 : LOGDATE
PROV.                            Alberta : PROVINCE
UWI .                   100033206322W500 : UNIQUE WELL ID
SLAT.WGS84                      54.49004 : SURFACE LATITUDE
SLON.WGS84                     -117.2927 : SURFACE LONGITUDE
~Curve Information -----------------------------------------
DEPT  .M                 : DEPTH METERS
C2    .MM   70 280 24 00 : CALIPER 2
CALD  .MM   45 280 60 00 : CALIPER FROM DENSITY LOG
CALR  .MM                : CALIPER FROM RESISTIVITY LOG
DPHILS.V/V               : DENSITY POROSITY LIMESTONE [M=2710 F=1000] FROM DENSITY LOG
DPHISS.V/V               : DENSITY POROSITY SANDSTONE[M=2650 F=1000] FROM DENSITY LOG
DRHO  .K/M3 45 356 01 00 : BULK DENSITY CORRECTION
DT    .US/M 60 500 00 00 : DELTA-T (INTERVAL TRANSIT TIME)
GRD   .GAPI 45 310 01 00 : GAMMA RAY FROM DENSITY LOG
GRR   .GAPI 07 310 01 00 : GAMMA RAY FROM RESISTIVITY LOG
ILD   .OHMM 07 120 46 00 : INDUCTION DEEP RESISTIVITY
ILM   .OHMM 07 120 44 00 : INDUCTION MEDIUM RESISTIVITY
NPHILS.V/V               : NEUTRON POROSITY LIMESTONE [M=2710 F=1000] FROM DENSITY LOG
NPHISS.V/V               : NEUTRON POROSITY SANDSTONE [M=2650 F=1000] FROM DENSITY LOG
PEF   .B/E  45 358 01 00 : PHOTOELECTRIC FACTOR
RHOB  .K/M3 45 350 01 00 : BULK DENSITY
SFLU  .OHMM 07 220 01 00 : SHALLOW FOCUSED RESISTIVITY (UNAVERAGED)
SPR   .MV   07 010 01 00 : SPONTANEOUS POTENTIAL FROM RESISTIVITY LOG
TEND  .N    45 635 00 00 : TENSION FROM DENSITY LOG
TENR  .N    07 635 00 00 : TENSION FROM RESISTIVITY LOG
~Params ----------------------------------------------------
PD  .                     GL : PERMANENT DATUM
EPD .M                 821.2 : ELEVATION PERMANENT DATUM
LMF .                     KB : LOG MEASURED FROM
DAPD.M                   6.4 : FEET ABOVE PERMANENT DATUM
DMF .                     KB : DRILLING MEASURED FROM
EKB .M                 827.6 : KELLY BUSHING
EDF .M                 827.2 : DRILLING FLOOR
EGL .M                 821.2 : GROUND LEVEL
DATE.               08/20/85 : RUN DATE
RUN .                      1 : RUN NUMBER
DD  .M                  3450 : DEPTH DRILLER
DL  .M                3454.7 : DEPTH LOGGER
BLI .M                  3454 : BOTTOM LOG INTERVAL
TLI .M                 444.5 : TOP LOG INTERVAL
CS  .MM                244.5 : CASING SIZE
CBD .M                   444 : CASING BOTTOM DRILLER
CBL .M                   444 : CASING BOTTOM LOGGER
BS  .MM                  222 : BIT SIZE
BSD .M                  3450 : BIT SIZE AT DEPTH
DFT .               GEL CHEM : DRILLING FLUID TYPE
DFD .                   1125 : DRILLING FLUID DENSITY
DFV .                    135 : DRILLING FLUID VISCOSITY
DFPH.                   10.5 : DRILLING FLUID PH
DFL .                    8.2 : DRILLING FLUID LOSS
MSS .               FLOWLINE : MUD SAMPLE SOURCE
RMS .OHMM                1.9 : RESISTIVITY MUD SAMPLE
MST .DEGC               18.0 : MUD SAMPLE TEMPERATURE
RMF .OHMM               1.76 : RESISTIVITY MUD FILTRATE SAMPLE
MFST.DEGC               18.0 : MUD FILTRATE SAMPLE TEMPERATURE
RMC .OHMM               1.59 : RESISTIVITY MUD CAKE
MCST.DEGC               19.0 : MUD CAKE SAMPLE TEMPERATURE
MFSS.                   MEAS : MUD FILTRATE SAMPLE SOURCE
MCSS.                   MEAS : MUD CAKE SAMPLE SOURCE
RMB .OHMM              0.528 : RESISTIVITY MUD AT BHT
TCS .HRS                1030 : TIME CIRCULATED STOPPED
TLAB.HRS                2100 : TIME LOGGER AT BOTTOM
LUN .                   8204 : LOGGING UNIT NUMBER
LUL .                     GP : LOGGING UNIT LOCATION
ENGI.          HOWELL MACKAY : RECORDING ENGINEER
WITN.         SALAZAR SHARPE : WITNESSED BY
CLNT.                A2DTECH : CLIENT CODE
ORIG.       6.5" 16.5" PRINT : ORIGIN OF DATA
UWI .       100033206322W500 : UNIQUE WELL ID
DICO. A2D Technologies, Inc. : DIGITIZING COMPANY
~Other -----------------------------------------------------
~ASCII -----------------------------------------------------
# ...
 2200.00000  222.64920  242.73690  252.61220    0.03350    -999.25  -17.50200  200.57890   95.78410   92.61350   26.57040   26.97950    0.07950    -999.25    3.10380 2665.20000   31.89350  -47.81420 15591.68850 13876.31840
 2250.00000  216.14150  213.91990  207.48640    0.15580    -999.25   21.52680  219.16480   24.85890   23.66580    2.10410    3.66420    0.16910    -999.25    2.53080 2450.90000   15.57430 -151.90440 15510.44040 14838.77250
 2300.00000  393.31520  300.11300  251.53900    0.33970    -999.25   98.95620  173.10510   22.45900   20.99770   45.16540   82.29590    0.03660    -999.25    2.81880 2099.70000  147.82140 -116.21350 15667.09080 15441.44240
 2350.00000  241.00930  262.66670  247.31770    0.02630    -999.25    2.79650  189.18230   47.78870   44.30660   95.97600  100.40120    0.01220    -999.25    5.30510 2667.70000  161.02080  -30.06030 15756.42970 15696.82520
 2400.00000  242.63200  248.06250  240.04850    0.04430    -999.25   32.91960  180.58650   48.83970   47.97550   23.72740   24.74820    0.09520    -999.25    3.91060 2660.90000   30.02170  -74.80320 16010.12700 15913.70020
 2450.00000  222.10780  263.89920  244.58200    0.04070    -999.25   20.90820  168.95910   12.01410   14.49560   82.41960   99.90420    0.01600    -999.25    4.55570 2641.70000  193.31840 -119.42330 17005.23630 15746.24320
 2500.00000  234.72130  236.12860  235.17930   -0.00060    -999.25  -14.25490  179.61200   55.22420   41.60330   16.22010   19.45480    0.06010    -999.25    4.08110 2719.40000   38.21750  -65.68260 17361.69530 16187.23440
 2550.00000  207.37000  233.56140  233.70100    0.02320    -999.25  -17.12710  171.14940   29.82850   34.47450  869.07140  938.66850    0.02520    -999.25    4.82440 2670.70000 1742.83110  -71.23640 17233.89650 16565.39450
 2600.00000  201.88740  228.90080  231.40470    0.02010    -999.25  -10.67740  191.18190   60.53660   63.35320   35.86390   38.96560    0.05420    -999.25    5.10010 2674.90000   48.04400  -50.68000 17278.75390 17059.22850
 2650.00000  238.44340  232.64750  230.72490    0.00970    -999.25  -14.95580  187.75600   51.48290   56.30700   81.43010   83.08370    0.03940    -999.25    4.45010 2697.30000  105.97260  -83.88270 17473.75000 17330.20120
 2700.00000  224.95520  294.26580  235.06650    0.07830    -999.25  263.65570  161.33740   16.32070   18.99570 1932.24210 1504.67440    0.00670    -999.25    4.78500 2564.30000 1977.44400 -254.76190 18222.65820 17406.68160
 2750.00000  227.85650  300.48970  253.25410    0.20320    -999.25  112.91370  174.29870   11.51840    9.64260 1152.00790  554.51060    0.00630    -999.25    4.37030 2390.40000  628.29130 -276.31480 18127.65820 17723.87890
 2800.00000  267.37940  216.65160  232.54670    0.03230    -999.25  -15.05140  168.14400   11.66590   10.38390   98.46340   85.26520    0.01080    -999.25    6.16640 2656.80000   95.84770 -219.26250 18191.78710 18156.73240
 2850.00000  368.14730  213.73440  237.26990    0.02710    -999.25  -12.79070  170.70060   12.16920   12.96360  153.94060   89.94660    0.01260    -999.25    4.88420 2661.90000  137.55020 -264.72720 18241.81050 18243.24410
 2900.00000  224.60030  251.58690  232.00320    0.00970    -999.25  149.14010  162.50150   15.55520   16.56260  929.91330  256.10600    0.01980    -999.25    3.45120 2694.50000  835.21030 -232.59450 18621.39060 18447.86520
 2950.00000  223.61850  331.27870  239.75770    0.10670    -999.25  156.87300  167.28250   26.06370   25.38740  698.77780  227.59500    0.01550    -999.25    3.84260 2530.40000 1045.18100 -232.86750 18914.58200 18951.91020
 3000.00000  213.95630  223.89050  227.81710    0.01640    -999.25  -16.48410  166.62900   26.06180   26.52470  176.31070  204.32140    0.00860    -999.25    5.25540 2682.20000  231.58200 -251.50220 19572.72070 19046.65230
 3050.00000  231.74970  226.77620  226.34640    0.02410    -999.25  -26.17810  169.74980   28.26830   27.13580  235.76210  224.08750    0.00860    -999.25    5.57010 2669.00000  472.90740 -232.17500 19940.35740 19365.20310
 3100.00000  239.48100  258.46130  250.86310    0.32730    -999.25   15.24910  235.42470   61.09610   55.70910    6.65460    6.91070    0.17750    -999.25    2.93800 2217.30000   11.56560 -174.00560 19785.08400 19616.20310
 3150.00000  241.31710  321.93990  261.36890    0.17230    -999.25  266.20370  233.17730   65.00170   73.23940    4.70140    4.94800    0.22620    -999.25    3.14370 2404.70000    6.62850 -194.56150 20012.90820 19524.71290
 3200.00000  232.45080  234.92730  233.36320    0.03470    -999.25  -19.36250  221.87550   75.66060   78.69080    6.77320    7.24010    0.15870    -999.25    5.12760 2656.90000    9.06930 -186.70120 20544.33590 20178.37110
 3250.00000  230.58920  278.65220  243.17230    0.07530    -999.25  153.40290  241.39520   90.03240  100.92730    4.55360    4.90130    0.20550    -999.25    3.94750 2582.10000    6.10940 -200.47580 20624.13280 20236.43950
 3300.00000  235.09610  228.38610  229.61140    0.14940    -999.25  -24.75250  262.00460  190.03260  214.01980   65.44280   72.14690    0.19450    -999.25    3.41760 2455.80000  111.91020 -200.62350 20549.01760 20169.08200
 3350.00000  231.36050  229.95300  234.94410    0.02440    -999.25  -28.61370  177.33900   30.33140   35.58440   71.20030   74.38730    0.02860    -999.25    6.19400 2661.10000   68.60200 -189.50940 20548.43360 20498.67970
 3400.00000  230.45020  226.21910  231.83070    0.02850    -999.25  -16.51910  171.31590   28.40120   27.59670  356.19610  394.12330    0.02180    -999.25    5.89020 2655.60000 1117.72900 -212.38690 20794.35940 20466.15040
 3450.00000  375.74440    -999.25    -999.25    0.07440    -999.25  -16.54050    -999.25    -999.25    -999.25   13.25700   13.28010    -999.25    -999.25    3.54610 2585.00000   17.35920 -261.86260 20643.58200 20259.96480
