~Version ---------------------------------------------------
VERS.      2.0 : CWLS log ASCII Standard -VERSION 2.0
WRAP.       NO : One line per depth step
CREA. 10/25/17 : LAS Creation Date
~Well ------------------------------------------------------
STRT.FT                       1050.0 : START DEPTH
STOP.FT                      10200.0 : STOP DEPTH
STEP.FT                     50.00000 : STEP LENGTH
NULL.                        -999.25 : NULL VALUE
COMP.           MARATHON OIL COMPANY : COMPANY
WELL. MARATHON HEAVYSOUND 7-16-62-17 : WELL
FLD .                                : FIELD
LOC .                                : LOCATION
CTRY.                         CANADA : COUNTRY
SRVC.                        Unknown : SERVICE COMPANY
DATE.                    27-Feb-1976 : LOGDATE
PROV.                        Alberta : PROVINCE
UWI .               100071606217W500 : UNIQUE WELL ID
SLAT.WGS84                  54.36142 : SURFACE LATITUDE
SLON.WGS84                 -116.4847 : SURFACE LONGITUDE
~Curve Information -----------------------------------------
DEPT    .FT                                       : Depth Curve
CALDED  .IN                                       : CALIPER FROM DENSITY LOG [DEP. ADJ. TO GRSED]
CALSED  .IN                                       : CALIPER FROM SONIC LOG
CALWS   .IN                                       : CALIPER [1132' CALSED 5088' CALDED 8507' CALSED 10228' CALDED]
CILDED  .MMho : CONDUCTIVITY FROM RESISTIVITY LOG : 
CONDWS  .MMHO                                     : CONDUCTIVITY [1000/DRESWS]
DCORED  .G/C3                                     : DENSITY CORRECTION FROM DENSITY LOG [DEP. ADJ. TO GRSED]
DCORWS  .G/C3                                     : DENSITY CORRECTION [DCORED]
DENWS   .G/C3                                     : BULK DENSITY [M=2.71, F=1.00] [RHOBED]
DPHILSED.V/V                                      : DENSITY POROSITY [M=2.71, F=1.00] FROM DENSITY LOG [DEP. ADJ. TO GRSED]
DPHISSED.V/V                                      : DENSITY POROSITY [M=2.65, F=1.00] FROM DENSITY LOG [DEP. ADJ. TO GRSED]
DPOLSWS .V/V                                      : DENSITY POROSITY [M=2.71, F=1.00] [CAL. FROM DENWS]
DRESWS  .OHMM                                     : DEEP RESISTIVITY [1132' 1000/CILDED 5088' ILDED 8507' 1000/CILDED 10228' ILDED][REDUC. TO 2000 OHMM]
DTED    .US/F                                     : DELTA TIME FROM SONIC LOG
DTWS    .US/F                                     : DELTA TIME [DTED]
GRDED   .GAPI                                     : GAMMA RAY FROM DENSITY LOG [DEP. ADJ. TO GRSED]
GRSED   .GAPI                                     : GAMMA RAY FROM SONIC LOG
GRWS    .GAPI                                     : GAMMA RAY [1050' GRSED 10222' GRDED]
ILDED   .OHMM                                     : INDUCTION LOG DEEP RESISTIVITY
ILMED   .OHMM                                     : INDUCTION LOG MEDIUM RESISTIVITY
LL8ED   .OHMM                                     : 8 INCH LATEROLOG RESISTIVITY
MRESWS  .OHMM                                     : MEDIUM RESISTIVITY [ILMED]
NPHILSED.V/V                                      : NEUTRON POROSITY LIMESTONE FROM DENSITY LOG [DEP. ADJ. TO GRSED]
NPHISSED.V/V                                      : NEUTRON POROSITY SANDSTONE FROM DENSITY LOG [DEP. ADJ. TO GRSED]
NPOLSWS .V/V                                      : NEUTRON POROSITY SANDSTONE [5098' [NPHISSED IS CONVERTED TO LIMESTONE MATRIX] 6397' NPHILSED]
RHOBED  .G/C3                                     : BULK DENSITY FROM DENSITY LOG [DEP. ADJ. TO GRSED]
SPRED   .MV                                       : SPONTANEOUS POTENTIAL FROM RESISTIVITY LOG
SPWS    .MV                                       : SPONTANEOUS POTENTIAL [BASELINE 0 MV] [SPRED]
SRESWS  .OHMM                                     : SHALLOW RESISTIVITY [LL8ED] [FILLED GAPS]
~Params ----------------------------------------------------
PD  .                     GL : PERMANENT DATUM
EPD .FT                 2966 : ELEVATION PERMANENT DATUM
LMF .                     KB : LOG MEASURED FROM
DAPD.FT                   14 : FEET ABOVE PERMANENT DATUM
EKB .FT                 2980 : KELLY BUSHING
EGL .FT                 2966 : GROUND LEVEL
DATE.               02/27/76 : RUN DATE
RUN .                      1 : RUN NUMBER
DD  .FT                10240 : DEPTH DRILLER
DL  .FT                10242 : DEPTH LOGGER
BLI .FT                10239 : BOTTOM LOG INTERVAL
TLI .FT                 1133 : TOP LOG INTERVAL
CS  .IN                9.625 : CASING SIZE
CBD .FT                 1128 : CASING BOTTOM DRILLER
CBL .FT                 1133 : CASING BOTTOM LOGGER
BS  .IN                 8.75 : BIT SIZE
BSD .FT                10240 : BIT SIZE AT DEPTH
RMS .OHMM                2.3 : RESISTIVITY MUD SAMPLE
MST .DEGF                 68 : MUD SAMPLE TEMPERATURE
RMF .OHMM                2.1 : RESISTIVITY MUD FILTRATE SAMPLE
MFST.DEGF                 68 : MUD FILTRATE SAMPLE TEMPERATURE
TCS .HRS                   2 : TIME CIRCULATED STOPPED
LUN .                   7636 : LOGGING UNIT NUMBER
LUL .                    EDM : LOGGING UNIT LOCATION
ENGI.                  LAZOR : RECORDING ENGINEER
WITN.                 DEWULF : WITNESSED BY
CLNT.                A2DTECH : CLIENT CODE
ORIG.            2" 5" PRINT : ORIGIN OF DATA
UWI .       100071606217W500 : UNIQUE WELL ID
DICO. A2D Technologies, Inc. : DIGITIZING COMPANY
~Other -----------------------------------------------------
~ASCII -----------------------------------------------------
# ...
 2300.00000    -999.25   11.39600   11.39600  245.74930  245.74930    -999.25    -999.25    -999.25    -999.25    -999.25    -999.25    4.06920   96.89620   96.89620    -999.25   85.83020   85.83020    3.92840    -999.25    3.79670    -999.25    -999.25    -999.25    -999.25    -999.25  -36.21600   -9.72290    3.79670
 2350.00000    -999.25    9.01190    9.01190  307.73640  307.73640    -999.25    -999.25    -999.25    -999.25    -999.25    -999.25    3.24950  117.12390  117.12390    -999.25   95.87200   95.87200    3.57320    -999.25    3.21550    -999.25    -999.25    -999.25    -999.25    -999.25  -36.05960   -9.21670    3.21550
 2400.00000    -999.25   11.03370   11.03370   74.74770   74.74770    -999.25    -999.25    -999.25    -999.25    -999.25    -999.25   13.37830   86.01000   86.01000    -999.25   61.87230   61.87230   13.29000    -999.25   10.52540    -999.25    -999.25    -999.25    -999.25    -999.25  -47.77760  -23.82180   10.52540
 2450.00000    -999.25   12.31230   12.31230  230.82280  230.82280    -999.25    -999.25    -999.25    -999.25    -999.25    -999.25    4.33230   99.84750   99.84750    -999.25   79.62760   79.62760    3.87110    -999.25    3.72640    -999.25    -999.25    -999.25    -999.25    -999.25  -23.61390   -2.64500    3.72640
 2500.00000    -999.25   11.84740   11.84740  265.19490  265.19490    -999.25    -999.25    -999.25    -999.25    -999.25    -999.25    3.77080   96.77560   96.77560    -999.25   85.87890   85.87890    3.19590    -999.25    3.00710    -999.25    -999.25    -999.25    -999.25    -999.25  -26.92150   -6.26890    3.00710
 2550.00000    -999.25   10.63320   10.63320  212.29070  212.29070    -999.25    -999.25    -999.25    -999.25    -999.25    -999.25    4.71050  107.25880  107.25880    -999.25   78.30270   78.30270    4.30120    -999.25    4.17260    -999.25    -999.25    -999.25    -999.25    -999.25  -25.99850   -5.66380    4.17260
 2600.00000    -999.25   11.28450   11.28450  197.37900  197.37900    -999.25    -999.25    -999.25    -999.25    -999.25    -999.25    5.06640   93.16350   93.16350    -999.25   66.19610   66.19610    4.87480    -999.25    4.73130    -999.25    -999.25    -999.25    -999.25    -999.25  -24.13100   -4.06590    4.73130
 2650.00000    -999.25   10.91400   10.91400   59.40420   59.40420    -999.25    -999.25    -999.25    -999.25    -999.25    -999.25   16.83380   73.67140   73.67140    -999.25   46.10080   46.10080   17.07140    -999.25   15.29930    -999.25    -999.25    -999.25    -999.25    -999.25  -31.07130  -10.65940   15.29930
 2700.00000    -999.25   11.31520   11.31520  214.15060  214.15060    -999.25    -999.25    -999.25    -999.25    -999.25    -999.25    4.66960   94.13170   94.13170    -999.25   74.90940   74.90940    4.68140    -999.25    4.30730    -999.25    -999.25    -999.25    -999.25    -999.25  -27.27820   -6.51610    4.30730
 2750.00000    -999.25    8.96350    8.96350   91.61820   91.61820    -999.25    -999.25    -999.25    -999.25    -999.25    -999.25   10.91490   94.65870   94.65870    -999.25   59.15570   59.15570   10.75330    -999.25    8.88930    -999.25    -999.25    -999.25    -999.25    -999.25  -32.74580  -11.63700    8.88930
 2800.00000    -999.25   11.74540   11.74540  224.91610  224.91610    -999.25    -999.25    -999.25    -999.25    -999.25    -999.25    4.44610   99.51610   99.51610    -999.25   71.98720   71.98720    4.37720    -999.25    4.08410    -999.25    -999.25    -999.25    -999.25    -999.25  -24.88150   -3.42430    4.08410
 2850.00000    -999.25   10.80080   10.80080   84.68520   84.68520    -999.25    -999.25    -999.25    -999.25    -999.25    -999.25   11.80840   74.14940   74.14940    -999.25   44.11760   44.11760   11.86840    -999.25   11.25730    -999.25    -999.25    -999.25    -999.25    -999.25  -30.85820   -9.05080   11.25730
 2900.00000    -999.25   10.46600   10.46600  230.15640  230.15640    -999.25    -999.25    -999.25    -999.25    -999.25    -999.25    4.34490   88.40090   88.40090    -999.25   64.42910   64.42910    4.54040    -999.25    4.19530    -999.25    -999.25    -999.25    -999.25    -999.25  -25.97840   -3.82420    4.19530
 2950.00000    -999.25    9.11220    9.11220   24.09920   24.09920    -999.25    -999.25    -999.25    -999.25    -999.25    -999.25   41.49520   76.29520   76.29520    -999.25   45.61970   45.61970   34.78470    -999.25   35.18660    -999.25    -999.25    -999.25    -999.25    -999.25  -41.50920  -19.00480   35.18660
 3000.00000    -999.25    9.91630    9.91630  209.64600  209.64600    -999.25    -999.25    -999.25    -999.25    -999.25    -999.25    4.76990   90.56710   90.56710    -999.25   72.05860   72.05860    4.87780    -999.25    4.73400    -999.25    -999.25    -999.25    -999.25    -999.25  -27.37390   -4.52280    4.73400
 3050.00000    -999.25   10.41590   10.41590  219.83500  219.83500    -999.25    -999.25    -999.25    -999.25    -999.25    -999.25    4.54890   95.65980   95.65980    -999.25   69.10180   69.10180    4.92950    -999.25    4.37850    -999.25    -999.25    -999.25    -999.25    -999.25  -26.81740   -3.61780    4.37850
 3100.00000    -999.25   10.35110   10.35110  226.32170  226.32170    -999.25    -999.25    -999.25    -999.25    -999.25    -999.25    4.41850  102.79380  102.79380    -999.25   71.55210   71.55210    4.63340    -999.25    4.12080    -999.25    -999.25    -999.25    -999.25    -999.25  -30.65160   -7.10180    4.12080
 3150.00000    -999.25   10.53200   10.53200  201.29970  201.29970    -999.25    -999.25    -999.25    -999.25    -999.25    -999.25    4.96770   92.98350   92.98350    -999.25   73.98860   73.98860    4.88890    -999.25    5.35430    -999.25    -999.25    -999.25    -999.25    -999.25  -32.55640   -8.65990    5.35430
 3200.00000    -999.25    9.29520    9.29520  102.76690  102.76690    -999.25    -999.25    -999.25    -999.25    -999.25    -999.25    9.73080   84.97090   84.97090    -999.25   58.41240   58.41240   10.43700    -999.25   13.12500    -999.25    -999.25    -999.25    -999.25    -999.25  -34.74920  -10.50250   13.12500
 3250.00000    -999.25    9.13860    9.13860  106.50710  106.50710    -999.25    -999.25    -999.25    -999.25    -999.25    -999.25    9.38900   87.56540   87.56540    -999.25   60.61910   60.61910    9.51600    -999.25    9.71200    -999.25    -999.25    -999.25    -999.25    -999.25  -33.74610   -9.15270    9.71200
 3300.00000    -999.25    9.50170    9.50170  240.01590  240.01590    -999.25    -999.25    -999.25    -999.25    -999.25    -999.25    4.16640  102.44770  102.44770    -999.25   73.80600   73.80600    4.14540    -999.25    4.56010    -999.25    -999.25    -999.25    -999.25    -999.25  -27.92280   -2.97980    4.56010
 3350.00000    -999.25    9.90010    9.90010  211.09200  211.09200    -999.25    -999.25    -999.25    -999.25    -999.25    -999.25    4.73730   93.61870   93.61870    -999.25   79.23020   79.23020    4.72670    -999.25    5.25910    -999.25    -999.25    -999.25    -999.25    -999.25  -29.12080   -3.77330    5.25910
 3400.00000    -999.25   10.16030   10.16030  164.49410  164.49410    -999.25    -999.25    -999.25    -999.25    -999.25    -999.25    6.07920   96.00040   96.00040    -999.25   91.82600   91.82600    5.93650    -999.25    6.38970    -999.25    -999.25    -999.25    -999.25    -999.25  -29.46900   -3.72100    6.38970
 3450.00000    -999.25   10.48770   10.48770  136.64540  136.64540    -999.25    -999.25    -999.25    -999.25    -999.25    -999.25    7.31820   91.64040   91.64040    -999.25  100.54570  100.54570    7.11850    -999.25    7.26350    -999.25    -999.25    -999.25    -999.25    -999.25  -35.41920   -9.26670    7.26350
 3500.00000    -999.25   10.78940   10.78940  127.57050  127.57050    -999.25    -999.25    -999.25    -999.25    -999.25    -999.25    7.83880   86.52080   86.52080    -999.25   95.94000   95.94000    7.82750    -999.25    7.98900    -999.25    -999.25    -999.25    -999.25    -999.25  -35.77100   -9.21800    7.98900
