~Version ---------------------------------------------------
VERS.      2.0 : CWLS log ASCII Standard -VERSION 2.0
WRAP.       NO : One line per depth step
CREA. 12/20/17 : LAS Creation Date
~Well ------------------------------------------------------
STRT.FT                              650.0 : START DEPTH
STOP.FT                             9600.0 : STOP DEPTH
STEP.FT                           50.00000 : STEP LENGTH
NULL.                              -999.25 : NULL VALUE
COMP.    CANADIAN OCCIDENTAL PETROLEUM LTD : COMPANY
WELL. CAN OXY ET AL VIRG HILLS 10-12-64-13 : WELL
FLD .                                      : FIELD
LOC .                                      : LOCATION
CTRY.                               CANADA : COUNTRY
SRVC.                         Schlumberger : SERVICE COMPANY
DATE.                          02-Apr-1975 : LOGDATE
PROV.                              Alberta : PROVINCE
UWI .                     100101206413W500 : UNIQUE WELL ID
SLAT.WGS84                        54.52636 : SURFACE LATITUDE
SLON.WGS84                       -115.8216 : SURFACE LONGITUDE
~Curve Information -----------------------------------------
DEPT  .FT    : Depth Curve
CALSED.IN    : CALIPER FROM SONIC LOG [ADJ. TO RESISTIVITY LOG]
CALWS .IN    : CALIPER [CALSED]
CILDED.MMHO  : CONDUCTIVITY FROM RESISTIVITY LOG
CONDWS.MMHO  : CONDUCTIVITY [1000/DRESWS]
DRESWS.OHMM  : DEEP RESISTIVITY [1000/CILDED IF ILDED <=5, ILDED]
DTED  .US/F  : DELTA-T FROM SONIC LOG [ADJ. TO RESISTIVITY LOG]
DTWS  .US/F  : COMPRESSIONAL SONIC [DTED]
GRSED .GAPI  : GAMMA RAY FROM SONIC LOG [ADJ. TO RESISTIVITY LOG]
GRWS  .GAPI  : GAMMA RAY [GRSED]
ILDED .OHMM  : DEEP INDUCTION RESISTIVITY FROM RESISTIVITY LOG
ILMED .OHMM  : MEDIUM INDUCTION RESISTIVITY FROM RESISTIVITY LOG
LL8ED .OHMM  : LATEROLOG 8 FROM RESISTIVITY LOG
MRESWS.OHMM  : MEDIUM RESISTIVITY [ILMED]
SPRED .MV    : SPONTANEOUS POTENTIAL FROM RESISTIVITY LOG
SPWS  .MV    : SPONTANEOUS POTENTIAL [BASELINE 0 MV, SPRED]
SRESWS.OHMM  : SHALLOW RESISTIVITY [LL8ED]
~Params ----------------------------------------------------
PD  .                     GL : PERMANENT DATUM
EPD .FT                 3713 : ELEVATION PERMANENT DATUM
LMF .                     KB : LOG MEASURED FROM
DAPD.FT                   14 : FEET ABOVE PERMANENT DATUM
EKB .FT                 3727 : KELLY BUSHING
EGL .FT                 3713 : GROUND LEVEL
DATE.               04/02/75 : RUN DATE
RUN .                      1 : RUN NUMBER
DD  .FT                 9629 : DEPTH DRILLER
DL  .FT                 9627 : DEPTH LOGGER
BLI .FT                 9621 : BOTTOM LOG INTERVAL
TLI .FT                  650 : TOP LOG INTERVAL
CBD .FT                  650 : CASING BOTTOM DRILLER
CBL .FT                  650 : CASING BOTTOM LOGGER
BS  .IN                7.875 : BIT SIZE
BSD .FT                 9629 : BIT SIZE AT DEPTH
DFT .               GEL CHEM : DRILLING FLUID TYPE
DFD .                    9.3 : DRILLING FLUID DENSITY
DFV .                     84 : DRILLING FLUID VISCOSITY
DFPH.                    9.5 : DRILLING FLUID PH
DFL .                   10.5 : DRILLING FLUID LOSS
MSS .               FLOWLINE : MUD SAMPLE SOURCE
RMS .OHMM               2.78 : RESISTIVITY MUD SAMPLE
MST .DEGF                 68 : MUD SAMPLE TEMPERATURE
RMF .OHMM               2.49 : RESISTIVITY MUD FILTRATE SAMPLE
MFST.DEGF                 62 : MUD FILTRATE SAMPLE TEMPERATURE
RMB .OHMM               0.76 : RESISTIVITY MUD AT BHT
TCS .HRS                   3 : TIME CIRCULATED STOPPED
LUN .                   7691 : LOGGING UNIT NUMBER
LUL .                    EDM : LOGGING UNIT LOCATION
ENGI.                  KOLLA : RECORDING ENGINEER
WITN.                   COTE : WITNESSED BY
CLNT.                A2DTECH : CLIENT CODE
ORIG.            2" 5" PRINT : ORIGIN OF DATA
UWI .       100101206413W500 : UNIQUE WELL ID
DICO. A2D Technologies, Inc. : DIGITIZING COMPANY
~Other -----------------------------------------------------
~ASCII -----------------------------------------------------
# ...
 7100.00000    8.40730    8.40730    -999.25   10.97960   91.07810   49.60220   49.60220   12.50280   12.50280   91.07810  107.04520  154.01920  107.04520  -73.57970  -63.82970  154.01920
 7150.00000    8.59150    8.59150    -999.25   15.04210   66.48010   51.05270   51.05270   12.88240   12.88240   66.48010   87.38060  442.74890   87.38060 -115.74890 -105.77710  442.74890
 7200.00000    7.73960    7.73960    -999.25   49.80130   20.08020   54.31910   54.31910   11.52140   11.52140   20.08020   38.89990  267.65680   38.89990 -182.60940 -172.41430  267.65680
 7250.00000    8.58540    8.58540    -999.25   24.82140   40.28780   50.18790   50.18790   12.45610   12.45610   40.28780   56.98040  418.23220   56.98040 -159.06900 -148.65210  418.23220
 7300.00000    7.70380    7.70380    -999.25   50.59010   19.76670   54.83600   54.83600   15.39890   15.39890   19.76670   32.66100  245.99020   32.66100 -180.49150 -169.85270  245.99020
 7350.00000    8.50950    8.50950    -999.25   23.64160   42.29830   51.34690   51.34690   16.28630   16.28630   42.29830   63.38680  378.17180   63.38680 -156.40760 -145.54550  378.17180
 7400.00000    8.47900    8.47900    -999.25    5.59520  178.72380   48.10530   48.10530   14.70380   14.70380  178.72380  454.22460  885.70140  454.22460 -109.71870  -98.63480  885.70140
 7450.00000    7.95150    7.95150    -999.25   21.13600   47.32540   52.80890   52.80890   11.90980   11.90980   47.32540   74.84610  380.35760   74.84610 -154.19980 -142.89260  380.35760
 7500.00000    7.66940    7.66940    -999.25   59.03470   16.93920   52.69620   52.69620   15.66950   15.66950   16.93920   28.66460  264.45690   28.66460 -198.39290 -186.86390  264.45690
 7550.00000    7.67500    7.67500    -999.25   28.52460   35.05740   53.77180   53.77180   11.40420   11.40420   35.05740   51.61050  239.33850   51.61050 -162.56510 -150.81420  239.33850
 7600.00000    8.14150    8.14150    -999.25   35.04980   28.53080   51.00110   51.00110   15.94570   15.94570   28.53080   31.71150  153.29020   31.71150 -163.18350 -151.20940  153.29020
 7650.00000   10.01220   10.01220    -999.25  173.91000    5.75010   60.60680   60.60680   70.15580   70.15580    5.75010    6.31600   10.57540    6.31600  -84.28110  -72.08510   10.57540
 7700.00000    7.77360    7.77360    -999.25   28.72120   34.86150   47.54870   47.54870   17.12040   17.12040   34.86150   58.20290  290.26470   58.20290 -189.90810 -177.48880  290.26470
 7750.00000    8.36540    8.36540    -999.25   10.78820   92.69420   46.84150   46.84150   22.28600   22.28600   92.69420  161.74170  350.75460  161.74170 -161.74200 -149.10090  350.75460
 7800.00000    8.74040    8.74040    -999.25   59.35880   16.84670   49.65400   49.65400   26.97380   26.97380   16.84670   20.84490   33.99880   20.84490 -151.80850 -138.94560   33.99880
 7850.00000    9.77080    9.77080    -999.25   22.51400   44.41680   54.39510   54.39510   34.75130   34.75130   44.41680   47.75590   70.94830   47.75590 -108.38260  -95.29640   70.94830
 7900.00000    9.35480    9.35480    -999.25   23.16870   43.16170   53.40180   53.40180   30.35160   30.35160   43.16170   47.53530   63.40430   47.53530  -44.87890  -31.57080   63.40430
 7950.00000    8.52190    8.52190    -999.25   50.69090   19.72810   57.20380   57.20380   47.97180   47.97180   19.72810   21.11610   27.09530   21.11610  -52.32280  -38.79150   27.09530
 8000.00000    8.43450    8.43450    -999.25   56.62800   17.65910   58.67730   58.67730   56.43470   56.43470   17.65910   18.89800   24.40860   18.89800  -46.47340  -32.72020   24.40860
 8050.00000    9.00590    9.00590    -999.25   73.53210   13.59950   59.05320   59.05320   42.55060   42.55060   13.59950   14.25220   18.06400   14.25220  -42.89030  -28.91530   18.06400
 8100.00000    8.77450    8.77450    -999.25  106.23940    9.41270   62.81200   62.81200   55.44590   55.44590    9.41270   10.11440   12.60180   10.11440  -43.67860  -29.48030   12.60180
 8150.00000   13.19290   13.19290    -999.25  211.05510    4.73810   78.90790   78.90790   70.12960   70.12960    4.73810    4.97820    6.34580    4.97820  -53.82200  -39.40190    6.34580
 8200.00000   15.05360   15.05360    -999.25  283.57630    3.52640   86.08470   86.08470   75.65300   75.65300    3.52640    3.09320    4.90440    3.09320  -61.37440  -46.73100    4.90440
 8250.00000    9.02300    9.02300    -999.25  147.40350    6.78410   70.57210   70.57210   72.61140   72.61140    6.78410    7.24940    8.89760    7.24940  -41.25800  -26.39270    8.89760
 8300.00000    9.00970    9.00970    -999.25   74.41030   13.43900   58.45890   58.45890   38.90630   38.90630   13.43900   15.35510   24.73350   15.35510  -44.60520  -29.51810   24.73350
 8350.00000   10.68790   10.68790    -999.25  142.18480    7.03310   72.26130   72.26130   56.91350   56.91350    7.03310    7.98790    8.70160    7.98790  -57.11930  -41.80890    8.70160
 8400.00000   11.70400   11.70400    -999.25  194.84060    5.13240   85.24280   85.24280   59.88670   59.88670    5.13240    5.58240    7.35560    5.58240  -78.33990  -62.80770    7.35560
 8450.00000   12.42280   12.42280    -999.25  237.60240    4.21070   85.88920   85.88920   71.03660   71.03660    4.21070    4.53700    6.00690    4.53700  -56.95030  -41.19480    6.00690
 8500.00000    8.57340    8.57340    -999.25  106.01080    9.43300   64.68350   64.68350   62.82840   62.82840    9.43300   10.33280   15.12170   10.33280  -41.20150  -25.22420   15.12170
 8550.00000    9.95850    9.95850    -999.25  177.86320    5.62230   71.58610   71.58610   73.31280   73.31280    5.62230    6.18260    8.34100    6.18260  -61.23380  -45.03460    8.34100
 8600.00000    8.71280    8.71280    -999.25  145.32770    6.88100   70.01480   70.01480   79.54810   79.54810    6.88100    7.22770    9.59040    7.22770  -46.54160  -30.11910    9.59040
 8650.00000    8.24170    8.24170    -999.25  136.64750    7.31810   69.29900   69.29900   67.05900   67.05900    7.31810    7.97960    8.26960    7.97960  -45.97800  -29.33370    8.26960
 8700.00000    8.87660    8.87660    -999.25  186.14830    5.37230   73.59500   73.59500   99.02350   99.02350    5.37230    5.67070    7.70040    5.67070  -60.32890  -43.46130    7.70040
 8750.00000    8.74070    8.74070    -999.25  185.53560    5.38980   74.69610   74.69610   94.03740   94.03740    5.38980    5.67930    7.93720    5.67930  -52.17920  -35.08980    7.93720
 8800.00000    8.36330    8.36330    -999.25  124.85020    8.00960   66.72590   66.72590   72.82860   72.82860    8.00960    8.72830   11.98090    8.72830  -35.27860  -17.96740   11.98090
 8850.00000    8.64730    8.64730    -999.25  192.59660    5.19220   79.28130   79.28130   90.32540   90.32540    5.19220    5.53180    7.99710    5.53180  -49.46280  -31.92830    7.99710
 8900.00000    8.53160    8.53160    -999.25  182.03660    5.49340   72.96930   72.96930   89.06360   89.06360    5.49340    5.84320    8.19630    5.84320  -36.55010  -18.79370    8.19630
 8950.00000    9.39090    9.39090    -999.25  268.59130    3.72450   84.74030   84.74030  103.95600  103.95600    3.72450    4.00240    5.83650    4.00240  -66.92930  -48.94960    5.83650
 9000.00000    8.05600    8.05600    -999.25   65.18610   15.34070   59.63500   59.63500   48.86900   48.86900   15.34070   16.75310   22.44920   16.75310  -30.12540  -11.92390   22.44920
 9050.00000    8.46890    8.46890    -999.25   86.01260   11.62620   89.39430   89.39430  146.76620  146.76620   11.62620   12.96530   21.58080   12.96530  -24.49810   -6.07480   21.58080
 9100.00000    8.92150    8.92150    -999.25  190.54510    5.24810   82.09000   82.09000   94.47550   94.47550    5.24810    5.55890    8.25080    5.55890  -46.25510  -27.60850    8.25080
 9150.00000    8.07040    8.07040    -999.25    5.11090  195.65990   59.64130   59.64130   43.46340   43.46340  195.65990  525.75850 1193.06200  525.75850  -19.41130   -0.54290 1193.06200
 9200.00000    8.62560    8.62560    -999.25  159.39770    6.27670   73.82520   73.82520   86.09150   86.09150    6.27670    6.78760    7.50880    6.78760  -35.36100  -16.26930    7.50880
