~Version ---------------------------------------------------
VERS. 2.0 : CWLS log ASCII Standard -VERSION 2.0
WRAP.  NO : ONE LINE PER DEPTH STEP
~Well ------------------------------------------------------
STRT.F                  1200.0 : START DEPTH
STOP.F                 12350.0 : STOP DEPTH
STEP.F                50.00000 : STEP LENGTH
NULL.                  -999.25 : NULL VALUE
COMP.     CHEVRON STANDARD LTD : COMPANY
WELL. CHEVRON EDSON 7-28-52-17 : WELL
FLD .                          : FIELD
LOC .                          : LOCATION
CTRY.                   CANADA : COUNTRY
SRVC.             Schlumberger : SERVICE COMPANY
DATE.              18-Oct-1968 : LOGDATE
PROV.                  Alberta : PROVINCE
UWI .         100072805217W500 : UNIQUE WELL ID
SLAT.WGS84             53.5164 : SURFACE LATITUDE
SLON.WGS84           -116.4412 : SURFACE LONGITUDE
~Curve Information -----------------------------------------
DEPT   .F                 : 
CALD   .IN   70 280 01 00 : CALIPER
GRD    .GAPI              : GAMMA RAY
CALN   .IN   00 000 00 01 : 7 CALIPER FROM NEUTRON
GRN    .GAPI              : GAMMA RAY NEUTRON
DCOR   .G/C3 45 356 01 00 : DENSITY CORRECTION
RHOB   .G/C3 45 350 01 00 : BULK DENSITY
DPHI_LS.DEC  45 890 10 00 : DENSITY POROSITY LIMESTONE
CILD   .MMHO 07 110 00 00 : CONDUCTIVITY INDUCTION LOG
ILD    .OHMM 06 121 12 00 : INDUCTION LOG RESISTIVITY
SN     .OHMM 01 041 16 00 : SHORT NORMAL 16"
SPR    .MV                : SPONTANEOUS POTENTIAL FROM RESISTIVITY
GRS    .GAPI              : GAMMA RAY FROM SONIC LOG
DT     .US/F 60 520 00 00 : DELTA TIME FROM SONIC LOG
CALS   .IN                : CALIPER FROM SONIC LOG
SNP_LS .DEC               : SIDEWALL NEUTRON POROSITY LIMESONTE
~Params ----------------------------------------------------
PD  .                     GL : PERMANENT DATUM
EPD .FT                 3060 : ELEVATION PERMANENT DATUM
LMF .                     KB : LOG MEASURED FROM
DAPD.FT                   13 : FEET ABOVE PERMANENT DATUM
EKB .FT                 3073 : KELLY BUSHING
EGL .FT                 3060 : GROUND LEVEL
DATE.               10/18/68 : RUN DATE
RUN .                      1 : RUN NUMBER
DD  .FT                12360 : DEPTH DRILLER
DL  .FT                12367 : DEPTH LOGGER
BLI .FT                12366 : BOTTOM LOG INTERVAL
TLI .FT                 1258 : TOP LOG INTERVAL
CBD .FT                 1258 : CASING BOTTOM DRILLER
CBL .FT                 1258 : CASING BOTTOM LOGGER
BS  .IN                 8.75 : BIT SIZE
BSD .FT                12360 : BIT SIZE AT DEPTH
DFT .                    GEL : DRILLING FLUID TYPE
DFD .                    9.8 : DRILLING FLUID DENSITY
DFV .                     69 : DRILLING FLUID VISCOSITY
DFPH.                   10.5 : DRILLING FLUID PH
DFL .                    6.3 : DRILLING FLUID LOSS
RMF .OHMM               0.93 : RESISTIVITY MUD FILTRATE SAMPLE
MFST.DEGF                 63 : MUD FILTRATE SAMPLE TEMPERATURE
RMC .OHMM               1.94 : RESISTIVITY MUD CAKE
MCST.DEGF                 67 : MUD CAKE SAMPLE TEMPERATURE
TCS .HRS                   4 : TIME CIRCULATED STOPPED
LUN .                   7501 : LOGGING UNIT NUMBER
LUL .                    EDM : LOGGING UNIT LOCATION
ENGI.               CHADDOCK : RECORDING ENGINEER
WITN.                HOVDEBO : WITNESSED BY
CLNT.                A2DTECH : CLIENT CODE
ORIG.            2" 5" PRINT : ORIGIN OF DATA
UWI .       100072805217W500 : UNIQUE WELL ID
DICO. A2D Technologies, Inc. : DIGITIZING COMPANY
~Other -----------------------------------------------------
~ASCII -----------------------------------------------------
# ...
 8100.00000    -999.25    -999.25    -999.25    -999.25    -999.25    -999.25    -999.25   65.61280   14.22100   19.00010  -74.60680   61.60240   70.02160    9.75850    -999.25
 8150.00000    -999.25    -999.25    -999.25    -999.25    -999.25    -999.25    -999.25   58.22250   16.16110   22.29270  -74.32520   45.83350   67.19560    9.37890    -999.25
 8200.00000    -999.25    -999.25    -999.25    -999.25    -999.25    -999.25    -999.25   71.92490   12.69930   18.60130  -57.92180   48.93000   66.42380    9.44900    -999.25
 8250.00000    -999.25    -999.25    -999.25    -999.25    -999.25    -999.25    -999.25   51.03020   18.31080   21.81520  -67.19360   37.56230   48.44360    9.63450    -999.25
 8300.00000    -999.25    -999.25    -999.25    -999.25    -999.25    -999.25    -999.25   76.12240   11.99560   14.78920  -62.43350   62.29990   77.01720   10.35000    -999.25
 8350.00000    -999.25    -999.25    -999.25    -999.25    -999.25    -999.25    -999.25   66.69250   13.89500   18.51740  -63.83260   60.39760   68.79380    9.71710    -999.25
 8400.00000    -999.25    -999.25    -999.25    -999.25    -999.25    -999.25    -999.25   41.20220   25.24660   29.02600  -59.31860   51.41260   78.76370   13.39700    -999.25
 8450.00000    -999.25    -999.25    -999.25    -999.25    -999.25    -999.25    -999.25   58.31010   16.31720   28.81870  -60.28010   64.56470   63.00190   10.10720    -999.25
 8500.00000    -999.25    -999.25    -999.25    -999.25    -999.25    -999.25    -999.25   24.81790   42.70560   20.73690  -59.89150   68.42540   72.90520   11.99880    -999.25
 8550.00000    -999.25    -999.25    -999.25    -999.25    -999.25    -999.25    -999.25   47.40650   20.27200   29.15810  -56.67080   79.72800   66.64940    9.20070    -999.25
 8600.00000    -999.25    -999.25    -999.25    -999.25    -999.25    -999.25    -999.25   38.05130   26.15550   24.78350  -58.66400   78.03380   76.23930   14.86740    -999.25
 8650.00000   11.07860  108.48620   10.87610  101.90680    0.21440    2.37000    0.20700   93.68650   10.19140   14.79210  -62.84830   67.65000   78.92860   11.00520    0.28030
 8700.00000   11.87050   84.18410   12.06350   81.53660    0.12550    2.02570    -999.25   34.27940   30.37800   28.18940  -78.78370   35.18250   83.31420   14.73670    0.24120
 8750.00000   15.01450   86.17320   14.74770   89.85240    0.05390    1.52270    -999.25  129.52770    7.21940   11.46250  -60.97750   64.84930   96.62340    -999.25    -999.25
 8800.00000    8.73880   58.61190    9.10590   54.30610    0.02800    2.60490    0.02640   24.10680   41.42090   52.40360 -143.62230   19.83910   57.72750    9.31470    0.03860
 8850.00000    8.79870   45.61960    9.10450   42.42320    0.03830    2.62960    0.03830    2.44440  542.81430  190.82990  -82.63660   20.54990   54.39000    9.29150    0.02290
 8900.00000    8.47700   64.44660    9.33320   60.72090    0.01270    2.63900    0.01770    3.12880  434.01750  148.53990  -58.36490   20.55560   54.61700    8.99910    0.03060
 8950.00000   11.12140   61.12170   11.18210   64.66840    0.24080    2.22520    0.26780   25.08140   39.85990   51.77320  -81.58760   28.64250   51.99840   10.46650    0.16100
 9000.00000    8.10340   52.65790    8.52910   53.20540    0.07010    2.53850    0.07610  128.68440    7.29960   24.44970 -108.36780   41.97820   51.42120    9.61130    0.16860
 9050.00000    8.79180   81.12830    8.81720   80.03060    0.12610    2.79060   -0.05760   14.23290   71.16320   60.42770  -74.77880   22.44720   52.27090    9.61110    0.01950
 9100.00000    8.43930   77.23000   13.87290   68.83220    0.02970    2.78860   -0.04280   14.21370   70.60910   59.55640  -95.17190   30.55930   56.14770   10.06450    0.10220
 9150.00000    9.05910  121.85760    9.28170  110.72180    0.01860    2.82070   -0.10960   21.59520   46.35640   60.59160  -74.46090   11.86780   51.18280    9.54960    0.04460
 9200.00000    9.34000   68.52430    9.31880   71.23570    0.01360    2.98570   -0.15690   19.62100   50.86440   70.25730 -107.39630    5.11680   51.32720    9.93740    0.01230
 9250.00000    8.60930   76.91060    8.92900   75.57670   -0.00400    2.87630   -0.12320   11.44670   88.91510   98.39320 -119.08050    7.32540   50.09820    9.53410    0.03250
 9300.00000    8.45660   85.12930    8.67380   82.47800    0.01020    2.66660    0.02370   26.96940   36.65630   59.49850 -121.25510    6.34450   51.12810    9.30340    0.04750
 9350.00000    8.71620  131.85600    8.99730  130.31450    0.02130    2.76470   -0.03900   34.89870   27.37450   30.63370  -62.25050   61.24100   56.00250    9.57870    0.02510
 9400.00000    -999.25    -999.25    -999.25    -999.25    -999.25    -999.25    -999.25   60.73880   15.26820   20.06650  -62.78800   39.56500   54.70480    9.51950    -999.25
 9450.00000    -999.25    -999.25    -999.25    -999.25    -999.25    -999.25    -999.25   26.53510   37.59640   48.91730  -43.88150   29.79010   53.09440    9.31470    -999.25
 9500.00000    -999.25    -999.25    -999.25    -999.25    -999.25    -999.25    -999.25    4.19660  285.64350  110.31490  -40.58980   16.61020   50.85170   10.05570    -999.25
 9550.00000    -999.25    -999.25    -999.25    -999.25    -999.25    -999.25    -999.25   33.15340   29.41250   35.46480  -31.55710   42.69030   59.75770    9.88710    -999.25
 9600.00000    -999.25    -999.25    -999.25    -999.25    -999.25    -999.25    -999.25   41.89990   23.28400   28.25000  -38.57280   47.58210   60.15060    9.81900    -999.25
 9650.00000    -999.25    -999.25    -999.25    -999.25    -999.25    -999.25    -999.25   35.21010   27.75390   31.41820  -40.10250   40.22230   58.31930    9.68760    -999.25
 9700.00000    -999.25    -999.25    -999.25    -999.25    -999.25    -999.25    -999.25   34.62130   28.97200   31.92750  -43.97880   42.78770   58.40540    9.64300    -999.25
 9750.00000    -999.25    -999.25    -999.25    -999.25    -999.25    -999.25    -999.25   33.73620   29.38690   30.10110  -45.46540   46.57250   62.20460   10.81790    -999.25
 9800.00000    -999.25    -999.25    -999.25    -999.25    -999.25    -999.25    -999.25   17.74630   56.24520   52.29050  -53.08880   28.50290   53.70420    9.38060    -999.25
 9850.00000    -999.25    -999.25    -999.25    -999.25    -999.25    -999.25    -999.25   21.19870   46.56630   59.89060  -69.34890    -999.25   77.25440    9.26140    -999.25
 9900.00000    -999.25    -999.25    -999.25    -999.25    -999.25    -999.25    -999.25    3.26420  426.19600  193.03250  -74.51150    9.20030   49.93900    9.43000    -999.25
 9950.00000    -999.25    -999.25    -999.25    -999.25    -999.25    -999.25    -999.25    2.85460  548.14300  172.31580 -101.14760   10.78340   48.61120   10.48730    -999.25
 10000.00000    -999.25    -999.25    -999.25    -999.25    -999.25    -999.25    -999.25    3.42680  377.59230  173.53940 -121.74890    8.83580   51.35050   10.28020    -999.25
 10050.00000    -999.25    -999.25    -999.25    -999.25    -999.25    -999.25    -999.25    1.91340  541.02170  141.55790 -128.00430    8.92780   49.73400   10.99640    -999.25
 10100.00000    -999.25    -999.25    -999.25    -999.25    -999.25    -999.25    -999.25    6.13780  173.66190  145.87860 -121.79810   12.69480   50.09480   10.35320    -999.25
 10150.00000    -999.25    -999.25    -999.25    -999.25    -999.25    -999.25    -999.25    8.19390  127.52820  134.37940 -129.14930   12.51430   50.29560   11.68150    -999.25
 10200.00000    -999.25    -999.25    -999.25    -999.25    -999.25    -999.25    -999.25    5.44280  219.77690   91.23550 -151.92700    9.35960   50.71650   10.90980    -999.25
 10250.00000    -999.25    -999.25    -999.25    -999.25    -999.25    -999.25    -999.25   10.99950   89.83090   95.12910 -156.28200    9.36180   48.97910   10.35380    -999.25
 10300.00000    -999.25    -999.25    -999.25    -999.25    -999.25    -999.25    -999.25    6.50460  176.36700  139.60580 -155.29070   10.14900   49.82480   10.74680    -999.25
 10350.00000    -999.25    -999.25    -999.25    -999.25    -999.25    -999.25    -999.25    1.94480  546.56180  134.39320 -185.54010   10.94070   50.15620   11.09210    -999.25
