~Version ---------------------------------------------------
VERS. 2.0 : CWLS log ASCII Standard -VERSION 2.0
WRAP.  NO : One line per depth step
~Well ------------------------------------------------------
STRT.M                           300.0 : START DEPTH
STOP.M                          1750.0 : STOP DEPTH
STEP.M                        50.00000 : STEP LENGTH
NULL.                          -999.25 : NULL VALUE
COMP.           ALPETRO RESOURCES LTD. : COMPANY
WELL. WESTCOAST ET AL NIPISI 6-30-80-9 : WELL
FLD .                           NIPISI : FIELD
LOC .                                  : LOCATION
CTRY.                           CANADA : COUNTRY
SRVC.                     Schlumberger : SERVICE COMPANY
DATE.                      23-Mar-1985 : LOGDATE
PROV.                          Alberta : PROVINCE
UWI .                 100063008009W500 : UNIQUE WELL ID
SLAT.WGS84               55.9627799988 : SURFACE LATITUDE
SLON.WGS84             -115.4012908936 : SURFACE LONGITUDE
~Curve Information -----------------------------------------
DEPT   .M      : DEPTH METERS
CALS   .MM     : CALIPER FROM SONIC LOG
DPHI_LS.DEC    : DENSITY POROSITY [M=2710 F=1000] FROM DENSITY LOG
DRHO   .KG/M3  : DENSITY CORRECTION FROM DENSITY LOG
DT     .US/M   : DELTA TIME FROM SONIC LOG
GRS    .GAPI   : GAMMA RAY FROM SONIC LOG
ILD    .OHMM   : INDUCTION LOG DEEP RESISTIVITY
ILM    .OHMM   : INDUCTION LOG MEDIUM RESISTIVITY
NPHI_LS.DEC    : NEUTRON POROSITY LIMESTONE FROM DENSITY LOG
PEF    .B/E    : PHOTOELECTRIC FACTOR FROM DENSITY LOG
RHOB   .KG/M3  : BULK DENSITY FROM DENSITY LOG
SFLU   .OHMM   : SPHERICALLY FOCUSED LOG RESISTIVITY
SPR    .MV     : SPONTANEOUS POTENTIAL FROM RESISTIVITY LOG
~Params ----------------------------------------------------
PD  .                         GL : PERMANENT DATUM
EPD .M                    649.45 : ELEVATION PERMANENT DATUM
LMF .                         KB : LOG MEASURED FROM
DAPD.M                      5.17 : FEET ABOVE PERMANENT DATUM
DMF .                         KB : DRILLING MEASURED FROM
EKB .M                    654.62 : KELLY BUSHING
EDF .M                     654.3 : DRILLING FLOOR
EGL .M                    649.45 : GROUND LEVEL
DATE.                    3/23/85 : RUN DATE
RUN .                          1 : RUN NUMBER
DD  .M                      1751 : DEPTH DRILLER
DL  .M                      1751 : DEPTH LOGGER
BLI .M                      1760 : BOTTOM LOG INTERVAL
TLI .M                       300 : TOP LOG INTERVAL
CS  .MM                      244 : CASING SIZE
CBD .M                       311 : CASING BOTTOM DRILLER
CBL .M                       300 : CASING BOTTOM LOGGER
BS  .MM                      222 : BIT SIZE
BSD .M                      1751 : BIT SIZE AT DEPTH
DFT .                   GEL CHEM : DRILLING FLUID TYPE
DFD .                       1150 : DRILLING FLUID DENSITY
DFV .                         60 : DRILLING FLUID VISCOSITY
DFPH.                         11 : DRILLING FLUID PH
DFL .                          9 : DRILLING FLUID LOSS
MSS .                   FLOWLINE : MUD SAMPLE SOURCE
RMS .OHMM                   0.71 : RESISTIVITY MUD SAMPLE
MST .DEGC                     29 : MUD SAMPLE TEMPERATURE
RMF .OHMM                   0.68 : RESISTIVITY MUD FILTRATE SAMPLE
MFST.DEGC                     16 : MUD FILTRATE SAMPLE TEMPERATURE
RMC .OHMM                  0.402 : RESISTIVITY MUD CAKE
MCST.DEGC                     42 : MUD CAKE SAMPLE TEMPERATURE
MFSS.                       MEAS : MUD FILTRATE SAMPLE SOURCE
MCSS.                       MEAS : MUD CAKE SAMPLE SOURCE
RMB .OHMM                  0.565 : RESISTIVITY MUD AT BHT
TCS .HRS                     110 : TIME CIRCULATED STOPPED
TLAB.HRS                     530 : TIME LOGGER AT BOTTOM
LUN .                       8125 : LOGGING UNIT NUMBER
LUL .                        EDM : LOGGING UNIT LOCATION
ENGI.                      THEIN : RECORDING ENGINEER
WITN.                     THOMAS : WITNESSED BY
CLNT.                    A2DTECH : CLIENT CODE
ORIG. 6.5"/100M 16.5"/100M PRINT : ORIGIN OF DATA
UWI .           100063008009W500 : UNIQUE WELL ID
DICO.     A2D Technologies, Inc. : DIGITIZING COMPANY
~Other -----------------------------------------------------
~ASCII -----------------------------------------------------
  300.00000  235.73720    -999.25    -999.25  719.08700   46.93340  581.57150  945.31100    -999.25    -999.25    -999.25    3.18560  -25.91550
  350.00000  232.24250    -999.25    -999.25  417.67300   45.38890    5.30180    6.60120    -999.25    -999.25    -999.25    7.72900  -61.89310
  400.00000  354.36800    -999.25    -999.25  495.87020   54.17390    3.00580    2.74870    -999.25    -999.25    -999.25    3.83760  -32.87520
  450.00000  276.89220    0.32260  -17.16930  388.20150   67.50320    4.70960    4.94310    0.40320    2.44230 2156.30980    4.07670  -48.87110
  500.00000  313.62610    0.30110   29.08940  382.21410   67.07940    4.91350    4.38280    0.39890    2.28270 2188.49800    3.85450  -39.85720
  550.00000  303.89600    0.46220   -5.77730  372.02590   76.68630    6.10660    5.74620    0.38300    1.82700 1920.21000    5.31720  -42.35170
  600.00000  247.16730    0.09760   15.44360  200.04150   10.91640  136.19010   81.43980    0.10180    3.88580 2531.03220  140.68850  -57.78080
  650.00000  293.51110    0.12250   -6.14970  257.67500   59.09220    6.38840    5.72410    0.23270    3.04090 2497.77120   14.10580  -50.37790
  700.00000  296.42000    -999.25    -999.25  238.27420   38.65830   13.25580   11.83920    -999.25    -999.25    -999.25   20.61770  -43.66770
  750.00000  313.94450    -999.25    -999.25  308.97400   29.49030    3.93610    3.07460    -999.25    -999.25    -999.25    4.12740  -30.41350
  800.00000  288.22410    -999.25    -999.25  256.69980   29.14810    6.08060    5.71600    -999.25    -999.25    -999.25    5.08470  -26.26490
  850.00000  313.99280    -999.25    -999.25  282.20520   51.22760    5.22360    4.86630    -999.25    -999.25    -999.25    6.75010  -26.45920
  900.00000  267.37910    -999.25    -999.25  199.33830   16.30570   23.86390   30.90290    -999.25    -999.25    -999.25   55.80360  -97.24940
  950.00000  250.31370    -999.25    -999.25  178.22420   12.27280   43.12320   52.73560    -999.25    -999.25    -999.25  109.90120  -88.93240
 1000.00000  240.17550    -999.25    -999.25  181.51410   11.28760   30.21210   38.07070    -999.25    -999.25    -999.25   94.28270  -87.94360
 1050.00000  241.11920    -999.25    -999.25  178.18930   14.54190   41.61310   38.89850    -999.25    -999.25    -999.25   75.85200  -73.01280
 1100.00000  246.66940    -999.25    -999.25  173.97310    5.50280   49.80090   45.53450    -999.25    -999.25    -999.25  109.38030  -78.98650
 1150.00000  241.58990    -999.25    -999.25  180.51000   33.07870   14.00190   16.99040    -999.25    -999.25    -999.25   23.73070  -59.84810
 1200.00000  213.19160    -999.25    -999.25  183.96120   27.50340   11.61310   13.71770    -999.25    -999.25    -999.25   25.17030  -63.70160
 1250.00000  223.11440    -999.25    -999.25  193.06720   20.59040   21.70950   20.03650    -999.25    -999.25    -999.25   23.37480  -50.70860
 1300.00000  253.82510    -999.25    -999.25  289.47660   73.24290    3.53340    3.42770    -999.25    -999.25    -999.25    3.66270  -37.39940
 1350.00000  248.77160    -999.25    -999.25  298.59100   80.98010    3.38630    3.50060    -999.25    -999.25    -999.25    3.73700  -36.35590
 1400.00000  284.79660    -999.25    -999.25  311.21710   88.18280    2.95120    2.73840    -999.25    -999.25    -999.25    3.21070  -38.17950
 1450.00000  230.53030    -999.25    -999.25  265.88570   94.09420    4.58290    4.79040    -999.25    -999.25    -999.25    6.13910  -19.31400
 1500.00000  225.86530    -999.25    -999.25  230.84670   51.81470    8.13460    8.37640    -999.25    -999.25    -999.25    9.45280  -12.47690
 1550.00000  222.87200    -999.25    -999.25  236.14340   60.05510    8.60210    8.86080    -999.25    -999.25    -999.25   10.34810  -15.76860
 1600.00000  225.25380    -999.25    -999.25  265.46550   72.64310    4.62190    4.84930    -999.25    -999.25    -999.25    5.48480  -16.98780
 1650.00000  223.39780    0.04960   -8.98950  250.31110   77.62120    6.80270    7.17940    0.20680    3.76920 2621.36790    8.23160  -11.05030
 1700.00000  219.94550    0.03440   -7.72730  174.92250   19.75790   72.12330   72.09320    0.03160    5.10100 2648.57400   87.69210  -51.33980
 1750.00000  221.29940    0.06090    8.18300  224.27260   77.30830    3.65790    4.44960    0.19260    3.13830 2601.55320    5.46220  -42.42330
