~Version ---------------------------------------------------
VERS.      2.0 : CWLS log ASCII Standard -VERSION 2.0
WRAP.       NO : One line per depth step
CREA. 09/25/17 : LAS Creation Date
~Well ------------------------------------------------------
STRT.FT                          1050.0 : START DEPTH
STOP.FT                         10150.0 : STOP DEPTH
STEP.FT                        50.00000 : STEP LENGTH
NULL.                           -999.25 : NULL VALUE
COMP.           CANADA FINA OIL LIMITED : COMPANY
WELL. FINA ET AL HEAVYSOUND 10-26-62-17 : WELL
FLD .                                   : FIELD
LOC .                                   : LOCATION
CTRY.                            CANADA : COUNTRY
SRVC.                      Schlumberger : SERVICE COMPANY
DATE.                       01-Mar-1964 : LOGDATE
PROV.                           Alberta : PROVINCE
UWI .                  100102606217W500 : UNIQUE WELL ID
SLAT.WGS84                     54.39382 : SURFACE LATITUDE
SLON.WGS84                    -116.4347 : SURFACE LONGITUDE
~Curve Information -----------------------------------------
DEPT  .FT    : Depth Curve
CALWS .IN    : CALIPER [MCALED]
CILDED.MMHO  : CONDUCTIVITY FROM RESISTIVITY LOG
CONDWS.MMHO  : CONDUCTIVITY [1000/DRESWS]
DRESWS.OHMM  : DEEP RESISTIVITY [1000/CILDED IF ILDED<5, ILDED]
DTED  .US/F  : DELTA TIME FROM SONIC LOG
DTWS  .US/F  : COMPRESSIONAL  SONIC [DTED]
GRSED .GAPI  : GAMMA RAY FROM SONIC LOG
GRWS  .GAPI  : GAMMA RAY [GRSED]
ILDED .OHMM  : DEEP INDUCTION RESISTIVITY FROM RESISTIVITY LOG
MCALED.IN    : CALIPER FROM MICROLOG
SNED  .OHMM  : 16 INCH SHORT NORMAL RESISTIVITY FROM RESISTIVITY LOG
SPRED .MV    : SPONTANEOUS POTENTIAL FROM RESISTIVITY LOG
SPWS  .MV    : SPONTANEOUS POTENTIAL [BASELINE 0 MV, SPRED]
SRESWS.OHMM  : SHALLOW RESISTIVITY [SNED]
~Params ----------------------------------------------------
PD  .                     GL : PERMANENT DATUM
EPD .FT                 3042 : ELEVATION PERMANENT DATUM
LMF .                     KB : LOG MEASURED FROM
DAPD.FT                16.75 : FEET ABOVE PERMANENT DATUM
DMF .                     KB : DRILLING MEASURED FROM
EKB .FT              3058.75 : KELLY BUSHING
EGL .FT                 3042 : GROUND LEVEL
DATE.               03/01/64 : RUN DATE
RUN .                      1 : RUN NUMBER
DD  .FT                10173 : DEPTH DRILLER
DL  .FT                10174 : DEPTH LOGGER
BLI .FT                10173 : BOTTOM LOG INTERVAL
TLI .FT                 1030 : TOP LOG INTERVAL
CBD .FT                 1030 : CASING BOTTOM DRILLER
CBL .FT                 1030 : CASING BOTTOM LOGGER
BS  .IN                    9 : BIT SIZE
BSD .FT                10173 : BIT SIZE AT DEPTH
DFT .               CHEMICAL : DRILLING FLUID TYPE
DFD .                    9.8 : DRILLING FLUID DENSITY
DFV .                     84 : DRILLING FLUID VISCOSITY
DFPH.                     10 : DRILLING FLUID PH
DFL .                    8.6 : DRILLING FLUID LOSS
MSS .             CIRCULATED : MUD SAMPLE SOURCE
RMS .OHMM               1.69 : RESISTIVITY MUD SAMPLE
MST .DEGF                 64 : MUD SAMPLE TEMPERATURE
RMF .OHMM               1.11 : RESISTIVITY MUD FILTRATE SAMPLE
MFST.DEGF                 74 : MUD FILTRATE SAMPLE TEMPERATURE
RMC .OHMM               2.58 : RESISTIVITY MUD CAKE
MCST.DEGF                 72 : MUD CAKE SAMPLE TEMPERATURE
RMB .OHMM               0.67 : RESISTIVITY MUD AT BHT
TCS .HRS                 300 : TIME CIRCULATED STOPPED
LUN .                   2597 : LOGGING UNIT NUMBER
LUL .                    WCT : LOGGING UNIT LOCATION
ENGI.                  MOORE : RECORDING ENGINEER
WITN.        WENDEBORN ANKLE : WITNESSED BY
CLNT.                A2DTECH : CLIENT CODE
ORIG.            2" 5" PRINT : ORIGIN OF DATA
UWI .       100102606217W500 : UNIQUE WELL ID
DICO. A2D Technologies, Inc. : DIGITIZING COMPANY
~Other -----------------------------------------------------
~ASCII -----------------------------------------------------
 1050.00000    -999.25  230.33460  230.33460    4.34320  127.39770  127.39770   68.31960   68.31960    4.02220    -999.25    4.45990 -133.29210  -50.54960    4.45990
 1100.00000    -999.25  204.52510  204.52510    4.88940  112.48680  112.48680   64.91680   64.91680    4.65580    -999.25    3.99540 -135.97180  -53.22930    3.99540
 1150.00000    -999.25  170.74550  182.68840    5.47380  108.81040  108.81040   64.53470   64.53470    5.47380    -999.25    5.19350 -122.89200  -40.14950    5.19350
 1200.00000    -999.25  158.22300  167.10670    5.98420  109.08350  109.08350   69.58120   69.58120    5.98420    -999.25    4.73270 -114.72990  -31.98740    4.73270
 1250.00000    -999.25  282.11410  282.11410    3.54470  130.00570  130.00570   67.07640   67.07640    3.37480    -999.25    2.74480 -112.90470  -30.16220    2.74480
 1300.00000    -999.25  233.33400  233.33400    4.28590  121.99310  121.99310   76.02570   76.02570    4.06790    -999.25    3.68540 -103.60850  -20.86600    3.68540
 1350.00000    -999.25  123.92310  133.01590    7.51790   92.63240   92.63240   56.96300   56.96300    7.51790    -999.25    6.55910  -99.95560  -17.21310    6.55910
 1400.00000    -999.25  319.61980  319.61980    3.12870  123.02260  123.02260   71.54020   71.54020    3.02060    -999.25    2.51930  -96.92170  -14.17920    2.51930
 1450.00000    -999.25  180.14630  195.46900    5.11590  113.44110  113.44110   72.99700   72.99700    5.11590    -999.25    4.36330  -92.99300  -10.25050    4.36330
 1500.00000    -999.25   87.59160   89.81420   11.13410  104.83870  104.83870   56.16910   56.16910   11.13410    -999.25    7.19960  -90.92780   -8.18530    7.19960
 1550.00000    -999.25  374.92350  374.92350    2.66780  111.35640  111.35640   50.09370   50.09370    2.45860    -999.25    4.65930  -89.89240   -7.14990    4.65930
 1600.00000    -999.25  342.59070  342.59070    2.91890  110.36540  110.36540   78.22610   78.22610    2.76140    -999.25    3.41320  -87.83440   -5.09190    3.41320
 1650.00000    -999.25  392.78150  392.78150    2.54590  113.63430  113.63430   58.14370   58.14370    2.28740    -999.25    2.70050  -86.98750   -4.24500    2.70050
 1700.00000    -999.25  370.38530  370.38530    2.69990  104.74720  104.74720   63.38980   63.38980    2.60470    -999.25    3.40410  -85.79050   -3.04800    3.40410
 1750.00000    -999.25  346.05300  346.05300    2.88970  134.50960  134.50960   58.51190   58.51190    2.69510    -999.25    4.43670  -86.31530   -3.57280    4.43670
 1800.00000    -999.25  434.25980  434.25980    2.30380  149.66110  149.66110   69.83660   69.83660    2.08590    -999.25    2.58890  -86.61870   -3.87620    2.58890
 1850.00000    -999.25  434.51110  434.51110    2.30140  142.37050  142.37050   67.28390   67.28390    1.99540    -999.25    2.29120  -85.64910   -2.90660    2.29120
 1900.00000    -999.25  197.94730  197.94730    5.05180   96.97030   96.97030   59.04860   59.04860    4.92410    -999.25    6.48750  -88.22960   -5.48710    6.48750
 1950.00000    -999.25  305.18130  305.18130    3.27670  113.62980  113.62980   66.11290   66.11290    3.09900    -999.25    4.62190  -88.84470   -6.10220    4.62190
 2000.00000    -999.25  394.20340  394.20340    2.53680  104.50450  104.50450   69.02640   69.02640    2.07030    -999.25    2.38600  -87.60750   -4.86500    2.38600
 2050.00000    -999.25  493.52480  493.52480    2.02700  113.54160  113.54160   84.56210   84.56210    1.72210    -999.25    2.06190  -87.42040   -4.67790    2.06190
 2100.00000    -999.25  145.83930  151.73820    6.59030   94.84700   94.84700   80.96210   80.96210    6.59030    -999.25    9.49440  -88.64860   -5.90610    9.49440
 2150.00000    -999.25  402.21970  402.21970    2.48620  111.80660  111.80660   66.07280   66.07280    2.38150    -999.25    1.88140  -87.40140   -4.65890    1.88140
 2200.00000    -999.25  335.24190  335.24190    2.98290   97.37060   97.37060   67.16140   67.16140    2.89860    -999.25    2.40270  -87.34990   -4.60740    2.40270
 2250.00000    -999.25  263.51450  263.51450    3.79490  101.64850  101.64850   71.21170   71.21170    3.67800    -999.25    2.71420  -87.12490   -4.38240    2.71420
 2300.00000    -999.25  327.12650  327.12650    3.07490  103.17290  103.17290   58.80400   58.80400    3.47690    -999.25    3.25940  -92.11130   -9.36880    3.25940
 2350.00000    -999.25  366.61290  366.61290    2.72770  119.80960  119.80960   62.55240   62.55240    2.53340    -999.25    2.79880  -87.68820   -4.94570    2.79880
 2400.00000    -999.25  158.28880  162.78160    6.14320   99.16500   99.16500   63.42160   63.42160    6.14320    -999.25    5.29820  -87.35070   -4.60820    5.29820
 2450.00000    -999.25  196.14220  196.14220    5.09830  102.36500  102.36500   63.68120   63.68120    4.98780    -999.25    3.71180  -86.60630   -3.86380    3.71180
 2500.00000    -999.25  244.40070  244.40070    4.09160  102.56630  102.56630   58.27510   58.27510    4.04170    -999.25    3.71210  -87.00750   -4.26500    3.71210
 2550.00000    -999.25  153.03670  156.73870    6.38480  100.18140  100.18140   58.58020   58.58020    6.38480    -999.25    5.89860  -86.00520   -3.26270    5.89860
 2600.00000    -999.25  255.99520  255.99520    3.90630  114.12730  114.12730   59.65340   59.65340    4.05250    -999.25    3.37950  -85.87180   -3.17820    3.37950
 2650.00000    -999.25  249.39340  249.39340    4.00970   96.79660   96.79660   59.90900   59.90900    4.12920    -999.25    3.27200  -85.59450   -2.99160    3.27200
 2700.00000    -999.25  227.15210  227.15210    4.40230  112.55790  112.55790   46.98990   46.98990    4.65860    -999.25    3.83060  -86.65820   -4.14660    3.83060
 2750.00000    -999.25   77.51730   76.45610   13.07940   99.76110   99.76110   53.33280   53.33280   13.07940    -999.25    9.84640  -91.80000   -9.37910    9.84640
 2800.00000    -999.25  110.67680  100.00630   10.08010  108.50080  108.50080   45.27880   45.27880   10.08010    -999.25    9.53700  -88.42560   -6.09540    9.53700
 2850.00000    -999.25   76.43500   77.99160   12.82190   97.22370   97.22370   44.34150   44.34150   12.82190    -999.25   10.38030  -90.20480   -7.96590   10.38030
 2900.00000    -999.25  110.20280  107.24670    9.32430   98.47360   98.47360   43.84000   43.84000    9.32430    -999.25    6.72230  -88.88020   -6.73200    6.72230
 2950.00000    -999.25   62.39190   64.19020   15.57870   84.13020   84.13020   37.75030   37.75030   15.57870    -999.25   14.61300  -89.73770   -7.68080   14.61300
 3000.00000    -999.25  206.00290  206.00290    4.85430  101.27020  101.27020   53.04820   53.04820    4.96420    -999.25    4.48870  -84.77500   -2.80880    4.48870
 3050.00000    -999.25  145.85500  145.61770    6.88610  110.66790  110.66790   52.68600   52.68600    6.88610    -999.25    7.75160  -86.11700   -4.24150    7.75160
 3100.00000    -999.25  255.71910  255.71910    3.91050  116.40950  116.40950   55.58680   55.58680    4.05900    -999.25    3.65500  -83.81230   -2.02810    3.65500
 3150.00000    8.41450   54.63070   56.23470   17.78260   77.97620   77.97620   40.08500   40.08500   17.78260    8.41450   16.23530  -94.91030  -13.21680   16.23530
 3200.00000    9.19090  150.90790  157.83580    6.33570   85.43840   85.43840   57.78320   57.78320    6.33570    9.19090    6.56620  -87.42490   -5.82270    6.56620
 3250.00000   10.00760   97.14770   98.53380   10.14880   88.88430   88.88430   49.10880   49.10880   10.14880   10.00760    9.41640  -89.14630   -7.63480    9.41640
 3300.00000   11.80780  205.16570  205.16570    4.87500  103.66630  103.66630   58.70690   58.70690    4.91070   11.80780    4.33080  -86.16210   -4.74140    4.33080
 3350.00000   11.83510  191.91310  191.91310    5.21070  102.78190  102.78190   62.05950   62.05950    4.94960   11.83510    4.60260  -83.98230   -2.58830    4.60260
 3400.00000   12.25650  150.61280  156.12800    6.40500  101.95200  101.95200   77.57560   77.57560    6.40500   12.25650    5.70660  -86.96740   -4.96270    5.70660
 3450.00000   12.03080  120.68370  124.61680    8.02460   97.98670   97.98670   73.74020   73.74020    8.02460   12.03080    7.39480  -88.32190   -5.70260    7.39480
