~Version ---------------------------------------------------
VERS.      2.0 : CWLS log ASCII Standard -VERSION 2.0
WRAP.       NO : One line per depth step
CREA. 11/10/17 : LAS Creation Date
~Well ------------------------------------------------------
STRT.FT                               1200.0 : START DEPTH
STOP.FT                              13150.0 : STOP DEPTH
STEP.FT                             50.00000 : STEP LENGTH
NULL.                                -999.25 : NULL VALUE
COMP.         VINTAGE PETROLEUM CANADA, INC. : COMPANY
WELL. GENESIS ET AL MARLBORO 14-17-55-19 #14 : WELL
FLD .                                        : FIELD
LOC .                                        : LOCATION
CTRY.                                 CANADA : COUNTRY
SRVC.                           Schlumberger : SERVICE COMPANY
DATE.                            01-Sep-1970 : LOGDATE
PROV.                                Alberta : PROVINCE
UWI .                       100141705519W500 : UNIQUE WELL ID
SLAT.WGS84                          53.75669 : SURFACE LATITUDE
SLON.WGS84                         -116.7889 : SURFACE LONGITUDE
~Curve Information -----------------------------------------
DEPT  .FT    : Depth Curve
CALSED.IN    : CALIPER FROM SONIC LOG [ADJ. TO RESISTIVITY LOG]
CALWS .IN    : CALIPER [CALSED]
CONDWS.MMHO  : CONDUCTIVITY [1000/DRESWS]
DRESWS.OHMM  : DEEP RESISTIVITY [ILDED]
DTED  .US/F  : DELTA T FROM SONIC LOG [ADJ. TO RESISTIVITY LOG]
DTWS  .US/F  : COMPRESSIONAL SONIC [DTED]
GRSED .GAPI  : GAMMA RAY FROM SONIC [ADJ. TO RESISTIVITY LOG]
GRWS  .GAPI  : GAMMA RAY [GRSED] CSG < 1306'
ILDED .OHMM  : DEEP INDUCTION FROM RESISTIVITY LOG
ILMED .OHMM  : MEDIUM INDUCTION FROM RESISTIVITY LOG
LL8ED .OHMM  : LATEROLOG 8' FROM RESISTIVITY LOG
MRESWS.OHMM  : MEDIUM RESISTIVITY [ILMED]
SPRED .MV    : SPONTANEOUS POTENTIAL FROM RESISTIVITY LOG
SPWS  .MV    : SPONTANEOUS POTENTIAL [BASELINE 0 MV, SPRED]
SRESWS.OHMM  : SHALLOW RESISTIVITY [LL8ED]
~Params ----------------------------------------------------
PD  .                     GL : PERMANENT DATUM
EPD .FT                 3735 : ELEVATION PERMANENT DATUM
LMF .                     KB : LOG MEASURED FROM
DAPD.FT                   17 : FEET ABOVE PERMANENT DATUM
EKB .FT                 3752 : KELLY BUSHING
EGL .FT                 3735 : GROUND LEVEL
DATE.               09/01/70 : RUN DATE
RUN .                      1 : RUN NUMBER
DD  .FT                13157 : DEPTH DRILLER
DL  .FT                13154 : DEPTH LOGGER
BLI .FT                13148 : BOTTOM LOG INTERVAL
TLI .FT                 1306 : TOP LOG INTERVAL
CBD .FT                 1308 : CASING BOTTOM DRILLER
CBL .FT                 1306 : CASING BOTTOM LOGGER
BS  .IN                 8.75 : BIT SIZE
BSD .FT                13157 : BIT SIZE AT DEPTH
DFT .                    FGM : DRILLING FLUID TYPE
DFD .                    9.2 : DRILLING FLUID DENSITY
DFV .                    183 : DRILLING FLUID VISCOSITY
DFPH.                     10 : DRILLING FLUID PH
DFL .                   11.2 : DRILLING FLUID LOSS
MSS .               FLOWLINE : MUD SAMPLE SOURCE
RMS .OHMM               0.93 : RESISTIVITY MUD SAMPLE
MST .DEGF                 82 : MUD SAMPLE TEMPERATURE
RMF .OHMM               0.72 : RESISTIVITY MUD FILTRATE SAMPLE
MFST.DEGF                 82 : MUD FILTRATE SAMPLE TEMPERATURE
RMC .OHMM               1.13 : RESISTIVITY MUD CAKE
MCST.DEGF                 82 : MUD CAKE SAMPLE TEMPERATURE
RMB .OHMM               0.35 : RESISTIVITY MUD AT BHT
TCS .HRS                 4.5 : TIME CIRCULATED STOPPED
LUN .                   7502 : LOGGING UNIT NUMBER
LUL .                    EDM : LOGGING UNIT LOCATION
ENGI.                  PLUME : RECORDING ENGINEER
WITN.                 LITTLE : WITNESSED BY
CLNT.                A2DTECH : CLIENT CODE
ORIG.            2" 5" PRINT : ORIGIN OF DATA
UWI .       100141705519W500 : UNIQUE WELL ID
DICO. A2D Technologies, Inc. : DIGITIZING COMPANY
~Other -----------------------------------------------------
~ASCII -----------------------------------------------------
# ...
 3500.00000    9.14360    9.14360   56.38250   17.73600   66.94050   66.94050   52.07650   52.07650   17.73600   18.10510   20.36930   18.10510 -127.18350  -10.72830   20.36930
 3550.00000    9.26160    9.26160  159.69910    6.26290   86.10130   86.10130   59.24130   59.24130    6.26290    6.77010    7.84900    6.77010 -124.29640   -7.91910    7.84900
 3600.00000    9.50490    9.50490  275.77080    3.62620  103.51540  103.51540   83.87600   83.87600    3.62620    4.44840    4.94800    4.44840 -120.25190   -3.95300    4.94800
 3650.00000    9.36880    9.36880  167.19310    5.98180   87.20350   87.20350   70.91490   70.91490    5.98180    6.29650    6.74860    6.29650 -119.75420   -3.53320    6.74860
 3700.00000    9.22280    9.22280  150.73630    6.63410   84.17330   84.17330   87.98740   87.98740    6.63410    6.90310    7.48450    6.90310 -119.93390   -3.79140    7.48450
 3750.00000    9.79290    9.79290  207.64120    4.81600   85.05470   85.05470   81.85990   81.85990    4.81600    5.14190    5.40220    5.14190 -119.78620   -3.72160    5.40220
 3800.00000   10.03410   10.03410  241.76920    4.13880   90.86870   90.86870   77.05750   77.05750    4.13880    4.62470    5.01300    4.62470 -118.43680   -2.45010    5.01300
 3850.00000    9.77010    9.77010  145.08520    6.89250   79.94550   79.94550   67.06080   67.06080    6.89250    7.78450    8.08770    7.78450 -116.44250   -0.70630    8.08770
 3900.00000    9.08550    9.08550  449.04220    2.24190  123.04330  123.04330  107.86080  107.86080    2.24190    2.58160    3.11110    2.58160 -116.38040   -0.92970    3.11110
 3950.00000    9.46710    9.46710   88.61630   11.28460   80.86520   80.86520   89.68710   89.68710   11.28460   12.97690   14.78390   12.97690 -117.51760   -2.35430   14.78390
 4000.00000    9.35340    9.35340  201.48290    4.96320   84.12080   84.12080   73.40570   73.40570    4.96320    5.37350    5.92400    5.37350 -117.60560   -2.72780    5.92400
 4050.00000    9.43220    9.43220  225.59480    4.43340   89.15420   89.15420   93.40980   93.40980    4.43340    4.60820    4.95160    4.60820 -115.03190   -0.43960    4.95160
 4100.00000    9.20270    9.20270   72.77810   13.74040   73.13960   73.13960   51.66280   51.66280   13.74040   14.67490   15.47170   14.67490 -118.13740   -3.83250   15.47170
 4150.00000    9.10160    9.10160   65.30290   15.33260   73.52000   73.52000   83.64540   83.64540   15.33260   16.27820   17.66980   16.27820 -118.03600   -4.01670   17.66980
 4200.00000    9.70130    9.70130  110.40700    9.05740   87.09760   87.09760   78.33110   78.33110    9.05740    9.90550   10.88350    9.90550 -115.99280   -2.26080   10.88350
 4250.00000   10.42630   10.42630  324.78080    3.07900   98.47430   98.47430   81.56570   81.56570    3.07900    3.36410    3.74490    3.36410 -115.22340   -1.77700    3.74490
 4300.00000   10.64490   10.64490  256.73090    3.89520   96.46600   96.46600   71.83220   71.83220    3.89520    4.16470    4.47530    4.16470 -114.51410   -1.35320    4.47530
 4350.00000    9.65750    9.65750  150.79090    6.63170   81.63890   81.63890   67.59320   67.59320    6.63170    7.34410    8.04080    7.34410 -116.12350   -3.59110    8.04080
 4400.00000    9.24700    9.24700  127.55610    7.84280   80.17960   80.17960   72.14910   72.14910    7.84280    8.22610    8.90000    8.22610 -115.56030   -3.86510    8.90000
 4450.00000   10.10530   10.10530  170.75340    5.85640   90.47990   90.47990   90.53450   90.53450    5.85640    6.22930    6.52920    6.22930 -112.11870   -1.26150    6.52920
 4500.00000    9.35980    9.35980  202.43730    4.93980   89.42930   89.42930   87.91970   87.91970    4.93980    5.55420    6.39750    5.55420 -112.39530   -1.67870    6.39750
 4550.00000    9.68840    9.68840  119.37780    8.38000   80.66000   80.66000   70.27140   70.27140    8.38000    8.85110    9.92100    8.85110 -113.30100   -2.72500    9.92100
 4600.00000   10.15990   10.15990  213.82140    4.67680   83.93910   83.93910   81.49950   81.49950    4.67680    4.92170    5.26500    4.92170 -112.12300   -1.68850    5.26500
 4650.00000   10.61250   10.61250  376.27960    2.66120  105.95500  105.95500  112.42350  112.42350    2.66120    2.83500    3.01940    2.83500 -112.40220   -2.10830    3.01940
 4700.00000   11.39390   11.39390  166.89200    5.99190  107.17630  107.17630   70.94260   70.94260    5.99190    7.46160    7.93870    7.46160 -112.29500   -2.14260    7.93870
 4750.00000    9.56570    9.56570  145.93430    6.85240   91.56920   91.56920   61.37610   61.37610    6.85240    7.15090    7.40850    7.15090 -113.97870   -4.38900    7.40850
 4800.00000    9.63110    9.63110  145.68400    6.88260   91.71630   91.71630   67.59980   67.59980    6.88260    7.41540    8.01150    7.41540 -111.83000   -2.89420    8.01150
 4850.00000    9.00270    9.00270   43.31160   23.08850   68.64950   68.64950   33.93560   33.93560   23.08850   24.86850   28.29670   24.86850 -117.67150   -9.39380   28.29670
 4900.00000    9.22610    9.22610   89.17330   11.22700   72.12130   72.12130   54.16070   54.16070   11.22700   11.96560   13.97470   11.96560 -116.38300   -8.75920   13.97470
 4950.00000    9.14080    9.14080  111.71560    8.95130   74.33770   74.33770   55.09770   55.09770    8.95130   10.65640   11.53090   10.65640 -115.12680   -8.16110   11.53090
 5000.00000    9.24780    9.24780   41.39540   24.15730   76.47700   76.47700   28.97120   28.97120   24.15730   26.29750   27.64460   26.29750 -118.27680  -11.96500   27.64460
 5050.00000    9.89160    9.89160  161.68850    6.18510  115.93900  115.93900   60.40210   60.40210    6.18510    7.07960    8.01640    7.07960 -108.50700   -2.84900    8.01640
 5100.00000    9.08750    9.08750  146.54590    6.82380   99.46900   99.46900   53.82190   53.82190    6.82380    7.74470    8.72160    7.74470 -110.71700   -5.70210    8.72160
 5150.00000    9.32040    9.32040  105.62060    9.46850   84.30090   84.30090   57.52790   57.52790    9.46850   10.15970   11.84530   10.15970 -111.82850   -6.70000   11.84530
 5200.00000    9.24870    9.24870   37.32680   26.79040   70.57280   70.57280   31.67000   31.67000   26.79040   28.22930   29.65370   28.22930 -121.75190  -16.50910   29.65370
 5250.00000   10.25270   10.25270   68.49410   14.59980   79.93640   79.93640   61.29290   61.29290   14.59980   16.27330   18.10780   16.27330 -112.13190   -6.77550   18.10780
 5300.00000   10.26690   10.26690  121.87860    8.21030  108.73900  108.73900   49.12060   49.12060    8.21030    9.02390    9.69120    9.02390 -109.54940   -4.07950    9.69120
 5350.00000   10.90260   10.90260  134.01050    7.46210   87.77430   87.77430   62.40820   62.40820    7.46210    7.89500    9.37160    7.89500 -108.97580   -3.39150    9.37160
 5400.00000   10.62770   10.62770   93.53620   10.71010   78.68940   78.68940   54.48490   54.48490   10.71010   11.51020   12.32340   11.51020 -108.22410   -2.52630   12.32340
 5450.00000    8.97820    8.97820   25.95310   38.53100   66.37090   66.37090   26.15500   26.15500   38.53100   41.14460   54.74580   41.14460 -125.38480  -19.14710   54.74580
 5500.00000    9.54530    9.54530   22.33720   44.76830   59.79980   59.79980   39.71580   39.71580   44.76830   53.63310   67.74130   53.63310 -112.49970   -5.44540   67.74130
 5550.00000    9.77530    9.77530   68.72280   14.55240   74.56620   74.56620   64.17830   64.17830   14.55240   15.46200   16.60430   15.46200 -111.55160   -3.68060   16.60430
 5600.00000    9.13430    9.13430   82.92630   12.05890   80.84940   80.84940   72.30580   72.30580   12.05890   12.95960   14.11950   12.95960 -113.19150   -4.49850   14.11950
 5650.00000    9.42140    9.42140  102.50490    9.75580   79.71550   79.71550   98.63800   98.63800    9.75580   11.79170   12.90410   11.79170 -112.88100   -3.48420   12.90410
 5700.00000    9.42300    9.42300   78.80280   12.68990   74.81180   74.81180   87.27220   87.27220   12.68990   13.38630   15.18330   13.38630 -112.20310   -2.80630   15.18330
 5750.00000    9.45370    9.45370   72.02900   13.88330   74.09550   74.09550   86.36920   86.36920   13.88330   14.81690   16.38490   14.81690 -113.59320   -4.19640   16.38490
