~Version ---------------------------------------------------
VERS.      2.0 : CWLS log ASCII Standard -VERSION 2.0
WRAP.       NO : One line per depth step
CREA. 10/26/17 : LAS Creation Date
~Well ------------------------------------------------------
STRT.FT                          1000.0 : START DEPTH
STOP.FT                          9700.0 : STOP DEPTH
STEP.FT                        50.00000 : STEP LENGTH
NULL.                           -999.25 : NULL VALUE
COMP.                      GUYER OIL CO : COMPANY
WELL. GUYER ET AL SAKWATAMAU 2-15-63-15 : WELL
FLD .                                WC : FIELD
LOC .                                   : LOCATION
CTRY.                            CANADA : COUNTRY
SRVC.                      Schlumberger : SERVICE COMPANY
DATE.                       13-Nov-1969 : LOGDATE
PROV.                           Alberta : PROVINCE
UWI .                  100021506315W500 : UNIQUE WELL ID
SLAT.WGS84                     54.44702 : SURFACE LATITUDE
SLON.WGS84                     -116.175 : SURFACE LONGITUDE
~Curve Information -----------------------------------------
DEPT    .FT    : Depth Curve
CALNED  .IN    : CALIPER FROM SNP LOG [ADJ. TO RESISTIVITY LOG]
CALSED  .IN    : CALIPER FROM SONIC LOG [ADJ. TO RESISTIVITY LOG]
CALWS   .IN    : CALIPER [CALSED]
CONDWS  .MMHO  : CONDUCTIVITY [1000/DRESWS]
DRESWS  .OHMM  : DEEP RESISTIVITY [ILDED]
DTED    .US/F  : DELTA TIME FROM SONIC LOG [ADJ. TO RESISTIVITY LOG]
DTWS    .US/F  : COMPRESSIONAL SONIC [DTED]
GRSED   .GAPI  : GAMMA RAY FROM SONIC LOG [ADJ. TO RESISTIVITY LOG]
GRWS    .GAPI  : GAMMA RAY [GRSED]
ILDED   .OHMM  : DEEP INDUCTION RESISTIVITY FROM RESISTIVITY LOG
ILMED   .OHMM  : MEDIUM INDUCTION RESISTIVITY FROM RESISTIVITY LOG
LL8ED   .OHMM  : LATEROLOG-8 RESISTIVITY FROM RESISTIVITY LOG
MRESWS  .OHMM  : MEDIUM RESISTIVITY [ILMED]
NPOLSWS .V/V   : NEUTRON POROSITY LIMESTONE [SNPLSED]
SNPLSED .V/V   : SIDEWALL NEUTRON POROSITY LIMESTONE FROM SNP LOG [ADJ. TO RESISTIVITY LOG]
SPHILSED.V/V   : SONIC POROSITY LIMESTONE [DTM=47.6, DTF=189] FROM SONIC LOG [ADJ. TO RESISTIVITY LOG]
SPHISSED.V/V   : SONIC POROSITY SANDSTONE [DTM=55.6, DTF=189] FROM SONIC LOG [ADJ. TO RESISTIVITY LOG]
SPOLSWS .V/V   : SONIC POROSITTY LIMESTONE [SPHISSED SPL. TO SPHILSED @ 5901']
SPRED   .MV    : SPONTANEOUS POTENTIAL FROM RESISTIVITY LOG
SPWS    .MV    : SPONTANEOUS POTENTIAL [BASELINE 0 MV, SPRED]
SRESWS  .OHMM  : SHALLOW RESISTIVITY [LL8ED]
~Params ----------------------------------------------------
PD  .                     GL : PERMANENT DATUM
EPD .FT                 3072 : ELEVATION PERMANENT DATUM
LMF .                     KB : LOG MEASURED FROM
DAPD.FT                   13 : FEET ABOVE PERMANENT DATUM
EKB .FT                 3085 : KELLY BUSHING
EGL .FT                 3072 : GROUND LEVEL
DATE.               11/13/69 : RUN DATE
RUN .                      1 : RUN NUMBER
DD  .FT                 9704 : DEPTH DRILLER
DL  .FT                 9705 : DEPTH LOGGER
BLI .FT                 9701 : BOTTOM LOG INTERVAL
TLI .FT                 1005 : TOP LOG INTERVAL
CBD .FT                 1005 : CASING BOTTOM DRILLER
CBL .FT                 1005 : CASING BOTTOM LOGGER
BS  .IN                7.875 : BIT SIZE
BSD .FT                 9704 : BIT SIZE AT DEPTH
DFT .                    GEL : DRILLING FLUID TYPE
DFD .                    9.1 : DRILLING FLUID DENSITY
DFV .                     70 : DRILLING FLUID VISCOSITY
DFPH.                    8.5 : DRILLING FLUID PH
DFL .                      9 : DRILLING FLUID LOSS
MSS .                DRILLER : MUD SAMPLE SOURCE
RMS .OHMM               2.61 : RESISTIVITY MUD SAMPLE
MST .DEGF                 74 : MUD SAMPLE TEMPERATURE
RMF .OHMM               2.12 : RESISTIVITY MUD FILTRATE SAMPLE
MFST.DEGF                 75 : MUD FILTRATE SAMPLE TEMPERATURE
RMC .OHMM               2.91 : RESISTIVITY MUD CAKE
MCST.DEGF                 75 : MUD CAKE SAMPLE TEMPERATURE
TCS .HRS                   6 : TIME CIRCULATED STOPPED
LUN .                   7501 : LOGGING UNIT NUMBER
LUL .                    EDM : LOGGING UNIT LOCATION
ENGI.                 EDGSON : RECORDING ENGINEER
WITN.              ZASEYBIDA : WITNESSED BY
CLNT.                A2DTECH : CLIENT CODE
ORIG.            2" 5" PRINT : ORIGIN OF DATA
UWI .       100021506315W500 : UNIQUE WELL ID
DICO. A2D Technologies, Inc. : DIGITIZING COMPANY
~Other -----------------------------------------------------
DLL-BCS-SNP LOG RUN
~ASCII -----------------------------------------------------
# ...
 2650.00000    -999.25    8.20290    8.20290  172.29790    5.80390   90.43630   90.43630   51.37990   51.37990    5.80390    5.05580    6.23970    5.05580    -999.25    -999.25    -999.25    -999.25    -999.25 -105.06470  -15.12210    6.23970
 2700.00000    -999.25    9.35080    9.35080  167.12590    6.00350   96.91540   96.91540   55.91450   55.91450    6.00350    5.45450    5.98500    5.45450    -999.25    -999.25    -999.25    -999.25    -999.25 -103.96870  -14.31760    5.98500
 2750.00000    -999.25    8.61380    8.61380   88.51670   11.29730  104.91300  104.91300   38.14810   38.14810   11.29730    9.44050    8.15500    9.44050    -999.25    -999.25    -999.25    -999.25    -999.25 -111.96390  -22.60240    8.15500
 2800.00000    -999.25   12.14590   12.14590  368.52770    2.71350  134.87350  134.87350   46.66160   46.66160    2.71350    2.55830    3.52940    2.55830    -999.25    -999.25    -999.25    -999.25    -999.25 -103.36690  -14.29500    3.52940
 2850.00000    -999.25    8.90270    8.90270  218.43600    4.57800  104.06190  104.06190   55.48600   55.48600    4.57800    4.05320    4.80980    4.05320    -999.25    -999.25    -999.25    -999.25    -999.25 -100.67160  -11.89130    4.80980
 2900.00000    -999.25    7.94520    7.94520   67.39500   14.83790  106.32200  106.32200   39.27610   39.27610   14.83790   15.72600   18.17680   15.72600    -999.25    -999.25    -999.25    -999.25    -999.25 -125.87830  -37.38760   18.17680
 2950.00000    -999.25   10.11330   10.11330  203.64090    4.91140   96.75540   96.75540   68.78630   68.78630    4.91140    4.62510    5.10640    4.62510    -999.25    -999.25    -999.25    -999.25    -999.25 -100.05790  -11.85870    5.10640
 3000.00000    -999.25    9.85740    9.85740  259.19490    3.85810  103.15290  103.15290   54.81410   54.81410    3.85810    3.62560    4.42140    3.62560    -999.25    -999.25    -999.25    -999.25    -999.25  -90.43240   -2.51550    4.42140
 3050.00000    -999.25    8.22900    8.22900   96.43950   10.36920   82.33380   82.33380   46.94440   46.94440   10.36920    9.74630   11.30730    9.74630    -999.25    -999.25    -999.25    -999.25    -999.25  -96.07000   -8.07220   11.30730
 3100.00000    -999.25    9.18810    9.18810  216.72700    4.61410  100.39070  100.39070   61.51440   61.51440    4.61410    4.23040    4.86400    4.23040    -999.25    -999.25    -999.25    -999.25    -999.25  -92.15980   -4.08050    4.86400
 3150.00000    -999.25   11.31500   11.31500  169.57490    5.89710   97.14340   97.14340   73.02340   73.02340    5.89710    5.34770    6.21700    5.34770    -999.25    -999.25    -999.25    -999.25    -999.25  -98.88170  -10.72140    6.21700
 3200.00000    -999.25   11.94150   11.94150  123.52140    8.09640   92.68860   92.68860   74.56900   74.56900    8.09640    7.53820    8.40310    7.53820    -999.25    -999.25    -999.25    -999.25    -999.25 -101.41020  -13.16850    8.40310
 3250.00000    -999.25   11.56470   11.56470  156.49700    6.38990  100.85200  100.85200   86.35960   86.35960    6.38990    5.40030    6.67090    5.40030    -999.25    -999.25    -999.25    -999.25    -999.25 -101.21240  -12.88970    6.67090
 3300.00000    -999.25   11.33820   11.33820  168.09830    5.94890  101.90260  101.90260   90.77630   90.77630    5.94890    5.16290    6.66920    5.16290    -999.25    -999.25    -999.25    -999.25    -999.25  -96.51760   -8.11400    6.66920
 3350.00000    -999.25    9.91080    9.91080  110.04490    9.08720   94.28180   94.28180   95.39560   95.39560    9.08720    8.44890   10.65640    8.44890    -999.25    -999.25    -999.25    -999.25    -999.25  -96.35220   -7.86710   10.65640
 3400.00000    -999.25   10.33660   10.33660  136.89630    7.30480   92.86340   92.86340   93.84340   93.84340    7.30480    6.79780    7.54260    6.79780    -999.25    -999.25    -999.25    -999.25    -999.25  -94.64830   -6.08220    7.54260
 3450.00000    -999.25    9.95870    9.95870  131.95920    7.57810   92.50790   92.50790   79.75490   79.75490    7.57810    6.98650    8.01470    6.98650    -999.25    -999.25    -999.25    -999.25    -999.25  -94.33950   -5.69200    8.01470
 3500.00000    -999.25   12.32850   12.32850  148.80510    6.72020  123.25660  123.25660   76.40420   76.40420    6.72020    5.87860    7.12260    5.87860    -999.25    -999.25    -999.25    -999.25    -999.25  -96.79390   -8.06540    7.12260
 3550.00000    -999.25   11.36180   11.36180  155.13260    6.44610   96.65350   96.65350   84.33260   84.33260    6.44610    5.88350    6.65670    5.88350    -999.25    -999.25    -999.25    -999.25    -999.25  -99.69710  -10.88770    6.65670
 3600.00000    -999.25   10.33220   10.33220  136.72220    7.31410   97.46600   97.46600   86.09470   86.09470    7.31410    6.85890    7.58060    6.85890    -999.25    -999.25    -999.25    -999.25    -999.25  -98.65770   -9.76680    7.58060
 3650.00000    -999.25   10.13010   10.13010  149.37410    6.69460   91.99330   91.99330   85.90330   85.90330    6.69460    6.26280    6.90120    6.26280    -999.25    -999.25    -999.25    -999.25    -999.25  -94.79320   -5.82130    6.90120
 3700.00000    -999.25   10.77700   10.77700  178.77460    5.59370   96.89830   96.89830   89.40920   89.40920    5.59370    5.97430    6.59120    5.97430    -999.25    -999.25    -999.25    -999.25    -999.25  -94.86920   -5.81590    6.59120
 3750.00000    -999.25   11.75490   11.75490  158.69740    6.30130   96.38430   96.38430   80.41740   80.41740    6.30130    6.70790    7.38560    6.70790    -999.25    -999.25    -999.25    -999.25    -999.25  -95.39220   -9.03230    7.38560
 3800.00000    -999.25   10.65040   10.65040  169.31650    5.90610   90.06370   90.06370   87.82900   87.82900    5.90610    5.19310    6.37600    5.19310    -999.25    -999.25    -999.25    -999.25    -999.25  -94.36690  -13.95030    6.37600
 3850.00000    -999.25   10.89040   10.89040  116.12240    8.61160   88.45890   88.45890   90.04450   90.04450    8.61160    7.99700    8.87380    7.99700    -999.25    -999.25    -999.25    -999.25    -999.25  -91.23280  -16.79860    8.87380
 3900.00000    -999.25   11.62550   11.62550  134.32740    7.44450   92.32280   92.32280   94.73600   94.73600    7.44450    6.87150    7.79360    6.87150    -999.25    -999.25    -999.25    -999.25    -999.25  -75.57480   -7.08400    7.79360
 3950.00000    -999.25   11.00320   11.00320  135.18830    7.39720   92.89260   92.89260   96.43760   96.43760    7.39720    6.75270    7.65750    6.75270    -999.25    -999.25    -999.25    -999.25    -999.25  -70.96680   -8.45840    7.65750
 4000.00000    -999.25   10.48110   10.48110  132.74920    7.53300   94.64090   94.64090   92.69200   92.69200    7.53300    6.96590    7.78940    6.96590    -999.25    -999.25    -999.25    -999.25    -999.25  -67.92310  -10.82420    7.78940
 4050.00000    -999.25   10.64810   10.64810  168.45230    5.93640  100.56190  100.56190   94.26000   94.26000    5.93640    5.71290    6.84810    5.71290    -999.25    -999.25    -999.25    -999.25    -999.25  -63.00120   -6.77470    6.84810
 4100.00000    -999.25   10.69920   10.69920  137.93860    7.24960   97.92600   97.92600   95.36560   95.36560    7.24960    6.97620    8.59860    6.97620    -999.25    -999.25    -999.25    -999.25    -999.25  -59.35220   -4.00370    8.59860
 4150.00000    -999.25   11.16380   11.16380  139.54010    7.16640  101.10980  101.10980  107.57770  107.57770    7.16640    6.83410    8.93610    6.83410    -999.25    -999.25    -999.25    -999.25    -999.25  -59.13300   -4.65690    8.93610
 4200.00000    -999.25    9.07290    9.07290  109.34280    9.14580   90.80480   90.80480  123.34220  123.34220    9.14580    9.93760   12.59660    9.93760    -999.25    -999.25    -999.25    -999.25    -999.25  -59.20290   -5.60480   12.59660
 4250.00000    -999.25    8.87700    8.87700  106.60640    9.38030   99.22560   99.22560  122.13800  122.13800    9.38030    9.07040   12.14950    9.07040    -999.25    -999.25    -999.25    -999.25    -999.25  -57.06250   -4.33680   12.14950
