~Version ---------------------------------------------------
VERS.      2.0 : CWLS log ASCII Standard -VERSION 2.0
WRAP.       NO : One line per depth step
CREA. 10/27/17 : LAS Creation Date
~Well ------------------------------------------------------
STRT.FT                           1200.0 : START DEPTH
STOP.FT                          14850.0 : STOP DEPTH
STEP.FT                         50.00000 : STEP LENGTH
NULL.                            -999.25 : NULL VALUE
COMP.   SOCONY MOBIL OIL OF CANADA, LTD. : COMPANY
WELL. MOBIL SCURRY PEM RIVER A6-15-47-16 : WELL
FLD .                                    : FIELD
LOC .                                    : LOCATION
CTRY.                             CANADA : COUNTRY
SRVC.             Schlumberger of Canada : SERVICE COMPANY
DATE.                        26-Jul-1962 : LOGDATE
PROV.                            Alberta : PROVINCE
UWI .                   102061504716W500 : UNIQUE WELL ID
SLAT.WGS84                      53.05247 : SURFACE LATITUDE
SLON.WGS84                     -116.2582 : SURFACE LONGITUDE
~Curve Information -----------------------------------------
DEPT  .FT    : Depth Curve
CALWS .IN    : CALIPER [MCALED]
CILDED.MMHO  : DEEP INDUCTION CONDUCTIVITY FROM RESISTIVITY LOG [ADJ. TO ILDED]
CONDWS.MMHO  : CONDUCTIVITY [1000/DRESWS]
DRESWS.OHMM  : DEEP RESISTIVITY [1000/CILDED,IF ILDED<5,ILDED]
DT1ED .US/F  : DELTA TIME (3' SPACING- 1' PICKUP SPAN) FROM SONIC LOG
DTED  .US/F  : DELTA TIME (3' SPACING- 3' PICKUP SPAN) FROM SONIC LOG
DTWS  .US/F  : COMPRESSIONAL SONIC [DTED]
GRNED .GAPI  : GAMMA RAY GRN LOG
GRSED .GAPI  : GAMMA RAY FROM SONIC LOG
GRWS  .GAPI  : GAMMA RAY [SPLICED GRSED/GRNED FROM 11818' TO 12795']
ILDED .OHMM  : DEEP INDUCTION RESISTIVITY FROM RESISTIVITY LOG
MCALED.IN    : CALIPER FROM MICRO LOG
NEUTED.NAPI  : NEUTRON FROM GRN LOG
NEUTWS.NAPI  : NEUTRON [NEUTED]
SNED  .OHMM  : 16 INCH  SHORT NORMAL FROM RESISTIVITY LOG
SPRED .MV    : SPONTANEOUS POTENTIAL FROM RESISTIVITY LOG
SPWS  .MV    : SPONTANEOUS POTENTIAL [BASELINE 0 MV,SPRED]
SRESWS.OHMM  : SHALLOW RESISTIVITY [SNED]
~Params ----------------------------------------------------
PD  .                     GL : PERMANENT DATUM
LMF .                     KB : LOG MEASURED FROM
EKB .FT                 4176 : KELLY BUSHING
DATE.               07/26/62 : RUN DATE
RUN .                      3 : RUN NUMBER
DD  .FT                14885 : DEPTH DRILLER
DL  .FT                14889 : DEPTH LOGGER
BLI .FT                14888 : BOTTOM LOG INTERVAL
TLI .FT                12790 : TOP LOG INTERVAL
CBD .FT                12971 : CASING BOTTOM DRILLER
CBL .FT                12790 : CASING BOTTOM LOGGER
BS  .IN                    9 : BIT SIZE
BSD .FT                14885 : BIT SIZE AT DEPTH
DFT .              LIME BASE : DRILLING FLUID TYPE
DFD .                   14.7 : DRILLING FLUID DENSITY
DFV .                     50 : DRILLING FLUID VISCOSITY
DFPH.                     14 : DRILLING FLUID PH
DFL .                      4 : DRILLING FLUID LOSS
RMS .OHMM               0.44 : RESISTIVITY MUD SAMPLE
MST .DEGF                 71 : MUD SAMPLE TEMPERATURE
RMF .OHMM               0.24 : RESISTIVITY MUD FILTRATE SAMPLE
MFST.DEGF                 76 : MUD FILTRATE SAMPLE TEMPERATURE
RMC .OHMM                1.1 : RESISTIVITY MUD CAKE
MCST.DEGF                 77 : MUD CAKE SAMPLE TEMPERATURE
RMB .OHMM               0.12 : RESISTIVITY MUD AT BHT
TCS .HRS                   3 : TIME CIRCULATED STOPPED
LUN .                   1576 : LOGGING UNIT NUMBER
LUL .                     DV : LOGGING UNIT LOCATION
ENGI.               HATLELID : RECORDING ENGINEER
WITN.                 CARSON : WITNESSED BY
CLNT.                A2DTECH : CLIENT CODE
ORIG.            2" 5" PRINT : ORIGIN OF DATA
UWI .       102061504716W500 : UNIQUE WELL ID
DICO. A2D Technologies, Inc. : DIGITIZING COMPANY
~Other -----------------------------------------------------
GRN-IEL-ML-SONIC USED
NO SP RECORDED DUE TO EXCESSIVE TELLURIC CURRENTS, SP BELOW 3610M IS NOT LOOK VALID
~ASCII -----------------------------------------------------
# ...
 5100.00000    9.83960  201.22160  203.68020    4.91050    -999.25   94.11090   94.11090    -999.25   99.94690   99.94690    4.91050    9.83960    -999.25    -999.25    3.26620  -68.67690   -8.08260    3.26620
 5150.00000   10.22080  237.45840  244.88800    4.08350    -999.25   85.80080   85.80080    -999.25  104.78970  104.78970    4.08350   10.22080    -999.25    -999.25    2.96390  -67.74230   -8.54540    2.96390
 5200.00000   10.81880  178.08410  161.99830    6.19420    -999.25   84.21040   84.21040    -999.25   96.41260   96.41260    6.19420   10.81880    -999.25    -999.25    3.61370  -65.64420   -7.85880    3.61370
 5250.00000   10.70710  160.48770  165.78520    6.03190    -999.25   87.72170   87.72170    -999.25   96.24270   96.24270    6.03190   10.70710    -999.25    -999.25    4.12030  -63.65700   -7.26900    4.12030
 5300.00000   11.19850  112.53150  112.78660    8.86630    -999.25   89.95460   89.95460    -999.25   95.85700   95.85700    8.86630   11.19850    -999.25    -999.25    5.85850  -61.52770   -6.54410    5.85850
 5350.00000   10.87040  133.99070  141.29830    7.08160    -999.25   88.14920   88.14920    -999.25   92.33670   92.33670    7.08160   10.87040    -999.25    -999.25    5.76960  -61.38420   -7.81210    5.76960
 5400.00000   10.57700  157.13500  167.38080    5.97440    -999.25   86.73870   86.73870    -999.25  101.58180  101.58180    5.97440   10.57700    -999.25    -999.25    4.39220  -63.22560  -11.05090    4.39220
 5450.00000   10.43090  131.37870  137.94930    7.25170    -999.25   80.71150   80.71150    -999.25  102.03920  102.03920    7.25170   10.43090    -999.25    -999.25    5.09150  -59.06340   -8.30020    5.09150
 5500.00000   11.32200  108.97090  109.43190    9.13810    -999.25   84.20780   84.20780    -999.25   98.84330   98.84330    9.13810   11.32200    -999.25    -999.25    6.95000  -47.59930   -5.74080    6.95000
 5550.00000   10.45680  105.45220  103.39550    9.67160    -999.25   76.67330   76.67330    -999.25   97.45820   97.45820    9.67160   10.45680    -999.25    -999.25    6.19110  -43.03700   -8.55370    6.19110
 5600.00000    8.47500   20.98180   19.75810   50.61590    -999.25   73.10280   73.10280    -999.25   49.20460   49.20460   50.61590    8.47500    -999.25    -999.25   21.52010  -75.51580  -42.65130   21.52010
 5650.00000   10.30260   85.00620   85.93650   11.63650    -999.25   76.84090   76.84090    -999.25   92.50620   92.50620   11.63650   10.30260    -999.25    -999.25    8.75020  -41.75030  -10.48870    8.75020
 5700.00000   10.12080  149.91910  159.16290    6.28290    -999.25   83.76070   83.76070    -999.25  102.81910  102.81910    6.28290   10.12080    -999.25    -999.25    4.54710  -46.00490  -16.36220    4.54710
 5750.00000   10.55700   87.67340   90.11530   11.09690    -999.25   78.32420   78.32420    -999.25   89.83240   89.83240   11.09690   10.55700    -999.25    -999.25    5.94460  -36.46860   -8.42870    5.94460
 5800.00000   10.35800  150.57190  154.54760    6.47050    -999.25   83.35840   83.35840    -999.25  113.27400  113.27400    6.47050   10.35800    -999.25    -999.25    4.28180  -35.89920   -9.47020    4.28180
 5850.00000   10.86550  162.85750  156.79530    6.38110    -999.25   80.96520   80.96520    -999.25  108.15680  108.15680    6.38110   10.86550    -999.25    -999.25    4.16290  -29.23300   -4.42300    4.16290
 5900.00000   10.07270   37.30500   35.16940   28.43380    -999.25   69.89870   69.89870    -999.25   83.74190   83.74190   28.43380   10.07270    -999.25    -999.25   10.89580  -29.71890   -6.37810   10.89580
 5950.00000   10.73340   16.69060   16.90530   59.19710    -999.25   59.87550   59.87550    -999.25   70.12350   70.12350   59.19710   10.73340    -999.25    -999.25   18.58530  -31.28400   -8.60340   18.58530
 6000.00000   10.84680  224.70250  224.87070    4.44700    -999.25   85.43050   85.43050    -999.25  150.70950  150.70950    4.44700   10.84680    -999.25    -999.25    3.43000  -29.66610   -7.63920    3.43000
 6050.00000   11.25850  114.59940  104.14500    9.60200    -999.25   73.95950   73.95950    -999.25  111.23120  111.23120    9.60200   11.25850    -999.25    -999.25    6.04460  -30.13940   -8.76950    6.04460
 6100.00000    9.64200   53.11210   51.34880   19.47490    -999.25   73.11530   73.11530    -999.25   65.27970   65.27970   19.47490    9.64200    -999.25    -999.25   10.53720  -32.58710  -11.87750   10.53720
 6150.00000   10.10450  140.78740  141.30880    7.07670    -999.25   80.91670   80.91670    -999.25  101.66580  101.66580    7.07670   10.10450    -999.25    -999.25    4.68920  -29.56580   -9.50980    4.68920
 6200.00000   10.19040   47.09850   42.54580   23.55710    -999.25   67.76170   67.76170    -999.25   64.16840   64.16840   23.55710   10.19040    -999.25    -999.25   13.04190  -29.07850   -9.68280   13.04190
 6250.00000   11.15840  103.14490  102.00650    9.80330    -999.25   75.89630   75.89630    -999.25  102.88070  102.88070    9.80330   11.15840    -999.25    -999.25    5.89260  -27.36990   -8.62790    5.89260
 6300.00000   10.65360   65.66320   65.29890   15.31420    -999.25   69.40450   69.40450    -999.25   73.60500   73.60500   15.31420   10.65360    -999.25    -999.25    9.50480  -25.82800   -7.74300    9.50480
 6350.00000   10.68840   56.39480   51.40280   19.46950    -999.25   70.25310   70.25310    -999.25   79.33080   79.33080   19.46950   10.68840    -999.25    -999.25   10.35270  -31.94590  -14.52110   10.35270
 6400.00000    9.52670   21.08930   19.90240   50.24510    -999.25   67.64960   67.64960    -999.25   45.86740   45.86740   50.24510    9.52670    -999.25    -999.25   18.13680  -37.63190  -20.86080   18.13680
 6450.00000   12.37330  101.93010  104.49420    9.57760    -999.25   79.89630   79.89630    -999.25   99.82860   99.82860    9.57760   12.37330    -999.25    -999.25    7.00520  -21.56350   -5.16680    7.00520
 6500.00000   10.75410   63.53020   62.76750   15.93180    -999.25   73.62720   73.62720    -999.25   82.50390   82.50390   15.93180   10.75410    -999.25    -999.25   10.00010  -21.09810   -4.70150   10.00010
 6550.00000   10.11130   46.74190   46.39550   21.55380    -999.25   65.94410   65.94410    -999.25   61.56950   61.56950   21.55380   10.11130    -999.25    -999.25   12.11880  -22.87110   -6.47450   12.11880
 6600.00000   11.13600   99.83380  100.44070    9.95690    -999.25   78.91320   78.91320    -999.25   78.04780   78.04780    9.95690   11.13600    -999.25    -999.25    6.81920  -20.84300   -4.44640    6.81920
 6650.00000   10.63000   95.94650   96.05500   10.41070    -999.25   76.32440   76.32440    -999.25   88.90750   88.90750   10.41070   10.63000    -999.25    -999.25    7.61040  -22.55050   -6.15390    7.61040
 6700.00000   11.58010  112.73270  109.94720    9.09860    -999.25   81.82910   81.82910    -999.25   88.52280   88.52280    9.09860   11.58010    -999.25    -999.25    6.16790  -19.58010   -3.18350    6.16790
 6750.00000   11.03740   25.58600   23.95830   41.73920    -999.25   67.85080   67.85080    -999.25   52.25010   52.25010   41.73920   11.03740    -999.25    -999.25   12.41260  -23.04140   -6.64480   12.41260
 6800.00000   10.32830   53.01130   47.42530   21.08580    -999.25   71.37980   71.37980    -999.25   76.30210   76.30210   21.08580   10.32830    -999.25    -999.25   12.58550  -25.79650   -9.39990   12.58550
 6850.00000   10.84530  117.36050  114.17840    8.76180    -999.25   73.22730   73.22730    -999.25   89.08700   89.08700    8.76180   10.84530    -999.25    -999.25    6.52200  -19.00510   -2.65260    6.52200
 6900.00000    9.02410   23.23510   23.34320   42.83910    -999.25   65.40870   65.40870    -999.25   51.27830   51.27830   42.83910    9.02410    -999.25    -999.25   22.40050  -45.66770  -29.98960   22.40050
 6950.00000    9.83430   28.32990   27.28710   36.64740    -999.25   65.23770   65.23770    -999.25   48.19990   48.19990   36.64740    9.83430    -999.25    -999.25   19.41940  -31.33240  -16.33560   19.41940
 7000.00000   12.43620  122.85400  117.84670    8.48560    -999.25   78.49630   78.49630    -999.25   81.17820   81.17820    8.48560   12.43620    -999.25    -999.25    5.87040  -15.86350   -1.54110    5.87040
