~Version ---------------------------------------------------
VERS.      2.0 : CWLS log ASCII Standard -VERSION 2.0
WRAP.       NO : One line per depth step
CREA. 08/17/13 : LAS Creation Date
~Well ------------------------------------------------------
STRT.M                 450.0 : START DEPTH
STOP.M                2900.0 : STOP DEPTH
STEP.M              50.00000 : STEP LENGTH
NULL.                -999.25 : NULL VALUE
COMP. DOME PETROLEUM LIMITED : COMPANY
WELL.  DOME ET AL 15-35-44-2 : WELL
FLD .                        : FIELD
LOC .                        : LOCATION
CTRY.                 CANADA : COUNTRY
SRVC.           Schlumberger : SERVICE COMPANY
DATE.            17-Feb-1988 : LOGDATE
PROV.                Alberta : PROVINCE
UWI .       100153504402W500 : UNIQUE WELL ID
SLAT.WGS84          52.84009 : SURFACE LATITUDE
SLON.WGS84         -114.1793 : SURFACE LONGITUDE
~Curve Information -----------------------------------------
DEPT    .M      : DEPTH METER
ACED    .US/M   : DELTA TIME FROM SONIC LOG
C2DED   .MM     : CALIPER 2 FROM DENSITY LOG [ADJ. TO RESISTIVITY LOG]
CALDED  .MM     : CALIPER FROM DENSITY LOG [ADJ. TO RESISTIVITY LOG]
CALSED  .MM     : CALIPER FROM SONIC LOG
CALWS   .MM     : CALIPER [CALDED]
CONDWS  .MMHO   : CONDUCTIVITY [1000/DRESWS]
DCORWS  .KG/M3  : DENSITY CORRECTION [DRHOED]
DENWS   .KG/M3  : FORMATION BULK DENSITY [CALC FROM DPOLSWS, M=2710,F=1000]
DPHILSED.V/V    : DENSITY POROSITY LIMESTONE [M=2710,F=1000] FROM DENSITY LOG [ADJ. TO RESISTIVITY LOG]
DPHISSED.V/V    : DENSITY POROSITY SANDSTONE [M=2650,F=1000] FROM DENSITY LOG [ADJ. TO RESISTIVITY LOG]
DPOLSWS .V/V    : DENSITY POROSITY LIMESTONE [DPHISSED CONVERTED TO LIMESTONE (M=2710,F=1000) & SPL TO DPHILSED @1840M]
DRESWS  .OHMM   : DEEP RESISTIVITY [IDPHED]
DRHOED  .KG/M3  : DENSITY CORRECTION FROM DENSITY LOG [ADJ. TO RESISTIVITY LOG]
DTCOED  .US/M   : DELTA TIME COMPRESSIONAL FROM SONIC LOG
DTED    .US/M   : DELTA TIME FROM SONIC LOG
DTLED   .US/M   : DELTA TIME LONG SPACING FROM SONIC LOG
DTLFED  .US/M   : DELTA TIME LONG SPACING FAR DETECTOR FROM SONIC LOG
DTLNED  .US/M   : DELTA TIME LONG SPACING NEAR DETECTOR FROM SONIC LOG
DTSMED  .US/M   : DELTA TIME SHEAR WAVE FROM SONIC LOG
DTSWS   .US/M   : SHEAR SONIC [DTSMED]
DTWS    .US/M   : COMPRESSIONAL  SONIC [ACED]
GRDED   .GAPI   : GAMMA RAY FROM DENSITY LOG [ADJ. TO RESISTIVITY LOG]
GRRED   .GAPI   : GAMMA RAY FROM RESISTIVITY LOG
GRWS    .GAPI   : GAMMA RAY [GRRED SPL. TO GRDED @2915M]
IDPHED  .OHMM   : DEEP INDUCTION PHASE RESISTIVITY FROM RESISTIVITY LOG
IMPHED  .OHMM   : MEDIUM INDUCTION PHASE RESISTIVITY FROM RESISTIVITY LOG
MRESWS  .OHMM   : MEDIUM RESISTIVITY [IMPHED]
NPHILSED.V/V    : NEUTRON POROSITY LIMESTONE FROM DENSITY LOG [ADJ. TO RESISTIVITY LOG]
NPHISSED.V/V    : NEUTRON POROSITY SANDSTONE FROM DENSITY LOG [ADJ. TO RESISTIVITY LOG]
NPOLSWS .V/V    : NEUTRON POROSITY LIMESTONE [NPHISSED MATRIX CONVERSION FOR LIMESTONE & SPL. TO NPHILSED @1840M]
PEFED   .B/E    : PHOTOELECTRIC FACTOR FROM DENSITY LOG [ADJ. TO RESISTIVITY LOG]
PEFWS   .B/E    : PHOTOLELECTRIC FACTOR [PEFED]
RHOBED  .KG/M3  : BULK DENSITY FROM DENSITY LOG [ADJ. TO RESISTIVITY LOG]
SFLUED  .OHMM   : SPHERICALLY FOCUSED RESISTIVITY FROM RESISTIVITY LOG
SPRED   .MV     : SPONTANEOUS POTENTIAL FROM RESISTIVITY LOG
SPWS    .MV     : SPONTANEOUS POTENTIAL [BASELINE 0 MV, SPRED]
SRESWS  .OHMM   : SHALLOW RESISTIVITY [SFLUED]
TENDED  .N      : TENSION FROM DENSITY LOG
TENRED  .N      : TENSION FROM RESISTIVITY LOG
~Params ----------------------------------------------------
PD  .                         GL : PERMANENT DATUM
EPD .M                     908.4 : ELEVATION PERMANENT DATUM
LMF .                         KB : LOG MEASURED FROM
DAPD.M                       6.2 : FEET ABOVE PERMANENT DATUM
DMF .                         KB : DRILLING MEASURED FROM
EKB .M                     914.6 : KELLY BUSHING
EGL .M                     908.4 : GROUND LEVEL
DATE.                   02/17/88 : RUN DATE
RUN .                          2 : RUN NUMBER
DD  .M                      2938 : DEPTH DRILLER
DL  .M                    2934.5 : DEPTH LOGGER
BLI .M                      2932 : BOTTOM LOG INTERVAL
TLI .M                      2575 : TOP LOG INTERVAL
CS  .MM                      244 : CASING SIZE
CBD .M                       450 : CASING BOTTOM DRILLER
CBL .M                       450 : CASING BOTTOM LOGGER
BS  .MM                      222 : BIT SIZE
BSD .M                      2938 : BIT SIZE AT DEPTH
DFT .                   GEL CHEM : DRILLING FLUID TYPE
DFD .                       1130 : DRILLING FLUID DENSITY
DFV .                        102 : DRILLING FLUID VISCOSITY
DFPH.                         10 : DRILLING FLUID PH
DFL .                        8.2 : DRILLING FLUID LOSS
RMS .OHMM                    1.2 : RESISTIVITY MUD SAMPLE
MST .DEGC                     14 : MUD SAMPLE TEMPERATURE
RMF .OHMM                   1.02 : RESISTIVITY MUD FILTRATE SAMPLE
MFST.DEGC                     13 : MUD FILTRATE SAMPLE TEMPERATURE
RMC .OHMM                  0.362 : RESISTIVITY MUD CAKE
MCST.DEGC                     76 : MUD CAKE SAMPLE TEMPERATURE
MFSS.                      PRESS : MUD FILTRATE SAMPLE SOURCE
RMB .OHMM                  0.438 : RESISTIVITY MUD AT BHT
TCS .HRS                    1500 : TIME CIRCULATED STOPPED
TLAB.HRS                    2320 : TIME LOGGER AT BOTTOM
LUN .                       8123 : LOGGING UNIT NUMBER
LUL .                         RD : LOGGING UNIT LOCATION
ENGI.                     BRKICH : RECORDING ENGINEER
WITN.                   FORTISKI : WITNESSED BY
CLNT.                    A2DTECH : CLIENT CODE
ORIG. 6.5"/100M 16.5"/100M PRINT : ORIGIN OF DATA
UWI .           100153504402W500 : UNIQUE WELL ID
DICO.     A2D Technologies, Inc. : DIGITIZING COMPANY
~Other -----------------------------------------------------
PI-SFL-BCS LOG RAN IN COMBO & CNL-LDT LOG RAN
CURVES RHOB,DRHO HAVE BEEN VERIFIED FROM SMALL SECTION @TOP-2175 & 2350-BOTTOM.
NEUTRON CONVERSION USING SCHLUMBERGER CHART
~ASCII -----------------------------------------------------
# ...
 2350.00000  218.97030  244.08490  250.30420  247.04190  250.30420   95.89660    1.84240 2713.93300   -0.00230    -999.25   -0.00230   10.42790    1.84240  219.30440  219.24980  218.83670  216.96040  217.67660  405.48860  405.48860  218.97030   81.51550   83.58970   83.58970   10.42790   11.19280   11.19280    0.19130    -999.25    0.19130    4.73560    4.73560 2713.93300   13.46070   16.05320   -7.65550   13.46070 15905.68260 14040.82580
 2400.00000  221.12610  244.82630  250.86490  246.91700  250.86490  101.40960    6.02380 2725.04800   -0.00880    -999.25   -0.00880    9.86100    6.02380  220.87520  221.91630  221.05980  219.79460  220.47540  405.30960  405.30960  221.12610   87.77350   92.57960   92.57960    9.86100   10.60460   10.60460    0.19680    -999.25    0.19680    4.18540    4.18540 2725.04800   12.53310   18.64550   -9.96730   12.53310 16029.08010 14144.08810
 2450.00000  215.68160  232.51170  237.52740  230.49110  237.52740   78.76990   -7.44210 2731.03300   -0.01230    -999.25   -0.01230   12.69520   -7.44210  216.06390  215.58380  214.92580  213.65280  214.24890  395.98300  395.98300  215.68160   87.78190   80.59140   80.59140   12.69520   13.63270   13.63270    0.18200    -999.25    0.18200    4.15170    4.15170 2731.03300   16.75860   24.37110   -8.28240   16.75860 16428.10740 14182.26190
 2500.00000  215.98280  225.48840  227.35700  219.16710  227.35700   21.82210   -5.38730 2681.10100    0.01690    -999.25    0.01690   45.82520   -5.38730  217.55230  217.60000  216.11080  213.21680  215.28460  375.13520  375.13520  215.98280   84.66850   83.82700   83.82700   45.82520   51.01210   51.01210    0.15660    -999.25    0.15660    3.90490    3.90490 2681.10100   70.52430   13.73640  -17.74070   70.52430 16489.45700 14545.65850
 2550.00000  166.44870  247.63190  224.74800  223.49850  224.74800    0.65260    4.51740 2741.29300   -0.01830    -999.25   -0.01830 1532.37980    4.51740  169.07940  162.25970  161.29370  160.95980  160.88910  319.71660  319.71660  166.44870   12.86600   14.75680   14.75680 1532.37980 1856.64140 1856.64140    0.00870    -999.25    0.00870    5.05870    5.05870 2741.29300 1689.88850  -25.28340  -58.31850 1689.88850 16264.09470 14639.66410
 2600.00000  169.08280  247.73720  230.19040  248.27520  230.19040    6.99430  -15.59300 2712.05200   -0.00120   -0.03760   -0.00120  142.97290  -15.59300    -999.25    -999.25    -999.25    -999.25    -999.25    -999.25    -999.25  169.08280   23.80450   24.73410   24.73410  142.97290  226.53490  226.53490    0.05220    0.09300    0.05220    4.52200    4.52200 2712.05200  189.48810  -18.60060  -55.80010  189.48810 3820.77540 15755.35770
 2650.00000  163.74210  381.66510  230.06200  273.08160  230.06200    2.06360  -28.30490 2688.96700    0.01230   -0.02360    0.01230  484.59620  -28.30490    -999.25    -999.25    -999.25    -999.25    -999.25    -999.25    -999.25  163.74210   21.89820   24.05310   24.05310  484.59620  226.13890  226.13890    0.03840    0.07740    0.03840    4.42200    4.42200 2688.96700  625.91030  -23.32880  -64.69260  625.91030 3844.00220 16065.73410
 2700.00000  175.17790  246.05640  234.95670  260.58090  234.95670   15.54840  -28.87690 2698.20100    0.00690   -0.02920    0.00690   64.31510  -28.87690    -999.25    -999.25    -999.25    -999.25    -999.25    -999.25    -999.25  175.17790   34.75730   32.74950   32.74950   64.31510   76.02920   76.02920    0.07000    0.11200    0.07000    4.48610    4.48610 2698.20100   80.57280   10.04740  -35.48070   80.57280 3922.34160 16201.80030
 2750.00000  188.82360  259.28580  244.70000  258.24050  244.70000   47.03010  -30.69160 2723.68000   -0.00800   -0.04470   -0.00800   21.26300  -30.69160    -999.25    -999.25    -999.25    -999.25    -999.25    -999.25    -999.25  188.82360   59.19220   55.73760   55.73760   21.26300   23.24140   23.24140    0.13280    0.17590    0.13280    4.17940    4.17940 2723.68000   34.51030   37.72510  -11.96730   34.51030 3969.02710 16425.53610
 2800.00000  180.68600  349.18010  231.66530  262.94060  231.66530   78.25030  -28.96900 2743.51600   -0.01960   -0.05670   -0.01960   12.77950  -28.96900    -999.25    -999.25    -999.25    -999.25    -999.25    -999.25    -999.25  180.68600   32.74910   37.62610   37.62610   12.77950   13.31730   13.31730    0.17200    0.21560    0.17200    3.00410    3.00410 2743.51600   12.71520   11.75680  -42.09990   12.71520 3985.68070 16519.82190
 2850.00000  193.82800  261.29850  233.77740  245.77150  233.77740   99.55000  -26.54950 2730.34900   -0.01190   -0.04870   -0.01190   10.04520  -26.54950    -999.25    -999.25    -999.25    -999.25    -999.25    -999.25    -999.25  193.82800  129.78490  126.38470  126.38470   10.04520   10.32150   10.32150    0.18040    0.22410    0.18040    3.32970    3.32970 2730.34900   10.83600   40.78610  -11.85670   10.83600 3998.02100 16767.36190
 2900.00000  185.20150  234.93010  228.19230  232.32370  228.19230  119.72750  -23.20670 2651.86000    0.03400   -0.00110    0.03400    8.35230  -23.20670    -999.25    -999.25    -999.25    -999.25    -999.25    -999.25    -999.25  185.20150  124.47100  128.47080  128.47080    8.35230   12.67650   12.67650    0.08630    0.12870    0.08630    3.52100    3.52100 2651.86000   28.32920   18.85980  -27.72260   28.32920 4181.32810 17051.80920
