~Version ---------------------------------------------------
VERS.      2.0 : CWLS log ASCII Standard -VERSION 2.0
WRAP.       NO : One line per depth step
CREA. 12/21/17 : LAS Creation Date
~Well ------------------------------------------------------
STRT.FT                             1150.0 : START DEPTH
STOP.FT                            10850.0 : STOP DEPTH
STEP.FT                           50.00000 : STEP LENGTH
NULL.                              -999.25 : NULL VALUE
COMP.             CANADIAN KEWANEE LIMITED : COMPANY
WELL. KEWANEE ET AL SAKWATAMAU 10-15-63-15 : WELL
FLD .                                   WC : FIELD
LOC .                                      : LOCATION
CTRY.                               CANADA : COUNTRY
SRVC.                         Schlumberger : SERVICE COMPANY
DATE.                          21-Mar-1965 : LOGDATE
PROV.                              Alberta : PROVINCE
UWI .                     100101506315W500 : UNIQUE WELL ID
SLAT.WGS84                        54.45235 : SURFACE LATITUDE
SLON.WGS84                        -116.177 : SURFACE LONGITUDE
~Curve Information -----------------------------------------
DEPT  .FT    : Depth Curve
CALSED.IN    : CALIPER FROM SONIC LOG LOG [ADJ. TO RESISTIVITY LOG]
CALWS .IN    : CALIPER [CALSED]
CILDED.MMHO  : CONDUCTIVITY FROM RESISTIVITY LOG
CONDWS.MMHO  : CONDUCTIVITY [1000/DRESWS]
DRESWS.OHMM  : DEEP RESISTIVITY [1000/CILDED IF ILDED < 5, ILDED]
DTED  .US/F  : DELTA T FROM SONIC LOG [ADJ. TO RESISTIVITY LOG]
DTWS  .US/F  : COMPRESSIONAL SONIC [DTED]
GRSED .GAPI  : GAMMA RAY FROM SONIC LOG LOG [ADJ. TO RESISTIVITY LOG]
GRWS  .GAPI  : GAMMA RAY [GRSED]
ILDED .OHMM  : DEEP INDUCTION RESISTIVITY FROM RESISTIVITY LOG
SNED  .OHMM  : SHORT NORMAL FROM RESISTIVITY LOG
SPRED .MV    : SPONTANEOUS POTENTIAL FROM RESISTIVITY LOG
SPWS  .MV    : SPONTANEOUS POTENTIAL [BASELINE 0 MV, SPRED]
SRESWS.OHMM  : SHALLOW RESISTIVITY [SNED]
~Params ----------------------------------------------------
PD  .                    SCF : PERMANENT DATUM
EPD .FT                 3104 : ELEVATION PERMANENT DATUM
LMF .                    SCF : LOG MEASURED FROM
EKB .FT               3117.1 : KELLY BUSHING
EGL .FT                 3103 : GROUND LEVEL
DATE.               03/12/65 : RUN DATE
RUN .                      1 : RUN NUMBER
DD  .FT                10858 : DEPTH DRILLER
DL  .FT                10864 : DEPTH LOGGER
BLI .FT                10863 : BOTTOM LOG INTERVAL
TLI .FT                 9600 : TOP LOG INTERVAL
BS  .IN                 8.75 : BIT SIZE
BSD .FT                10858 : BIT SIZE AT DEPTH
DFT .                    GEL : DRILLING FLUID TYPE
DFD .                    9.8 : DRILLING FLUID DENSITY
DFV .                     73 : DRILLING FLUID VISCOSITY
DFPH.                     10 : DRILLING FLUID PH
DFL .                    7.8 : DRILLING FLUID LOSS
RMS .OHMM               2.32 : RESISTIVITY MUD SAMPLE
MST .DEGF                 52 : MUD SAMPLE TEMPERATURE
RMF .OHMM               1.72 : RESISTIVITY MUD FILTRATE SAMPLE
MFST.DEGF                 52 : MUD FILTRATE SAMPLE TEMPERATURE
RMC .OHMM                2.1 : RESISTIVITY MUD CAKE
MCST.DEGF                 52 : MUD CAKE SAMPLE TEMPERATURE
RMB .OHMM               0.56 : RESISTIVITY MUD AT BHT
TCS .HRS                   2 : TIME CIRCULATED STOPPED
LUN .                   3534 : LOGGING UNIT NUMBER
LUL .                    WCT : LOGGING UNIT LOCATION
ENGI.                  HAYES : RECORDING ENGINEER
WITN.                 FISHER : WITNESSED BY
CLNT.                A2DTECH : CLIENT CODE
ORIG.               5" PRINT : ORIGIN OF DATA
UWI .       100101506315W500 : UNIQUE WELL ID
DICO. A2D Technologies, Inc. : DIGITIZING COMPANY
~Other -----------------------------------------------------
IEL-SONIC-GR LOG RUN
RESISTIVITY CURVES FROM SMALL SCALE SECTION FROM TOP TO 6100'
SONIC CURVES FROM SMALL SCALE SECTION FROM TOP TO 4990'
RESISTIVITY DATA FROM LANE WELLS & SCHLUMBERGER SPLICED TO CREATE SINGLE CURVES
~ASCII -----------------------------------------------------
# ...
 8500.00000   10.02670   10.02670   95.85690   90.25760   11.07940   65.09780   65.09780   44.45750   44.45750   11.07940   14.58070  -17.89500  -10.19640   14.58070
 8550.00000   13.43320   13.43320  191.90890  164.31690    6.08580   75.11120   75.11120   49.49630   49.49630    6.08580    8.39270  -16.29480   -8.34030    8.39270
 8600.00000   13.98290   13.98290  211.40150  183.28780    5.45590   82.34330   82.34330   57.37080   57.37080    5.45590    7.15570  -20.50790  -12.29580    7.15570
 8650.00000   10.28910   10.28910  108.26910  100.26770    9.97330   65.56440   65.56440   46.79330   46.79330    9.97330   15.13220  -14.97640   -6.50830   15.13220
 8700.00000   11.87350   11.87350  170.79860  152.94960    6.53810   75.04970   75.04970   56.41060   56.41060    6.53810    8.84230  -20.62840  -11.90270    8.84230
 8750.00000   10.65570   10.65570  134.02660  122.40650    8.16950   74.40210   74.40210   44.62210   44.62210    8.16950   11.80840  -14.04480   -5.06310   11.80840
 8800.00000   12.48610   12.48610  183.09750  162.67300    6.14730   75.81530   75.81530   57.82320   57.82320    6.14730    8.93780  -19.41510  -10.17750    8.93780
 8850.00000   13.99150   13.99150  184.66140  162.24280    6.16360   72.64150   72.64150   54.82430   54.82430    6.16360    8.61860  -27.11680  -17.62150    8.61860
 8900.00000   12.86550   12.86550  149.93910  137.61590    7.26660   74.06330   74.06330   59.86710   59.86710    7.26660   10.39730  -21.18170  -11.43040   10.39730
 8950.00000   13.42580   13.42580  182.60720  161.62140    6.18730   80.95070   80.95070   59.82050   59.82050    6.18730    9.33760  -18.55800   -8.54910    9.33760
 9000.00000   12.85780   12.85780  190.08970  165.84020    6.02990   70.08910   70.08910   54.37560   54.37560    6.02990    9.60850  -19.58150   -9.31670    9.60850
 9050.00000    9.48100    9.48100   12.85610    9.89310  101.08100   64.08090   64.08090   52.57160   52.57160  101.08100   97.36180  -15.60340   -5.08260   97.36180
 9100.00000    9.12060    9.12060    8.75640    6.10990  163.66830   73.55050   73.55050  135.30230  135.30230  163.66830  137.54850  -20.66640   -9.18000  137.54850
 9150.00000   10.18390   10.18390   36.89260   32.81080   30.47780   57.55810   57.55810   23.94430   23.94430   30.47780   38.91470  -19.22820   -6.50740   38.91470
 9200.00000   13.54910   13.54910  107.06360   98.43200   10.15930   68.83430   68.83430   61.16910   61.16910   10.15930   17.73100  -20.98630   -7.95800   17.73100
 9250.00000   10.28050   10.28050   37.66970   33.20520   30.11580   58.95220   58.95220   41.41870   41.41870   30.11580   49.75320  -18.00750   -6.28250   49.75320
 9300.00000   11.01060   11.01060   73.19290   67.95140   14.71640   57.94530   57.94530   33.74300   33.74300   14.71640   22.13480  -12.14800   -1.72630   22.13480
 9350.00000   10.17770   10.17770   19.34670   15.10710   66.19400   52.85340   52.85340   19.22670   19.22670   66.19400   78.42890  -11.31150   -1.51000   78.42890
 9400.00000    9.50370    9.50370    8.27560    5.96140  167.74460   49.81090   49.81090    7.90490    7.90490  167.74460  123.07850  -25.25760  -15.56480  123.07850
 9450.00000    9.35960    9.35960    9.84380    6.38380  156.64740   50.06020   50.06020    4.40800    4.40800  156.64740  228.12720  -62.91550  -53.33220  228.12720
 9500.00000    9.62790    9.62790   19.94570   16.15700   61.89270   50.34940   50.34940    2.98200    2.98200   61.89270   78.31470  -86.64170  -77.16710   78.31470
 9550.00000    9.84450    9.84450    8.17940    4.87440  205.15480   50.02740   50.02740    2.02980    2.02980  205.15480  202.25630  -91.53720  -82.17130  202.25630
 9600.00000    9.77980    9.77980    8.01010    5.24790  190.55300   50.21820   50.21820    4.16060    4.16060  190.55300  132.91560  -85.89410  -76.63760  132.91560
 9650.00000    9.22070    9.22070   46.68190   41.33730   24.19120   61.29900   61.29900  115.36990  115.36990   24.19120   60.32550   -9.43450   -0.28680   60.32550
 9700.00000    9.31140    9.31140   43.92100   40.15500   24.90350   58.03260   58.03260   94.97740   94.97740   24.90350   44.00230  -23.97980  -14.41750   44.00230
 9750.00000    9.44800    9.44800   47.07090   42.38280   23.59450   58.48070   58.48070  117.53280  117.53280   23.59450   29.20870  -40.48870  -30.44950   29.20870
 9800.00000    9.59110    9.59110   66.51900   64.75800   15.44210   64.78600   64.78600  123.80370  123.80370   15.44210   21.82370  -35.40740  -24.89130   21.82370
 9850.00000   10.47480   10.47480   68.21210   64.29460   15.55340   61.97380   61.97380  115.04620  115.04620   15.55340   14.39550  -36.54560  -25.54940   14.39550
 9900.00000    9.62990    9.62990  134.21470  135.62630    7.37320   53.91350   53.91350   50.59570   50.59570    7.37320   29.73350 -115.64810 -104.17500   29.73350
 9950.00000    9.26440    9.26440   96.54120   91.72710   10.90190   58.88180   58.88180  164.63220  164.63220   10.90190   30.54980 -101.64750  -89.69440   30.54980
 10000.00000    8.66800    8.66800   95.53510   95.31160   10.49190   57.58170   57.58170  105.57980  105.57980   10.49190   28.68750  -95.28140  -82.85140   28.68750
 10050.00000    7.82930    7.82930  899.81450  899.81450    1.11130   70.67080   70.67080  128.69850  128.69850    1.75280   20.34270 -172.74160 -159.83460   20.34270
 10100.00000    8.09220    8.09220  163.39520  166.15160    6.01860   52.44750   52.44750   10.19040   10.19040    6.01860   41.54580 -179.27330 -165.88620   41.54580
 10150.00000    9.22890    9.22890   48.01200   45.19350   22.12710   56.96280   56.96280   84.07970   84.07970   22.12710   30.46070  -49.48590  -35.62200   30.46070
 10200.00000   10.91930   10.91930   88.92400   85.22530   11.73360   70.66670   70.66670  132.68470  132.68470   11.73360   15.00970  -26.75960  -12.63250   15.00970
 10250.00000   11.38130   11.38130   65.08000   62.65270   15.96100   76.39320   76.39320   51.56660   51.56660   15.96100   16.63190  -26.32130  -12.68740   16.63190
 10300.00000   13.89120   13.89120   81.22410   78.36320   12.76110   74.17120   74.17120   82.47380   82.47380   12.76110   11.94430  -32.65580  -19.51500   11.94430
 10350.00000   13.27120   13.27120   80.20690   76.67300   13.04240   77.13980   77.13980   79.56330   79.56330   13.04240   13.18450  -37.99730  -25.35280   13.18450
 10400.00000    8.82550    8.82550   24.74310   20.27970   49.31050   55.80840   55.80840  108.62410  108.62410   49.31050   49.68690  -45.89540  -33.74400   49.68690
 10450.00000    8.80430    8.80430   36.72050   31.80880   31.43780   56.03450   56.03450  116.56040  116.56040   31.43780   38.37580  -53.86550  -42.21050   38.37580
 10500.00000    9.11700    9.11700  384.48590  384.48590    2.60090   69.83520   69.83520  120.91910  120.91910    3.20460    9.79150  -94.50120  -83.33920    9.79150
 10550.00000    8.24330    8.24330  586.28930  586.28930    1.70560   65.69270   65.69270   35.52200   35.52200    2.37660    9.69300 -142.56890 -131.90000    9.69300
 10600.00000    8.94540    8.94540   64.59440   60.93880   16.40990   64.24110   64.24110  126.46060  126.46060   16.40990   22.08180  -40.99700  -30.82440   22.08180
 10650.00000    9.07460    9.07460   44.15080   41.20690   24.26780   67.12640   67.12640  146.68540  146.68540   24.26780   34.47640  -11.01610   -1.96620   34.47640
 10700.00000    8.70130    8.70130   68.13410   68.54290   14.58940   62.42910   62.42910   36.50800   36.50800   14.58940   21.12530  -66.26090  -57.85410   21.12530
 10750.00000    8.58720    8.58720   38.86030   34.11900   29.30920   58.00370   58.00370   73.86000   73.86000   29.30920   30.94360  -56.79360  -48.38680   30.94360
 10800.00000    8.66420    8.66420  173.45010  165.71110    6.03460   61.84980   61.84980   32.05100   32.05100    6.03460   11.30110  -87.38390  -78.97710   11.30110
 10850.00000    8.54790    8.54790   20.89970   15.62510   63.99960   53.32660   53.32660    -999.25    -999.25   63.99960  117.50880  -64.58010  -56.17330  117.50880
