~Version ---------------------------------------------------
VERS.      2.0 : CWLS log ASCII Standard -VERSION 2.0
WRAP.       NO : One line per depth step
CREA. 08/16/13 : LAS Creation Date
~Well ------------------------------------------------------
STRT.M                         400.0 : START DEPTH
STOP.M                        2700.0 : STOP DEPTH
STEP.M                      50.00000 : STEP LENGTH
NULL.                        -999.25 : NULL VALUE
COMP.            ROXY PETROLEUM LTD. : COMPANY
WELL. ROXY MURPHY PRAIRIE RIVER 1-15 : WELL
FLD .                                : FIELD
LOC .                                : LOCATION
CTRY.                         CANADA : COUNTRY
SRVC.                        Unknown : SERVICE COMPANY
DATE.                    15-Mar-1984 : LOGDATE
PROV.                        Alberta : PROVINCE
UWI .               100011506915W500 : UNIQUE WELL ID
SLAT.WGS84                  54.96893 : SURFACE LATITUDE
SLON.WGS84                 -116.1868 : SURFACE LONGITUDE
~Curve Information -----------------------------------------
DEPT    .M      : DEPTH METER
CALDED  .MM     : CALIPER FROM DENSITY LOG [ADJ. TO RESISTIVITY LOG]
CALSED  .MM     : CALIPER FROM SONIC LOG
CALWS   .MM     : CALIPER [CALSED SPL. TO CALDED @ 2698M]
CONDWS  .MMHO   : CONDUCTIVITY [1000/DRESWS]
DCORWS  .KG/M3  : DENSITY CORRECTION [DRHOED]
DENWS   .KG/M3  : FORMATION BULK DENSITY [CALC. FROM DPOLSWS M=2710,F=1000]
DPHILSED.V/V    : DENSITY POROSITY LIMESTONE [M=2710,F=1000] FROM DENSITY LOG [ADJ. TO RESISTIVITY LOG]
DPHISSED.V/V    : DENSITY POROSITY SANDSTONE [M=2650,F=1000] FROM DENSITY LOG [ADJ. TO RESISTIVITY LOG]
DPOLSWS .V/V    : DENSITY POROSITY LIMESTONE [DPHISSED CONVERTED TO LIMESTONE MATRIX, M=2710,F=1000, SPL. TO DPHILSED @ 1326M]
DRESWS  .OHMM   : DEEP RESISTIVITY [ILDED]
DRHOED  .KG/M3  : BULK DENSITY CORRECTION FROM DENSITY LOG [ADJ. TO RESISTIVITY LOG]
DTED    .US/M   : TRANSIT TIME FROM SONIC LOG
DTWS    .US/M   : COMPRESSIONAL SONIC [DTED]
GRDED   .GAPI   : GAMMA RAY FROM DENSITY LOG [ADJ. TO RESISTIVITY LOG]
GRSED   .GAPI   : GAMMA RAY FROM SONIC LOG
GRWS    .GAPI   : GAMMA RAY [GRSED SPL. TO GRDED @ 2688M]
ILDED   .OHMM   : DEEP INDUCTION FROM RESISTIVITY LOG
ILMED   .OHMM   : MEDIUM INDUCTION FROM RESISTIVITY LOG
MRESWS  .OHMM   : MEDIUM RESISTIVITY [ILMED]
NPHILSED.V/V    : NEUTRON POROSITY LIMESTONE FROM DENSITY LOG [ADJ. TO RESISTIVITY LOG]
NPHISSED.V/V    : NEUTRON POROSITY SANDSTONE FROM DENSITY LOG [ADJ. TO RESISTIVITY LOG]
NPOLSWS .V/V    : NEUTRON POROSITY LIMESTONE [NPHISSED MATRIX CONVERSION FOR LIMESTONE (SLB) SPL. TO NPHILSED @ 1326M]
PEFED   .B/E    : PHOTOELECTRIC FACTOR FROM DENSITY LOG [ADJ. TO RESISTIVITY LOG]
PEFWS   .B/E    : PHOTOELECTRIC FACTOR [PEFED]
RHOBED  .KG/M3  : BULK DENSITY FROM DENSITY LOG [ADJ. TO RESISTIVITY LOG]
SFLUED  .OHMM   : SHALLOW FOCUS FROM RESISTIVITY LOG
SPRED   .MV     : SPONTANEOUS POTENTIAL FROM RESISTIVITY LOG
SPWS    .MV     : SPONTANEOUS POTENTIAL [BASELINE 0 MV, SPRED]
SRESWS  .OHMM   : SHALLOW RESISTIVITY [SFLUED]
~Params ----------------------------------------------------
PD  .                         GL : PERMANENT DATUM
EPD .M                    867.26 : ELEVATION PERMANENT DATUM
LMF .                         KB : LOG MEASURED FROM
DAPD.M                      5.85 : FEET ABOVE PERMANENT DATUM
DMF .                         KB : DRILLING MEASURED FROM
EKB .M                    873.11 : KELLY BUSHING
EGL .M                    867.26 : GROUND LEVEL
DATE.                   03/15/84 : RUN DATE
RUN .                          1 : RUN NUMBER
DD  .M                      2710 : DEPTH DRILLER
DL  .M                      2709 : DEPTH LOGGER
BLI .M                      2708 : BOTTOM LOG INTERVAL
TLI .M                       401 : TOP LOG INTERVAL
CS  .MM                    244.5 : CASING SIZE
CBD .M                       401 : CASING BOTTOM DRILLER
CBL .M                       401 : CASING BOTTOM LOGGER
BSD .M                      2710 : BIT SIZE AT DEPTH
DFT .                        GEL : DRILLING FLUID TYPE
DFD .                       1150 : DRILLING FLUID DENSITY
DFV .                         83 : DRILLING FLUID VISCOSITY
DFPH.                         11 : DRILLING FLUID PH
DFL .                        9.5 : DRILLING FLUID LOSS
MSS .                   FLOWLINE : MUD SAMPLE SOURCE
RMS .OHMM                   1.17 : RESISTIVITY MUD SAMPLE
MST .DEGC                     17 : MUD SAMPLE TEMPERATURE
RMF .OHMM                   0.84 : RESISTIVITY MUD FILTRATE SAMPLE
MFST.DEGC                     18 : MUD FILTRATE SAMPLE TEMPERATURE
RMC .OHMM                  0.371 : RESISTIVITY MUD CAKE
MCST.DEGC                     68 : MUD CAKE SAMPLE TEMPERATURE
MFSS.                      PRESS : MUD FILTRATE SAMPLE SOURCE
MCSS.                      PRESS : MUD CAKE SAMPLE SOURCE
RMB .OHMM                  0.504 : RESISTIVITY MUD AT BHT
TCS .HRS                     930 : TIME CIRCULATED STOPPED
TLAB.HRS                    1500 : TIME LOGGER AT BOTTOM
LUN .                       8110 : LOGGING UNIT NUMBER
LUL .                        EDM : LOGGING UNIT LOCATION
ENGI.                     CSIKOS : RECORDING ENGINEER
WITN.                    DIAMOND : WITNESSED BY
CLNT.                    A2DTECH : CLIENT CODE
ORIG. 6.5"/100M 16.5"/100M PRINT : ORIGIN OF DATA
UWI .           100011506915W500 : UNIQUE WELL ID
DICO.     A2D Technologies, Inc. : DIGITIZING COMPANY
~Other -----------------------------------------------------
DIFL-BHC LOG RUN IN COMBO & CNFD LOG RUN
RHOB & DRHO FROM SMALL SCALE SECTION
~ASCII -----------------------------------------------------
# ...
 1650.00000    -999.25  228.92800  228.92800   76.99590    -999.25    -999.25    -999.25    -999.25    -999.25   12.98770    -999.25  183.50940  183.50940    -999.25   16.49610   16.49610   12.98770   15.72760   15.72760    -999.25    -999.25    -999.25    -999.25    -999.25    -999.25   24.55420  -97.01980  -68.10130   24.55420
 1700.00000    -999.25  239.89890  239.89890   92.69730    -999.25    -999.25    -999.25    -999.25    -999.25   10.78780    -999.25  206.49340  206.49340    -999.25   50.43400   50.43400   10.78780   11.25900   11.25900    -999.25    -999.25    -999.25    -999.25    -999.25    -999.25   16.30650  -34.39640   -6.89640   16.30650
 1750.00000    -999.25  232.51300  232.51300   20.44890    -999.25    -999.25    -999.25    -999.25    -999.25   48.90240    -999.25  180.44610  180.44610    -999.25   25.18000   25.18000   48.90240   51.94530   51.94530    -999.25    -999.25    -999.25    -999.25    -999.25    -999.25   60.45140  -58.63970  -31.13970   60.45140
 1800.00000    -999.25  241.93500  241.93500    5.60130    -999.25    -999.25    -999.25    -999.25    -999.25  178.52890    -999.25  167.13930  167.13930    -999.25   24.45060   24.45060  178.52890  318.16850  318.16850    -999.25    -999.25    -999.25    -999.25    -999.25    -999.25  238.92770  -51.81240  -25.44990  238.92770
 1850.00000    -999.25  251.30910  251.30910    3.78620    -999.25    -999.25    -999.25    -999.25    -999.25  264.11730    -999.25  166.11670  166.11670    -999.25   14.77450   14.77450  264.11730  381.41140  381.41140    -999.25    -999.25    -999.25    -999.25    -999.25    -999.25  328.12140 -102.48430  -77.51250  328.12140
 1900.00000    -999.25  245.08340  245.08340   15.45420    -999.25    -999.25    -999.25    -999.25    -999.25   64.70740    -999.25  175.21000  175.21000    -999.25   12.36180   12.36180   64.70740   69.44960   69.44960    -999.25    -999.25    -999.25    -999.25    -999.25    -999.25  121.00100 -114.15970  -90.57850  121.00100
 1950.00000    -999.25  235.90190  235.90190   12.05810    -999.25    -999.25    -999.25    -999.25    -999.25   82.93200    -999.25  163.20650  163.20650    -999.25   12.04350   12.04350   82.93200   92.43430   92.43430    -999.25    -999.25    -999.25    -999.25    -999.25    -999.25  195.99630 -103.80640  -81.61580  195.99630
 2000.00000    -999.25  234.79350  234.79350    5.25470    -999.25    -999.25    -999.25    -999.25    -999.25  190.30600    -999.25  165.31340  165.31340    -999.25   10.22060   10.22060  190.30600  346.97390  346.97390    -999.25    -999.25    -999.25    -999.25    -999.25    -999.25  666.58730 -119.84830  -99.04830  666.58730
 2050.00000    -999.25  223.13460  223.13460   89.37830    -999.25    -999.25    -999.25    -999.25    -999.25   11.18840    -999.25  189.95080  189.95080    -999.25   69.76130   69.76130   11.18840   16.53770   16.53770    -999.25    -999.25    -999.25    -999.25    -999.25    -999.25   36.68040 -106.77260  -87.36330   36.68040
 2100.00000    -999.25  237.91940  237.91940   66.12230    -999.25    -999.25    -999.25    -999.25    -999.25   15.12350    -999.25  171.80180  171.80180    -999.25   30.98310   30.98310   15.12350   16.17500   16.17500    -999.25    -999.25    -999.25    -999.25    -999.25    -999.25   17.74300  -65.79330  -47.77450   17.74300
 2150.00000    -999.25  234.72110  234.72110   42.37430    -999.25    -999.25    -999.25    -999.25    -999.25   23.59920    -999.25  192.70510  192.70510    -999.25   43.41350   43.41350   23.59920   30.59920   30.59920    -999.25    -999.25    -999.25    -999.25    -999.25    -999.25   34.98450  -20.54110   -2.47070   34.98450
 2200.00000    -999.25  358.97180  358.97180  259.24200    -999.25    -999.25    -999.25    -999.25    -999.25    3.85740    -999.25  281.54010  281.54010    -999.25   94.97850   94.97850    3.85740    3.28940    3.28940    -999.25    -999.25    -999.25    -999.25    -999.25    -999.25    4.05090  -40.76170   -2.56940    4.05090
 2250.00000    -999.25  376.13650  376.13650  227.77490    -999.25    -999.25    -999.25    -999.25    -999.25    4.39030    -999.25  263.83120  263.83120    -999.25   82.50870   82.50870    4.39030    3.51800    3.51800    -999.25    -999.25    -999.25    -999.25    -999.25    -999.25    4.46920  -40.22060   -6.70950    4.46920
 2300.00000    -999.25  238.78400  238.78400   95.93520    -999.25    -999.25    -999.25    -999.25    -999.25   10.42370    -999.25  212.72630  212.72630    -999.25   58.75860   58.75860   10.42370   11.55130   11.55130    -999.25    -999.25    -999.25    -999.25    -999.25    -999.25   14.48320  -17.26530   -2.45140   14.48320
 2350.00000    -999.25  254.38550  254.38550  133.26940    -999.25    -999.25    -999.25    -999.25    -999.25    7.50360    -999.25  234.89860  234.89860    -999.25   71.65810   71.65810    7.50360    7.72550    7.72550    -999.25    -999.25    -999.25    -999.25    -999.25    -999.25    9.13110  -13.96510   -8.38350    9.13110
 2400.00000    -999.25  279.91220  279.91220  183.21730    -999.25    -999.25    -999.25    -999.25    -999.25    5.45800    -999.25  237.83960  237.83960    -999.25   70.86150   70.86150    5.45800    5.73050    5.73050    -999.25    -999.25    -999.25    -999.25    -999.25    -999.25    5.09260  -10.13080   -5.97760    5.09260
 2450.00000  236.87430  232.00760  232.00760   64.54360   19.30640 2615.09500    0.05550    -999.25    0.05550   15.49340   19.30640  197.14350  197.14350   38.25450   42.28100   42.28100   15.49340   17.26300   17.26300    0.05750    -999.25    0.05750    3.95000    3.95000 2616.94120   20.93960    0.85500   -6.41010   20.93960
 2500.00000  287.83770  250.08210  250.08210  108.60120  186.93950 2436.05800    0.16020    -999.25    0.16020    9.20800  186.93950  215.83030  215.83030   60.16940   61.92520   61.92520    9.20800    9.53030    9.53030    0.15810    -999.25    0.15810    3.23470    3.23470 2437.39620   10.98550   -9.33530  -12.78650   10.98550
 2550.00000  258.03490  254.27640  254.27640  107.29730  -33.81350 2685.71800    0.01420    -999.25    0.01420    9.31990  -33.81350  216.76790  216.76790   82.47960   78.35490   78.35490    9.31990   10.47480   10.47480    0.15010    -999.25    0.15010    3.96080    3.96080 2681.41020   12.25850   -4.36380   -5.96990   12.25850
 2600.00000  311.59200  229.30510  229.30510    1.22140  162.52030 2218.54600    0.28740    -999.25    0.28740  818.73210  162.52030  165.37980  165.37980   11.86660   14.44130   14.44130  818.73210 1180.47850 1180.47850   -0.00210    -999.25   -0.00210    3.31770    3.31770 2243.60060  262.85020  -97.10990 -100.70270  262.85020
 2650.00000  224.38990  220.57550  220.57550   99.48170  -10.17560 2718.37900   -0.00490    -999.25   -0.00490   10.05210  -10.17560  189.45850  189.45850   92.24750   88.31550   88.31550   10.05210   10.52100   10.52100    0.12140    -999.25    0.12140    3.53200    3.53200 2719.66700   15.09370    8.86970   -1.27280   15.09370
 2700.00000  207.73250    -999.25  207.73250 2318.03430   22.17070 2375.69500    0.19550    -999.25    0.19550    0.43140   22.17070    -999.25    -999.25    -999.25    -999.25    -999.25    0.43140    0.58930    0.58930    0.11270    -999.25    0.11270    1.86740    1.86740 2374.46630    1.76030  -81.33200  -79.07010    1.76030
