~Version ---------------------------------------------------
VERS. 2.0 : CWLS log ASCII Standard -VERSION 2.0
WRAP.  NO : ONE LINE PER DEPTH STEP
~Well ------------------------------------------------------
STRT.F                          300.0 : START DEPTH
STOP.F                         7450.0 : STOP DEPTH
STEP.F                       50.00000 : STEP LENGTH
NULL.                         -999.25 : NULL VALUE
COMP.         BRALORNE RESOURCES LTD. : COMPANY
WELL. BRALORNE ET AL HEARTR 9-1-77-16 : WELL
FLD .                                 : FIELD
LOC .                                 : LOCATION
CTRY.                          CANADA : COUNTRY
SRVC.                         Unknown : SERVICE COMPANY
DATE.                     01-Apr-1977 : LOGDATE
PROV.                         Alberta : PROVINCE
UWI .                100090107716W500 : UNIQUE WELL ID
SLAT.WGS84                   55.64558 : SURFACE LATITUDE
SLON.WGS84                  -116.3326 : SURFACE LONGITUDE
~Curve Information -----------------------------------------
DEPT   .F    0   1   0  0 : 1 MEASURED DEPTH
GRD    .GAPI 45 310 01 00 : GAMMA RAY FROM DENSITY LOG
NPHI_SS.DEC  42 890 03 00 : NEUTRON POROSITY SANDSTONE
CALD   .IN   45 280 60 00 : CALIPER FROM DENSITY LOG
DPHI_SS.DEC  45 890 12 00 : DENSITY POROSITY SANDSTONE
DPHI_LS.DEC  45 890 10 00 : DENSITY POROSITY LIMESTONE
NPHI_LS.DEC  42 890 01 00 : NEUTRON POROSITY LIMESTONE
DRHO   .G/C3 45 356 01 00 : BULK DENSITY CORRECTION
RHOB   .G/C3 45 350 01 00 : BULK DENSITY
SPR    .MV   07 010 01 00 : SPONTANEOUS POTENTIAL FROM RESISTIVITY LOG
ILM    .OHMM 07 120 44 00 : INDUCTION MEDIUM RESISTIVITY
LL8    .OHMM 07 220 08 00 : LATEROLOG 8
ILD    .OHMM 07 120 46 00 : INDUCTION DEEP RESISTIVITY
~Params ----------------------------------------------------
PD  .                     GL : PERMANENT DATUM
EPD .FT               2310.5 : ELEVATION PERMANENT DATUM
LMF .                     KB : LOG MEASURED FROM
DAPD.FT                 14.4 : FEET ABOVE PERMANENT DATUM
EKB .FT               2324.9 : KELLY BUSHING
EGL .FT               2310.5 : GROUND LEVEL
DATE.               04/01/77 : RUN DATE
RUN .                      1 : RUN NUMBER
DD  .FT                 7520 : DEPTH DRILLER
DL  .FT                 7486 : DEPTH LOGGER
BLI .FT                 7480 : BOTTOM LOG INTERVAL
TLI .FT                  796 : TOP LOG INTERVAL
CBD .FT                  796 : CASING BOTTOM DRILLER
CBL .FT                  796 : CASING BOTTOM LOGGER
BS  .IN                7.875 : BIT SIZE
BSD .FT                 7520 : BIT SIZE AT DEPTH
DFT .              GEL BENEX : DRILLING FLUID TYPE
DFD .                    9.2 : DRILLING FLUID DENSITY
DFV .                     80 : DRILLING FLUID VISCOSITY
DFPH.                   10.5 : DRILLING FLUID PH
DFL .                     12 : DRILLING FLUID LOSS
MSS .             CIRCULATED : MUD SAMPLE SOURCE
RMS .OHMM               0.49 : RESISTIVITY MUD SAMPLE
MST .DEGF                 64 : MUD SAMPLE TEMPERATURE
RMF .OHMM               0.35 : RESISTIVITY MUD FILTRATE SAMPLE
MFST.DEGF                 66 : MUD FILTRATE SAMPLE TEMPERATURE
RMB .OHMM               0.17 : RESISTIVITY MUD AT BHT
TCS .HRS                 2.5 : TIME CIRCULATED STOPPED
LUN .                   7809 : LOGGING UNIT NUMBER
LUL .                    EDM : LOGGING UNIT LOCATION
ENGI.      CROCKFORD BUSHMAN : RECORDING ENGINEER
WITN.      KIRKPATRICK MOORE : WITNESSED BY
CLNT.                A2DTECH : CLIENT CODE
ORIG.            2" 5" PRINT : ORIGIN OF DATA
UWI .       100090107716W500 : UNIQUE WELL ID
DICO. A2D Technologies, Inc. : DIGITIZING COMPANY
~Other -----------------------------------------------------
~ASCII -----------------------------------------------------
# ...
 5900.00000   29.47870    -999.25    8.12490    -999.25    0.00530    0.06000    0.00160    2.68910  -79.70320   20.97040   29.25960   21.57410
 5950.00000   56.96160    -999.25    8.15770    -999.25    0.01240    0.11120    0.01530    2.68320  -61.13590   14.49030   17.87940   15.22420
 6000.00000   47.08420    -999.25    8.15290    -999.25    0.02890    0.08660   -0.00140    2.65140  -53.77870   16.29830   21.67900   16.92590
 6050.00000  119.40440    -999.25   10.86880    -999.25    0.17770    0.36510    0.06820    2.40620  -65.61450    2.49110    3.27400    2.58720
 6100.00000  121.01260    -999.25   13.94880    -999.25    0.23720    0.42400    0.09200    2.29060  -69.60150    2.21030    2.95700    2.57730
 6150.00000  116.79510    -999.25    -999.25    -999.25    0.26470    0.42240    0.10470    2.26210  -71.89360    2.42770    3.36420    2.80960
 6200.00000   97.08440    -999.25    -999.25    -999.25    0.20430    0.33280    0.16950    2.34870  -67.49280    3.77190    4.61310    3.93100
 6250.00000  104.22540    -999.25    -999.25    -999.25    -999.25    0.45830    0.12530    1.66810  -72.33220    2.53550    3.37910    3.11700
 6300.00000  114.46470    -999.25   10.48170    -999.25    -999.25    0.37840    0.05480    1.48230  -65.26770    2.67480    3.48270    3.24590
 6350.00000   97.76480    -999.25    -999.25    -999.25    0.19950    0.37300    0.19020    2.36780  -64.48810    3.05640    3.64150    3.75200
 6400.00000  104.25950    -999.25    -999.25    -999.25    0.14580    0.38380    0.11540    2.46290  -61.42980    2.66160    3.16940    3.07680
 6450.00000  111.28990    -999.25    -999.25    -999.25    0.10370    0.37610    0.09560    2.52490  -57.77080    2.59890    3.13030    3.02690
 6500.00000  107.12500    -999.25    -999.25    -999.25    0.12400    0.35050    0.18290    2.49780  -53.22510    2.76620    3.32960    3.03320
 6550.00000  114.41490    -999.25    -999.25    -999.25    0.12450    0.28850    0.11780    2.49560  -57.64710    3.03320    4.12400    3.37870
 6600.00000  128.32830    -999.25   14.64880    -999.25    0.09600    0.27900    0.12480    2.54880  -50.42790    3.32320    4.13460    3.42620
 6650.00000   62.48400    -999.25    8.54840    -999.25    0.01220    0.13560    0.11290    2.67300  -37.36180   10.82840   13.70650   12.65080
 6700.00000   69.82080    -999.25    8.56620    -999.25    0.03300    0.14590    0.07470    2.65780  -34.98830    9.25890   12.33430    8.63540
 6750.00000  104.65240    -999.25   10.68050    -999.25    0.11690    0.25680    0.22020    2.55270  -53.20910    5.10360    6.39940    5.01910
 6800.00000   97.17040    -999.25   10.03300    -999.25    0.10270    0.24210    0.16160    2.63330  -51.61490    5.70380    7.16100    4.91490
 6850.00000  126.03520    -999.25   10.67630    -999.25    0.08540    0.29970    0.13420    2.54280  -48.16310    3.15350    4.23690    3.46690
 6900.00000  149.50830    -999.25   10.58050    -999.25    0.10610    0.30440    0.17160    2.51100  -44.95270    3.25250    4.51630    3.33430
 6950.00000  114.19940    -999.25   10.80610    -999.25    0.12800    0.29140    0.15050    2.46830  -52.28090    3.37260    4.80590    3.64200
 7000.00000  101.96500    -999.25   10.29610    -999.25    0.12610    0.24990    0.09610    2.48420  -51.87930    3.70110    4.05650    4.36770
 7050.00000   58.86350    -999.25    8.22730    -999.25    0.01850    0.10210    0.00770    2.71410  -29.97650   13.42910   19.30350   10.81390
 7100.00000   54.61500    -999.25    8.27760    -999.25    0.01110    0.12160   -0.00510    2.69410  -30.87750    8.95900   11.40440    9.07700
 7150.00000   99.98310    -999.25    8.09210    -999.25    0.01880    0.21420    0.10270    2.67490  -35.13620    5.89110    7.54070    5.65650
 7200.00000  105.78660    -999.25    9.65040    -999.25    0.06330    0.21890    0.13530    2.59900  -63.46430    4.95320    5.83480    4.70660
 7250.00000   29.52060    -999.25    7.97610    -999.25   -0.00800    0.04750    0.00760    2.73100  -57.42340   43.18620   48.94780   43.33430
 7300.00000   23.59200    -999.25    7.80030    -999.25    0.02260    0.07050    0.00470    2.65780  -73.34760   36.13520   31.64480   30.90470
 7350.00000  204.20300    -999.25    7.91260    -999.25    0.31410    0.36420    0.02160    2.14990  -74.13290    1.31300    2.87910    0.83960
 7400.00000  178.44290    -999.25   10.08900    -999.25    0.20390    0.24310    0.13380    2.27830  -59.84090    2.34080    2.46500    2.62690
 7450.00000  229.99660    -999.25    8.27660    -999.25    0.13910    0.23150    0.01210    2.47560  -57.88740    4.03100    5.40250    4.02240
