~Version ---------------------------------------------------
VERS.      2.0 : CWLS log ASCII Standard -VERSION 2.0
WRAP.       NO : One line per depth step
CREA. 01/04/18 : LAS Creation Date
~Well ------------------------------------------------------
STRT.FT                   1250.0 : START DEPTH
STOP.FT                  10000.0 : STOP DEPTH
STEP.FT                 50.00000 : STEP LENGTH
NULL.                    -999.25 : NULL VALUE
COMP. PHILLIPS PETROLEUM COMPANY : COMPANY
WELL. PHILLIPS KAYBOB 12-9-64-19 : WELL
FLD .                     KAYBOB : FIELD
LOC .                            : LOCATION
CTRY.                     CANADA : COUNTRY
SRVC.               Schlumberger : SERVICE COMPANY
DATE.                25-Oct-1959 : LOGDATE
PROV.                    Alberta : PROVINCE
UWI .           100120906419W500 : UNIQUE WELL ID
SLAT.WGS84              54.52519 : SURFACE LATITUDE
SLON.WGS84               -116.82 : SURFACE LONGITUDE
~Curve Information -----------------------------------------
DEPT  .FT    : Depth Curve
CALMED.IN    : CALIPER FROM MICROLOG (ADJ TO RES.)
CALWS .IN    : CALIPER (CALMED)
CONDWS.MMHO  : CONDUCTIVITY (1000/DRESWS)
DRESWS.OHMM  : DEEP RESISTIVITY (LAT9ED)
GRNED .CPS   : GAMMA RAY GRN/NEUTRON (ADJ TO RES.)
GRWS  .CPS   : GAMMA RAY (GRNED)
LAT9ED.OHMM  : LATERAL 9'
LT16ED.OHMM  : LATERAL 16'
NEUTED.CPS   : NEUTRON GR/NEUTRON LOG (ADJ TO RES.)
NEUTWS.CPS   : NEUTRON (NEUTED)
SNED  .OHMM  : SHORT NORMAL 16"
SPRED .MV    : Spontaneous Potential  ELOG
SPWS  .MV    : SPONTANEOUS POTENTIAL BASELINE 0 MV (SPRED)
SRESWS.OHMM  : SHALLOW RESISTIVITY (SNED)
~Params ----------------------------------------------------
PD  .                         SCF : PERMANENT DATUM
LMF .                          KB : LOG MEASURED FROM
DAPD.FT                        16 : FEET ABOVE PERMANENT DATUM
DMF .                          KB : DRILLING MEASURED FROM
EKB .FT                      2554 : KELLY BUSHING
EDF .FT                      2552 : DRILLING FLOOR
EGL .FT                      2538 : GROUND LEVEL
DATE.                    10/25/59 : RUN DATE
RUN .                           1 : RUN NUMBER
DD  .FT                     10025 : DEPTH DRILLER
DL  .FT                     10014 : DEPTH LOGGER
BLI .FT                     10013 : BOTTOM LOG INTERVAL
TLI .FT                      1257 : TOP LOG INTERVAL
CS  .IN                     9.625 : CASING SIZE
CBD .FT                      1256 : CASING BOTTOM DRILLER
CBL .FT                      1257 : CASING BOTTOM LOGGER
BS  .IN                     7.875 : BIT SIZE
BSD .FT                     10025 : BIT SIZE AT DEPTH
DFT . OIL EMULSION GEL CAUSTIC QX : DRILLING FLUID TYPE
DFD .                        10.6 : DRILLING FLUID DENSITY
DFV .                          68 : DRILLING FLUID VISCOSITY
DFPH.                        10.5 : DRILLING FLUID PH
DFL .                         5.9 : DRILLING FLUID LOSS
MSS .                  CIRCULATED : MUD SAMPLE SOURCE
RMS .OHMM                    2.18 : RESISTIVITY MUD SAMPLE
MST .DEGF                      64 : MUD SAMPLE TEMPERATURE
RMF .OHMM                    1.96 : RESISTIVITY MUD FILTRATE SAMPLE
MFST.DEGF                      66 : MUD FILTRATE SAMPLE TEMPERATURE
RMC .OHMM                    3.54 : RESISTIVITY MUD CAKE
MCST.DEGF                      64 : MUD CAKE SAMPLE TEMPERATURE
RMB .OHMM                    0.67 : RESISTIVITY MUD AT BHT
ENGI.                      FOWLER : RECORDING ENGINEER
WITN.             TIBBITTS HUNTER : WITNESSED BY
CLNT.                     A2DTECH : CLIENT CODE
ORIG.                 2" 5" PRINT : ORIGIN OF DATA
UWI .            100120906419W500 : UNIQUE WELL ID
DICO.      A2D Technologies, Inc. : DIGITIZING COMPANY
~Other -----------------------------------------------------
~ASCII -----------------------------------------------------
# ...
 8600.00000    8.98280    8.98280    9.48020  105.48250   42.69720   42.69720  105.48250  226.66400  680.37480  680.37480   98.90420 -172.34510 -156.69200   98.90420
 8650.00000    8.49910    8.49910   16.03450   62.36570   57.67070   57.67070   62.36570   48.59520  535.48510  535.48510   30.40300 -187.24120 -170.91500   30.40300
 8700.00000    9.60110    9.60110  102.08150    9.80320   76.98120   76.98120    9.80320   11.67680  389.51210  389.51210   12.05380 -175.59310 -158.59040   12.05380
 8750.00000    9.25500    9.25500   79.79250   12.53250   82.20760   82.20760   12.53250    8.55960  418.41720  418.41720   12.80160 -143.58770 -125.91540   12.80160
 8800.00000    8.51760    8.51760  146.78250    6.81280   61.58440   61.58440    6.81280    1.12350  498.25160  498.25160   15.90280 -106.87830  -88.53290   15.90280
 8850.00000    8.51430    8.51430   36.39380   27.47720   57.44350   57.44350   27.47720   32.71960  518.07630  518.07630   22.03680  -76.09200  -57.07360   22.03680
 8900.00000    9.62790    9.62790  187.96990    5.32000   66.31000   66.31000    5.32000    6.74050  465.19330  465.19330    3.59950  -73.94480  -54.25330    3.59950
 8950.00000   15.37640   15.37640  313.83070    3.19220   87.13000   87.13000    3.19220    2.54000  301.22470  301.22470    5.50720  -95.05130  -74.68340    5.50720
 9000.00000   14.19140   14.19140  348.12880    2.87250   87.07960   87.07960    2.87250    1.59560  298.95150  298.95150    2.16800  -78.41670  -57.37910    2.16800
 9050.00000   15.20900   15.20900  309.22420    3.23390  101.91280  101.91280    3.23390    2.59240  285.35000  285.35000    2.88330  -77.18670  -55.47600    2.88330
 9100.00000   14.85000   14.85000  305.72630    3.27090   94.03840   94.03840    3.27090    1.66800  302.91550  302.91550    2.30600  -75.19790  -52.81420    2.30600
 9150.00000    8.75690    8.75690   47.30210   21.14070   74.51940   74.51940   21.14070    6.11780  449.11070  449.11070   14.09730  -74.88550  -51.82870   14.09730
 9200.00000    8.87730    8.87730  114.75560    8.71420   86.86570   86.86570    8.71420    5.65960  420.67840  420.67840    9.94700  -84.66270  -60.92950    9.94700
 9250.00000    9.01210    9.01210  163.59650    6.11260   97.74110   97.74110    6.11260    4.39190  387.81240  387.81240    7.06880  -49.65950  -25.25660    7.06880
 9300.00000    8.97950    8.97950  116.36700    8.59350   96.01080   96.01080    8.59350    6.42330  390.61180  390.61180    8.53870  -19.53500    5.54100    8.53870
 9350.00000    9.44700    9.44700  214.36690    4.66490  117.67950  117.67950    4.66490    2.91380  347.91480  347.91480    5.72390  -39.83540  -15.76740    5.72390
 9400.00000    9.01740    9.01740  240.62760    4.15580   99.94440   99.94440    4.15580    2.34670  383.12570  383.12570    7.50680  -79.61290  -57.82110    7.50680
 9450.00000    9.94400    9.94400  258.14040    3.87430  100.85980  100.85980    3.87430    3.21690  341.21980  341.21980    5.46640  -72.51310  -53.00880    5.46640
 9500.00000    8.15710    8.15710  101.90360    9.81320   87.21230   87.21230    9.81320    7.02730  488.15390  488.15390   74.47000  -68.14730  -50.90770   74.47000
 9550.00000    8.08010    8.08010    2.74560  364.22570  107.60950  107.60950  364.22570  244.51580  430.43440  430.43440  148.42120  -53.46140  -38.49800  148.42120
 9600.00000    8.06750    8.06750   13.30490   75.16010   41.69450   41.69450   75.16010   60.96950  608.55360  608.55360  143.01830  -50.17630  -37.48900  143.01830
 9650.00000    8.28840    8.28840    4.92800  202.92120  136.29030  136.29030  202.92120  104.49330  310.59270  310.59270   58.36850  -23.97510  -13.56400   58.36850
 9700.00000    8.04460    8.04460    3.62840  275.60970   62.77290   62.77290  275.60970  144.25880  510.30500  510.30500  123.67180  -17.31670   -9.19310  123.67180
 9750.00000    8.08850    8.08850    9.31970  107.29990   21.49160   21.49160  107.29990  115.73740  739.10410  739.10410   97.06190  -16.93000  -11.07120   97.06190
 9800.00000    7.84180    7.84180    2.40270  416.19480   25.01420   25.01420  416.19480  396.89530  866.66310  866.66310  200.06320  -66.73780  -61.10660  200.06320
 9850.00000    7.81650    7.81650    2.04830  488.22060   23.13440   23.13440  488.22060  398.19080  784.91630  784.91630  127.57410  -77.94610  -72.31490  127.57410
 9900.00000    7.88610    7.88610    6.16560  162.19120   25.62950   25.62950  162.19120  152.31890  750.21610  750.21610   89.66270  -91.10070  -85.46950   89.66270
 9950.00000    7.93130    7.93130    4.35930  229.72700   20.19510   20.19510  229.72700  210.21470  779.49270  779.49270  242.38900  -77.72520  -72.09400  242.38900
 10000.00000    7.89150    7.89150    0.77660 1287.58890    -999.25    -999.25 1287.58890 2789.44210  733.97940  733.97940  671.19560 -131.68560 -126.05440  671.19560
