~Version ---------------------------------------------------
VERS.      2.0 : CWLS log ASCII Standard -VERSION 2.0
WRAP.       NO : One line per depth step
CREA. 08/31/17 : LAS Creation Date
~Well ------------------------------------------------------
STRT.FT                         1000.0 : START DEPTH
STOP.FT                        10100.0 : STOP DEPTH
STEP.FT                       50.00000 : STEP LENGTH
NULL.                          -999.25 : NULL VALUE
COMP.             PETROFINA CANADA LTD : COMPANY
WELL. FINA AMOCO HB PASS CK 6-33-62-17 : WELL
FLD .                                  : FIELD
LOC .                                  : LOCATION
CTRY.                           CANADA : COUNTRY
SRVC.                     Schlumberger : SERVICE COMPANY
DATE.                      14-Feb-1977 : LOGDATE
PROV.                          Alberta : PROVINCE
UWI .                 100063306217W500 : UNIQUE WELL ID
SLAT.WGS84                    54.40414 : SURFACE LATITUDE
SLON.WGS84                   -116.4922 : SURFACE LONGITUDE
~Curve Information -----------------------------------------
DEPT    .FT    : Depth Curve
CALDED  .IN    : CALIPER FROM CNFD LOG
CALSED  .IN    : CALIPER FROM BCS LOG [ADJ.TO GRDED]
CALWS   .IN    : CALIPER [CALSED]
CILDED  .MMHO  : CONDUCTIVITY FROM DIL-LAT LOG
CONDWS  .MMHO  : CONDUCTIVITY [CILDED SPL.TO 1000/ILDED @ 1035.5' TO 1151.5' & 4943' TO 10143']
DCORED  .G/C3  : DENSITY CORRECTION FROM CNFD LOG
DCORWS  .G/C3  : DENSITY CORRECTION [DCORED]
DENWS   .G/C3  : FORMATION BULK DENSITY [RHOBED]
DPHILSED.V/V   : DENSITY POROSITY LIMESTONE [M=2.71, F=1.0] FROM CNFD LOG [ADJ.TO RHOBED]
DPHISSED.V/V   : DENSITY POROSITY SANDSTONE [M=2.65, F=1.0] FROM CNFD LOG [ADJ.TO RHOBED]
DPOLSWS .V/V   : DENSITY POROSITY LIMESTONE [CALCULATED FROM DENWS, M=2.71, F=1.0]
DRESWS  .OHMM  : DEEP RESISTIVITY [1000/CONDWS, IF ILDED <=4 THEN ILDED]
DTED    .US/F  : DELTA-T FROM BCS LOG [ADJ.TO GRDED]
DTWS    .US/F  : COMPRESSIONAL SONIC [DTED]
GRDED   .GAPI  : GAMMA RAY FROM CNFD LOG
GRSED   .GAPI  : GAMMA RAY FROM SONIC LOG [ADJ.TO GRDED]
GRWS    .GAPI  : GAMMA RAY [GRSED]
ILDED   .OHMM  : DEEP INDUCTION FROM DIL-LAT LOG
ILMED   .OHMM  : MEDIUM INDUCTION FROM DIL-LAT LOG
LL8ED   .OHMM  : LATEROLOG 8 FROM DIL-LAT LOG
MRESWS  .OHMM  : MEDIUM RESISTIVITY [ILMED]
NPHILSED.V/V   : NEUTRON POROSITY LIMESTONE FROM CNFD LOG [ADJ.TO RHOBED]
NPHISSED.V/V   : NEUTRON POROSITY SANDSTONE FROM CNFD LOG [ADJ.TO RHOBED]
NPOLSWS .V/V   : NEUTRON POROSITY LIMESTONE [NPHISSED CONVERTED TO LIMESTONE MATRIX & SPL.TO NPHILSED @ 6299.5']
RHOBED  .G/C3  : FORMATION BULK DENSITY FROM CNFD LOG
SPHIED  .V/V   : SONIC POROSITY [DTM=55.6, DTF=189 & DTM=45.5 @ 6250 TO TD] FROM BCS LOG [ADJ.TO GRDED]
SPOWS   .V/V   : SONIC POROSITY [SPHIED]
SPRED   .MV    : SPONTANEOUS POTENTIAL FROM DIL-LAT LOG
SPWS    .MV    : SPONTANEOUS POTENTIAL [BASELINE 0 MV, SPRED]
SRESWS  .OHMM  : SHALLOW RESISTIVITY [LL8ED]
~Params ----------------------------------------------------
PD  .                     GL : PERMANENT DATUM
EPD .FT                 2942 : ELEVATION PERMANENT DATUM
LMF .                     KB : LOG MEASURED FROM
DAPD.FT                13.15 : FEET ABOVE PERMANENT DATUM
DMF .                     KB : DRILLING MEASURED FROM
EKB .FT              2955.15 : KELLY BUSHING
EGL .FT               2942.0 : GROUND LEVEL
DATE.               02/14/77 : RUN DATE
RUN .                      1 : RUN NUMBER
DD  .FT                10160 : DEPTH DRILLER
DL  .FT                10155 : DEPTH LOGGER
BLI .FT                10149 : BOTTOM LOG INTERVAL
TLI .FT                 1027 : TOP LOG INTERVAL
CBD .FT                 1028 : CASING BOTTOM DRILLER
CBL .FT                 1027 : CASING BOTTOM LOGGER
BS  .IN                 8.75 : BIT SIZE
BSD .FT                10160 : BIT SIZE AT DEPTH
DFT .               GEL CHEM : DRILLING FLUID TYPE
DFD .                    9.0 : DRILLING FLUID DENSITY
DFV .                     93 : DRILLING FLUID VISCOSITY
DFPH.                   11.0 : DRILLING FLUID PH
DFL .                    5.6 : DRILLING FLUID LOSS
RMF .OHMM               2.08 : RESISTIVITY MUD FILTRATE SAMPLE
MFST.DEGF                 70 : MUD FILTRATE SAMPLE TEMPERATURE
RMC .OHMM               0.94 : RESISTIVITY MUD CAKE
MCST.DEGF                 70 : MUD CAKE SAMPLE TEMPERATURE
RMB .OHMM               0.85 : RESISTIVITY MUD AT BHT
TCS .HRS                 3.5 : TIME CIRCULATED STOPPED
LUN .                   7803 : LOGGING UNIT NUMBER
LUL .                     DC : LOGGING UNIT LOCATION
ENGI.                   WATT : RECORDING ENGINEER
WITN.                 NELSON : WITNESSED BY
CLNT.                A2DTECH : CLIENT CODE
ORIG.            2" 5" PRINT : ORIGIN OF DATA
UWI .       100063306217W500 : UNIQUE WELL ID
DICO. A2D Technologies, Inc. : DIGITIZING COMPANY
~Other -----------------------------------------------------
~ASCII -----------------------------------------------------
# ...
 2200.00000    -999.25    9.09650    9.09650  338.26870  338.26870    -999.25    -999.25    -999.25    -999.25    -999.25    -999.25    2.95810  106.30520  106.30520    -999.25  137.03160  137.03160    2.96290    -999.25    3.49340    -999.25    -999.25    -999.25    -999.25    -999.25    0.36990    0.36990  -67.96490   -5.07350    3.49340
 2250.00000    -999.25    9.03020    9.03020  248.50510  248.50510    -999.25    -999.25    -999.25    -999.25    -999.25    -999.25    4.02640  107.12810  107.12810    -999.25  106.30890  106.30890    4.02640    -999.25    4.50350    -999.25    -999.25    -999.25    -999.25    -999.25    0.45520    0.45520  -65.48590   -2.51220    4.50350
 2300.00000    -999.25    8.68370    8.68370   90.75270   90.75270    -999.25    -999.25    -999.25    -999.25    -999.25    -999.25   11.64400   96.15040   96.15040    -999.25   71.67880   71.67880   11.64400    -999.25    9.56650    -999.25    -999.25    -999.25    -999.25    -999.25    0.30900    0.30900  -81.14240  -18.08600    9.56650
 2350.00000    -999.25    8.64800    8.64800   85.44520   85.44520    -999.25    -999.25    -999.25    -999.25    -999.25    -999.25   11.94190   98.16800   98.16800    -999.25   84.43210   84.43210   11.94190    -999.25   11.21330    -999.25    -999.25    -999.25    -999.25    -999.25    0.32130    0.32130  -79.92640  -16.78730   11.21330
 2400.00000    -999.25    8.93780    8.93780  234.24260  234.24260    -999.25    -999.25    -999.25    -999.25    -999.25    -999.25    4.26500  116.62810  116.62810    -999.25   98.85170   98.85170    4.26500    -999.25    4.69870    -999.25    -999.25    -999.25    -999.25    -999.25    0.36830    0.36830  -66.63690   -3.41520    4.69870
 2450.00000    -999.25    8.92930    8.92930  102.67310  102.67310    -999.25    -999.25    -999.25    -999.25    -999.25    -999.25    8.88780   88.64430   88.64430    -999.25   87.36880   87.36880    8.88780    -999.25    9.44440    -999.25    -999.25    -999.25    -999.25    -999.25    0.25040    0.25040  -73.58280  -10.27800    9.44440
 2500.00000    -999.25    9.11000    9.11000  297.96170  297.96170    -999.25    -999.25    -999.25    -999.25    -999.25    -999.25    3.35610  120.18560  120.18560    -999.25  109.47970  109.47970    3.35780    -999.25    3.94050    -999.25    -999.25    -999.25    -999.25    -999.25    0.44740    0.44740  -66.99250   -3.60540    3.94050
 2550.00000    -999.25    8.78940    8.78940  195.00820  195.00820    -999.25    -999.25    -999.25    -999.25    -999.25    -999.25    5.12680   98.19490   98.19490    -999.25  102.85540  102.85540    5.12680    -999.25    5.59720    -999.25    -999.25    -999.25    -999.25    -999.25    0.31030    0.31030  -68.06940   -4.84460    5.59720
 2600.00000    -999.25    9.02290    9.02290  159.32480  159.32480    -999.25    -999.25    -999.25    -999.25    -999.25    -999.25    6.27730   76.63710   76.63710    -999.25   73.71380   73.71380    6.27730    -999.25    7.55330    -999.25    -999.25    -999.25    -999.25    -999.25    0.16920    0.16920  -68.81650   -5.78430    7.55330
 2650.00000    -999.25    9.21820    9.21820  241.98500  241.98500    -999.25    -999.25    -999.25    -999.25    -999.25    -999.25    4.12740   89.81970   89.81970    -999.25   82.73140   82.73140    4.12740    -999.25    4.80150    -999.25    -999.25    -999.25    -999.25    -999.25    0.26260    0.26260  -66.82930   -3.98970    4.80150
 2700.00000    -999.25    9.03430    9.03430  257.46770  257.46770    -999.25    -999.25    -999.25    -999.25    -999.25    -999.25    3.88410  103.07830  103.07830    -999.25   96.99670   96.99670    3.88240    -999.25    4.66710    -999.25    -999.25    -999.25    -999.25    -999.25    0.27660    0.27660  -66.13580   -3.48980    4.66710
 2750.00000    -999.25    9.08690    9.08690  174.63830  174.63830    -999.25    -999.25    -999.25    -999.25    -999.25    -999.25    5.70250   95.10240   95.10240    -999.25   87.56520   87.56520    5.70250    -999.25    6.26830    -999.25    -999.25    -999.25    -999.25    -999.25    0.30360    0.30360  -67.24540   -4.79100    6.26830
 2800.00000    -999.25    8.86870    8.86870   68.10530   68.10530    -999.25    -999.25    -999.25    -999.25    -999.25    -999.25   15.21050   91.74330   91.74330    -999.25   61.69420   61.69420   15.21050    -999.25   15.49890    -999.25    -999.25    -999.25    -999.25    -999.25    0.27900    0.27900  -82.42390  -20.16210   15.49890
 2850.00000    -999.25    8.86200    8.86200   74.56930   74.56930    -999.25    -999.25    -999.25    -999.25    -999.25    -999.25   14.08540   94.75220   94.75220    -999.25   62.01770   62.01770   14.08540    -999.25   12.99230    -999.25    -999.25    -999.25    -999.25    -999.25    0.29800    0.29800  -77.09060  -15.02140   12.99230
 2900.00000    -999.25    9.73960    9.73960  271.65400  271.65400    -999.25    -999.25    -999.25    -999.25    -999.25    -999.25    3.68120  124.91030  124.91030    -999.25   78.31450   78.31450    3.67640    -999.25    4.14550    -999.25    -999.25    -999.25    -999.25    -999.25    0.40170    0.40170  -64.04290   -2.16630    4.14550
 2950.00000    -999.25    8.95680    8.95680   64.58730   64.58730    -999.25    -999.25    -999.25    -999.25    -999.25    -999.25   17.05570   92.23050   92.23050    -999.25   68.42820   68.42820   17.05570    -999.25   18.50810    -999.25    -999.25    -999.25    -999.25    -999.25    0.28390    0.28390  -83.50350  -21.60510   18.50810
 3000.00000    -999.25    8.98360    8.98360  315.08920  315.08920    -999.25    -999.25    -999.25    -999.25    -999.25    -999.25    3.17370  126.78490  126.78490    -999.25  109.19890  109.19890    3.26060    -999.25    3.99260    -999.25    -999.25    -999.25    -999.25    -999.25    0.48230    0.48230  -65.39660   -3.46760    3.99260
 3050.00000    -999.25    9.66430    9.66430  294.50970  294.50970    -999.25    -999.25    -999.25    -999.25    -999.25    -999.25    3.39550  127.15490  127.15490    -999.25   82.18350   82.18350    3.64470    -999.25    4.73260    -999.25    -999.25    -999.25    -999.25    -999.25    0.56660    0.56660  -64.68850   -2.72880    4.73260
 3100.00000    -999.25    9.41160    9.41160  330.49790  330.49790    -999.25    -999.25    -999.25    -999.25    -999.25    -999.25    3.02570  105.24910  105.24910    -999.25   91.92600   91.92600    3.03200    -999.25    3.48170    -999.25    -999.25    -999.25    -999.25    -999.25    0.47910    0.47910  -68.25840   -6.26800    3.48170
 3150.00000    -999.25    8.98820    8.98820  141.59870  141.59870    -999.25    -999.25    -999.25    -999.25    -999.25    -999.25    7.17510   84.39350   84.39350    -999.25   77.79470   77.79470    7.17510    -999.25    8.05710    -999.25    -999.25    -999.25    -999.25    -999.25    0.21740    0.21740  -71.05610   -9.03500    8.05710
 3200.00000    -999.25    9.13110    9.13110  232.64160  232.64160    -999.25    -999.25    -999.25    -999.25    -999.25    -999.25    4.30120   98.74820   98.74820    -999.25   94.29300   94.29300    4.30120    -999.25    4.94970    -999.25    -999.25    -999.25    -999.25    -999.25    0.34390    0.34390  -65.61400   -3.56210    4.94970
 3250.00000    -999.25    9.27970    9.27970  230.52800  230.52800    -999.25    -999.25    -999.25    -999.25    -999.25    -999.25    4.34150   93.68210   93.68210    -999.25   89.43180   89.43180    4.34150    -999.25    5.03690    -999.25    -999.25    -999.25    -999.25    -999.25    0.28590    0.28590  -65.01080   -2.66510    5.03690
 3300.00000    -999.25    9.32680    9.32680  138.63790  138.63790    -999.25    -999.25    -999.25    -999.25    -999.25    -999.25    7.21230   90.85890   90.85890    -999.25  117.83920  117.83920    7.21230    -999.25    7.79660    -999.25    -999.25    -999.25    -999.25    -999.25    0.27230    0.27230  -67.47390   -4.43950    7.79660
 3350.00000    -999.25    8.97840    8.97840  142.39900  142.39900    -999.25    -999.25    -999.25    -999.25    -999.25    -999.25    7.02150   91.11460   91.11460    -999.25  136.37870  136.37870    7.02150    -999.25    7.44310    -999.25    -999.25    -999.25    -999.25    -999.25    0.28070    0.28070  -67.34240   -3.58450    7.44310
