~Version ---------------------------------------------------
VERS.      2.0 : CWLS log ASCII Standard -VERSION 2.0
WRAP.       NO : One line per depth step
CREA. 09/29/14 : LAS Creation Date
~Well ------------------------------------------------------
STRT.M                        450.0 : START DEPTH
STOP.M                       3300.0 : STOP DEPTH
STEP.M                     50.00000 : STEP LENGTH
NULL.                       -999.25 : NULL VALUE
COMP.    MURPHY OIL COMPANY LIMITED : COMPANY
WELL. MURPHY ET AL ANTE 14-23-67-24 : WELL
FLD .                               : FIELD
LOC .                               : LOCATION
CTRY.                        CANADA : COUNTRY
SRVC.                       Unknown : SERVICE COMPANY
DATE.                   27-Apr-1984 : LOGDATE
PROV.                       Alberta : PROVINCE
UWI .              100142306724W500 : UNIQUE WELL ID
SLAT.WGS84                 54.81812 : SURFACE LATITUDE
SLON.WGS84                -117.5484 : SURFACE LONGITUDE
~Curve Information -----------------------------------------
DEPT    .M      : Depth Curve
C2DED   .MM     : CALIPER FROM DENSITY LOG
CALDED  .MM     : CALIPER FROM DENSITY LOG
CALSED  .MM     : CALIPER FROM SONIC LOG
CALWS   .MM     : CALIPER [CALDED]
CONDWS  .MMHO   : CONDUCTIVITY [1000/DRESWS]
DCORWS  .KG/M3  : DENSITY CORRECTION [DRHOED SPL. TO DRHORED FROM 1027-1075M & 1340-1406M]
DENWS   .KG/M3  : FORMATION BULK DENSITY [CALC. FROM DPOLSWS,M=2710,F=1000]
DPHILSED.V/V    : DENSITY POROSITY LIMESTONE [M=2710,F=1000] FROM DENSITY LOG
DPHISSED.V/V    : DENSITY POROSITY SANDSTONE [M=2650,F=1000] FROM DENSITY LOG
DPOLSWS .V/V    : DENSITY POROSITY LIMESTONE [DPHISSED CONVERTED TO LIMESTONE MATRIX, M=2710 F=1000 SPL.TO DPHILSED @ 1975M]
DRESWS  .OHMM   : DEEP RESISTIVITY [ILDED]
DRHOED  .KG/M3  : DENSITY CORRECTION FROM DENSITY LOG [ADJ. TO DPHISSED/DPHILSED]
DRHORED .KG/M3  : DENSITY CORRECTION (OVERLAP SECTION) FROM DENSITY LOG [ADJ. TO RESISTIVITY LOG]
DTED    .US/M   : 3-4 FT COMPENSATED SONIC FROM SONIC LOG
DTWS    .US/M   : COMPRESSIONAL SONIC [DTED]
GRDED   .GAPI   : GAMMA RAY FROM DENSITY LOG
GRRED   .GAPI   : GAMMA RAY FROM RESISTIVITY LOG
GRSED   .GAPI   : GAMMA RAY FROM SONIC LOG
GRWS    .GAPI   : GAMMA RAY [GRRED SPL. TO GRDED @ 3315M]
ILDED   .OHMM   : DEEP INDUCTION LOG RESISTIVITY FROM RESISTIVITY LOG
ILMED   .OHMM   : MEDIUM INDUCTION LOG RESISTIVITY FROM RESISTIVITY LOG
MRESWS  .OHMM   : MEDIUM RESISTIVITY [ILMED]
NPHILSED.V/V    : NEUTRON POROSITY LIMESTONE FROM DENSITY LOG
NPHISSED.V/V    : NEUTRON POROSITY SANDSTONE FROM DENSITY LOG
NPOLSWS .V/V    : NEUTRON POROSITY LIMESTONE [NPHISSED MATRIX (SLB) CONVERSION FOR LIMESTONE, SPL.TO NPHILSED @ 2104M]
PEFED   .V/V    : PHOTOELECTRIC FACTOR FROM DENSITY LOG
PEFWS   .B/E    : PHOTOELECTRIC FACTOR [PEFED]
RHOBED  .KG/M3  : BULK DENSITY FROM DENSITY LOG [ADJ. TO DPHISSED/DPHILSED]
RHOBRED .KG/M3  : BULK DENSITY (OVERLAP SECTION) FROM DENSITY LOG [ADJ. TO RESISTIVITY LOG]
SFLUED  .OHMM   : SHALLOW FOCUSSED LOG RESISTIVITY FROM RESISTIVITY LOG
SPRED   .MV     : SPONTANEOUS POTENTIAL FROM RESISTIVITY
SPWS    .MV     : SPONTANEOUS POTENTIAL [BASELINE 0 MV, SPRED]
SRESWS  .OHMM   : SHALLOW RESISTIVITY [SFLUED]
TENDED  .N      : TENSION FROM DENSITY LOG
TENRED  .N      : TENSION FROM RESISTIVITY LOG
~Params ----------------------------------------------------
PD  .                          GL : PERMANENT DATUM
EPD .M                      778.7 : ELEVATION PERMANENT DATUM
LMF .                          KB : LOG MEASURED FROM
DAPD.M                          7 : FEET ABOVE PERMANENT DATUM
DMF .                          KB : DRILLING MEASURED FROM
EKB .M                      785.7 : KELLY BUSHING
EDF .M                      785.7 : DRILLING FLOOR
EGL .M                      778.7 : GROUND LEVEL
DATE.                    04/27/84 : RUN DATE
RUN .                           1 : RUN NUMBER
DD  .M                       3337 : DEPTH DRILLER
DL  .M                       3336 : DEPTH LOGGER
BLI .M                       3335 : BOTTOM LOG INTERVAL
TLI .M                        448 : TOP LOG INTERVAL
CS  .MM                     339.7 : CASING SIZE
CBD .M                        448 : CASING BOTTOM DRILLER
CBL .M                        448 : CASING BOTTOM LOGGER
BSD .M                       3337 : BIT SIZE AT DEPTH
DFT .                    GEL CHEM : DRILLING FLUID TYPE
DFD .                        1320 : DRILLING FLUID DENSITY
DFV .                          80 : DRILLING FLUID VISCOSITY
DFPH.                        10.5 : DRILLING FLUID PH
DFL .                         7.8 : DRILLING FLUID LOSS
MSS .                    FLOWLINE : MUD SAMPLE SOURCE
RMS .OHMM                   1.365 : RESISTIVITY MUD SAMPLE
MST .DEGC                      19 : MUD SAMPLE TEMPERATURE
RMF .OHMM                   0.727 : RESISTIVITY MUD FILTRATE SAMPLE
MFST.DEGC                    17.5 : MUD FILTRATE SAMPLE TEMPERATURE
RMC .OHMM                   0.297 : RESISTIVITY MUD CAKE
MCST.DEGC                      74 : MUD CAKE SAMPLE TEMPERATURE
MFSS.                   WATERLOSS : MUD FILTRATE SAMPLE SOURCE
RMB .OHMM                    0.58 : RESISTIVITY MUD AT BHT
TCS .HRS                     2130 : TIME CIRCULATED STOPPED
TLAB.HRS                      330 : TIME LOGGER AT BOTTOM
LUN .                        8204 : LOGGING UNIT NUMBER
LUL .                          GP : LOGGING UNIT LOCATION
ENGI.                     KRIBERG : RECORDING ENGINEER
WITN.                        HECK : WITNESSED BY
CLNT.                     A2DTECH : CLIENT CODE
ORIG. 6.5"/100M  16.5"/100M PRINT : ORIGIN OF DATA
UWI .            100142306724W500 : UNIQUE WELL ID
DICO.      A2D Technologies, Inc. : DIGITIZING COMPANY
~Other -----------------------------------------------------
DIL-BHC TOOLS RUN IN COMBO. & CNLD TOOL RUN
RHOBED,DRHOED,RHOBRED, & DRHORED FROM TOP TO BOTTOM FROM 2" SCALE SECTION.
RHOBRED, DRHORED FROM OVERLAP SECTION
GRSED DUPLICATE WITH GRRED
~ASCII -----------------------------------------------------
  450.00000  341.82980  432.71870  353.40000  432.71870  230.18670  131.83900 2065.24000    -999.25    0.35440    0.37710    4.34430  131.83900    -999.25  361.83860  361.83860   46.34370   59.28000   57.93000   59.28000    4.34430    4.12620    4.12620    -999.25    0.47810    0.43740   10.42450   10.42450 2066.63480    -999.25    3.95510 -194.24620  -14.65300    3.95510 8022.52050 2918.50560
  500.00000  326.63580  380.74690  329.30000  380.74690  242.37140   99.42340 1819.06000    -999.25    0.50360    0.52100    4.12590   99.42340    -999.25  373.89650  373.89650   52.85020   55.79900   56.34000   55.79900    4.12590    3.61840    3.61840    -999.25    0.45230    0.41070    7.06350    7.06350 1812.05760    -999.25    3.28440 -200.81520  -20.38320    3.28440 8359.90140 2992.50370
  550.00000  245.19530  292.55550  261.77500  292.55550  150.71820   22.48210 2352.01000    -999.25    0.18060    0.20940    6.63490   22.48210    -999.25  335.89560  335.89560   52.33540   62.54520   62.88000   62.54520    6.63490    6.10500    6.10500    -999.25    0.36040    0.31690    3.13240    3.13240 2357.54270    -999.25    6.42340 -193.86570  -12.90530    6.42340 8777.30660 3232.09200
  600.00000  269.40480  233.37290  244.87500  233.37290  151.03910   27.37080 2350.19500    -999.25    0.18170    0.21040    6.62080   27.37080    -999.25  323.29040  323.29040   48.13950   53.12760   53.25000   53.12760    6.62080    5.94910    5.94910    -999.25    0.34450    0.30080    3.35540    3.35540 2354.22970    -999.25    5.18440 -193.68370  -11.12670    5.18440 9101.26270 3517.26200
  650.00000  219.64460  223.81850  215.35000  223.81850   74.09050   57.88320 2288.98000    -999.25    0.21880    0.24620   13.49700   57.88320    -999.25  341.67580  341.67580   37.11190   47.98910   48.37500   47.98910   13.49700   10.79370   10.79370    -999.25    0.36060    0.31710    4.60070    4.60070 2294.60720    -999.25   11.54270 -195.02460   -9.76080   11.54270 9336.41210 3650.96920
  700.00000  229.32540  232.87530  223.90000  232.87530   74.41360   37.64200 2321.48500    -999.25    0.19910    0.22720   13.43840   37.64200    -999.25  290.01910  290.01910   39.85100   46.93670   45.99000   46.93670   13.43840   10.64960   10.64960    -999.25    0.34360    0.29990    4.93930    4.93930 2331.23190    -999.25    8.08480 -199.41440  -11.56290    8.08480 9414.75680 3633.60250
  750.00000  257.50900  293.12170  267.97500  293.12170  198.18460   12.73380 2463.55000    -999.25    0.11300    0.14410    5.04580   12.73380    -999.25  307.21620  307.21620   57.86060   69.70960   69.18000   69.70960    5.04580    4.74160    4.74160    -999.25    0.40170    0.35890    3.78880    3.78880 2467.96830    -999.25    4.51380 -195.74300   -7.46250    4.51380 9940.53220 3897.03760
  800.00000  348.05500  266.10110  284.15000  266.10110  129.29420   41.08240 2222.98000    -999.25    0.25880    0.28480    7.73430   41.08240    -999.25  331.06740  331.06740   89.37990  117.02350  117.37500  117.02350    7.73430    6.84380    6.84380    -999.25    0.45620    0.41470    3.10510    3.10510 2221.95580    -999.25    8.00750 -191.21050   -3.19830    8.00750 9813.69730 3986.76900
  850.00000  241.31980  313.27650  255.42500  313.27650  141.31280   29.69140 2072.50000    -999.25    0.35000    0.37280    7.07650   29.69140    -999.25  344.31560  344.31560   85.84880   98.94230   98.79000   98.94230    7.07650    5.84810    5.84810    -999.25    0.45290    0.41130    2.49610    2.49610 2022.10050    -999.25    6.30250 -192.71630   -4.97240    6.30250 10410.46190 4065.77930
  900.00000  241.67500  323.76460  247.37500  323.76460  129.69830   83.13770 1984.06000    -999.25    0.40360    0.42450    7.71020   83.13770    -999.25  322.62340  322.62340   87.13890   90.91850   90.85500   90.91850    7.71020    7.11490    7.11490    -999.25    0.41130    0.36870    6.71530    6.71530 2032.88500    -999.25    8.00850 -191.26310   -4.18280    8.00850 10443.58790 4224.63330
  950.00000  359.30360  244.35690  249.55000  244.35690   77.55060   21.14270 2407.94500    -999.25    0.14670    0.17660   12.89480   21.14270    -999.25  275.39530  275.39530   65.84650   66.74870   67.27500   66.74870   12.89480   12.36600   12.36600    -999.25    0.32300    0.27910    3.25930    3.25930 2425.29520    -999.25   12.45140 -191.54950   -5.26180   12.45140 10955.43070 4343.76760
 1000.00000  289.37660  251.07290  270.80000  251.07290  113.88090   58.70200 2236.34500    -999.25    0.25070    0.27700    8.78110   58.70200    -999.25  307.47870  307.47870   85.74240  103.77100  102.96000  103.77100    8.78110    7.29220    7.29220    -999.25    0.42090    0.37850    3.10790    3.10790 2232.75830    -999.25    7.61510 -189.83040   -4.33530    7.61510 11215.93160 4639.57280
 1050.00000  325.65010  307.41360  281.05000  307.41360  128.50500  171.05880 2218.85500    -999.25    0.06710    0.28720    7.78180   28.28050  171.05880  329.86020  329.86020   93.92550  119.99390  119.98500  119.99390    7.78180    7.05110    7.05110    -999.25    0.37320    0.32990    4.04000    4.04000 2539.23050 2211.01830    8.01410 -189.78660   -4.64060    8.01410 10980.76950 4786.21000
 1100.00000  202.50620  304.79430  261.52500  304.79430  123.45830   48.83510 2456.45500    -999.25    0.11730    0.14830    8.09990   48.83510    -999.25  319.42570  319.42570   87.97110  104.07820  103.96500  104.07820    8.09990    7.90600    7.90600    -999.25    0.34870    0.30500    5.16850    5.16850 2454.44480    -999.25    8.56580 -189.73780   -4.13170    8.56580 11951.19730 4998.17580
 1150.00000  223.05950  272.65450  241.07500  272.65450  135.74600  107.93570 2241.13000    -999.25    0.24780    0.27420    7.36670  107.93570    -999.25  294.62410  294.62410   84.97710   99.61550   99.54000   99.61550    7.36670    7.02240    7.02240    -999.25    0.34910    0.30550    8.79980    8.79980 2241.76780    -999.25    6.39960 -190.96520   -4.89890    6.39960 12134.75390 5140.98580
 1200.00000  228.94800  271.70590  236.15000  271.70590  142.07170  164.54560 2222.48500    -999.25    0.25910    0.28510    7.03870  164.54560    -999.25  294.20020  294.20020   88.81370  103.87350  102.24000  103.87350    7.03870    6.70880    6.70880    -999.25    0.33960    0.29590   11.29600   11.29600 2222.11960    -999.25    6.64060 -189.93700   -3.41050    6.64060 12208.12010 5211.99850
 1250.00000  249.86740  289.01390  251.70000  289.01390  169.60940  199.32910 2376.10000    -999.25    0.16600    0.19530    5.89590  199.32910    -999.25  284.60430  284.60430   81.94390   94.35460   90.91500   94.35460    5.89590    5.40550    5.40550    -999.25    0.30820    0.26420    4.83620    4.83620 2376.07740    -999.25    4.99200 -189.32630   -2.20240    4.99200 12583.27150 5307.71880
 1300.00000  331.89310  248.82560  270.17500  248.82560  176.65970  126.70660 2305.48000    -999.25    0.20880    0.23660    5.66060  126.70660    -999.25  300.95070  300.95070   82.75060  100.05820  100.20000  100.05820    5.66060    5.42650    5.42650    -999.25    0.45720    0.41570    5.47050    5.47050 2336.25150    -999.25    5.77760 -210.88580  -17.26980    5.77760 12651.03030 5611.99270
 1350.00000  368.10970  257.94400  277.85000  257.94400  210.56620  115.79490 2464.21000    -999.25    0.11260    0.14370    4.74910  152.75040  115.79490  300.57600  300.57600   80.83690   99.07500   98.61000   99.07500    4.74910    4.66650    4.66650    -999.25    0.40460    0.36180    3.71410    3.71410 2269.99780 2457.82960    4.79490 -220.08460   -7.59320    4.79490 12529.07030 5771.46390
 1400.00000  294.13520  279.54670  287.15000  279.54670   80.19500  131.04310 2425.76500    -999.25    0.13590    0.16620   12.46960   58.95100  131.04310  265.71290  265.71290   54.27300   64.45510   64.54500   64.45510   12.46960   12.43930   12.43930    -999.25    0.26940    0.22540    3.29650    3.29650 2455.51710 2429.10180   15.47930 -235.29080  -19.05570   15.47930 12959.05660 5825.33500
 1450.00000  275.64620  276.36440  278.60000  276.36440   93.53660   25.45980 2546.71000    -999.25    0.06260    0.09550   10.69100   25.45980    -999.25  259.20990  259.20990   51.79650   63.19070   62.10000   63.19070   10.69100   11.11130   11.11130    -999.25    0.26810    0.22410    3.65900    3.65900 2544.92070    -999.25    9.82000 -227.22440  -11.01070    9.82000 13502.17090 5851.08500
