~Version ---------------------------------------------------
VERS.      2.0 : CWLS log ASCII Standard -VERSION 2.0
WRAP.       NO : One line per depth step
CREA. 10/24/17 : LAS Creation Date
~Well ------------------------------------------------------
STRT.FT                         1250.0 : START DEPTH
STOP.FT                        11000.0 : STOP DEPTH
STEP.FT                       50.00000 : STEP LENGTH
NULL.                          -999.25 : NULL VALUE
COMP.             MOBIL OIL CANADA LTD : COMPANY
WELL. MOBIL ET AL ROSEVEAR 10-19-53-14 : WELL
FLD .                                  : FIELD
LOC .                                  : LOCATION
CTRY.                           CANADA : COUNTRY
SRVC.                     Schlumberger : SERVICE COMPANY
DATE.                      04-Mar-1978 : LOGDATE
PROV.                          Alberta : PROVINCE
UWI .                 100101905314W500 : UNIQUE WELL ID
SLAT.WGS84                    53.59265 : SURFACE LATITUDE
SLON.WGS84                   -116.0472 : SURFACE LONGITUDE
~Curve Information -----------------------------------------
DEPT    .FT    : Depth Curve
CALDED  .IN    : CALIPER FROM DENSITY LOG
CALWS   .IN    : CALIPER [CALDED]
CONDWS  .MMHO  : CONDUCTIVITY [1000/DRESWS]
DCORWS  .G/C3  : DENSITY CORRECTION [DRHOED]
DENWS   .G/C3  : BULK DENSITY [M=2.71, F=1.00] [RHOBED]
DPHILSED.V/V   : DENSITY POROSITY [M=2.71, F=1.00] FROM DENSITY LOG
DPHISSED.V/V   : DENSITY POROSITY [M=2650 F=1000] FROM DENSITY LOG
DPOLSWS .V/V   : DENSITY POROSITY [M=2.71, F=1.00] [CAL. FROM DENWS]
DRESWS  .OHMM  : DEEP RESISTIVITY [ILDED]
DRHOED  .G/C3  : DENSITY CORRECTION FROM DENSITY LOG
DTED    .US/F  : DELTA TIME FROM SONIC LOG
DTWS    .US/F  : DELTA TIME [DTED]
GRDED   .GAPI  : GAMMA RAY FROM DENSITY LOG
GRWS    .GAPI  : GAMMA RAY [GRDED]
ILDED   .OHMM  : INDUCTION LOG DEEP RESISTIVITY
ILMED   .OHMM  : INDUCTION LOG MEDIUM RESISTIVITY
LL8ED   .OHMM  : 8 INCH LATEROLOG RESISTIVITY
MRESWS  .OHMM  : MEDIUM RESISTIVITY [ILMED]
NPHILSED.V/V   : NEUTRON POROSITY LIMESTONE FROM DENSITY LOG
NPHISSED.V/V   : NEUTRON POROSITY SANDSTONE FROM DENSITY LOG
NPOLSWS .V/V   : NEUTRON POROSITY LIMESTONE [366 NPOLSCAL [COMP. FROM NPHISSED] 7500'2286 NPHILSED]
RHOBED  .G/C3  : BULK DENSITY FROM DENSITY LOG
SPRED   .MV    : SPONTANEOUS POTENTIAL FROM RESISTIVITY LOG [SHIFT IS REMOVED]
SPWS    .MV    : SPONTANEOUS POTENTIAL [BASELINE 0 MV] [SPRED]
SRESWS  .OHMM  : SHALLOW RESISTIVITY [LL8ED]
~Params ----------------------------------------------------
PD  .                     GL : PERMANENT DATUM
EPD .FT               2885.2 : ELEVATION PERMANENT DATUM
LMF .                     KB : LOG MEASURED FROM
DAPD.FT                 13.8 : FEET ABOVE PERMANENT DATUM
EKB .FT                 2899 : KELLY BUSHING
EGL .FT               2885.2 : GROUND LEVEL
DATE.               03/04/78 : RUN DATE
RUN .                      1 : RUN NUMBER
DD  .FT                11010 : DEPTH DRILLER
DL  .FT                11002 : DEPTH LOGGER
BLI .FT                10999 : BOTTOM LOG INTERVAL
TLI .FT                 1207 : TOP LOG INTERVAL
CBD .FT                 1205 : CASING BOTTOM DRILLER
CBL .FT                 1207 : CASING BOTTOM LOGGER
BS  .IN                 8.75 : BIT SIZE
BSD .FT                11010 : BIT SIZE AT DEPTH
DFT .               GEL CHEM : DRILLING FLUID TYPE
DFD .                    9.2 : DRILLING FLUID DENSITY
DFV .                    132 : DRILLING FLUID VISCOSITY
DFPH.                     10 : DRILLING FLUID PH
DFL .                    9.4 : DRILLING FLUID LOSS
MSS .               FLOWLINE : MUD SAMPLE SOURCE
RMS .OHMM               1.94 : RESISTIVITY MUD SAMPLE
MST .DEGF                 64 : MUD SAMPLE TEMPERATURE
RMF .OHMM               2.12 : RESISTIVITY MUD FILTRATE SAMPLE
MFST.DEGF                 59 : MUD FILTRATE SAMPLE TEMPERATURE
RMB .OHMM               0.65 : RESISTIVITY MUD AT BHT
TCS .HRS                   3 : TIME CIRCULATED STOPPED
LUN .                   7730 : LOGGING UNIT NUMBER
LUL .                    EDM : LOGGING UNIT LOCATION
ENGI.               CAMPBELL : RECORDING ENGINEER
WITN.              MATHEWSON : WITNESSED BY
CLNT.                A2DTECH : CLIENT CODE
ORIG.            2" 5" PRINT : ORIGIN OF DATA
UWI .       100101905314W500 : UNIQUE WELL ID
DICO. A2D Technologies, Inc. : DIGITIZING COMPANY
~Other -----------------------------------------------------
~ASCII -----------------------------------------------------
# ...
 2650.00000   10.05230   10.05230  249.19900    0.08130    2.10260    -999.25    0.28670    0.35520    4.01320    0.08130  125.33520  125.33520  112.86810  112.86810    4.01320    3.50100    5.69020    3.50100    -999.25    0.54810    0.51080    2.10260  -37.28010   -7.32440    5.69020
 2700.00000    8.70660    8.70660  108.48340    0.02750    2.25700    -999.25    0.20590    0.26490    9.21800    0.02750  109.52690  109.52690  117.05640  117.05640    9.21800    6.93210    8.51550    6.93210    -999.25    0.48950    0.44920    2.25700  -40.20780   -9.96420    8.51550
 2750.00000   10.39530   10.39530  347.18610    0.00480    2.36910    -999.25    0.16740    0.19940    2.88030    0.00480  100.27580  100.27580  119.12390  119.12390    2.88030    2.59840    3.17820    2.59840    -999.25    0.41830    0.37580    2.36910  -37.86430   -7.33440    3.17820
 2800.00000   10.33100   10.33100  191.88040    0.00620    2.43270    -999.25    0.13050    0.16220    5.21360    0.00620   85.32660   85.32660   99.80950   99.80950    5.21360    4.95460    5.37850    4.95460    -999.25    0.30540    0.26140    2.43270  -37.68160   -6.86680    5.37850
 2850.00000   10.81250   10.81250  168.73650    0.01550    2.44150    -999.25    0.11980    0.15700    5.92640    0.01550   84.44910   84.44910  105.28080  105.28080    5.92640    5.55740    6.49560    5.55740    -999.25    0.34630    0.30260    2.44150  -38.06170   -6.95900    6.49560
 2900.00000   10.96710   10.96710   69.82460   -0.00630    2.42290    -999.25    0.13600    0.16790   14.33000   -0.00630   80.46780   80.46780   62.71140   62.71140   14.33000   13.35910   15.31400   13.35910    -999.25    0.23770    0.19390    2.42290  -43.31050  -11.92290   15.31400
 2950.00000   10.40540   10.40540  117.73290    0.03090    2.48030    -999.25    0.10960    0.13430    8.49380    0.03090   77.22040   77.22040  111.79690  111.79690    8.49380    7.38860    9.04760    7.38860    -999.25    0.25480    0.21090    2.48030  -38.01100   -6.33560    9.04760
 3000.00000   10.52550   10.52550  216.09010    0.03030    2.38400    -999.25    0.16220    0.19060    4.62770    0.03030   97.24010   97.24010  107.39400  107.39400    4.62770    4.29150    4.84680    4.29150    -999.25    0.39830    0.35540    2.38400  -37.27200   -5.36300    4.84680
 3050.00000   10.09290   10.09290  164.13490    0.02040    2.46170    -999.25    0.11610    0.14520    6.10160    0.02040   88.31340   88.31340  117.35360  117.35360    6.10160    5.44290    5.00200    5.44290    -999.25    0.36770    0.32420    2.46170  -39.06570   -7.03100    5.00200
 3100.00000   10.32250   10.32250  157.67400    0.07150    2.30690    -999.25    0.20480    0.23570    6.34220    0.07150   79.64280   79.64280   99.70070   99.70070    6.34220    5.67440    7.00590    5.67440    -999.25    0.30320    0.25920    2.30690  -36.92770   -4.76610    7.00590
 3150.00000   10.58310   10.58310   59.85310    0.07490    2.47610    -999.25    0.09740    0.13680   16.71090    0.07490   77.88870   77.88870   98.06660   98.06660   16.71090   15.47910   18.69480   15.47910    -999.25    0.31720    0.27330    2.47610  -40.16980   -7.88260   18.69480
 3200.00000    8.98100    8.98100  243.75380    0.04750    2.42100    -999.25    0.13490    0.16900    4.10250    0.04750   94.65910   94.65910  102.13530  102.13530    4.10250    3.64920    3.78390    3.64920    -999.25    0.42640    0.38410    2.42100  -36.90050   -4.48630    3.78390
 3250.00000    9.99670    9.99670  259.86850    0.07410    2.36720    -999.25    0.17110    0.20050    3.84810    0.07410   95.02010   95.02010  108.33350  108.33350    3.84810    3.67380    4.11910    3.67380    -999.25    0.41470    0.37210    2.36720  -37.83100   -5.29050    4.11910
 3300.00000    9.01370    9.01370  300.30740    0.20750    2.15090    -999.25    0.28510    0.32690    3.34100    0.20750   90.36090   90.36090   95.58140   95.58140    3.34100    3.12320    3.51410    3.12320    -999.25    0.38040    0.33720    2.15090  -38.11130   -5.44510    3.51410
 3350.00000    9.09590    9.09590   98.87580    0.05700    2.46420    -999.25    0.11020    0.14370   10.11370    0.05700   78.17740   78.17740   63.59000   63.59000   10.11370    8.50300   10.21800    8.50300    -999.25    0.26850    0.22450    2.46420  -40.45500   -7.66190   10.21800
 3400.00000    5.69190    5.69190  149.58450    0.21980    2.36590    -999.25    0.17200    0.20130    6.72000    0.21980   82.21710   82.21710   77.54050   77.54050    6.72000    6.05530    7.60560    6.05530    -999.25    0.31440    0.27050    2.36590  -41.45660   -8.53780    7.60560
 3450.00000   10.54410   10.54410   43.40150    0.09340    2.44780    -999.25    0.13020    0.15330   23.04070    0.09340   77.99110   77.99110   58.72550   58.72550   23.04070   21.42410   20.08270   21.42410    -999.25    0.27070    0.22670    2.44780  -51.04330  -17.99760   20.08270
 3500.00000   10.23140   10.23140   55.54010    0.01780    2.47870    -999.25    0.10550    0.13530   18.00500    0.01780   72.94990   72.94990   57.74190   57.74190   18.00500   16.93050   21.73670   16.93050    -999.25    0.22780    0.18410    2.47870  -41.25080   -8.07880   21.73670
 3550.00000    9.81470    9.81470  144.51960    0.01890    2.48990    -999.25    0.10130    0.12870    6.91950    0.01890   86.11600   86.11600   89.67970   89.67970    6.91950    6.51550    5.87810    6.51550    -999.25    0.35950    0.31600    2.48990  -39.71970   -6.42210    5.87810
 3600.00000    9.90350    9.90350  150.69770    0.09390    2.40390    -999.25    0.15220    0.17900    6.63580    0.09390   81.86460   81.86460   85.69900   85.69900    6.63580    7.14680    7.35590    7.14680    -999.25    0.39650    0.35360    2.40390  -39.80530   -6.38070    7.35590
 3650.00000    9.65650    9.65650   46.69740    0.06130    2.39910    -999.25    0.15360    0.18180   21.41520    0.06130   76.99500   76.99500   54.31740   54.31740   21.41520   20.67700   19.57850   20.67700    -999.25    0.30000    0.25600    2.39910  -47.18250  -13.63220   19.57850
 3700.00000    9.78460    9.78460  120.71900    0.11930    2.37700    -999.25    0.15530    0.19470    8.28370    0.11930   82.10660   82.10660   77.27350   77.27350    8.28370    8.63680    9.62130    8.63680    -999.25    0.35110    0.30750    2.37700  -39.80270   -6.12550    9.62130
 3750.00000   10.04870   10.04870  137.60650    0.12150    2.46660    -999.25    0.10580    0.14230    7.26710    0.12150   79.85480   79.85480   71.04930   71.04930    7.26710    6.85580    6.75870    6.85580    -999.25    0.35040    0.30680    2.46660  -38.84930   -5.04580    6.75870
 3800.00000   10.58640   10.58640  149.00840    0.13430    2.26430    -999.25    0.25040    0.26070    6.71290    0.13430   76.39250   76.39250   76.37980   76.37980    6.71290    6.20590    6.94880    6.20590    -999.25    0.39760    0.35470    2.26430  -39.32220   -5.39300    6.94880
 3850.00000   10.16230   10.16230  156.07440    0.12990    2.32220    -999.25    0.19070    0.22680    6.40720    0.12990   88.39670   88.39670   81.95480   81.95480    6.40720    6.01720    5.60990    6.01720    -999.25    0.41300    0.37040    2.32220  -39.18540   -5.12930    5.60990
 3900.00000   10.61800   10.61800  180.60680    0.16040    2.26650    -999.25    0.22440    0.25940    5.53700    0.16040   90.04710   90.04710   78.71290   78.71290    5.53700    4.66900    5.04190    4.66900    -999.25    0.46790    0.42680    2.26650  -39.72510   -5.54330    5.04190
 3950.00000   10.70210   10.70210  124.88290    0.23140    2.20180    -999.25    0.27610    0.29720    8.00750    0.23140   83.03140   83.03140   67.49880   67.49880    8.00750    7.26600    9.02790    7.26600    -999.25    0.37920    0.33600    2.20180  -39.93700   -5.62830    9.02790
 4000.00000    9.25030    9.25030  134.85810    0.25000    2.38100    -999.25    0.15580    0.19240    7.41520    0.25000   76.96900   76.96900   72.72010   72.72010    7.41520    7.05520   10.37600    7.05520    -999.25    0.28740    0.24340    2.38100  -40.60330   -6.16820   10.37600
