~Version ---------------------------------------------------
VERS.      2.0 : CWLS log ASCII Standard -VERSION 2.0
WRAP.       NO : One line per depth step
CREA. 01/04/18 : LAS Creation Date
~Well ------------------------------------------------------
STRT.FT                            1100.0 : START DEPTH
STOP.FT                           10550.0 : STOP DEPTH
STEP.FT                          50.00000 : STEP LENGTH
NULL.                             -999.25 : NULL VALUE
COMP.                CHEVRON STANDARD LTD : COMPANY
WELL. CHEVRON GULF SHININGBANK 3-13-56-15 : WELL
FLD .                                     : FIELD
LOC .                                     : LOCATION
CTRY.                              CANADA : COUNTRY
SRVC.              Schlumberger of Canada : SERVICE COMPANY
DATE.                         25-Oct-1976 : LOGDATE
PROV.                             Alberta : PROVINCE
UWI .                    100031305615W500 : UNIQUE WELL ID
SLAT.WGS84                       53.83559 : SURFACE LATITUDE
SLON.WGS84                      -116.0977 : SURFACE LONGITUDE
~Curve Information -----------------------------------------
DEPT    .FT    : Depth Curve
CALDED  .IN    : CALIPER FROM DENSITY LOG
CALSED  .IN    : CALIPER FROM SONIC LOG [ADJ. TO RESISTIVITY LOG]
CALWS   .IN    : CALIPER [CALSED]
CONDWS  .MMHO  : CONDUCTIVITY [1000/DRESWS]
DCORED  .G/C3  : DENSITY CORRECTION FROM DENSITY LOG
DCORWS  .G/C3  : DENSITY CORRECTION [DCORED]
DENWS   .G/C3  : FORMATION BULK DENSITY [M=2.71 F=1.00] [RHOBED AND SPL. CALC DPHISSED FROM TOP TO 1142']
DPHILSED.V/V   : DENSITY POROSITY LIME [M=2.71 F=1.00] FROM DENSITY LOG [ADJ. TO RHOBED]
DPHISSED.V/V   : DENSITY POROSITY SAND [M=2.65 F=1.00] FROM DENSITY LOG [ADJ. TO RHOBED]
DPOLSWS .V/V   : DENSITY POROSITY [M=2.71 F=1.00] [CALC FROM DENWS]
DRESWS  .OHMM  : DEEP RESISTIVITY [ILDED]
DTED    .US/F  : DELTA-T FROM SONIC LOG [ADJ. TO RESISTIVITY LOG]
DTWS    .US/F  : COMPRESSIONAL SONIC [DTED]
GRDED   .GAPI  : GAMMA RAY FROM DENSITY LOG
GRSED   .GAPI  : GAMMA RAY FROM SONIC LOG [ADJ. TO GRDED]
GRWS    .GAPI  : GAMMA RAY [GRSED]
ILDED   .OHMM  : DEEP INDUCTION FROM RESISTIVITY LOG
ILMED   .OHMM  : MEDIUM INDUCTION FROM RESISTIVITY LOG
LL8ED   .OHMM  : LATEROLOG 8 FROM RESISTIVITY LOG
MRESWS  .OHMM  : MEDIUM RESISTIVITY [ILMED]
NPHILSED.V/V   : NEUTRON POROSITY LIME FROM DENSITY LOG [ADJ. TO RHOBED]
NPHISSED.V/V   : NEUTRON POROSITY SAND FROM DENSITY LOG [ADJ. TO RHOBED]
NPOLSWS .V/V   : NEUTRON POROSITY LIME [SS MATRIX(SLB) CONVERTED TO LIME, SPL. TO NPHILSED @ 2164']
RHOBED  .G/C3  : BULK DENSITY FROM DENSITY LOG
SPRED   .MV    : SPONTANEOUS POTENTIAL FROM RESISTIVITY LOG
SPWS    .MV    : SPONTANEOUS POTENTIAL [BASELINE 0 MV, SPRED]
SRESWS  .OHMM  : SHALLOW RESISTIVITY [LL8ED]
TENDED  .LBF   : TENSION FROM DENSITY LOG
TENSED  .LBF   : TENSION FROM SONIC LOG [ADJ. TO RESISTIVITY LOG]
~Params ----------------------------------------------------
EKB .FT               2889.7 : KELLY BUSHING
EGL .FT               2873.6 : GROUND LEVEL
DATE.               10/25/76 : RUN DATE
RUN .                      1 : RUN NUMBER
DD  .FT                10595 : DEPTH DRILLER
DL  .FT                10593 : DEPTH LOGGER
BLI .FT                10592 : BOTTOM LOG INTERVAL
TLI .FT                 1094 : TOP LOG INTERVAL
CBD .FT               1094.6 : CASING BOTTOM DRILLER
CBL .FT                 1094 : CASING BOTTOM LOGGER
BS  .IN                 8.75 : BIT SIZE
BSD .FT                10595 : BIT SIZE AT DEPTH
DFT .               GEL CHEM : DRILLING FLUID TYPE
DFD .                    9.5 : DRILLING FLUID DENSITY
DFV .                    124 : DRILLING FLUID VISCOSITY
DFPH.                   10.5 : DRILLING FLUID PH
DFL .                     10 : DRILLING FLUID LOSS
RMC .OHMM               2.04 : RESISTIVITY MUD CAKE
MCST.DEGF                 56 : MUD CAKE SAMPLE TEMPERATURE
RMB .OHMM               0.41 : RESISTIVITY MUD AT BHT
TCS .HRS                   5 : TIME CIRCULATED STOPPED
LUN .                   7691 : LOGGING UNIT NUMBER
LUL .                    WCT : LOGGING UNIT LOCATION
ENGI.              CROCKFORD : RECORDING ENGINEER
WITN.        WONG RICHARDSON : WITNESSED BY
CLNT.                A2DTECH : CLIENT CODE
ORIG.            2" 5" PRINT : ORIGIN OF DATA
UWI .       100031305615W500 : UNIQUE WELL ID
DICO. A2D Technologies, Inc. : DIGITIZING COMPANY
~Other -----------------------------------------------------
~ASCII -----------------------------------------------------
# ...
 8600.00000    9.73430    9.31990    9.31990    2.83280    0.01210    0.01210    2.93200   -0.14230    -999.25   -0.12980  353.92050   48.70270   48.70270   13.90630   13.09160   13.09160  353.92050 1368.40230 1537.10870 1368.40230    0.00220    -999.25    0.00220    2.93200  -63.55600  -58.39610 1537.10870 1805.63520 1717.62970
 8650.00000   12.99530    9.88550    9.88550    6.84830    0.19030    0.19030    2.22680    0.28980    -999.25    0.28260  146.02170   50.93100   50.93100   22.15630   23.36240   23.36240  146.02170   86.94490  247.18660   86.94490    0.04170    -999.25    0.04170    2.22680  -86.24490  -80.65860  247.18660 1916.75950 1690.56970
 8700.00000   12.28130    9.94900    9.94900   23.26970    0.20750    0.20750    2.05610    0.38540    -999.25    0.38240   43.17650   55.45890   55.45890   36.33810   34.13290   34.13290   43.17650   34.19140   32.96670   34.19140    0.08780    -999.25    0.08780    2.05610  -86.16330  -80.14780   32.96670 2147.36010 1338.81850
 8750.00000   11.61320    9.78020    9.78020   18.37760    0.22340    0.22340    2.37730    0.19960    -999.25    0.19460   54.41400   49.88970   49.88970   22.26650   24.86520   24.86520   54.41400   45.25540   96.43980   45.25540    0.05750    -999.25    0.05750    2.37730  -59.00160  -52.55970   96.43980 2114.95920 1274.09550
 8800.00000    9.84110    9.67970    9.67970    9.33810    0.00550    0.00550    2.70710    0.00050    -999.25    0.00170  107.08790   52.16610   52.16610   31.25980   32.19000   32.19000  107.08790   99.71400  199.92660   99.71400    0.01470    -999.25    0.01470    2.70710  -14.12830   -7.25990  199.92660 2120.52310 1355.94560
 8850.00000   10.31790   10.10300   10.10300   83.34210    0.02780    0.02780    2.69090    0.01100    -999.25    0.01120   12.00720   63.60580   63.60580   85.95670   62.43420   62.43420   12.00720   11.23330   14.23510   11.23330    0.10120    -999.25    0.10120    2.69090   -8.89690   -1.59930   14.23510 1953.11200 1714.27250
 8900.00000    -999.25    9.89400    9.89400   78.51880    -999.25    -999.25    -999.25    -999.25    -999.25    -999.25   12.73580   61.68670   61.68670    -999.25   58.80460   58.80460   12.73580   12.26150   15.69130   12.26150    -999.25    -999.25    -999.25    -999.25  -10.73740   -3.31730   15.69130    -999.25 1408.76540
 8950.00000    -999.25   10.24940   10.24940  103.56020    -999.25    -999.25    -999.25    -999.25    -999.25    -999.25    9.66430   65.60000   65.60000    -999.25   63.94180   63.94180    9.66430    8.96830   11.61810    8.96830    -999.25    -999.25    -999.25    -999.25  -12.75970   -5.69860   11.61810    -999.25 1634.96400
 9000.00000    -999.25   13.33590   13.33590  185.45990    -999.25    -999.25    -999.25    -999.25    -999.25    -999.25    5.39200   78.62120   78.62120    -999.25   80.48520   80.48520    5.39200    4.93680    6.46490    4.93680    -999.25    -999.25    -999.25    -999.25  -15.73720   -9.03270    6.46490    -999.25 1343.55970
 9050.00000    -999.25   13.97990   13.97990  189.96240    -999.25    -999.25    -999.25    -999.25    -999.25    -999.25    5.26420   77.33660   77.33660    -999.25   70.77420   70.77420    5.26420    4.06720    6.28450    4.06720    -999.25    -999.25    -999.25    -999.25  -28.76400  -22.41620    6.28450    -999.25 1214.10140
 9100.00000    -999.25   11.53140   11.53140  142.47830    -999.25    -999.25    -999.25    -999.25    -999.25    -999.25    7.02040   70.10450   70.10450    -999.25   75.73850   75.73850    7.02040    7.98020   11.51090    7.98020    -999.25    -999.25    -999.25    -999.25  -13.52270   -7.53380   11.51090    -999.25 1385.35190
 9150.00000    -999.25    9.42080    9.42080   44.44420    -999.25    -999.25    -999.25    -999.25    -999.25    -999.25   22.50010   60.03390   60.03390    -999.25   46.61510   46.61510   22.50010   26.15330   26.11610   26.15330    -999.25    -999.25    -999.25    -999.25  -11.48010   -5.84790   26.11610    -999.25 1633.47000
 9200.00000    -999.25   12.97490   12.97490  167.95820    -999.25    -999.25    -999.25    -999.25    -999.25    -999.25    5.95490   75.40570   75.40570    -999.25   69.95050   69.95050    5.95490    5.82430    8.15710    5.82430    -999.25    -999.25    -999.25    -999.25  -17.51420  -12.24090    8.15710    -999.25 2123.71800
 9250.00000    -999.25   14.08220   14.08220  196.34790    -999.25    -999.25    -999.25    -999.25    -999.25    -999.25    5.09300   79.37520   79.37520    -999.25   76.29100   76.29100    5.09300    4.76920    6.87730    4.76920    -999.25    -999.25    -999.25    -999.25  -16.08070  -11.16410    6.87730    -999.25 1250.95900
 9300.00000    -999.25   10.15830   10.15830   94.66290    -999.25    -999.25    -999.25    -999.25    -999.25    -999.25   10.56380   66.73830   66.73830    -999.25   68.75860   68.75860   10.56380    9.96140   13.15720    9.96140    -999.25    -999.25    -999.25    -999.25  -10.98370   -6.42370   13.15720    -999.25 1969.38360
 9350.00000    -999.25    9.98310    9.98310   98.51830    -999.25    -999.25    -999.25    -999.25    -999.25    -999.25   10.15280   67.79610   67.79610    -999.25   84.03240   84.03240   10.15280   10.73120   15.01890   10.73120    -999.25    -999.25    -999.25    -999.25  -11.79960   -7.59860   15.01890    -999.25 1488.14360
 9400.00000    -999.25    9.77960    9.77960   93.37240    -999.25    -999.25    -999.25    -999.25    -999.25    -999.25   10.70980   66.44940   66.44940    -999.25   73.15960   73.15960   10.70980   11.08870   14.95710   11.08870    -999.25    -999.25    -999.25    -999.25  -10.57610   -6.73170   14.95710    -999.25 1373.51180
 9450.00000    -999.25    9.80270    9.80270   53.42900    -999.25    -999.25    -999.25    -999.25    -999.25    -999.25   18.71650   60.36630   60.36630    -999.25   59.60500   59.60500   18.71650   20.61700   28.03170   20.61700    -999.25    -999.25    -999.25    -999.25  -10.27730   -6.79190   28.03170    -999.25 1425.55680
 9500.00000    -999.25   10.78100   10.78100  105.57880    -999.25    -999.25    -999.25    -999.25    -999.25    -999.25    9.47160   68.55440   68.55440    -999.25   85.61460   85.61460    9.47160    9.90290   13.09600    9.90290    -999.25    -999.25    -999.25    -999.25  -10.90490   -7.77610   13.09600    -999.25 7165.15170
 9550.00000    -999.25    9.90870    9.90870   94.24180    -999.25    -999.25    -999.25    -999.25    -999.25    -999.25   10.61100   68.97110   68.97110    -999.25   90.91670   90.91670   10.61100   10.99250   15.70610   10.99250    -999.25    -999.25    -999.25    -999.25   -9.29280   -6.52060   15.70610    -999.25 1637.66200
 9600.00000    -999.25   10.11220   10.11220  124.50780    -999.25    -999.25    -999.25    -999.25    -999.25    -999.25    8.03220   69.94610   69.94610    -999.25   79.18460   79.18460    8.03220    8.50200   11.17990    8.50200    -999.25    -999.25    -999.25    -999.25  -12.05250   -9.63930   11.17990    -999.25 1897.91640
 9650.00000    -999.25   10.16560   10.16560  118.99950    -999.25    -999.25    -999.25    -999.25    -999.25    -999.25    8.40340   70.72850   70.72850    -999.25   94.45810   94.45810    8.40340    8.93550   12.19170    8.93550    -999.25    -999.25    -999.25    -999.25  -10.74780   -8.69120   12.19170    -999.25 1358.69470
 9700.00000    -999.25    9.52220    9.52220  111.08660    -999.25    -999.25    -999.25    -999.25    -999.25    -999.25    9.00200   69.16800   69.16800    -999.25   85.11750   85.11750    9.00200    9.54710   14.71840    9.54710    -999.25    -999.25    -999.25    -999.25   -5.71920   -4.02160   14.71840    -999.25 1715.59300
 9750.00000    -999.25   11.00190   11.00190  145.32350    -999.25    -999.25    -999.25    -999.25    -999.25    -999.25    6.88120   75.40620   75.40620    -999.25   93.80470   93.80470    6.88120    7.79470    9.84090    7.79470    -999.25    -999.25    -999.25    -999.25  -12.16230  -10.82130    9.84090    -999.25 1709.42780
 9800.00000    -999.25    9.22080    9.22080  103.61840    -999.25    -999.25    -999.25    -999.25    -999.25    -999.25    9.65080   70.00600   70.00600    -999.25   92.76870   92.76870    9.65080    9.89050   15.03230    9.89050    -999.25    -999.25    -999.25    -999.25   -5.95740   -4.97300   15.03230    -999.25 1908.11240
