~Version ---------------------------------------------------
VERS.      2.0 : CWLS log ASCII Standard -VERSION 2.0
WRAP.       NO : One line per depth step
CREA. 10/01/14 : LAS Creation Date
~Well ------------------------------------------------------
STRT.FT                                  935.9 : START DEPTH
STOP.FT                                 9375.9 : STOP DEPTH
STEP.FT                                0.50000 : STEP LENGTH
NULL.                                  -999.25 : NULL VALUE
COMP. THE BRITISH AMERICAN OIL COMPANY LIMITED : COMPANY
WELL.        B.A. EAST GOOSE RIVER 10-22-66-15 : WELL
FLD .                                          : FIELD
LOC .                                          : LOCATION
CTRY.                                   CANADA : COUNTRY
SRVC.                   Schlumberger of Canada : SERVICE COMPANY
DATE.                              16-Mar-1960 : LOGDATE
PROV.                                  Alberta : PROVINCE
UWI .                         100102206615W500 : UNIQUE WELL ID
SLAT.WGS84                            54.72873 : SURFACE LATITUDE
SLON.WGS84                           -116.1771 : SURFACE LONGITUDE
~Curve Information -----------------------------------------
DEPT.FT      : DEPTH FEET
CILD.MMHO    : CONDUCTIVITY FROM RESISTIVITY LOG
DT  .US/F    : DELTA-T FROM SONIC LOG
GRS .MG/TON  : GAMMA RAY FROM SONIC LOG
ILD .OHMM    : DEEP INDUCTION FROM RESISTIVITY LOG
MCAL.IN      : MLT CALIPER FROM MICRO LOG
SN  .OHMM    : SHORT NORMAL FROM RESISTIVITY LOG
SPR .MV      : SPONTANEOUS POTENTIAL FROM RESISTIVITY LOG
~Params ----------------------------------------------------
LMF .                     KB : LOG MEASURED FROM
DMF .                     KB : DRILLING MEASURED FROM
EKB .FT                 3222 : KELLY BUSHING
EGL .FT                 3205 : GROUND LEVEL
DATE.               03/16/60 : RUN DATE
RUN .                      2 : RUN NUMBER
DD  .FT                 9370 : DEPTH DRILLER
DL  .FT                 9378 : DEPTH LOGGER
BLI .FT                 9373 : BOTTOM LOG INTERVAL
TLI .FT                 5000 : TOP LOG INTERVAL
CBD .FT                  975 : CASING BOTTOM DRILLER
BS  .IN                    9 : BIT SIZE
BSD .FT                 9370 : BIT SIZE AT DEPTH
DFT .                    GEL : DRILLING FLUID TYPE
DFD .                     10 : DRILLING FLUID DENSITY
DFV .                    120 : DRILLING FLUID VISCOSITY
DFPH.                     10 : DRILLING FLUID PH
DFL .                    6.2 : DRILLING FLUID LOSS
RMS .OHMM                2.8 : RESISTIVITY MUD SAMPLE
MST .DEGF                 59 : MUD SAMPLE TEMPERATURE
RMF .OHMM               1.41 : RESISTIVITY MUD FILTRATE SAMPLE
MFST.DEGF                 68 : MUD FILTRATE SAMPLE TEMPERATURE
RMC .OHMM               2.56 : RESISTIVITY MUD CAKE
MCST.DEGF                 67 : MUD CAKE SAMPLE TEMPERATURE
RMB .OHMM               0.94 : RESISTIVITY MUD AT BHT
TCS .HRS                 4.5 : TIME CIRCULATED STOPPED
LUN .                  1573C : LOGGING UNIT NUMBER
LUL .                     WC : LOGGING UNIT LOCATION
ENGI.              HAUSEGGER : RECORDING ENGINEER
WITN.                   COTE : WITNESSED BY
CLNT.                A2DTECH : CLIENT CODE
ORIG.            2" 5" PRINT : ORIGIN OF DATA
UWI .       100102206615W500 : UNIQUE WELL ID
DICO. A2D Technologies, Inc. : DIGITIZING COMPANY
~Other -----------------------------------------------------
~ASCII -----------------------------------------------------
# ...
 4895.90000  135.63970   82.35580    4.34580    7.70150    9.72090   10.06990  -57.58440
 4896.40000  130.55650   82.71760    4.39480    7.80450    9.72140   10.85670  -57.43960
 4896.90000  123.16130   82.04300    4.48950    8.60770    9.73380   13.68220  -57.30030
 4897.40000  114.00430   80.51060    4.44910    8.91450    9.72780   15.01740  -57.73150
 4897.90000  106.55770   74.44860    4.05670   10.01410    9.72150   19.12010  -59.40620
 4898.40000  103.35060   72.91150    3.74230   10.19370    9.69290   20.03390  -59.94640
 4898.90000   95.72240   68.01590    2.65590   10.52930    9.60210   20.83190  -61.14870
 4899.40000   96.14350   66.64920    2.42080   10.51730    9.53090   19.50390  -61.02370
 4899.90000  100.81290   64.82220    1.96550   10.22040    9.62660   14.32710  -60.18660
 4900.40000  104.30330   66.23730    1.99290    9.74360    9.60190   12.58010  -59.90130
 4900.90000  121.75830   74.45850    2.29470    8.31320    9.58320    8.49330  -59.49700
 4901.40000  129.85340   75.68450    2.57320    7.92950    9.70340    8.05240  -59.00670
 4901.90000  154.36920   80.14320    3.48960    6.78670   10.05480    6.84120  -58.99850
 4902.40000  162.83730   81.96650    3.79530    6.40700   10.06000    6.63200  -59.48730
 4902.90000  181.22480   86.16830    4.30970    5.66090   10.07490    6.05870  -61.19560
 4903.40000  187.82480   86.04060    4.30630    5.56850   10.18450    5.97420  -62.63610
 4903.90000  193.63640   81.87690    4.22090    5.47620   10.31840    5.88970  -64.86010
 4904.40000  198.39000   84.04630    4.10500    5.38380   10.45800    5.74470  -66.14100
 4904.90000  203.40630   84.69220    4.04570    5.29150   10.57820    5.56610  -66.61240
 4905.40000  207.72750   85.27750    3.96530    5.19910   10.68500    5.38750  -66.69970
 4905.90000  210.30370   86.16570    3.89870    5.10680   10.78930    5.26510  -65.91080
 4906.40000  211.60120   86.79030    4.04770    5.03220   10.88310    5.24010  -66.63610
 4906.90000  212.43790   87.18600    4.00110    5.02230   10.92270    5.23210  -66.97030
 4907.40000  213.16280   87.99660    4.00450    4.99280   11.03250    5.23990  -67.08470
 4907.90000  213.99400   88.03200    4.03530    4.98290   11.06590    5.24770  -66.97850
 4908.40000  215.92140   88.04690    4.01770    4.95340   11.16120    5.27130  -66.51400
 4908.90000  216.40590   87.98480    3.98740    4.95250   11.18960    5.22500  -66.24710
 4909.40000  216.84190   87.54920    3.86300    4.95150   11.24760    5.06110  -65.70340
 4909.90000  216.18680   87.38340    3.76770    4.95150   11.25820    5.13770  -65.69140
 4910.40000  212.76350   86.92240    3.61200    4.95150   11.28880    5.37910  -65.53890
 4910.90000  211.28330   86.95430    3.69130    4.95150   11.30740    5.44370  -65.54190
 4911.40000  206.29520   86.95040    3.88110    4.98860   11.36080    5.63340  -64.80400
 4911.90000  204.65170   86.90050    3.88610    5.01820   11.36230    5.69590  -64.53860
 4912.40000  199.41700   86.75660    3.89400    5.10670   11.34020    5.88360  -64.06990
 4912.90000  197.98890   86.61220    3.91160    5.13630   11.34150    5.89640  -63.87650
 4913.40000  194.55130   86.32090    3.90520    5.22480   11.34920    5.89830  -63.19040
 4913.90000  192.42890   86.67780    3.86290    5.28390   11.33930    5.88750  -62.18400
 4914.40000  191.33350   89.67670    3.99220    5.34290   11.32970    5.87370  -60.92980
 4914.90000  190.78710   92.61110    4.28910    5.40190   11.33200    5.88820  -59.88930
 4915.40000  190.35590   90.71920    4.54210    5.46100   11.33350    5.95180  -59.06080
 4915.90000  189.68890   90.91590    4.73810    5.46410   11.33110    6.03110  -59.07390
 4916.40000  189.00200   89.64020    4.71900    5.46410   11.34450    6.04590  -59.36680
 4916.90000  188.00060   90.34060    4.55330    5.46410   11.36850    5.96870  -59.26020
 4917.40000  187.90500   88.03530    4.48060    5.46410   11.40720    5.93010  -59.29500
 4917.90000  187.95440   82.18590    4.33930    5.46410   11.40640    5.83160  -59.16880
 4918.40000  187.93300   83.28020    4.32930    5.46410   11.38630    5.80660  -59.22540
 4918.90000  187.85470   84.09630    4.29920    5.46410   11.35580    5.77910  -59.34890
 4919.40000  187.34000   85.01240    4.28770    5.46410   11.35420    5.80220  -59.32100
 4919.90000  185.61360   84.21840    4.25200    5.46410   11.34200    5.87160  -58.88260
 4920.40000  184.99260   85.14610    4.22980    5.46410   11.33660    5.89480  -58.75100
 4920.90000  184.91280   89.94170    4.26280    5.46410   11.32610    5.96420  -58.53280
 4921.40000  185.22210   91.35220    4.32030    5.46410   11.32430    5.98730  -58.46740
 4921.90000  185.42120   90.12520    4.54370    5.46410   11.32100    6.05680  -58.44050
 4922.40000  185.66290   89.55800    4.57580    5.46410   11.31970    6.05270  -58.71170
 4922.90000  187.17040   89.54010    4.47400    5.46410   11.31230    5.99550  -59.52530
 4923.40000  187.56750   88.85300    4.42650    5.46410   11.31200    5.97500  -59.80350
 4923.90000  188.89330   85.92440    4.31950    5.46410   11.30610    5.92420  -60.75120
 4924.40000  188.74900   84.43530    4.21410    5.46410   11.29440    5.89390  -61.07510
 4924.90000  188.73890   87.50500    4.00230    5.46410   11.29480    5.86350  -62.09160
 4925.40000  188.32140   88.56420    3.97370    5.46410   11.28170    6.20270  -63.54700
 4925.90000  186.86690   89.20650    4.17360    5.62520   11.26600    6.77170  -65.13650
 4926.40000  182.85950   90.33590    4.35170    5.79480   11.25740    7.75350  -67.54750
 4926.90000  179.46450   86.57510    4.39220    5.96450   11.25740    9.54490  -73.59220
 4927.40000  174.43970   82.86940    4.33600    6.13420   11.25930   11.90430  -83.80780
 4927.90000  168.31830   81.53860    4.29550    6.21900   11.25410   13.24860  -90.04700
 4928.40000  160.98430   76.84470    3.95210    6.46860   11.06130   16.83920 -107.11230
 4928.90000  157.21610   75.89100    3.71840    6.60680   10.93170   17.72640 -111.46790
 4929.40000  148.57400   72.98030    3.27230    7.03010   10.86010   19.88470 -121.72750
 4929.90000  146.50110   74.44820    3.33300    7.09650   10.92320   20.37970 -124.18650
 4930.40000  143.01580   78.69270    3.43880    7.21350   10.77270   22.05700 -129.78130
 4930.90000  142.22500   79.78790    3.38480    7.25040   10.76590   22.73120 -131.11920
 4931.40000  140.48820   83.00980    3.23950    7.30570   10.76780   24.71510 -134.43880
 4931.90000  140.03450   83.34080    3.21690    7.32200   10.76520   25.40810 -135.38250
 4932.40000  138.64250   83.53820    3.11580    7.39220   10.75270   28.09790 -138.32510
 4932.90000  138.10800   83.41350    3.07680    7.41890   10.75730   28.99110 -139.26040
 4933.40000  136.50430   82.94820    2.98080    7.50840   10.74390   31.16540 -141.86510
 4933.90000  135.84600   82.79920    2.95230    7.55320   10.72950   31.71840 -142.71030
 4934.40000  133.35100   82.38480    2.87230    7.70130   10.68940   32.95210 -144.86040
 4934.90000  131.23300   82.12380    2.80030    7.84160   10.68010   33.61350 -145.30610
 4935.40000  129.02270   81.98090    2.82740    7.96370   10.67900   34.19900 -145.75190
 4935.90000  126.34320   81.86000    2.87110    8.08480   10.67010   34.93780 -146.20340
 4936.40000  123.35160   81.69320    2.80580    8.32760   10.65740   35.66460 -146.53960
 4936.90000  119.70280   81.53710    2.70200    8.53760   10.63850   36.14920 -146.76550
 4937.40000  116.83000   81.23500    2.69060    8.76820   10.60980   36.57870 -147.02380
 4937.90000  113.53000   80.93770    2.68250    9.00720   10.57440   36.77600 -146.75720
 4938.40000  112.23450   80.84440    2.66300    9.05250   10.56040   36.63680 -146.53100
 4938.90000  112.00230   80.85310    2.64260    9.06760   10.54930   35.98620 -145.95280
 4939.40000  112.35950   80.89620    2.67170    9.04380   10.55350   35.62590 -145.63020
 4939.90000  114.62130   81.00990    2.72130    8.82970   10.55540   34.44510 -144.72480
 4940.40000  116.58010   80.99280    2.73720    8.62240   10.55470   33.74470 -144.70370
