~Version ---------------------------------------------------
VERS.      2.0 : CWLS log ASCII Standard -VERSION 2.0
WRAP.       NO : One line per depth step
CREA. 10/19/17 : LAS Creation Date
~Well ------------------------------------------------------
STRT.FT                     1150.0 : START DEPTH
STOP.FT                    11800.0 : STOP DEPTH
STEP.FT                   50.00000 : STEP LENGTH
NULL.                      -999.25 : NULL VALUE
COMP.         PETROFINA CANADA LTD : COMPANY
WELL. PCI AMMIN ECONOMY 11-15-68-2 : WELL
FLD .                              : FIELD
LOC .                              : LOCATION
CTRY.                       CANADA : COUNTRY
SRVC.                      Unknown : SERVICE COMPANY
DATE.                  01-Jan-1900 : LOGDATE
PROV.                      Alberta : PROVINCE
UWI .             100111506802W600 : UNIQUE WELL ID
SLAT.WGS84                54.88852 : SURFACE LATITUDE
SLON.WGS84               -118.2198 : SURFACE LONGITUDE
~Curve Information -----------------------------------------
DEPT    .FT    : Depth Curve
CALDED  .IN    : CALIPER FROM DENSITY LOG [ADJ.TO RESISTIVITY LOG]
CALSED  .IN    : CALIPER FROM SONIC LOG [ADJ.TO RESISTIVITY LOG]
CALWS   .IN    : CALIPER [CALSED]
CONDWS  .MMHO  : CONDUCTIVITY [1000/DRESWS]
DCORWS  .G/C3  : DENSITY CORRECTION [DRHOED]
DENWS   .G/C3  : FORMATION BULK DENSITY [CALC. FROM DPOLSWS, M=2.71, F=1.00]
DPHILSED.V/V   : DENSITY POROSITY LIMESTONE [ASSUMED, M=2.71, F=1.00] FROM DENSITY LOG [ADJ.TO RESISTIVITY LOG]
DPHISSED.V/V   : DENSITY POROSITY SANDSTONE [ASSUMED, M=2.65, F=1.00] FROM DENSITY LOG [ADJ.TO RESISTIVITY LOG]
DPOLSWS .V/V   : DENSITY POROSITY LIMESTONE [DPHISSED CONVERTED TO LIMESTONE MATRIX, M=2.71, F=1.00 SPL.TO DPHILSED @ 6552']
DRESWS  .OHMM  : DEEP RESISTIVITY [ILDED]
DRHOED  .G/C3  : DENSITY CORRECTION FROM DENSITY LOG [ADJ.TO RESISTIVITY LOG]
DTED    .US/F  : DELTA TIME FROM SONIC LOG [ADJ.TO RESISTIVITY LOG]
DTWS    .US/F  : COMPRESSIONAL SONIC [DTED]
GRDED   .GAPI  : GAMMA RAY FROM DENSITY LOG [ADJ.TO RESISTIVITY LOG]
GRSED   .GAPI  : GAMMA RAY FROM SONIC LOG [ADJ.TO RESISTIVITY LOG]
GRWS    .GAPI  : GAMMA RAY [GRSED SPL.TO GRDED @ 11698']
ILDED   .OHMM  : DEEP INDUCTION FROM RESISTIVITY LOG
ILMED   .OHMM  : MEDIUM INDUCTION FROM RESISTIVITY LOG
LL8ED   .OHMM  : LATEROLOG-8 FROM RESISTIVITY LOG
MRESWS  .OHMM  : MEDIUM RESISTIVITY [ILMED]
NPHILSED.V/V   : NEUTRON POROSITY LIMESTONE FROM DENSITY LOG [ADJ.TO RESISTIVITY LOG]
NPHISSED.V/V   : NEUTRON POROSITY SANDSTONE FROM DENSITY LOG [ADJ.TO RESISTIVITY LOG]
NPOLSWS .V/V   : NEUTRON POROSITY LIMESTONE [NPHISSED MATRIX (SLB) CONVERSION FOR LIMESTONE, SPL.TO NPHILSED @ 6552']
RHOBED  .G/C3  : BULK DENSITY FROM DENSITY LOG [ADJ.TO RESISTIVITY LOG]
SPRED   .MV    : SPONTANEOUS POTENTIAL FROM RESISTIVITY LOG
SPWS    .MV    : SPONTANEOUS POTENTIAL [BASELINE 0 MV, SPRED]
SRESWS  .OHMM  : SHALLOW RESISTIVITY [LL8ED]
~Params ----------------------------------------------------
PD  .                     GL : PERMANENT DATUM
EPD .FT               2259.3 : ELEVATION PERMANENT DATUM
LMF .                     KB : LOG MEASURED FROM
DAPD.FT                 13.7 : FEET ABOVE PERMANENT DATUM
EKB .FT                 2273 : KELLY BUSHING
EGL .FT               2259.3 : GROUND LEVEL
DATE.               10/12/76 : RUN DATE
RUN .                      1 : RUN NUMBER
DD  .FT                11825 : DEPTH DRILLER
DL  .FT                11801 : DEPTH LOGGER
BLI .FT                11795 : BOTTOM LOG INTERVAL
TLI .FT                 1228 : TOP LOG INTERVAL
CBD .FT                 1232 : CASING BOTTOM DRILLER
CBL .FT                 1228 : CASING BOTTOM LOGGER
BS  .IN                 8.75 : BIT SIZE
BSD .FT                11825 : BIT SIZE AT DEPTH
DFT .                    GEL : DRILLING FLUID TYPE
DFD .                    8.9 : DRILLING FLUID DENSITY
DFV .                    150 : DRILLING FLUID VISCOSITY
DFPH.                   10.5 : DRILLING FLUID PH
DFL .                    5.8 : DRILLING FLUID LOSS
MSS .               FLOWLINE : MUD SAMPLE SOURCE
RMF .OHMM               0.71 : RESISTIVITY MUD FILTRATE SAMPLE
MFST.DEGF                 76 : MUD FILTRATE SAMPLE TEMPERATURE
RMB .OHMM               0.28 : RESISTIVITY MUD AT BHT
TCS .HRS                 4.5 : TIME CIRCULATED STOPPED
LUN .                   7803 : LOGGING UNIT NUMBER
LUL .                     OC : LOGGING UNIT LOCATION
ENGI.                STADNYK : RECORDING ENGINEER
WITN.                  CLARK : WITNESSED BY
CLNT.                A2DTECH : CLIENT CODE
ORIG.          1" 2.5" PRINT : ORIGIN OF DATA
UWI .       100111506802W600 : UNIQUE WELL ID
DICO. A2D Technologies, Inc. : DIGITIZING COMPANY
~Other -----------------------------------------------------
DI-LL-FDC-CNL-BHC LOG RUN.
~ASCII -----------------------------------------------------
# ...
 2450.00000    -999.25   12.23510   12.23510  118.32220    -999.25    -999.25    -999.25    -999.25    -999.25    8.45150    -999.25  103.01890  103.01890    -999.25  149.74500  149.74500    8.45150    7.14240   17.74010    7.14240    -999.25    -999.25    -999.25    -999.25 -121.68300   -4.17120   17.74010
 2500.00000    -999.25   14.98900   14.98900  123.38520    -999.25    -999.25    -999.25    -999.25    -999.25    8.10470    -999.25   97.57830   97.57830    -999.25  114.31160  114.31160    8.10470    7.03730   14.87830    7.03730    -999.25    -999.25    -999.25    -999.25 -121.64130   -4.57280   14.87830
 2550.00000    -999.25   15.00000   15.00000  156.23020    -999.25    -999.25    -999.25    -999.25    -999.25    6.40090    -999.25  115.91530  115.91530    -999.25   86.94960   86.94960    6.40090    4.39130   10.09920    4.39130    -999.25    -999.25    -999.25    -999.25 -122.62620   -6.00090   10.09920
 2600.00000    -999.25   11.41580   11.41580  126.68650    -999.25    -999.25    -999.25    -999.25    -999.25    7.89350    -999.25   89.80470   89.80470    -999.25  108.00720  108.00720    7.89350    5.87270   12.62440    5.87270    -999.25    -999.25    -999.25    -999.25 -122.06270   -6.09970   12.62440
 2650.00000    -999.25   11.85640   11.85640  115.48410    -999.25    -999.25    -999.25    -999.25    -999.25    8.65930    -999.25   92.64440   92.64440    -999.25  103.63470  103.63470    8.65930    6.62940   13.47780    6.62940    -999.25    -999.25    -999.25    -999.25 -122.48730   -7.44380   13.47780
 2700.00000    -999.25   10.92790   10.92790   92.07930    -999.25    -999.25    -999.25    -999.25    -999.25   10.86020    -999.25   87.16260   87.16260    -999.25  120.67120  120.67120   10.86020   10.29680   17.94430   10.29680    -999.25    -999.25    -999.25    -999.25 -121.19070   -7.07270   17.94430
 2750.00000    -999.25   10.25230   10.25230  133.90820    -999.25    -999.25    -999.25    -999.25    -999.25    7.46780    -999.25  102.19410  102.19410    -999.25  117.94120  117.94120    7.46780    6.10150   22.27510    6.10150    -999.25    -999.25    -999.25    -999.25 -120.74140   -7.54290   22.27510
 2800.00000    -999.25   10.71060   10.71060  142.76580    -999.25    -999.25    -999.25    -999.25    -999.25    7.00540    -999.25  103.39340  103.39340    -999.25  122.73660  122.73660    7.00540    5.93300   21.94630    5.93300    -999.25    -999.25    -999.25    -999.25 -118.23670   -5.95770   21.94630
 2850.00000    -999.25   10.43330   10.43330   70.43590    -999.25    -999.25    -999.25    -999.25    -999.25   14.19730    -999.25   86.17750   86.17750    -999.25   97.73530   97.73530   14.19730   12.93370   44.73500   12.93370    -999.25    -999.25    -999.25    -999.25 -121.46440   -9.45140   44.73500
 2900.00000    -999.25    9.89840    9.89840   76.08420    -999.25    -999.25    -999.25    -999.25    -999.25   13.14410    -999.25   83.64700   83.64700    -999.25   93.97310   93.97310   13.14410   12.55000   41.65190   12.55000    -999.25    -999.25    -999.25    -999.25 -123.10560  -10.31310   41.65190
 2950.00000    -999.25   11.35390   11.35390   75.30630    -999.25    -999.25    -999.25    -999.25    -999.25   13.27910    -999.25   93.15850   93.15850    -999.25   91.50220   91.50220   13.27910   12.45670   45.79620   12.45670    -999.25    -999.25    -999.25    -999.25 -122.89130   -9.31410   45.79620
 3000.00000    -999.25   14.41150   14.41150   99.52230    -999.25    -999.25    -999.25    -999.25    -999.25   10.04800    -999.25   93.63190   93.63190    -999.25   90.25420   90.25420   10.04800    7.22670   26.15870    7.22670    -999.25    -999.25    -999.25    -999.25 -120.49950   -6.14270   26.15870
 3050.00000    -999.25   11.49690   11.49690  108.77160    -999.25    -999.25    -999.25    -999.25    -999.25    9.19360    -999.25   92.42390   92.42390    -999.25  122.34240  122.34240    9.19360    7.97940   25.36570    7.97940    -999.25    -999.25    -999.25    -999.25 -118.67930   -3.54300   25.36570
 3100.00000    -999.25   10.89450   10.89450  123.78380    -999.25    -999.25    -999.25    -999.25    -999.25    8.07860    -999.25   95.13790   95.13790    -999.25  132.35120  132.35120    8.07860    6.82290   22.32810    6.82290    -999.25    -999.25    -999.25    -999.25 -119.26160   -3.34060   22.32810
 3150.00000    -999.25   10.78160   10.78160  114.01720    -999.25    -999.25    -999.25    -999.25    -999.25    8.77070    -999.25   89.32780   89.32780    -999.25  132.77570  132.77570    8.77070    7.98220   24.80360    7.98220    -999.25    -999.25    -999.25    -999.25 -120.41770   -4.14830   24.80360
 3200.00000    -999.25   10.67250   10.67250  123.91110    -999.25    -999.25    -999.25    -999.25    -999.25    8.07030    -999.25   95.03550   95.03550    -999.25  136.43490  136.43490    8.07030    7.41950   25.44680    7.41950    -999.25    -999.25    -999.25    -999.25 -119.68620   -3.48880   25.44680
 3250.00000    -999.25   10.32480   10.32480  111.69320    -999.25    -999.25    -999.25    -999.25    -999.25    8.95310    -999.25   95.30970   95.30970    -999.25  132.34760  132.34760    8.95310    8.24900   27.25450    8.24900    -999.25    -999.25    -999.25    -999.25 -120.74540   -4.61950   27.25450
 3300.00000    -999.25   10.42500   10.42500  112.57780    -999.25    -999.25    -999.25    -999.25    -999.25    8.88270    -999.25   95.48910   95.48910    -999.25  153.77710  153.77710    8.88270    8.15220   27.30980    8.15220    -999.25    -999.25    -999.25    -999.25 -119.14200   -3.08760   27.30980
 3350.00000    -999.25   10.59420   10.59420  126.11450    -999.25    -999.25    -999.25    -999.25    -999.25    7.92930    -999.25   97.36090   97.36090    -999.25  139.51060  139.51060    7.92930    7.33940   24.24250    7.33940    -999.25    -999.25    -999.25    -999.25 -119.11880   -3.13630   24.24250
 3400.00000    -999.25    9.94570    9.94570  114.83190    -999.25    -999.25    -999.25    -999.25    -999.25    8.70840    -999.25   96.21580   96.21580    -999.25  143.14200  143.14200    8.70840    8.24190   28.04640    8.24190    -999.25    -999.25    -999.25    -999.25 -119.02960   -3.11860   28.04640
 3450.00000    -999.25    9.71540    9.71540  122.58510    -999.25    -999.25    -999.25    -999.25    -999.25    8.15760    -999.25   94.14530   94.14530    -999.25  125.49490  125.49490    8.15760    7.74720   26.38100    7.74720    -999.25    -999.25    -999.25    -999.25 -119.37510   -3.53610   26.38100
 3500.00000   10.50840    9.94680    9.94680  102.15760    -999.25    -999.25    -999.25    -999.25    -999.25    9.78880    -999.25   90.71820   90.71820    -999.25  123.35050  123.35050    9.78880    9.18030   32.62810    9.18030    -999.25    -999.25    -999.25    -999.25 -119.20060   -3.43310   32.62810
 3550.00000   10.08280    9.64660    9.64660   80.35430    0.28110    2.31610    -999.25    0.20240    0.23030   12.44520    0.28110   99.99440   99.99440    -999.25  172.13520  172.13520   12.44520   11.98650   45.70300   11.98650    -999.25    0.40530    0.36250    2.31360 -118.47350   -2.77750   45.70300
 3600.00000   10.73530    9.78090    9.78090  115.09730    0.28070    2.18010    -999.25    0.28480    0.30990    8.68830    0.28070   95.44480   95.44480  151.65240  139.80820  139.80820    8.68830    8.37540   27.25450    8.37540    -999.25    0.38160    0.33840    2.16230 -119.72090   -4.06660   27.25450
 3650.00000   11.08960    9.84160    9.84160  122.01970    0.23700    2.34790    -999.25    0.18310    0.21180    8.19550    0.23700   97.51560   97.51560  163.25780  145.93000  145.93000    8.19550    7.90390   28.47720    7.90390    -999.25    0.38460    0.34140    2.36460 -119.28870   -3.54160   28.47720
 3700.00000   13.38860   10.71890   10.71890  109.31110    0.22290    1.88140    -999.25    0.46580    0.48460    9.14820    0.22290   93.83370   93.83370  142.53240  125.13650  125.13650    9.14820    8.75750   29.67480    8.75750    -999.25    0.42280    0.38050    1.85610 -122.59360   -6.75310   29.67480
