~Version ---------------------------------------------------
VERS.      2.0 : CWLS log ASCII Standard -VERSION 2.0
WRAP.       NO : One line per depth step
CREA. 01/04/18 : LAS Creation Date
~Well ------------------------------------------------------
STRT.FT                               650.0 : START DEPTH
STOP.FT                             10100.0 : STOP DEPTH
STEP.FT                            50.00000 : STEP LENGTH
NULL.                               -999.25 : NULL VALUE
COMP. HUDSONS BAY OIL & GAS COMPANY LIMITED : COMPANY
WELL.        HUDSONS BAY KAYBOB 12-22-63-19 : WELL
FLD .                                       : FIELD
LOC .                                       : LOCATION
CTRY.                                CANADA : COUNTRY
SRVC.                Schlumberger of Canada : SERVICE COMPANY
DATE.                           23-Nov-1959 : LOGDATE
PROV.                               Alberta : PROVINCE
UWI .                      100122206319W500 : UNIQUE WELL ID
SLAT.WGS84                         54.46704 : SURFACE LATITUDE
SLON.WGS84                        -116.7943 : SURFACE LONGITUDE
~Curve Information -----------------------------------------
DEPT  .FT    : Depth Curve
CALWS .IN    : CALIPER [MCALED]
CILED .MMHO  : CONDUCTIVITY FROM RESISTIVITY LOG
CONDWS.MMHO  : CONDUCTIVITY [1000/DRESWS]
DRESWS.OHMM  : DEEP RESISTIVITY [IF ILED<1;1000/CILED;ELSE ILED]
GRED  .GAPI  : GAMMA RAY [DEPTH ADJ. TO ILED]
GRNED .RU    : GAMMA RAY FROM NEUTRON LOG [DEPTH ADJ. TO ILED]
GRWS  .GAPI  : GAMMA RAY [GRNED*2.16]
ILED  .OHMM  : INDUCTION LOG RESISTIVITY
MCALED.IN    : CALIPER MICROLOG
NEUTED.EU    : NEUTRON FROM GRN LOG [DEPTH ADJ. TO ILED]
NEUTWS.EU    : NEUTRON [NEUTED]
SNED  .OHMM  : 16 INCH SHORT NORMAL RESISTIVITY FROM IEL
SPRED .MV    : SPONTANEOUS POTENTIAL FROM RESISTIVITY LOG
SPWS  .MV    : SPONTANEOUS POTENTIAL [BASELINE 0 MV] [SPRED]
SRESWS.OHMM  : SHALLOW RESISTIVITY [SNED]
~Params ----------------------------------------------------
LMF .                     KB : LOG MEASURED FROM
DMF .                     KB : DRILLING MEASURED FROM
EKB .FT                 2583 : KELLY BUSHING
DATE.               11/23/59 : RUN DATE
RUN .                      1 : RUN NUMBER
DD  .FT                10107 : DEPTH DRILLER
DL  .FT                10109 : DEPTH LOGGER
BLI .FT                10104 : BOTTOM LOG INTERVAL
TLI .FT                  619 : TOP LOG INTERVAL
CBD .FT                  619 : CASING BOTTOM DRILLER
CBL .FT                  619 : CASING BOTTOM LOGGER
BS  .IN                 8.75 : BIT SIZE
BSD .FT                10107 : BIT SIZE AT DEPTH
DFT .                    GEL : DRILLING FLUID TYPE
DFD .                   10.4 : DRILLING FLUID DENSITY
DFV .                     97 : DRILLING FLUID VISCOSITY
DFPH.                      9 : DRILLING FLUID PH
DFL .                    5.8 : DRILLING FLUID LOSS
RMS .OHMM                1.6 : RESISTIVITY MUD SAMPLE
MST .DEGF                 62 : MUD SAMPLE TEMPERATURE
RMF .OHMM                1.5 : RESISTIVITY MUD FILTRATE SAMPLE
MFST.DEGF                 76 : MUD FILTRATE SAMPLE TEMPERATURE
RMC .OHMM                2.5 : RESISTIVITY MUD CAKE
MCST.DEGF                 74 : MUD CAKE SAMPLE TEMPERATURE
RMB .OHMM                0.5 : RESISTIVITY MUD AT BHT
TCS .HRS                 3.5 : TIME CIRCULATED STOPPED
LUN .                  15730 : LOGGING UNIT NUMBER
LUL .                     WC : LOGGING UNIT LOCATION
ENGI.              PATTERSON : RECORDING ENGINEER
WITN.                 STUART : WITNESSED BY
CLNT.                A2DTECH : CLIENT CODE
ORIG.            2" 5" PRINT : ORIGIN OF DATA
UWI .       100122206319W500 : UNIQUE WELL ID
DICO. A2D Technologies, Inc. : DIGITIZING COMPANY
~Other -----------------------------------------------------
~ASCII -----------------------------------------------------
# ...
 2950.00000    -999.25  211.07200  182.83540    5.46940    -999.25    -999.25    -999.25    5.46940    -999.25    -999.25    -999.25    7.76510  -69.51500   -2.91040    7.76510
 3000.00000    -999.25  179.29970  154.64320    6.46650    -999.25    -999.25    -999.25    6.46650    -999.25    -999.25    -999.25    8.84210  -70.09120   -3.50620    8.84210
 3050.00000    -999.25  154.96310  141.51880    7.06620    -999.25    -999.25    -999.25    7.06620    -999.25    -999.25    -999.25    9.96870  -70.99030   -4.42490    9.96870
 3100.00000    -999.25  194.87670  170.18380    5.87600    -999.25    -999.25    -999.25    5.87600    -999.25    -999.25    -999.25    8.54150  -71.11430   -4.56860    8.54150
 3150.00000    -999.25  184.68020  162.41940    6.15690    -999.25    -999.25    -999.25    6.15690    -999.25    -999.25    -999.25    9.68890  -69.05900   -2.53290    9.68890
 3200.00000    -999.25  131.49320  119.92710    8.33840    -999.25    -999.25    -999.25    8.33840    -999.25    -999.25    -999.25   13.25300  -69.95300   -3.44660   13.25300
 3250.00000    -999.25  144.79880  137.20620    7.28830    -999.25    -999.25    -999.25    7.28830    -999.25    -999.25    -999.25   11.85840  -69.52360   -3.03680   11.85840
 3300.00000    -999.25  168.21120  149.99810    6.66680    -999.25    -999.25    -999.25    6.66670    -999.25    -999.25    -999.25    9.60290  -68.81360   -2.34630    9.60290
 3350.00000    -999.25  180.02490  160.73290    6.22150    -999.25    -999.25    -999.25    6.22150    -999.25    -999.25    -999.25    8.76190  -69.66360   -3.21610    8.76190
 3400.00000    -999.25  109.12840  104.38300    9.58010    -999.25    -999.25    -999.25    9.58010    -999.25    -999.25    -999.25   12.50350  -69.16650   -2.73860   12.50350
 3450.00000    -999.25  109.06310  101.28630    9.87300    -999.25    -999.25    -999.25    9.87300    -999.25    -999.25    -999.25   12.39990  -70.24390   -3.83560   12.39990
 3500.00000    -999.25  147.61180  134.43210    7.43870    -999.25    -999.25    -999.25    7.43870    -999.25    -999.25    -999.25    9.87600  -71.44450   -5.05590    9.87600
 3550.00000    -999.25  171.73730  150.14560    6.66020    -999.25    -999.25    -999.25    6.66020    -999.25    -999.25    -999.25    8.75950  -71.39230   -5.02310    8.75950
 3600.00000    -999.25  184.92450  162.80020    6.14250    -999.25    -999.25    -999.25    6.14250    -999.25    -999.25    -999.25    7.84860  -71.07680   -4.72740    7.84860
 3650.00000    -999.25  141.69460  130.47170    7.66450    -999.25    -999.25    -999.25    7.66450    -999.25    -999.25    -999.25    9.44560  -70.45470   -4.12500    9.44560
 3700.00000    -999.25  174.48850  155.18310    6.44400    -999.25    -999.25    -999.25    6.44400    -999.25    -999.25    -999.25    8.38960  -70.54010   -4.23000    8.38960
 3750.00000    -999.25  128.03290  118.72400    8.42290    -999.25    -999.25    -999.25    8.42290    -999.25    -999.25    -999.25   10.47740  -69.54140   -3.25090   10.47740
 3800.00000    -999.25  138.21050  125.17920    7.98860    -999.25    -999.25    -999.25    7.98860    -999.25    -999.25    -999.25   10.34910  -69.59620   -3.32530   10.34910
 3850.00000    -999.25  141.24280  130.29830    7.67470    -999.25    -999.25    -999.25    7.67470    -999.25    -999.25    -999.25   10.26430  -69.78240   -3.53120   10.26430
 3900.00000    -999.25  132.05090  123.36390    8.10610    -999.25    -999.25    -999.25    8.10610    -999.25    -999.25    -999.25   11.25780  -70.58880   -4.35720   11.25780
 3950.00000    -999.25  167.66550  149.99250    6.66700    -999.25    -999.25    -999.25    6.66700    -999.25    -999.25    -999.25    9.30790  -71.12650   -4.91460    9.30790
 4000.00000    -999.25  160.81440  145.14210    6.88980    -999.25    -999.25    -999.25    6.88980    -999.25    -999.25    -999.25    9.98800  -71.27420   -5.08190    9.98800
 4050.00000    -999.25  141.36520  129.91990    7.69700    -999.25    -999.25    -999.25    7.69710    -999.25    -999.25    -999.25   11.32740  -69.89930   -3.72660   11.32740
 4100.00000    -999.25  142.41720  131.75580    7.58980    -999.25    -999.25    -999.25    7.58980    -999.25    -999.25    -999.25   11.40780  -69.72610   -3.57310   11.40780
 4150.00000    -999.25  125.29650  117.17290    8.53440    -999.25    -999.25    -999.25    8.53440    -999.25    -999.25    -999.25   13.68090  -70.00580   -3.87240   13.68090
 4200.00000    -999.25  138.44020  129.36280    7.73020    -999.25    -999.25    -999.25    7.73020    -999.25    -999.25    -999.25   12.10760  -70.21790   -4.10410   12.10760
 4250.00000    -999.25   71.66380   65.70560   15.21940    -999.25    -999.25    -999.25   15.21940    -999.25    -999.25    -999.25   24.74380  -67.99970   -1.90560   24.74380
 4300.00000    -999.25  166.01940  149.72410    6.67900    -999.25    -999.25    -999.25    6.67900    -999.25    -999.25    -999.25   10.29450  -70.17480   -4.10020   10.29450
 4350.00000    -999.25  198.25630  170.84380    5.85330    -999.25    -999.25    -999.25    5.85330    -999.25    -999.25    -999.25    8.30790  -71.68660   -5.63170    8.30790
 4400.00000    -999.25  196.42330  172.89970    5.78370    -999.25    -999.25    -999.25    5.78370    -999.25    -999.25    -999.25    8.08640  -72.13650   -6.10130    8.08640
 4450.00000    -999.25  201.48580  173.80120    5.75370    -999.25    -999.25    -999.25    5.75370    -999.25    -999.25    -999.25    8.24950  -71.17100   -5.15540    8.24950
 4500.00000   14.40210  204.48680  178.64480    5.59770    -999.25    -999.25    -999.25    5.59770   14.40210    -999.25    -999.25    7.87970  -69.60470   -3.60870    7.87970
 4550.00000   14.73950  134.39520  121.33350    8.24170    -999.25    -999.25    -999.25    8.24180   14.73950    -999.25    -999.25   11.07750  -70.39930   -4.42290   11.07750
 4600.00000   15.00430  244.67270  206.72690    4.83730    -999.25    -999.25    -999.25    4.83730   15.00430    -999.25    -999.25    5.94590  -72.05360   -6.09690    5.94590
 4650.00000   14.94790  245.41830  211.69850    4.72370    -999.25    -999.25    -999.25    4.72370   14.94790    -999.25    -999.25    6.31320  -70.71290   -4.77580    6.31320
 4700.00000   14.95500  189.30930  171.19480    5.84130    -999.25    -999.25    -999.25    5.84130   14.95500    -999.25    -999.25    7.78730  -69.90840   -3.99100    7.78730
 4750.00000   12.10000  309.37030  261.23300    3.82800    -999.25    -999.25    -999.25    3.82800   12.10000    -999.25    -999.25    5.21850  -68.65010   -2.75230    5.21850
 4800.00000   10.93200  385.67420  313.53860    3.18940    -999.25    -999.25    -999.25    3.18940   10.93200    -999.25    -999.25    4.11940  -68.71700   -2.83870    4.11950
 4850.00000   12.70500  279.70850  238.10090    4.19990    -999.25    -999.25    -999.25    4.19990   12.70500    -999.25    -999.25    5.46530  -68.49330   -2.63480    5.46530
 4900.00000   12.28650  210.64230  188.60100    5.30220    -999.25    -999.25    -999.25    5.30220   12.28650    -999.25    -999.25    7.14190  -68.42050   -2.58160    7.14190
 4950.00000   10.43230   91.31180   87.44550   11.43570    -999.25    -999.25    -999.25   11.43570   10.43230    -999.25    -999.25   16.75750  -68.97510   -3.15580   16.75750
 5000.00000   12.33290  185.80310  166.53900    6.00460    -999.25    -999.25    -999.25    6.00460   12.33290    -999.25    -999.25    7.62310  -69.71200   -3.91240    7.62310
 5050.00000   10.19010   99.03430   94.76790   10.55210    -999.25   78.04330   78.04330   10.55210   10.19010 1466.30100 1466.30100   14.87090  -81.65950  -15.87940   14.87090
 5100.00000   10.77120  119.57350  114.84220    8.70760    -999.25   79.37980   79.37980    8.70760   10.77120 1410.37810 1410.37810   11.90890  -74.31730   -8.55690   11.90890
 5150.00000   10.19800   65.94650   59.20910   16.88930    -999.25   78.49050   78.49050   16.88930   10.19800 1819.82710 1819.82710   22.36780 -101.88140  -36.14070   22.36780
 5200.00000   11.76510  126.04900  119.44720    8.37190    -999.25   61.40940   61.40940    8.37190   11.76510 1104.21450 1104.21450   14.37000  -70.73260   -5.01150   14.37000
