~Version ---------------------------------------------------
VERS.      2.0 : CWLS log ASCII Standard -VERSION 2.0
WRAP.       NO : One line per depth step
CREA. 07/10/13 : LAS Creation Date
~Well ------------------------------------------------------
STRT.FT                         55.3 : START DEPTH
STOP.FT                      11119.8 : STOP DEPTH
STEP.FT                      0.50000 : STEP LENGTH
NULL.                        -999.25 : NULL VALUE
COMP.         PACIFIC PETROLEUMS LTD : COMPANY
WELL. PACIFIC ET AL TONY 10-18-63-21 : WELL
FLD .                     TONY TOWER : FIELD
LOC .                                : LOCATION
CTRY.                         CANADA : COUNTRY
SRVC.                   Schlumberger : SERVICE COMPANY
DATE.                    24-Sep-1975 : LOGDATE
PROV.                        Alberta : PROVINCE
UWI .               100101806321W500 : UNIQUE WELL ID
SLAT.WGS84                  54.45338 : SURFACE LATITUDE
SLON.WGS84                 -117.1585 : SURFACE LONGITUDE
~Curve Information -----------------------------------------
DEPT   .FT    : DEPTH FEET
CALD   .IN    : CALIPER FROM DENSITY LOG
DCOR   .G/C3  : DENSITY CORRECTION FROM DENSITY LOG
DPHI_LS.DEC   : DENSITY POROSITY LIMESTONE [M=2.71,F=1.0] FROM DENSITY LOG
DPHI_SS.DEC   : DENSITY POROSITY SANDSTONE [M=2.65,F=1.0] FROM DENSITY LOG
GRD    .GAPI  : GAMMA RAY FROM DENSITY LOG
ILD    .OHMM  : DEEP INDUCTION FROM RESISTIVITY LOG
ILM    .OHMM  : MEDIUM INDUCTION FROM RESISTIVITY LOG
LL8    .OHMM  : LATEROLOG FROM RESISTIVITY LOG
NPHI_LS.DEC   : NEUTRON POROSITY LIMESTONE FROM DENSITY LOG
NPHI_SS.DEC   : NEUTRON POROSITY SANDSTONE FROM DENSITY LOG
RHOB   .G/C3  : BULK DENSITY FROM DENSITY LOG
SPR    .MV    : SPONTANEOUS POTENTIAL FROM RESISTIVITY LOG
~Params ----------------------------------------------------
PD  .                     GL : PERMANENT DATUM
EPD .FT                 2714 : ELEVATION PERMANENT DATUM
LMF .                     KB : LOG MEASURED FROM
DAPD.FT                 13.7 : FEET ABOVE PERMANENT DATUM
EKB .FT               2727.7 : KELLY BUSHING
EGL .FT                 2714 : GROUND LEVEL
DATE.               09/24/75 : RUN DATE
RUN .                      1 : RUN NUMBER
DD  .FT                11125 : DEPTH DRILLER
DL  .FT                11121 : DEPTH LOGGER
BLI .FT                11115 : BOTTOM LOG INTERVAL
TLI .FT                 1125 : TOP LOG INTERVAL
CBD .FT                 1125 : CASING BOTTOM DRILLER
CBL .FT                 1125 : CASING BOTTOM LOGGER
BS  .IN                 8.75 : BIT SIZE
BSD .FT                11125 : BIT SIZE AT DEPTH
DFT .               GEL CHEM : DRILLING FLUID TYPE
DFD .                    9.3 : DRILLING FLUID DENSITY
DFV .                    147 : DRILLING FLUID VISCOSITY
DFPH.                    9.5 : DRILLING FLUID PH
DFL .                    9.2 : DRILLING FLUID LOSS
MSS .               FLOWLINE : MUD SAMPLE SOURCE
RMS .OHMM               1.62 : RESISTIVITY MUD SAMPLE
MST .DEGF                 72 : MUD SAMPLE TEMPERATURE
RMF .OHMM               1.26 : RESISTIVITY MUD FILTRATE SAMPLE
MFST.DEGF                 68 : MUD FILTRATE SAMPLE TEMPERATURE
RMB .OHMM               0.41 : RESISTIVITY MUD AT BHT
TCS .HRS                 3.5 : TIME CIRCULATED STOPPED
LUN .                   7691 : LOGGING UNIT NUMBER
LUL .                    EDM : LOGGING UNIT LOCATION
ENGI.              CROCKFORD : RECORDING ENGINEER
WITN.                   ROSS : WITNESSED BY
CLNT.                A2DTECH : CLIENT CODE
ORIG.            2" 5" PRINT : ORIGIN OF DATA
UWI .       100101806321W500 : UNIQUE WELL ID
DICO. A2D Technologies, Inc. : DIGITIZING COMPANY
~Other -----------------------------------------------------
~ASCII -----------------------------------------------------
# ...
 2435.30000   10.01770    0.09520    -999.25    0.08720   88.21410    4.91360    4.25200    5.10870    -999.25    0.34650    2.48820  -92.90140
 2435.80000   10.08060    0.14800    -999.25    0.09370   86.89640    5.03650    4.35280    5.33340    -999.25    0.35800    2.51540  -92.38210
 2436.30000   10.10920    0.14260    -999.25    0.12100   84.75680    5.20180    4.45610    5.50740    -999.25    0.36360    2.51330  -92.38800
 2436.80000    9.95030    0.11010    -999.25    0.12190   82.65350    5.37250    4.56180    5.65810    -999.25    0.35170    2.47420  -92.58010
 2437.30000    9.90860    0.07900    -999.25    0.13520   79.86920    5.54890    4.67010    5.89720    -999.25    0.33580    2.45940  -92.92670
 2437.80000    9.89180    0.04390    -999.25    0.14300   76.44600    5.98250    5.04560    6.47050    -999.25    0.32660    2.43980  -93.20250
 2438.30000    9.89110    0.02740    -999.25    0.14540   73.17270    6.50140    5.59190    7.18920    -999.25    0.31980    2.42620  -94.32820
 2438.80000    9.91670    0.02460    -999.25    0.15190   69.89940    7.07760    6.19770    8.08920    -999.25    0.31140    2.42010  -96.22460
 2439.30000    9.94370    0.03400    -999.25    0.15660   65.86790    7.95980    6.86920    9.10190    -999.25    0.30060    2.41170  -98.26250
 2439.80000    9.89350    0.05090    -999.25    0.16100   61.50330    9.11040    7.79050    9.93170    -999.25    0.28850    2.40510  -98.89180
 2440.30000    9.70520    0.07280    -999.25    0.16290   58.42770   10.52600    9.12240   11.09870    -999.25    0.27860    2.39970  -98.53990
 2440.80000    9.63350    0.09350    -999.25    0.16490   57.56890   12.16150   10.68200   13.19740    -999.25    0.27680    2.39430  -98.25180
 2441.30000    9.65880    0.10380    -999.25    0.17040   56.87130   13.67910   12.39280   16.22920    -999.25    0.27040    2.38590  -97.64840
 2441.80000    9.73210    0.10050    -999.25    0.17320   56.29920   14.16800   12.13510   17.06220    -999.25    0.25700    2.37640  -97.74230
 2442.30000    9.85890    0.06340    -999.25    0.16070   55.72700   14.06790   10.87770   12.98040    -999.25    0.24360    2.38570  -99.58230
 2442.80000    9.94700    0.05960    -999.25    0.13730   55.42540   13.67840   10.13830   10.78050    -999.25    0.23580    2.41450 -100.89430
 2443.30000    9.86490    0.09190    -999.25    0.12040   55.21670   13.22830    9.83020   10.15490    -999.25    0.24370    2.46460 -101.59900
 2443.80000    9.73240    0.13170    -999.25    0.13140   55.10290   12.79190    9.67830   10.12580    -999.25    0.26060    2.46570 -102.11190
 2444.30000    9.62850    0.15020    -999.25    0.16080   55.23930   12.36990    9.67520   10.15550    -999.25    0.28160    2.42960 -102.07600
 2444.80000    9.62760    0.14680    -999.25    0.16820   55.39290   11.96450    9.68420   10.18540    -999.25    0.29320    2.39120 -102.15100
 2445.30000    9.63790    0.13640    -999.25    0.18420   55.60390   11.89930    9.72430   10.21530    -999.25    0.30230    2.38000 -102.25900
 2445.80000    9.63850    0.12260    -999.25    0.20410   55.36170   12.02950    9.76470   10.24540    -999.25    0.30440    2.34750 -102.36690
 2446.30000    9.63110    0.11030    -999.25    0.20070   55.06860   12.44050    9.80520   10.27550    -999.25    0.30340    2.33520 -102.47490
 2446.80000    9.65930    0.11960    -999.25    0.20110   54.52490   12.87640    9.84580   10.32020    -999.25    0.30280    2.33030 -102.58280
 2447.30000    9.66080    0.11820    -999.25    0.20540   53.98120   13.32760    9.88510   10.40460    -999.25    0.30400    2.32640 -102.69080
 2447.80000    9.66390    0.10590    -999.25    0.20890   53.30920   13.71780    9.90540   10.47940    -999.25    0.30450    2.32280 -102.85240
 2448.30000    9.67620    0.10570    -999.25    0.21610   53.11190   13.84300    9.87960   10.43980    -999.25    0.29800    2.31460 -102.60500
 2448.80000    9.68380    0.10880    -999.25    0.21250   53.64730   13.33150    9.77350   10.30860    -999.25    0.29230    2.30940 -102.04380
 2449.30000    9.68460    0.12060    -999.25    0.20490   54.76770   12.28600    9.40610   10.04620    -999.25    0.29030    2.30860 -101.25180
 2449.80000    9.68130    0.12570    -999.25    0.20750   56.41280   10.22250    8.21520    9.15450    -999.25    0.28790    2.30930 -100.57530
 2450.30000    9.71850    0.11520    -999.25    0.21310   58.58730    8.65750    6.99180    7.75860    -999.25    0.28150    2.31220  -99.68030
 2450.80000    9.75430    0.11570    -999.25    0.20600   61.84480    7.33200    5.83670    6.57550    -999.25    0.28200    2.31610  -98.11920
 2451.30000    9.81390    0.10770    -999.25    0.20120   64.79750    6.20950    4.87250    5.57290    -999.25    0.28810    2.32220  -96.45650
 2451.80000    9.86950    0.10960    -999.25    0.18980   67.75020    5.39420    4.06750    4.46320    -999.25    0.30110    2.33080  -94.71040
 2452.30000    9.93630    0.10550    -999.25    0.16630   70.70300    4.95900    3.71770    3.95450    -999.25    0.31520    2.36290  -93.80850
 2452.80000   10.01240    0.13100    -999.25    0.14350   73.65570    4.58730    3.66350    3.92050    -999.25    0.33450    2.39680  -93.87430
 2453.30000   10.64200    0.14660    -999.25    0.13560   75.72290    4.39790    3.74090    4.33120    -999.25    0.34930    2.43580  -93.87660
 2453.80000   11.39440    0.13000    -999.25    0.15330   75.54210    4.41240    3.85240    4.90900    -999.25    0.36150    2.41080  -93.98960
 2454.30000   11.64180    0.08360    -999.25    0.13060   74.53030    4.69140    3.94260    5.24510    -999.25    0.35890    2.41010  -93.74650
 2454.80000   10.58870    0.09290    -999.25    0.12900   73.51840    5.03060    4.10870    5.43620    -999.25    0.34800    2.45480  -93.50080
 2455.30000   10.46480    0.06280    -999.25    0.14340   71.99000    5.39440    4.46050    5.80570    -999.25    0.33480    2.42800  -93.42030
 2455.80000   10.50150    0.04500    -999.25    0.13510   70.67810    5.78440    4.84250    6.23440    -999.25    0.31190    2.43610  -93.33570
 2456.30000   10.48850    0.03960    -999.25    0.13360   69.36620    6.18720    5.23310    6.32900    -999.25    0.29520    2.44600  -93.07010
 2456.80000   10.39400    0.03750    -999.25    0.14110   68.05430    6.58550    5.51040    6.19850    -999.25    0.28680    2.44050  -93.15560
 2457.30000   10.29920    0.03710    -999.25    0.14770   66.74240    7.00950    5.80550    6.31360    -999.25    0.28170    2.42320  -93.70650
 2457.80000   10.22550    0.04340    -999.25    0.14030   65.43080    7.46070    6.13370    6.71470    -999.25    0.28480    2.41760  -94.47580
 2458.30000   10.13270    0.04720    -999.25    0.14190   63.98820    7.94100    6.48040    7.31870    -999.25    0.28860    2.42930  -95.24520
 2458.80000   10.05020    0.04230    -999.25    0.14760   62.55230    8.45230    6.84670    7.88300    -999.25    0.28670    2.43120  -96.01460
 2459.30000   10.00260    0.03780    -999.25    0.15460   61.24680    8.80980    7.08180    8.21770    -999.25    0.28740    2.42390  -97.41600
 2459.80000    9.96920    0.03860    -999.25    0.16600   59.94130    9.15940    7.28580    8.44920    -999.25    0.29460    2.40520  -99.07270
 2460.30000    9.85420    0.05670    -999.25    0.16750   58.63580    9.52950    7.59550    8.54220    -999.25    0.30140    2.38430 -100.63110
 2460.80000    9.73930    0.07350    -999.25    0.16290   57.63050    9.91460    7.91840    8.71030    -999.25    0.30090    2.38220 -100.88220
 2461.30000    9.63410    0.09980    -999.25    0.15280   56.76850   10.31660    8.28100    8.95350    -999.25    0.29750    2.40860 -100.91530
 2461.80000    9.61370    0.11850    -999.25    0.15990   55.90650   10.75690    8.69740    9.22590    -999.25    0.29160    2.40740 -100.97700
 2462.30000    9.60210    0.10680    -999.25    0.17190   54.97330   11.36990    9.15530    9.93030    -999.25    0.28480    2.38940 -100.17190
 2462.80000    9.60420    0.10200    -999.25    0.16150   53.91960   12.03070    9.75860   11.23200    -999.25    0.27560    2.38040  -99.57470
