~Version ---------------------------------------------------
VERS. 2.0 : CWLS log ASCII Standard -VERSION 2.0
WRAP.  NO : ONE LINE PER DEPTH STEP
~Well ------------------------------------------------------
STRT.F                      1150.0 : START DEPTH
STOP.F                     11800.0 : STOP DEPTH
STEP.F                    50.00000 : STEP LENGTH
NULL.                      -999.25 : NULL VALUE
COMP.         PETROFINA CANADA LTD : COMPANY
WELL. PCI AMMIN ECONOMY 11-15-68-2 : WELL
FLD .                              : FIELD
LOC .                              : LOCATION
CTRY.                       CANADA : COUNTRY
SRVC.                      Unknown : SERVICE COMPANY
DATE.                  01-Jan-1900 : LOGDATE
PROV.                      Alberta : PROVINCE
UWI .             100111506802W600 : UNIQUE WELL ID
SLAT.WGS84                54.88852 : SURFACE LATITUDE
SLON.WGS84               -118.2198 : SURFACE LONGITUDE
~Curve Information -----------------------------------------
DEPT   .F     : 
GRS    .GAPI  : GAMMA RAY FROM SONIC LOG
CALS   .IN    : CALIPER FROM SONIC LOG
DT     .US/F  : DELTA TIME FROM SONIC LOG
RHOB   .G/C3  : BULK DENSITY
DRHO   .G/C3  : DENSITY CORRECTION
CALD   .IN    : CALIPER FROM DENSITY LOG
GRD    .GAPI  : GAMMA RAY FROM DENSITY LOG
NPHI_SS.DEC   : NEUTRON POROSITY SANDSTONE
DPHI_SS.DEC   : DENSITY POROSITY SANDSTONE
DPHI_LS.DEC   : DENSITY POROSITY LIMESTONE
NPHI_LS.DEC   : NEUTRON POROSITY LIMESTONE
SPR    .MV    : SPONTANEOUS POTENTIAL FROM RESISTIVITY LOG
ILD    .OHMM  : DEEP INDUCTION RESISTIVITY
LL8    .OHMM  : LATEROLOG-8 RESISTIVITY
ILM    .OHMM  : INDUCTION MEDIUM RESISTIVITY
~Params ----------------------------------------------------
PD  .                     GL : PERMANENT DATUM
EPD .FT               2259.3 : ELEVATION PERMANENT DATUM
LMF .                     KB : LOG MEASURED FROM
DAPD.FT                 13.7 : FEET ABOVE PERMANENT DATUM
EKB .FT                 2273 : KELLY BUSHING
EGL .FT               2259.3 : GROUND LEVEL
DATE.               10/12/76 : RUN DATE
RUN .                      1 : RUN NUMBER
DD  .FT                11825 : DEPTH DRILLER
DL  .FT                11801 : DEPTH LOGGER
BLI .FT                11795 : BOTTOM LOG INTERVAL
TLI .FT                 1228 : TOP LOG INTERVAL
CBD .FT                 1232 : CASING BOTTOM DRILLER
CBL .FT                 1228 : CASING BOTTOM LOGGER
BS  .IN                 8.75 : BIT SIZE
BSD .FT                11825 : BIT SIZE AT DEPTH
DFT .                    GEL : DRILLING FLUID TYPE
DFD .                    8.9 : DRILLING FLUID DENSITY
DFV .                    150 : DRILLING FLUID VISCOSITY
DFPH.                   10.5 : DRILLING FLUID PH
DFL .                    5.8 : DRILLING FLUID LOSS
MSS .               FLOWLINE : MUD SAMPLE SOURCE
RMF .OHMM               0.71 : RESISTIVITY MUD FILTRATE SAMPLE
MFST.DEGF                 76 : MUD FILTRATE SAMPLE TEMPERATURE
RMB .OHMM               0.28 : RESISTIVITY MUD AT BHT
TCS .HRS                 4.5 : TIME CIRCULATED STOPPED
LUN .                   7803 : LOGGING UNIT NUMBER
LUL .                     OC : LOGGING UNIT LOCATION
ENGI.                STADNYK : RECORDING ENGINEER
WITN.                  CLARK : WITNESSED BY
CLNT.                A2DTECH : CLIENT CODE
ORIG.          1" 2.5" PRINT : ORIGIN OF DATA
UWI .       100111506802W600 : UNIQUE WELL ID
DICO. A2D Technologies, Inc. : DIGITIZING COMPANY
~Other -----------------------------------------------------
~ASCII -----------------------------------------------------
# ...
 8050.00000   47.45510   10.33850   57.87070    2.33460    0.32520   11.72590   56.06290    -999.25    -999.25    0.16530    0.12710 -143.49380    7.54980   41.48460    7.25580
 8100.00000   35.83980    9.56930   55.25110    2.54800    0.24460   10.78580   35.59220    -999.25    -999.25    0.05210    0.05930 -152.58560   27.00640  139.79580   29.28180
 8150.00000   74.86040   10.32840   63.32580    2.65240    0.30560   10.22190   76.52150    -999.25    -999.25    0.07770    0.15790  -92.53100    7.70420   27.43660    7.04200
 8200.00000   27.73610    9.64950   56.49460    2.38160    0.31620   12.56170   38.52410    -999.25    -999.25    0.26350    0.05170  -96.44270  173.33320  616.75640  214.67050
 8250.00000   17.45870   10.04330   53.33560    2.44530    0.24940   11.71100   24.79190    -999.25    -999.25    0.12520    0.03880 -109.52530   63.98800  932.93120   65.29110
 8300.00000   25.48350    9.40090   49.46090    2.67940    0.03920    9.47000   26.95610    -999.25    -999.25    0.01110    0.01830 -112.99450  115.06850  282.00500  183.91230
 8350.00000   63.90690   10.17000   62.63390    2.36560    0.30760   10.82210   70.17850    -999.25    -999.25    0.16720    0.12470  -69.85960   15.32580  116.75970   11.55170
 8400.00000   58.50320    9.99380   55.99580    2.57650    0.32010   11.62820   55.39680    -999.25    -999.25    0.11480    0.04630 -108.30040  113.52540  626.22200  123.57610
 8450.00000   25.52890    9.95080   52.79870    2.51060    0.22400   12.42140   32.01810    -999.25    -999.25    0.12340    0.02930 -106.56560  176.58610 1163.85000 2026.51610
 8500.00000   16.60530    9.83510   53.01270    2.63400    0.06400   10.39480   19.25720    -999.25    -999.25    0.03390    0.02230 -152.68480   50.46010  242.18350   56.07000
 8550.00000   56.24730    9.69410   52.59070    2.64420    0.19620   10.41460   54.58780    -999.25    -999.25   -0.00270    0.02650 -100.29830  107.00010  530.54750   99.18300
 8600.00000   32.54040   10.24890   54.15280    2.62770    0.18730   11.90390   34.41960    -999.25    -999.25    0.13290    0.02880 -113.87690   86.04640 1119.41090   71.99760
 8650.00000   15.51210    9.59090   50.46610    2.68770    0.06830    9.69950   18.81560    -999.25    -999.25   -0.00660    0.00170 -149.62750  155.45920  437.95930  160.16190
 8700.00000   19.47340    9.96580   50.22340    2.73060    0.14930   10.73780   22.17220    -999.25    -999.25   -0.02980    0.00040 -155.55890  204.62470  699.25870  152.36260
 8750.00000   22.62460   10.11490   51.50970    2.39930    0.28280   13.65460   22.93790    -999.25    -999.25    0.20070    0.00410 -145.54510  462.55490  808.46270  538.21180
 8800.00000  101.23180    9.98820   63.64580    2.45450    0.26020   12.07230  104.10480    -999.25    -999.25    0.13470    0.15660  -88.13370    8.10920   25.31370    8.60560
 8850.00000   60.27070    9.55260   52.84350    2.75230    0.10180    9.75650   64.20850    -999.25    -999.25   -0.00420    0.03550  -78.61740   20.41590   74.84220   22.68160
 8900.00000   46.98460   10.27390   57.78100    2.56990    0.30070   10.64110   59.57410    -999.25    -999.25    0.05550    0.05790  -70.90960   20.34980   72.88950   24.54980
 8950.00000   49.36920   10.15750   52.83080    2.67640    0.26880   11.34570   55.91960    -999.25    -999.25    0.03480    0.02000  -77.56300   37.56500  158.47670   42.47100
 9000.00000   31.60810   10.05400   53.69960    2.58330    0.31090   12.06520   34.33580    -999.25    -999.25    0.08930    0.01380  -83.60380   68.69820  543.58040   76.36010
 9050.00000   51.35140   10.11880   60.18410    2.57600    0.28590   11.59550   56.42350    -999.25    -999.25    0.05180    0.05480  -75.17240   39.50310  149.56020   40.28680
 9100.00000   49.39640    9.50800   55.48460    2.74720    0.11710    9.63670   52.97280    -999.25    -999.25   -0.03280    0.03340  -85.11580   39.64010  110.35100   44.69780
 9150.00000   64.20620    9.37800   58.30960    2.69820    0.05780    9.49210   64.00090    -999.25    -999.25   -0.00870    0.05220  -69.29900   30.70360   69.13510   32.11490
 9200.00000   43.38820    9.38010   54.67910    2.74730    0.08520    9.49640   49.32150    -999.25    -999.25   -0.03350    0.02690  -92.32610   51.13050  140.51750   53.71340
 9250.00000   49.33980    9.41610   54.67500    2.67690    0.05000    9.67170   54.97710    -999.25    -999.25   -0.00650    0.03420  -66.07730   43.55640  118.12820   49.68690
 9300.00000   33.76370    9.30420   51.31950    2.70910    0.05900    9.51380   33.00980    -999.25    -999.25   -0.01910    0.00720  -73.87390  172.19110  848.64200  304.41910
 9350.00000   91.15650   10.05090   64.44680    2.60350    0.23060   10.90040  102.15940    -999.25    -999.25    0.06420    0.12770  -58.92210   25.00150   63.65220   26.64580
 9400.00000  121.82720   10.13920   69.85140    2.53510    0.29080   11.17760  130.51420    -999.25    -999.25    0.13970    0.15430  -77.49540   40.47300  153.42080   37.81910
 9450.00000  100.84750    9.37910   58.80950    2.68470    0.08880    9.62080  116.54450    -999.25    -999.25    0.03270    0.11440  -68.25650   18.34410   69.57230   17.95510
 9500.00000   16.20350    9.67960   48.47460    2.73370    0.29040   10.76440   21.02250    -999.25    -999.25   -0.03110   -0.00020 -116.47730  983.15590 1428.67350  472.82400
 9550.00000   21.71970    9.77430   48.32000    2.67880    0.28940   10.73620   22.39350    -999.25    -999.25    0.05970   -0.00010 -131.52760  952.95490 1432.93700  699.11130
 9600.00000   17.45530    9.95470   48.22590    2.62070    0.29390   11.32380   18.61250    -999.25    -999.25    0.03270   -0.00040 -137.33730 1086.84080 1456.46410    -999.25
 9650.00000   19.49780    9.93720   48.11890    2.66690    0.30450   11.20540   21.03710    -999.25    -999.25    0.03080    0.00090 -129.42660 1185.51840 1469.62170    -999.25
 9700.00000   18.93210   10.13880   48.02610    2.62020    0.30150   11.67000   19.57550    -999.25    -999.25    0.04270   -0.00160 -161.18660 1456.56160 1474.54740    -999.25
 9750.00000   12.01470    9.93340   48.62220    2.60650    0.31350   11.11380   13.45830    -999.25    -999.25    0.07510   -0.00190 -198.40610  112.40050  363.25090  116.37720
 9800.00000   15.87560    9.73810   47.90570    2.67730    0.30860   11.24720   16.98620    -999.25    -999.25    0.04710   -0.00340 -175.84600 1330.40860 1458.90250 1356.37280
 9850.00000   16.29720    9.95350   48.40690    2.60720    0.27250   11.61940   19.94620    -999.25    -999.25    0.05240   -0.00320 -178.28290 1002.24070 1445.71860 1565.53600
 9900.00000   13.88150    9.93120   48.63010    2.67800    0.29840   11.17910   15.45050    -999.25    -999.25    0.01540   -0.00430 -178.41040  963.19050 1249.56490  823.24400
 9950.00000   18.60370   10.05830   49.23330    2.49280    0.29100   12.08950   17.07800    -999.25    -999.25    0.14900   -0.00210 -174.14290 1493.74550 1405.92550  815.09170
 10000.00000   20.07750    9.83130   48.88700    2.58550    -999.25   11.32340   19.58980    -999.25    -999.25    0.09190   -0.00390 -161.12840  973.54940 1428.04540  524.27330
 10050.00000   14.96200    9.73800   49.08510    2.63930    0.29440   11.09600   18.25700    -999.25    -999.25    0.08840   -0.00160 -172.50310 1499.71480 1453.92610    -999.25
 10100.00000   17.87780   10.05420   50.16960    2.51040    0.30060   11.63990   17.76110    -999.25    -999.25    0.13580   -0.00560 -182.14110 1491.68200 1438.69430  719.98690
 10150.00000   14.30190    9.66640   49.46040    2.73640    0.07060    9.80910   15.75320    -999.25    -999.25   -0.03390   -0.00210 -202.89000  342.00900 1120.79080  443.38300
 10200.00000   16.40310    9.74230   47.98030    2.72490    0.02840    9.34790   15.13570    -999.25    -999.25   -0.00260    0.00040 -184.37140 1211.64590 1457.06800 1626.77340
 10250.00000   18.50600    9.83020   48.17260    2.73100    0.04570    9.34290   20.78780    -999.25    -999.25   -0.01650   -0.00050 -154.35420  557.04020 1460.02980 1436.82450
 10300.00000   34.68980    9.80320   50.06180    2.74590    0.04950    9.37110   38.70330    -999.25    -999.25   -0.02160    0.01080 -135.31960 1150.85120 1379.56260 1504.12770
