~Version ---------------------------------------------------
VERS.      2.0 : CWLS log ASCII Standard -VERSION 2.0
WRAP.       NO : One line per depth step
CREA. 11/03/17 : LAS Creation Date
~Well ------------------------------------------------------
STRT.FT                              1050.0 : START DEPTH
STOP.FT                              9550.0 : STOP DEPTH
STEP.FT                            50.00000 : STEP LENGTH
NULL.                               -999.25 : NULL VALUE
COMP.                       PEYTO OILS LTD. : COMPANY
WELL. PEYTO UNION ET AL MAHASKA 11-26-57-13 : WELL
FLD .                                    WC : FIELD
LOC .                                       : LOCATION
CTRY.                                CANADA : COUNTRY
SRVC.                          Schlumberger : SERVICE COMPANY
DATE.                           21-Mar-1971 : LOGDATE
PROV.                               Alberta : PROVINCE
UWI .                      100112605713W500 : UNIQUE WELL ID
SLAT.WGS84                         53.95807 : SURFACE LATITUDE
SLON.WGS84                        -115.8253 : SURFACE LONGITUDE
~Curve Information -----------------------------------------
DEPT  .FT    : Depth Curve
CALSED.IN    : CALIPER FROM SONIC LOG [ADJ. TO RESISTIVITY LOG]
CALWS .IN    : CALIPER [CALSED]
CILDED.MMHO  : DEEP INDUCTION CONDUCTIVITY FROM RESISTIVITY LOG
CONDWS.MMHO  : CONDUCTIVITY [1000/DRESWS]
DRESWS.OHMM  : DEEP RESISTIVITY [ILDED]
DTED  .US/F  : DELTA T FROM SONIC LOG [ADJ. TO RESISTIVITY LOG]
DTWS  .US/F  : COMPRESSIONAL SONIC [DTED]
GRSED .GAPI  : GAMMA RAY FROM SONIC LOG [ADJ. TO RESISTIVITY LOG]
GRWS  .GAPI  : GAMMA RAY [GRSED]
ILDED .OHMM  : DEEP INDUCTION RESISTIVITY FROM RESISTIVITY LOG
SNED  .OHMM  : SHORT NORMAL 16" RESISTIVITY FROM RESISTIVITY LOG
SPRED .MV    : SPONTANEOUS POTENTIAL FROM RESISTIVITY LOG
SPWS  .MV    : SPONTANEOUS POTENTIAL [BASELINE 0 MV, SPRED]
SRESWS.OHMM  : SHALLOW RESISTIVITY [SNED]
~Params ----------------------------------------------------
PD  .                     GL : PERMANENT DATUM
EPD .FT                 2640 : ELEVATION PERMANENT DATUM
LMF .                     KB : LOG MEASURED FROM
DAPD.FT                 18.2 : FEET ABOVE PERMANENT DATUM
EKB .FT               2658.2 : KELLY BUSHING
EGL .FT                 2640 : GROUND LEVEL
DATE.               03/21/71 : RUN DATE
RUN .                      1 : RUN NUMBER
DD  .FT                 9555 : DEPTH DRILLER
DL  .FT                 9554 : DEPTH LOGGER
BLI .FT                 9552 : BOTTOM LOG INTERVAL
TLI .FT                 2200 : TOP LOG INTERVAL
CBD .FT                 1033 : CASING BOTTOM DRILLER
CBL .FT                 1033 : CASING BOTTOM LOGGER
BS  .IN                 8.75 : BIT SIZE
BSD .FT                 9555 : BIT SIZE AT DEPTH
DFT .               GEL CHEM : DRILLING FLUID TYPE
DFD .                    9.1 : DRILLING FLUID DENSITY
DFV .                    118 : DRILLING FLUID VISCOSITY
DFPH.                      9 : DRILLING FLUID PH
DFL .                    8.6 : DRILLING FLUID LOSS
RMS .OHMM               2.34 : RESISTIVITY MUD SAMPLE
MST .DEGF                 60 : MUD SAMPLE TEMPERATURE
RMF .OHMM               2.03 : RESISTIVITY MUD FILTRATE SAMPLE
MFST.DEGF                 60 : MUD FILTRATE SAMPLE TEMPERATURE
RMC .OHMM               2.53 : RESISTIVITY MUD CAKE
MCST.DEGF                 59 : MUD CAKE SAMPLE TEMPERATURE
RMB .OHMM               0.79 : RESISTIVITY MUD AT BHT
TCS .HRS                 4.5 : TIME CIRCULATED STOPPED
LUN .                   7014 : LOGGING UNIT NUMBER
LUL .                     RD : LOGGING UNIT LOCATION
ENGI.             MCLAFFERTY : RECORDING ENGINEER
WITN.               CHRISTIE : WITNESSED BY
CLNT.                A2DTECH : CLIENT CODE
ORIG.               5" PRINT : ORIGIN OF DATA
UWI .       100112605713W500 : UNIQUE WELL ID
DICO. A2D Technologies, Inc. : DIGITIZING COMPANY
~Other -----------------------------------------------------
IEL-BHC LOG RUN
ALL DATA FROM IEL LOG VERIFIED UPTO (TOP- 5000') FROM 2" SCALE SECTION
~ASCII -----------------------------------------------------
 1050.00000    -999.25    -999.25  120.56840  134.58950    7.43000    -999.25    -999.25    -999.25    -999.25    7.43000    8.78000 -177.62000   -3.30030    8.78000
 1100.00000    -999.25    -999.25   78.93580   87.07010   11.48500    -999.25    -999.25    -999.25    -999.25   11.48500   10.95000 -179.64000   -4.65090   10.95000
 1150.00000    -999.25    -999.25  163.29490  207.68430    4.81500    -999.25    -999.25    -999.25    -999.25    4.81500    6.50500 -185.30000  -11.58050    6.50500
 1200.00000    -999.25    -999.25   70.39870   72.33270   13.82500    -999.25    -999.25    -999.25    -999.25   13.82500   13.91500 -177.38000   -4.93850   13.91500
 1250.00000    -999.25    -999.25  128.96240  141.74340    7.05500    -999.25    -999.25    -999.25    -999.25    7.05500    7.79000 -176.18000   -5.00820    7.79000
 1300.00000    -999.25    -999.25  158.56700  198.60970    5.03500    -999.25    -999.25    -999.25    -999.25    5.03500    6.40000 -173.88000   -3.97780    6.40000
 1350.00000    -999.25    -999.25  205.79800  261.09660    3.83000    -999.25    -999.25    -999.25    -999.25    3.83000    4.55000 -171.24000   -2.67330    4.55000
 1400.00000    -999.25    -999.25  159.40180  173.46050    5.76500    -999.25    -999.25    -999.25    -999.25    5.76500    8.06000 -175.92000   -7.80250    8.06000
 1450.00000    -999.25    -999.25  203.81330  265.25200    3.77000    -999.25    -999.25    -999.25    -999.25    3.77000    4.33000 -170.84000   -2.53180    4.33000
 1500.00000    -999.25    -999.25   89.67200   99.30490   10.07000    -999.25    -999.25    -999.25    -999.25   10.07000   10.82000 -174.12000   -5.62230   10.82000
 1550.00000    -999.25    -999.25   87.61370   94.38410   10.59500    -999.25    -999.25    -999.25    -999.25   10.59500    9.94000 -175.78000   -7.09290    9.94000
 1600.00000    -999.25    -999.25  248.15870  311.52650    3.21000    -999.25    -999.25    -999.25    -999.25    3.21000    4.04500 -171.62000   -2.74220    4.04500
 1650.00000    -999.25    -999.25  122.64470  121.06540    8.26000    -999.25    -999.25    -999.25    -999.25    8.26000    7.96000 -171.28000   -2.21270    7.96000
 1700.00000    -999.25    -999.25  110.82420  101.52280    9.85000    -999.25    -999.25    -999.25    -999.25    9.85000   11.30500 -176.98000   -6.88780   11.30500
 1750.00000    -999.25    -999.25  153.78940  192.49280    5.19500    -999.25    -999.25    -999.25    -999.25    5.19500    6.03500 -172.40000   -1.69020    6.03500
 1800.00000    -999.25    -999.25  125.23990  146.09200    6.84500    -999.25    -999.25    -999.25    -999.25    6.84500    7.68500 -172.50000   -2.14510    7.68500
 1850.00000    -999.25    -999.25  171.44600  208.55060    4.79500    -999.25    -999.25    -999.25    -999.25    4.79500    5.39500 -172.26000   -2.30490    5.39500
 1900.00000    -999.25    -999.25  174.45020  211.19320    4.73500    -999.25    -999.25    -999.25    -999.25    4.73500    5.70500 -171.44000   -1.58310    5.70500
 1950.00000    -999.25    -999.25  251.62140  319.48880    3.13000    -999.25    -999.25    -999.25    -999.25    3.13000    3.71000 -171.28000   -1.54930    3.71000
 2000.00000    -999.25    -999.25  160.27290  189.57350    5.27500    -999.25    -999.25    -999.25    -999.25    5.27500    6.38000 -172.20000   -2.59470    6.38000
 2050.00000    -999.25    -999.25  175.55120  214.13280    4.67000    -999.25    -999.25    -999.25    -999.25    4.67000    6.90000 -171.28000   -1.80020    6.90000
 2100.00000    -999.25    -999.25  199.02510  220.99450    4.52500    -999.25    -999.25    -999.25    -999.25    4.52500    4.71500 -170.48000   -1.12640    4.71500
 2150.00000    -999.25    -999.25  240.17490  307.69230    3.25000    -999.25    -999.25    -999.25    -999.25    3.25000    4.01000 -171.04000   -1.81180    4.01000
 2200.00000    -999.25    -999.25  268.07980  378.07180    2.64500    -999.25    -999.25    -999.25    -999.25    2.64500    3.17000 -171.36000   -2.25810    3.17000
 2250.00000   10.00140   10.00140  252.71450  322.06120    3.10500  111.33580  111.33580   23.31960   23.31960    3.10500    3.60000 -170.00000   -1.02350    3.60000
 2300.00000    9.01620    9.01620   84.36380   79.05140   12.65000   89.23930   89.23930   24.96580   24.96580   12.65000   11.47500 -172.14000   -3.28900   11.47500
 2350.00000   11.21330   11.21330  334.49990  479.61630    2.08500  131.11600  131.11600   59.81270   59.81270    2.08500    2.94500 -170.06000   -1.33520    2.94500
 2400.00000    9.16940    9.16940   51.16050   46.83840   21.35000   83.80800   83.80800   46.89970   46.89970   21.35000   20.68500 -175.38000   -6.78060   20.68500
 2450.00000   10.30670   10.30670  145.50850  174.06440    5.74500  115.90770  115.90770   63.31030   63.31030    5.74500    7.22500 -171.16000   -2.68690    7.22500
 2500.00000   11.04680   11.04680  178.86410  215.28530    4.64500   89.88190   89.88190   54.71820   54.71820    4.64500    5.86000 -169.36000   -1.01230    5.86000
 2550.00000    8.93250    8.93250  192.08210  227.01480    4.40500  103.03990  103.03990   63.55630   63.55630    4.40500    5.09000 -169.06000   -1.03810    5.09000
 2600.00000    8.64810    8.64810   64.39100   66.97920   14.93000   84.24010   84.24010   45.68160   45.68160   14.93000   15.96500 -171.70000   -4.21850   15.96500
 2650.00000    8.70230    8.70230   85.57580   95.19280   10.50500   85.66860   85.66860   47.15770   47.15770   10.50500   11.28500 -170.32000   -3.37540   11.28500
 2700.00000    9.97630    9.97630  178.79230  218.81840    4.57000  105.91950  105.91950   60.07600   60.07600    4.57000    5.55500 -169.44000   -2.21150    5.55500
 2750.00000   10.20370   10.20370   88.91290  109.52900    9.13000   94.06720   94.06720   49.00260   49.00260    9.13000   14.27500 -177.98000  -10.03810   14.27500
 2800.00000   10.63120   10.63120  211.76980  251.57230    3.97500   99.75510   99.75510   57.60790   57.60790    3.97500    5.47500 -169.52000   -1.23250    5.47500
 2850.00000   10.10740   10.10740  171.88990  214.36230    4.66500   83.83460   83.83460   52.94110   52.94110    4.66500    5.89000 -169.52000   -1.04520    5.89000
 2900.00000    9.26630    9.26630  187.79390  224.21520    4.46000  106.10740  106.10740   51.78650   51.78650    4.46000    5.37500 -170.16000   -1.49920    5.37500
 2950.00000   10.99610   10.99610  156.06350  183.31810    5.45500   82.72700   82.72700   50.40540   50.40540    5.45500    6.33000 -169.92000   -1.28000    6.33000
 3000.00000    9.68260    9.68260  141.81180  162.99920    6.13500   89.85230   89.85230   57.02990   57.02990    6.13500    6.90500 -168.84000   -0.43010    6.90500
 3050.00000    8.51560    8.51560  162.12320  195.69470    5.11000   93.11280   93.11280   58.12560   58.12560    5.11000    6.35500 -171.78000   -3.60020    6.35500
 3100.00000    9.90390    9.90390  195.74380  243.30900    4.11000   99.21870   99.21870   56.33940   56.33940    4.11000    5.51000 -169.54000   -1.59190    5.51000
 3150.00000    8.29800    8.29800  110.08560  119.76050    8.35000   81.96970   81.96970   48.78980   48.78980    8.35000   10.95500 -172.60000   -4.88200   10.95500
 3200.00000    8.42630    8.42630   62.49950   66.20320   15.10500   79.41470   79.41470   41.55680   41.55680   15.10500   16.81500 -177.18000   -9.69360   16.81500
 3250.00000    9.23460    9.23460  183.67980  215.98270    4.63000   95.79010   95.79010   55.44270   55.44270    4.63000    6.26000 -168.68000   -1.42380    6.26000
 3300.00000    9.29350    9.29350  168.90920  193.98640    5.15500   94.53100   94.53100   66.42000   66.42000    5.15500    6.84000 -168.20000   -1.07380    6.84000
 3350.00000    -999.25    -999.25  130.63770  142.85710    7.00000    -999.25    -999.25    -999.25    -999.25    7.00000    7.76000 -171.20000   -4.03120    7.76000
 3400.00000    -999.25    -999.25  108.56090  121.80270    8.21000    -999.25    -999.25    -999.25    -999.25    8.21000    9.10500 -171.12000   -3.90890    9.10500
 3450.00000    -999.25    -999.25  121.57700  135.13510    7.40000    -999.25    -999.25    -999.25    -999.25    7.40000    8.50000 -171.60000   -4.34620    8.50000
