~Version ---------------------------------------------------
VERS. 2.0 : CWLS log ASCII Standard -VERSION 2.0
WRAP.  NO : ONE LINE PER DEPTH STEP
~Well ------------------------------------------------------
STRT.F                      557.7428 : START DEPTH
STOP.F                    10838.7428 : STOP DEPTH
STEP.F                       0.50000 : STEP LENGTH
NULL.                        -999.25 : NULL VALUE
COMP.           PETROFINA CANADA LTD : COMPANY
WELL. FINA AMOCO HB FOXCK 6-35-60-18 : WELL
FLD .                                : FIELD
LOC .                                : LOCATION
CTRY.                         CANADA : COUNTRY
SRVC.         Schlumberger of Canada : SERVICE COMPANY
DATE.                    29-Aug-1976 : LOGDATE
PROV.                        Alberta : PROVINCE
UWI .               100063506018W500 : UNIQUE WELL ID
SLAT.WGS84                  54.22952 : SURFACE LATITUDE
SLON.WGS84                 -116.5928 : SURFACE LONGITUDE
~Curve Information -----------------------------------------
DEPT   .F                 : 
SPR    .MV                : SPONTANEOUS POTENTIAL FROM RESISTIVITY
ILD    .OHMM              : DEEP INDUCTION RESISTIVITY
ILM    .OHMM              : INDUCTION MEDIUM RESISTIVITY
LL8    .OHMM              : LATEROLOG-8 RESISTIVITY
CALD   .IN   70 280 01 00 : CALIPER
DCOR   .G/C3 45 356 01 00 : DENSITY CORRECTION
GRD    .GAPI 45 310 01 00 : GAMMA RAY FROM DENSITY LOG
RHOB   .G/C3 45 350 01 00 : BULK DENSITY
DPOR_SS.DEC               : DENSITY POROSITY SANDSTONE
NPOR_S .DEC               : ENCHANCED THERMAL NEUTRON POROSITY IN SELECTED LITHOLOGY SANDSTONE
DPOR_LS.DEC               : DENSITY POROSITY LIMESTONE
NPOR_LS.DEC               : ENCHANCED THERMAL NEUTRON POROSITY IN SELECTED LITHOLOGY SANDSTONE
DT     .US/F 60 520 00 00 : ACOUSTIC TRANSIT TIME SLOWNESS, DELTA T
CALS   .IN                : 
GRS    .GAPI              : GAMMA RAY FROM SONIC LOG
GR     .GAPI              : GAMMA RAY
~Params ----------------------------------------------------
PD  .                     GL : PERMANENT DATUM
EPD .FT                 3085 : ELEVATION PERMANENT DATUM
LMF .                     KB : LOG MEASURED FROM
DAPD.FT                 15.7 : FEET ABOVE PERMANENT DATUM
EKB .FT               3100.9 : KELLY BUSHING
EDF .FT               3085.2 : DRILLING FLOOR
EGL .FT               3085.5 : GROUND LEVEL
DATE.               08/29/76 : RUN DATE
RUN .                      1 : RUN NUMBER
DD  .FT                10843 : DEPTH DRILLER
DL  .FT                10840 : DEPTH LOGGER
BLI .FT                10834 : BOTTOM LOG INTERVAL
TLI .FT                 1119 : TOP LOG INTERVAL
CBD .FT                 1119 : CASING BOTTOM DRILLER
CBL .FT                 1119 : CASING BOTTOM LOGGER
BS  .IN                 8.75 : BIT SIZE
BSD .FT                10843 : BIT SIZE AT DEPTH
DFT .               GEL CHEM : DRILLING FLUID TYPE
DFD .                    9.3 : DRILLING FLUID DENSITY
DFV .                    150 : DRILLING FLUID VISCOSITY
DFPH.                   10.5 : DRILLING FLUID PH
DFL .                    7.0 : DRILLING FLUID LOSS
MSS .            CIRCULATION : MUD SAMPLE SOURCE
RMS .OHMM               2.43 : RESISTIVITY MUD SAMPLE
MST .DEGF                 76 : MUD SAMPLE TEMPERATURE
RMF .OHMM               2.33 : RESISTIVITY MUD FILTRATE SAMPLE
MFST.DEGF                 73 : MUD FILTRATE SAMPLE TEMPERATURE
RMC .OHMM               2.22 : RESISTIVITY MUD CAKE
MCST.DEGF                 67 : MUD CAKE SAMPLE TEMPERATURE
RMB .OHMM               0.86 : RESISTIVITY MUD AT BHT
TCS .HRS                   3 : TIME CIRCULATED STOPPED
LUN .                   7691 : LOGGING UNIT NUMBER
LUL .                    WCT : LOGGING UNIT LOCATION
ENGI.              CROCKFORD : RECORDING ENGINEER
WITN.                 HALKOW : WITNESSED BY
CLNT.                A2DTECH : CLIENT CODE
ORIG.            2" 5" PRINT : ORIGIN OF DATA
UWI .       100063506018W500 : UNIQUE WELL ID
DICO. A2D Technologies, Inc. : DIGITIZING COMPANY
~Other -----------------------------------------------------
~ASCII -----------------------------------------------------
# ...
 10813.24280  -78.12380   27.25180   35.72520   71.49870    8.70770    0.16000   59.75870    2.46370    -999.25    -999.25    0.25450    0.12830   63.35970    8.69210   60.93090    -999.25
 10813.74280  -78.14090   26.74000   31.84760   58.65630    8.75910    0.16120   75.37790    2.56740    -999.25    -999.25    0.18330    0.13110   66.83490    8.69510   61.00080    -999.25
 10814.24280  -79.77610   26.44950   30.56310   55.68030    8.93230    0.19550   77.32940    2.62890    -999.25    -999.25    0.11920    0.13960   68.90920    8.69820   61.02310    -999.25
 10814.74280  -83.27620   26.38030   30.15410   59.57530    9.28470    0.23880   77.31700    2.64830    -999.25    -999.25    0.06770    0.15990   67.26130    8.70120   61.02220    -999.25
 10815.24280  -86.75250   26.43100   30.29290   59.44700    9.48390    0.25790   77.30460    2.64610    -999.25    -999.25    0.04020    0.19260   62.64350    8.70420   61.01200    -999.25
 10815.74280  -87.59570   26.90830   30.70410   52.13200    9.40380    0.25590   77.29220    2.63310    -999.25    -999.25    0.03360    0.21810   57.88400    8.70720   60.95700    -999.25
 10816.24280  -85.62350   27.78830   32.31470   50.34500    9.40960    0.25550   77.27980    2.63800    -999.25    -999.25    0.04270    0.21600   55.06590    8.71020   60.90550    -999.25
 10816.74280  -83.13800   28.51420   35.40360   68.13540    9.53260    0.25520   77.26740    2.62550    -999.25    -999.25    0.04200    0.19010   54.57400    8.71330   60.94140    -999.25
 10817.24280  -80.92110   28.92870   37.71800   95.90880    9.71530    0.25490   77.25500    2.56330    -999.25    -999.25    0.04420    0.15200   56.12500    8.71630   60.94600    -999.25
 10817.74280  -78.19730   28.99290   38.43170   94.77320    9.94360    0.25340   77.24260    2.46300    -999.25    -999.25    0.07720    0.11090   59.75770    8.71660   60.88950    -999.25
 10818.24280  -75.24240   28.25080   38.10440   72.63520    9.55460    0.23110   77.23020    2.41590    -999.25    -999.25    0.12510    0.09730   65.08940    8.68610   60.90510    -999.25
 10818.74280  -73.06000   26.79180   36.01470   62.54880    8.88930    0.16600   77.21780    2.44250    -999.25    -999.25    0.16670    0.10770   68.97130    8.63710   60.96040    -999.25
 10819.24280  -72.33390   25.23330   32.92310   57.86110    8.73850    0.11150   77.20540    2.47270    -999.25    -999.25    0.16800    0.12020   69.69020    8.61810   60.99120    -999.25
 10819.74280  -72.56610   23.63180   30.54100   53.35600    8.76870    0.12680   77.19300    2.53020    -999.25    -999.25    0.14830    0.13090   68.92990    8.61820   60.97100    -999.25
 10820.24280  -74.37100   21.79120   29.29620   49.10480    8.90380    0.17910   77.18060    2.57550    -999.25    -999.25    0.12490    0.14420   67.52370    8.61840   60.94520    -999.25
 10820.74280  -78.47650   19.83960   28.59150   49.22320    9.03020    0.21000   77.16820    2.58310    -999.25    -999.25    0.09210    0.16390   65.96520    8.60890   60.97210    -999.25
 10821.24280  -83.80470   17.25570   27.54900   55.20460    8.97990    0.21110   77.16080    2.58010    -999.25    -999.25    0.07340    0.17630   63.79170    8.58780   61.00800    -999.25
 10821.74280  -89.76740   13.88840   23.47490   61.87270    8.75260    0.22810   77.15050    2.58000    -999.25    -999.25    0.07360    0.17700   60.15800    8.55620   61.02170    -999.25
 10822.24280  -96.75870   10.86410   17.40650   68.91360    8.69810    0.24880   77.13980    2.57570    -999.25    -999.25    0.07860    0.17710   56.58050    8.51330   61.03240    -999.25
 10822.74280 -105.02180    8.52140   12.90690   74.40320    9.02670    0.24470   77.14710    2.53110    -999.25    -999.25    0.07700    0.18110   54.64450    8.34700   61.02400    -999.25
 10823.24280 -111.76140    6.94460    9.65610   67.76290    9.32000    0.20720   77.13220    2.47200    -999.25    -999.25    0.09130    0.18830   55.16740    8.12710   61.00010    -999.25
 10823.74280 -116.86050    5.91870    7.33670   54.97920    9.13050    0.13930   77.11340    2.47290    -999.25    -999.25    0.12250    0.19720   57.92050    7.98190   60.95040    -999.25
 10824.24280 -121.79920    5.04430    5.63740   47.84210    8.57400    0.10640   77.13150    2.53360    -999.25    -999.25    0.14930    0.20610   59.98600    7.85530   60.92080    -999.25
 10824.74280 -125.00050    4.42770    4.69320   45.53240    8.20750    0.10360   77.12760    2.56520    -999.25    -999.25    0.13920    0.21430   60.24950    7.79700   60.94960    -999.25
 10825.24280 -126.68440    4.09370    4.26890   45.18600    8.10880    0.10680   77.10900    2.55150    -999.25    -999.25    0.09770    0.22030   60.61140    7.79850   61.00440    -999.25
 10825.74280 -127.33430    3.85660    4.03390   44.91680    8.04490    0.13190   77.11660    2.55810    -999.25    -999.25    0.08480    0.22420   61.17510    7.82060   61.05470    -999.25
 10826.24280 -126.91930    3.68830    4.05280   44.90160    8.02810    0.15530   77.12700    2.57760    -999.25    -999.25    0.09270    0.22690   61.13150    7.86500   61.06750    -999.25
 10826.74280 -125.27100    3.62910    4.29340   46.30440    8.04260    0.15530   77.10030    2.58000    -999.25    -999.25    0.08340    0.22780   60.89800    7.99850   61.05950    -999.25
 10827.24280 -122.53970    3.65840    4.74560   49.02880    8.09230    0.14440   77.08370    2.56810    -999.25    -999.25    0.07880    0.22650   60.75320    8.24520   61.01310    -999.25
 10827.74280 -118.87510    3.77440    5.29130   48.74290    8.14540    0.12840   77.11780    2.55010    -999.25    -999.25    0.08240    0.22350   60.74020    8.47670   60.95930    -999.25
 10828.24280 -114.89190    3.95000    6.14630   44.73640    8.18410    0.11650   77.15080    2.54700    -999.25    -999.25    0.08950    0.22050   60.74610    8.63690   60.97530    -999.25
 10828.74280 -111.57760    4.14530    7.50120   42.17260    8.23080    0.12860   77.13570    2.57330    -999.25    -999.25    0.09720    0.21760   60.73660    8.72520   61.00370    -999.25
 10829.24280 -108.85980    4.35020    9.25080   42.86100    8.37340    0.16820   77.13860    2.61050    -999.25    -999.25    0.08660    0.21550   60.76400    8.72980   60.95090    -999.25
 10829.74280 -106.12200    4.50370   11.40850   44.42840    8.78800    0.21040   77.17310    2.62600    -999.25    -999.25    0.06410    0.21610   60.81650    8.72200   60.93330    -999.25
 10830.24280 -103.12960    4.56580   13.82520   44.67770    9.11860    0.20970   77.17420    2.58220    -999.25    -999.25    0.04210    0.21890   60.86060    8.72770   60.98520    -999.25
 10830.74280 -100.29890    4.59360   16.27060   43.47230    8.84880    0.16740   77.17290    2.53780    -999.25    -999.25    0.05470    0.22200   60.89870    8.73370   60.98660    -999.25
 10831.24280  -98.09390    4.60570   18.82340   42.06360    8.43840    0.15930   77.17160    2.57090    -999.25    -999.25    0.09620    0.22480   60.92650    8.73960   60.90830    -999.25
 10831.74280  -96.46710    4.60240   21.12590   41.95790    8.29550    0.19920   77.17040    2.63360    -999.25    -999.25    0.10020    0.22330   60.94700    8.74550   60.85200    -999.25
 10832.24280  -95.41590    4.59900   23.20430   43.37650    8.27760    0.21760   77.16910    2.66290    -999.25    -999.25    0.06140    0.21750   60.95900    8.75140   60.85980    -999.25
 10832.74280  -94.95210    4.59570   25.35240   45.34860    8.29860    0.20810   77.17670    2.67000    -999.25    -999.25    0.03360    0.21450   60.91110    8.75890   60.84820    -999.25
 10833.24280  -94.57240    4.59230   26.59160   47.02410    8.33070    0.19640   77.18210    2.67770    -999.25    -999.25    0.02310    0.21720   60.89960    8.75760   60.90580    -999.25
 10833.74280  -93.92740    4.58900   26.88180   47.90730    8.47390    0.18150   77.10840    2.68100    -999.25    -999.25    0.01840    0.22130   60.98970    8.75880   61.03570    -999.25
 10834.24280    -999.25    -999.25    -999.25    -999.25    8.65790    0.16380   76.95570    2.68290    -999.25    -999.25    0.01650    0.22340   61.05610    8.76780   61.05380    -999.25
