~Version ---------------------------------------------------
VERS.      2.0 : CWLS log ASCII Standard -VERSION 2.0
WRAP.       NO : One line per depth step
CREA. 11/15/17 : LAS Creation Date
~Well ------------------------------------------------------
STRT.FT                        950.0 : START DEPTH
STOP.FT                       9400.0 : STOP DEPTH
STEP.FT                     50.00000 : STEP LENGTH
NULL.                        -999.25 : NULL VALUE
COMP. CANADIAN PACIFIC OIL & GAS LTD : COMPANY
WELL.       CPOG OBERLIN 10-15-38-21 : WELL
FLD .                                : FIELD
LOC .                                : LOCATION
CTRY.                         CANADA : COUNTRY
SRVC.                        Unknown : SERVICE COMPANY
DATE.                    13-Apr-1967 : LOGDATE
PROV.                        Alberta : PROVINCE
UWI .               100101503821W400 : UNIQUE WELL ID
SLAT.WGS84                  52.26833 : SURFACE LATITUDE
SLON.WGS84                 -112.9183 : SURFACE LONGITUDE
~Curve Information -----------------------------------------
DEPT   .FT    : Depth Curve
CALDED .IN    : CALIPER FROM DENSITY LOG
CALED  .IN    : CALIPER FROM CALIPER LOG
CALWS  .IN    : CALIPER [CALED SPL. TO CALED @ 4501']
CONDWS .MMHO  : CONDUCTIVITY [1000/DRESWS]
DCORED .G/C3  : DENSITY CORRECTION [DRHOED]
DCORWS .G/C3  : DENSITY CORRECTION [DCORED]
DENWS  .G/C3  : FORMATION BULK DENSITY [RHOBED]
DPOLSWS.V/V   : DENSITY POROSITY LIMESTONE [CALC ROM DENWS, M=2.71, F=1.00]
DRESWS .OHMM  : DEEP RESISTIVITY [ILDED]
DRHOED .G/C3  : DENSITY CORRECTION FROM DENSITY LOG
DTED   .US/F  : DELTA TIME FROM SONIC LOG [ADJ. TO RESISTIVITY LOG]
DTWS   .US/F  : COMPRESSIONAL SONIC [DTED]
GRNED  .GAPI  : GAMMA RAY FROM NEUTRON GAMMA RAY LOG [ADJ. TO RESISTIVITY LOG]
GRSED  .GAPI  : GAMMA RAY FROM SONIC LOG [ADJ. TO RESISTIVITY LOG]
GRWS   .GAPI  : GAMMA RAY [GRSED]
ILDED  .OHMM  : DEEP INDUCTION FROM RESISTIVITY LOG
ILMED  .OHMM  : INDUCTION MEDIUM FROM RESISTIVITY LOG
LL8ED  .OHMM  : LATEROLOG-8 FROM RESISTIVITY LOG
MRESWS .OHMM  : MEDIUM RESISTIVITY [ILMED]
NEUTED .NAPI  : NEUTRON FROM NEUTRON GAMMA RAY LOG [ADJ. TO RESISTIVITY LOG]
NEUTWS .NAPI  : NEUTRON [NEUTED]
RHOBED .G/C3  : BULK DENSITY FROM DENSITY LOG
SPRED  .MV    : SPONTANEOUS POTENTIAL FROM RESISTIVITY
SPWS   .MV    : SPONTANEOUS POTENTIAL [SPRED]
SRESWS .OHMM  : SHALLOW RESISTIVITY [LL8ED]
~Params ----------------------------------------------------
PD  .                     GL : PERMANENT DATUM
EPD .FT               2675.8 : ELEVATION PERMANENT DATUM
LMF .                     KB : LOG MEASURED FROM
DAPD.FT                   13 : FEET ABOVE PERMANENT DATUM
DMF .                     KB : DRILLING MEASURED FROM
EKB .FT               2688.8 : KELLY BUSHING
EGL .FT               2675.8 : GROUND LEVEL
DATE.               04/13/67 : RUN DATE
RUN .                      1 : RUN NUMBER
DD  .FT                 9418 : DEPTH DRILLER
DL  .FT                 9417 : DEPTH LOGGER
BLI .FT                 9413 : BOTTOM LOG INTERVAL
TLI .FT                  920 : TOP LOG INTERVAL
CBD .FT                  920 : CASING BOTTOM DRILLER
CBL .FT                  918 : CASING BOTTOM LOGGER
BS  .IN                 8.75 : BIT SIZE
BSD .FT                 9417 : BIT SIZE AT DEPTH
DFT .            CAUSTIC GEL : DRILLING FLUID TYPE
DFD .                   10.4 : DRILLING FLUID DENSITY
DFV .                     68 : DRILLING FLUID VISCOSITY
DFPH.                   10.5 : DRILLING FLUID PH
DFL .                    9.6 : DRILLING FLUID LOSS
MSS .               FLOWLINE : MUD SAMPLE SOURCE
RMS .OHMM              0.397 : RESISTIVITY MUD SAMPLE
MST .DEGF                 62 : MUD SAMPLE TEMPERATURE
RMF .OHMM              0.211 : RESISTIVITY MUD FILTRATE SAMPLE
MFST.DEGF                 76 : MUD FILTRATE SAMPLE TEMPERATURE
RMB .OHMM              0.094 : RESISTIVITY MUD AT BHT
TCS .HRS                   3 : TIME CIRCULATED STOPPED
LUN .                   7014 : LOGGING UNIT NUMBER
LUL .                  STETT : LOGGING UNIT LOCATION
ENGI.                  YOUNG : RECORDING ENGINEER
WITN.                KOZBIAL : WITNESSED BY
CLNT.                A2DTECH : CLIENT CODE
ORIG.            2" 5" PRINT : ORIGIN OF DATA
UWI .       100101503821W400 : UNIQUE WELL ID
DICO. A2D Technologies, Inc. : DIGITIZING COMPANY
~Other -----------------------------------------------------
~ASCII -----------------------------------------------------
# ...
 3750.00000    -999.25   10.79360   10.79360  274.48400    -999.25    -999.25    -999.25    -999.25    3.64320    -999.25   99.54160   99.54160    -999.25  116.58810  116.58810    3.64320    3.87310    5.89620    3.87310    -999.25    -999.25    -999.25 -111.84480   -7.62180    5.89620
 3800.00000    -999.25   12.34500   12.34500  377.41550    -999.25    -999.25    -999.25    -999.25    2.64960    -999.25  104.51230  104.51230    -999.25   77.44080   77.44080    2.64960    2.44610    3.12960    2.44610    -999.25    -999.25    -999.25 -113.09780   -8.96460    3.12960
 3850.00000    -999.25   12.22440   12.22440  463.11300    -999.25    -999.25    -999.25    -999.25    2.15930    -999.25  105.58140  105.58140    -999.25   83.83870   83.83870    2.15930    2.02260    2.92400    2.02260    -999.25    -999.25    -999.25 -112.06720   -8.02440    2.92400
 3900.00000    -999.25   12.61800   12.61800  365.43720    -999.25    -999.25    -999.25    -999.25    2.73720    -999.25   93.45180   93.45180    -999.25   76.70660   76.70660    2.73720    2.51890    3.94580    2.51890    -999.25    -999.25    -999.25 -110.71990   -6.76690    3.94580
 3950.00000    -999.25   12.06990   12.06990  129.70170    -999.25    -999.25    -999.25    -999.25    7.71000    -999.25   78.14220   78.14220    -999.25   49.62340   49.62340    7.71000    6.81090    8.45750    6.81090    -999.25    -999.25    -999.25 -116.88880  -13.02610    8.45750
 4000.00000    -999.25   14.81050   14.81050  453.43250    -999.25    -999.25    -999.25    -999.25    2.20540    -999.25   93.24520   93.24520    -999.25   73.26360   73.26360    2.20540    2.00020    2.69520    2.00020    -999.25    -999.25    -999.25 -111.05620   -7.28330    2.69520
 4050.00000    -999.25   14.88460   14.88460  825.06500    -999.25    -999.25    -999.25    -999.25    1.21240    -999.25  147.61280  147.61280    -999.25   74.33990   74.33990    1.21240    1.10490    1.71530    1.10490    -999.25    -999.25    -999.25 -109.82700   -6.14390    1.71530
 4100.00000    -999.25   14.22520   14.22520  262.81900    -999.25    -999.25    -999.25    -999.25    3.80490    -999.25   79.14570   79.14570    -999.25   57.88240   57.88240    3.80490    3.53380    4.67990    3.53380    -999.25    -999.25    -999.25 -110.97530   -7.38250    4.67990
 4150.00000    -999.25   13.88580   13.88580  205.88870    -999.25    -999.25    -999.25    -999.25    4.85700    -999.25   82.74170   82.74170    -999.25   65.93100   65.93100    4.85700    4.30450    5.28880    4.30450    -999.25    -999.25    -999.25 -112.67600   -9.17300    5.28880
 4200.00000    -999.25   12.30580   12.30580  142.17270    -999.25    -999.25    -999.25    -999.25    7.03370    -999.25   82.29810   82.29810    -999.25   62.01180   62.01180    7.03370    6.16170    7.98780    6.16170    -999.25    -999.25    -999.25 -113.14220   -9.72960    7.98780
 4250.00000    -999.25   12.01400   12.01400  156.26950    -999.25    -999.25    -999.25    -999.25    6.39920    -999.25   78.15200   78.15200   69.93280   60.47550   60.47550    6.39920    5.67790    7.77050    5.67790  439.46880  439.46880    -999.25 -113.29520   -9.97230    7.77050
 4300.00000    -999.25   11.36260   11.36260   15.69670    -999.25    -999.25    -999.25    -999.25   63.80670    -999.25  128.76320  128.76320   51.08790   29.86950   29.86950   63.80670   30.93180   57.50180   30.93180  264.23630  264.23630    -999.25 -115.40950  -12.17640   57.50180
 4350.00000    -999.25   11.51380   11.51380  124.51130    -999.25    -999.25    -999.25    -999.25    8.03140    -999.25   79.39270   79.39270   91.88200   83.09480   83.09480    8.03140    7.73630    8.84760    7.73630  551.35050  551.35050    -999.25 -109.87890   -6.73620    8.84760
 4400.00000    -999.25   13.34710   13.34710  205.18310    -999.25    -999.25    -999.25    -999.25    4.87690    -999.25   89.31100   89.31100   81.81860   79.37480   79.37480    4.87690    3.39740    5.73290    3.39740  325.98910  325.98910    -999.25 -106.71780   -3.66480    5.73290
 4450.00000    -999.25    9.67580    9.67580  778.63430    -999.25    -999.25    -999.25    -999.25    1.28430    -999.25   86.01020   86.01020   47.63070   21.40610   21.40610    1.28430    1.60880    1.73570    1.60880  663.65980  663.65980    -999.25 -120.10540  -16.46910    1.73570
 4500.00000   13.53800   13.54910   13.54910  208.28130    -999.25    -999.25    -999.25    -999.25    4.80120    -999.25   85.74700   85.74700   93.99160  100.36240  100.36240    4.80120    4.18570    6.67300    4.18570  404.31930  404.31930    -999.25 -110.40130   -5.98700    6.67300
 4550.00000   13.61430   14.60160   13.61430  226.56780    0.18130    0.18130    2.42650    0.16580    4.41370    0.18130   85.61430   85.61430    -999.25   88.57350   88.57350    4.41370    3.93610    6.05160    3.93610    -999.25    -999.25    2.42650 -110.00430   -5.56360    6.05160
 4600.00000   13.63790   16.00860   13.63790  252.56350    0.17520    0.17520    2.18240    0.30850    3.95940    0.17520   91.64110   91.64110    -999.25   84.38460   84.38460    3.95940    3.58500    5.38630    3.58500    -999.25    -999.25    2.18240 -110.00360   -5.88550    5.38630
 4650.00000   13.63800    -999.25   13.63800  257.31920    0.13630    0.13630    1.89430    0.47700    3.88630    0.13630   88.02540   88.02540    -999.25   83.43060   83.43060    3.88630    3.30010    5.17740    3.30010    -999.25    -999.25    1.89430 -110.45850   -6.66080    5.17740
 4700.00000   13.65460    -999.25   13.65460  331.21360    0.15150    0.15150    1.90080    0.47320    3.01920    0.15150   95.11610   95.11610    -999.25   79.20780   79.20780    3.01920    2.69380    4.17040    2.69380    -999.25    -999.25    1.90080 -110.91420   -7.43910    4.17040
 4750.00000    9.99010    -999.25    9.99010   25.83000    0.00320    0.00320    2.73570   -0.01500   38.71470    0.00320   50.79740   50.79740    -999.25   24.71740   24.71740   38.71470   41.36750   84.41270   41.36750    -999.25    -999.25    2.73570 -110.99650   -7.84190   84.41270
 4800.00000   10.07380    -999.25   10.07380   31.45380    0.00630    0.00630    2.71050   -0.00030   31.79650    0.00630   57.07720   57.07720    -999.25   30.24970   30.24970   31.79650   25.14260   49.71270   25.14260    -999.25    -999.25    2.71050 -112.32780  -10.03280   49.71270
 4850.00000   10.62380    -999.25   10.62380    5.78530    0.01250    0.01250    2.92070   -0.12320  172.85300    0.01250   52.05300   52.05300    -999.25   24.03450   24.03450  172.85300   50.45120  401.66190   50.45120    -999.25    -999.25    2.92070 -106.97990   -5.88510  401.66190
 4900.00000   10.91810    -999.25   10.91810   32.05910    0.01410    0.01410    2.90910   -0.11640   31.23910    0.01410   55.25980   55.25980    -999.25   24.35150   24.35150   31.23910   21.35970  115.97360   21.35970    -999.25    -999.25    2.90910 -102.65790   -2.75540  115.97360
 4950.00000   10.35120    -999.25   10.35120   22.41790    0.00320    0.00320    2.84830   -0.08090   44.60730    0.00320   53.27200   53.27200    -999.25   20.29840   20.29840   44.60730   38.02980  249.76080   38.02980    -999.25    -999.25    2.84830 -113.45570  -14.98050  249.76080
 5000.00000   10.34860    -999.25   10.34860    4.09540    0.02050    0.02050    2.80730   -0.05690  244.17540    0.02050   53.47600   53.47600    -999.25   19.27680   19.27680  244.17540   49.19920  859.84060   49.19920    -999.25    -999.25    2.80730 -110.97190  -13.94110  859.84060
 5050.00000   10.51760    -999.25   10.51760   17.34330    0.03110    0.03110    2.80490   -0.05550   57.69140    0.03110   55.30950   55.30950    -999.25   18.45520   18.45520   57.69140   31.85170  181.01780   31.85170    -999.25    -999.25    2.80490 -110.79790  -15.21150  181.01780
 5100.00000   10.93880    -999.25   10.93880    5.68310    0.02400    0.02400    2.74000   -0.01750  175.95990    0.02400   51.98440   51.98440    -999.25   20.00390   20.00390  175.95990   42.28100  181.88380   42.28100    -999.25    -999.25    2.74000 -108.60340  -14.47090  181.88380
