~Version ---------------------------------------------------
VERS.      2.0 : CWLS log ASCII Standard -VERSION 2.0
WRAP.       NO : One line per depth step
CREA. 12/14/17 : LAS Creation Date
~Well ------------------------------------------------------
STRT.FT                     1150.0 : START DEPTH
STOP.FT                    10050.0 : STOP DEPTH
STEP.FT                   50.00000 : STEP LENGTH
NULL.                      -999.25 : NULL VALUE
COMP.     HOME OIL COMPANY LIMITED : COMPANY
WELL. HOME HB CHIP LAKE 8-33-55-12 : WELL
FLD .                              : FIELD
LOC .                              : LOCATION
CTRY.                       CANADA : COUNTRY
SRVC.                      Unknown : SERVICE COMPANY
DATE.                  04-Jan-1962 : LOGDATE
PROV.                      Alberta : PROVINCE
UWI .             100083305512W500 : UNIQUE WELL ID
SLAT.WGS84                53.79379 : SURFACE LATITUDE
SLON.WGS84               -115.7126 : SURFACE LONGITUDE
~Curve Information -----------------------------------------
DEPT  .FT    : Depth Curve
CALWS .IN    : CALIPER [MCALED]
CILDED.MMHO  : DEEP INDUCTION CONDUCTIVITY FROM IEL LOG [ADJ. TO ILDED]
CONDWS.MMHO  : DEEP CONDUCTIVITY [CILDED]
DRESWS.OHMM  : DEEP RESISTIVITY [1000/CILDED]
DTED  .US/F  : DELTA-T (3' SPACING & 3' PICKUP SPAN) FROM SONIC LOG [ADJ. TO IEL LOG]
DTWS  .US/F  : COMPRESSIONAL SONIC [DTED]
GRSED .GAPI  : GAMMA RAY FROM SONIC LOG [ADJ. TO IEL LOG]
GRWS  .GAPI  : GAMMA RAY [GRSED]
ILDED .OHMM  : DEEP INDUCTION RESISTIVITY FROM IEL LOG
MCALED.IN    : MICRO CALIPER FROM ML LOG
SNED  .OHMM  : 16 INCH  SHORT NORMAL FROM IEL LOG
SPRED .MV    : SPONTANEOUS POTENTIAL FROM IEL LOG
SPWS  .MV    : SPONTANEOUS POTENTIAL [BASELINE 0 MV,SPRED]
SRESWS.OHMM  : SHALLOW RESISTIVITY [SNED]
~Params ----------------------------------------------------
PD  .                    CBF : PERMANENT DATUM
EPD .FT               2849.9 : ELEVATION PERMANENT DATUM
LMF .                     KB : LOG MEASURED FROM
DAPD.FT                 13.4 : FEET ABOVE PERMANENT DATUM
EKB .FT               2863.3 : KELLY BUSHING
EGL .FT               2849.9 : GROUND LEVEL
DATE.               01/04/62 : RUN DATE
RUN .                      2 : RUN NUMBER
DD  .FT                10056 : DEPTH DRILLER
DL  .FT                10055 : DEPTH LOGGER
BLI .FT                10055 : BOTTOM LOG INTERVAL
TLI .FT                 6100 : TOP LOG INTERVAL
CBD .FT                 1152 : CASING BOTTOM DRILLER
BS  .IN                 8.75 : BIT SIZE
BSD .FT                10056 : BIT SIZE AT DEPTH
DFT .                 UNICAL : DRILLING FLUID TYPE
DFD .                    9.7 : DRILLING FLUID DENSITY
DFV .                    135 : DRILLING FLUID VISCOSITY
DFPH.                    9.0 : DRILLING FLUID PH
DFL .                    5.0 : DRILLING FLUID LOSS
RMS .OHMM                2.2 : RESISTIVITY MUD SAMPLE
MST .DEGF                 53 : MUD SAMPLE TEMPERATURE
RMF .OHMM                1.3 : RESISTIVITY MUD FILTRATE SAMPLE
MFST.DEGF                 50 : MUD FILTRATE SAMPLE TEMPERATURE
RMC .OHMM                2.7 : RESISTIVITY MUD CAKE
MCST.DEGF                 50 : MUD CAKE SAMPLE TEMPERATURE
RMB .OHMM               0.72 : RESISTIVITY MUD AT BHT
TCS .HRS                 2.5 : TIME CIRCULATED STOPPED
LUN .                   1576 : LOGGING UNIT NUMBER
LUL .                     DV : LOGGING UNIT LOCATION
ENGI.                NORQUAY : RECORDING ENGINEER
WITN.                  SCOTT : WITNESSED BY
CLNT.                A2DTECH : CLIENT CODE
ORIG.            2" 5" PRINT : ORIGIN OF DATA
UWI .       100083305512W500 : UNIQUE WELL ID
DICO. A2D Technologies, Inc. : DIGITIZING COMPANY
~Other -----------------------------------------------------
~ASCII -----------------------------------------------------
# ...
 8500.00000   13.44470  191.49840  191.49840    5.22200   83.52950   83.52950   79.46380   79.46380    5.47190   13.44470    7.53330  -41.65530  -18.32280    7.53330
 8550.00000    8.73150   53.24820   53.24820   18.78000   62.90410   62.90410   66.91080   66.91080   20.74310    8.73150   25.70570  -37.52880  -14.04620   25.70570
 8600.00000    9.56590   72.68070   72.68070   13.75880   67.89230   67.89230   75.88320   75.88320   15.19450    9.56590   19.20360  -38.73120  -15.09750   19.20360
 8650.00000    8.91240   76.51000   76.51000   13.07020   67.35470   67.35470   81.52200   81.52200   14.73090    8.91240   19.91350  -37.44600  -13.66220   19.91350
 8700.00000    9.31160   78.09510   78.09510   12.80490   67.64240   67.64240   73.84380   73.84380   13.75670    9.31160   17.97590  -40.04350  -16.10850   17.97590
 8750.00000   10.97100   80.32270   80.32270   12.44980   69.73280   69.73280   77.29670   77.29670   14.82910   10.97100   17.43890  -45.71220  -21.62710   17.43890
 8800.00000   11.64760  117.42130  117.42130    8.51630   75.96780   75.96780   85.19370   85.19370    8.61120   11.64760   11.84850  -53.57770  -29.34250   11.84850
 8850.00000   10.36410   87.74360   87.74360   11.39680   66.81500   66.81500   70.19190   70.19190   12.60820   10.36410   15.58480  -49.74730  -25.36100   15.58480
 8900.00000   13.68840  145.45170  145.45170    6.87510   78.60100   78.60100   83.17730   83.17730    7.46290   13.68840    8.40570  -57.94700  -33.41060    8.40570
 8950.00000   10.33290   95.70650   95.70650   10.44860   72.38520   72.38520   73.04460   73.04460   11.60610   10.33290   15.45160  -43.05060  -18.36310   15.45160
 9000.00000   11.19580  104.59790  104.59790    9.56040   74.60520   74.60520   82.82960   82.82960   10.50890   11.19580   12.64460  -44.99520  -20.15750   12.64460
 9050.00000   10.32240  118.76370  118.76370    8.42010   67.98770   67.98770   86.48960   86.48960    8.90170   10.32240   11.03950  -47.66770  -22.67990   11.03950
 9100.00000    9.35590   84.93020   84.93020   11.77440   65.75970   65.75970   71.32360   71.32360   13.65520    9.35590   16.43670  -36.74090  -11.60200   16.43670
 9150.00000    8.92960   24.29440   24.29440   41.16170   64.78750   64.78750   51.21280   51.21280   59.25940    8.92960   60.48740  -27.17780   -1.88880   60.48740
 9200.00000   11.46020  191.52180  191.52180    5.22130   78.19620   78.19620   81.26180   81.26180    5.63480   11.46020    7.62930  -33.92490   -8.48480    7.62930
 9250.00000   12.89550  199.85180  199.85180    5.00370   85.11550   85.11550   89.50380   89.50380    5.48720   12.89550    7.10850  -36.63460  -11.04440    7.10850
 9300.00000    8.98310   21.92560   21.92560   45.60880   58.22050   58.22050   43.06250   43.06250   72.91740    8.98310   58.08390  -34.39260   -8.65220   58.08390
 9350.00000    8.89670   21.34740   21.34740   46.84410   53.79720   53.79720   28.86750   28.86750   71.89160    8.89670   52.41320  -36.91390  -11.02240   52.41320
 9400.00000   10.88220  155.45570  155.45570    6.43270   78.85280   78.85280   82.98360   82.98360    7.08670   10.88220   10.67620  -43.51960  -17.47800   10.67620
 9450.00000    8.97990   12.82370   12.82370   77.98060   55.44730   55.44730   30.87720   30.87720  187.41130    8.97990   76.39450  -37.52760  -11.33490   76.39450
 9500.00000    8.93490   26.25280   26.25280   38.09120   55.65550   55.65550   30.67460   30.67460   50.41960    8.93490   43.21950  -41.19320  -14.85040   43.21950
 9550.00000    8.90580   27.83340   27.83340   35.92810   57.77700   57.77700   48.31450   48.31450   47.27140    8.90580   42.61330  -38.17320  -11.68020   42.61330
 9600.00000    8.94050    9.29390    9.29390  107.59750   58.46700   58.46700   35.11460   35.11460  556.55430    8.94050  108.30610  -36.48630   -9.84220  108.30610
 9650.00000    8.86610    8.05420    8.05420  124.15880   54.77500   54.77500   28.82410   28.82410  436.20910    8.86610   99.05260  -30.90520   -4.11100   99.05260
 9700.00000    9.13430    5.79050    5.79050  172.69670   51.68040   51.68040   25.85950   25.85950  557.20890    9.13430  135.77490  -68.04390  -41.09860  135.77490
 9750.00000    9.03770    2.98870    2.98870  334.59360   51.56180   51.56180   22.33380   22.33380  559.55880    9.03770  226.62940 -103.88110  -76.78570  226.62940
 9800.00000    9.07860   43.05120   43.05120   23.22820   65.69350   65.69350  116.81130  116.81130   26.56590    9.07860   39.34160  -41.97470  -14.72920   39.34160
 9850.00000    8.97610   60.32380   60.32380   16.57720   63.77800   63.77800   97.98820   97.98820   18.85640    8.97610   25.04790  -40.70430  -13.30770   25.04790
 9900.00000    8.91650   41.60540   41.60540   24.03530   65.86040   65.86040  128.75480  128.75480   29.39540    8.91650   32.51130  -33.83390   -6.28710   32.51130
 9950.00000    8.96510   43.81170   43.81170   22.82500   60.76510   60.76510  114.26480  114.26480   28.99500    8.96510   33.44660  -41.72560  -14.06130   33.44660
 10000.00000    9.06220   61.23160   61.23160   16.33140   64.33400   64.33400  137.33230  137.33230   19.33880    9.06220   23.37840  -42.30020  -14.63590   23.37840
 10050.00000    8.92300   73.31620   73.31620   13.63960    -999.25    -999.25    -999.25    -999.25   15.89360    8.92300   45.40590 -120.05310  -92.38880   45.40590
