~Version ---------------------------------------------------
VERS.      2.0 : CWLS log ASCII Standard -VERSION 2.0
WRAP.       NO : One line per depth step
CREA. 10/08/14 : LAS Creation Date
~Well ------------------------------------------------------
STRT.M                                      3000.0 : START DEPTH
STOP.M                                      4800.0 : STOP DEPTH
STEP.M                                    50.00000 : STEP LENGTH
NULL.                                      -999.25 : NULL VALUE
COMP.             AMOCO CANADA PETROLEUM CO., LTD. : COMPANY
WELL.        AMOCO ET AL BLACKSTONE A11-22-44-16W5 : WELL
FLD .                                              : FIELD
LOC .                                              : LOCATION
CTRY.                                       CANADA : COUNTRY
SRVC. ATLAS WIRELINE SERVICES / WESTERN ATLAS INTL : SERVICE COMPANY
DATE.                                  06-Oct-1987 : LOGDATE
PROV.                                      Alberta : PROVINCE
UWI .                             102112204416W500 : UNIQUE WELL ID
SLAT.WGS84                                52.81052 : SURFACE LATITUDE
SLON.WGS84                               -116.2431 : SURFACE LONGITUDE
~Curve Information -----------------------------------------
DEPT    .M      : DEPTH METER
ACED    .US/M   : ACOUSTIC TIME FROM SONIC LOG
ACRED   .US/M   : ACOUSTIC TIME (REPEAT) FROM SONIC LOG [ADJ. TO ACED]
C13ED   .MM     : CALIPER 13 FROM CNL LOG [ADJ. TO DLL LOG]
C24ED   .MM     : CALIPER 24 FROM CNL LOG [ADJ. TO DLL LOG]
CALED   .MM     : CALIPER FROM CVL LOG [ADJ. TO DIL-DLL LOG]
CALSED  .MM     : CALIPER FROM SONIC LOG
CALWS   .MM     : CALIPER [CALSED SPL. TO CALXDED @ 4682 M & SPL. TO C13ED @ 4695 M]
CALXDED .MM     : CALIPER FROM X AXIS FROM ZDL-CNL LOG [ADJ. TO DIL-DLL LOG]
CALXED  .MM     : CALIPER X FROM CVL LOG [ADJ. TO DIL-DLL LOG]
CALYDED .MM     : CALIPER FROM Y AXIS FROM ZDL-CNL LOG [ADJ. TO DIL-DLL LOG]
CALYED  .MM     : CALIPER FROM CVL LOG [ADJ. TO DIL-DLL LOG]
CNCLSED .V/V    : NEUTRON POROSITY LIMESTONE FROM ZDL-CNL LOG [ADJ. TO DIL-DLL LOG]
CNCSSED .V/V    : NEUTRON POROSITY SANDSTONE FROM ZDL-CNL LOG [ADJ. TO DIL-DLL LOG]
CONDWS  .MMHO   : CONDUCTIVITY [1000/DRESWS]
DCORWS  .KG/M3  : DENSITY CORRECTION [ZCORED]
DENWS   .KG/M3  : FORMATION BULK DENSITY [CALC. FROM DPOLSWS,M=2710,F=1000]
DPOLSWS .V/V    : DENSITY POROSITY LIMESTONE [PORZSSED CONVERTED TO LIMESTONE MATRIX [M=2710,F=1000] & SPL. TO PORZLSED @ 3681.7 M]
DRESWS  .OHMM   : DEEP RESISTIVITY [RILDED SPL. TO RDED @ 4695.8 M & SPL. TO RDRED @ 4741.9 M]
DTWS    .US/M   : COMPRESSIONAL SONIC [ACED SPL. TO ACRED @ 4750.3 M]
GR1ED   .GAPI   : GAMMA RAY FROM CBL LOG [ADJ. TO DIL-DLL LOG]
GRDED   .GAPI   : GAMMA RAY FROM ZDL-CNL LOG [ADJ. TO DIL-DLL LOG]
GRED    .GAPI   : GAMMA RAY FROM CVL LOG [ADJ. TO DIL-DLL LOG]
GRSED   .GAPI   : GAMMA RAY FROM SONIC LOG
GRWS    .GAPI   : GAMMA RAY [GR1ED SPL. TO GRSED @ 3187 M] [GRWS IN CSG @ 2984.2 M -3187.2 M (+15 GAPI)]
MRESWS  .OHMM   : MEDIUM RESISTIVITY [RILMED]
NPOLSWS .V/V    : NEUTRON POROSITY LIMESTONE [CNCSSED MATRIX  CONVERSION FOR LIMESTONE MATRIX & SPL. TO CNCLSED @ 3684.2 M]
PEED    .B/E    : PHOTOELECTRIC FACTOR FROM ZDL-CNL LOG [ADJ. TO DIL-DLL LOG]
PEFWS   .B/E    : PHOTOELECTRIC FACTOR [PEED]
PORZLSED.V/V    : DENSITY POROSITY LIMESTONE [M=2710,F=1000] FROM ZDL-CNL LOG
PORZSSED.V/V    : DENSITY POROSITY SANDSTONE [M=2650,F=1000] FROM ZDL-CNL LOG [ADJ. TO DIL-DLL LOG]
RDED    .OHMM   : DEEP LATEROLOG RESISTIVITY FROM DLL LOG
RDRED   .OHMM   : DEEP LATEROLOG RESISTIVITY (REPEAT) FROM DLL LOG [ADJ. TO RDED]
RFOCED  .OHMM   : SHALLOW FOCUSED RESISTIVITY FROM DIL LOG
RILDED  .OHMM   : DEEP INDUCTION RESISTIVITY FROM DIL LOG
RILMED  .OHMM   : MEDIUM INDUCTION RESISTIVITY FROM DIL LOG
RSED    .OHMM   : SHALLOW LATEROLOG RESISTIVITY FROM DLL LOG
RSRED   .OHMM   : SHALLOW LATEROLOG RESISTIVITY (REPEAT) FROM DLL LOG [ADJ. TO RDED]
SPRED   .MV     : SPONTANEOUS POTENTIAL FROM DIL-DLL LOG
SPRRED  .MV     : SPONTANEOUS POTENTIAL (REPEAT) FROM DLL LOG
SPWS    .MV     : SPONTANEOUS POTENTIAL [BASELINE 0 MV,SPRED]
SRESWS  .OHMM   : SHALLOW RESISTIVITY [RFOCED SPL. TO RSED @ 4695.9 M & SPL. TO RSRED @ 4742 M]
TENDED  .N      : TENSION [KG*9.80665002864] FROM ZDL-CNL LOG [ADJ. TO DIL-DLL LOG]
TENRED  .N      : TENSION [KG*9.80665002864]  FROM DIL-DLLLOG
TENRRED .N      : TENSION [KG*9.80665002864]  (REPEAT) FROM DLL LOG [ADJ. TO RDED]
TENSED  .N      : TENSION [KG*9.80665002864]  FROM SONIC LOG
TENSRED .N      : TENSION [KG*9.80665002864]  (REPEAT) FROM SONIC LOG [ADJ. TO ACED]
ZCORED  .KG/M3  : DENSITY CORRECTION [G/C3*1000] FROM ZDL-CNL LOG [ADJ. TO DIL-DLL LOG]
ZDENED  .KG/M3  : BULK DENSITY [G/C3*1000] FROM ZDL-CNL LOG [ADJ. TO DIL-DLL LOG]
~Params ----------------------------------------------------
PD  .                         GL : PERMANENT DATUM
EPD .M                    1169.7 : ELEVATION PERMANENT DATUM
LMF .                         KB : LOG MEASURED FROM
DAPD.M                      7.63 : FEET ABOVE PERMANENT DATUM
DMF .                         KB : DRILLING MEASURED FROM
EKB .M                    1177.4 : KELLY BUSHING
EGL .M                   1169.77 : GROUND LEVEL
DATE.                   10/06/87 : RUN DATE
RUN .                          2 : RUN NUMBER
DD  .M                      4820 : DEPTH DRILLER
DL  .M                    4819.6 : DEPTH LOGGER
BLI .M                      4809 : BOTTOM LOG INTERVAL
TLI .M                      4695 : TOP LOG INTERVAL
CS  .MM                    177.8 : CASING SIZE
CBD .M                      4697 : CASING BOTTOM DRILLER
CBL .M                      4695 : CASING BOTTOM LOGGER
BS  .MM                      149 : BIT SIZE
BSD .M                      4820 : BIT SIZE AT DEPTH
DFT .                   GEL CHEM : DRILLING FLUID TYPE
DFD .                       1035 : DRILLING FLUID DENSITY
DFV .                         48 : DRILLING FLUID VISCOSITY
DFPH.                       11.2 : DRILLING FLUID PH
DFL .                        9.4 : DRILLING FLUID LOSS
MSS .                   FLOWLINE : MUD SAMPLE SOURCE
RMS .OHMM                    2.1 : RESISTIVITY MUD SAMPLE
MST .DEGC                     18 : MUD SAMPLE TEMPERATURE
RMF .OHMM                   2.35 : RESISTIVITY MUD FILTRATE SAMPLE
MFST.DEGC                     18 : MUD FILTRATE SAMPLE TEMPERATURE
RMC .OHMM                    2.0 : RESISTIVITY MUD CAKE
MCST.DEGC                     18 : MUD CAKE SAMPLE TEMPERATURE
MFSS.                    MEASURE : MUD FILTRATE SAMPLE SOURCE
MCSS.                    MEASURE : MUD CAKE SAMPLE SOURCE
RMB .OHMM                   0.53 : RESISTIVITY MUD AT BHT
TCS .HRS                     9.5 : TIME CIRCULATED STOPPED
LUN .                    HL 6438 : LOGGING UNIT NUMBER
LUL .                   RED DEER : LOGGING UNIT LOCATION
ENGI.                   FRENETTE : RECORDING ENGINEER
WITN.                    EASTMAN : WITNESSED BY
CLNT.                    A2DTECH : CLIENT CODE
ORIG. 6.5"/100M 16.5"/100M PRINT : ORIGIN OF DATA
UWI .           102112204416W500 : UNIQUE WELL ID
DICO.     A2D Technologies, Inc. : DIGITIZING COMPANY
~Other -----------------------------------------------------
DIL-DLL-ZDL-CNL-BHC LOG RUN
TENS DUPLICATE WITH TENR  & TENSR WITH TENRR
5% OIL IN MUD WHICH IS CAUSING PROBLEM TO SPR
ALL CVL DATA AND ZDEN FROM TOP TO BOTTOM FROM SMALL SCALE SECTION
DENSITY MISSING VELOW 4695M TO TD
~ASCII -----------------------------------------------------
# ...
 3750.00000  156.65730    -999.25    -999.25    -999.25  223.96030  216.81590  216.81590  232.65600  119.90030  211.62680  104.30700    0.02800    -999.25    0.62440   11.50000 2761.64200   -0.03020 1601.63530  156.65730   11.75800   23.26820   22.45500   20.08410   20.08410 1993.20280    0.02800    5.29790    5.29790   -0.03020    -999.25    -999.25    -999.25 2000.00000 1601.63530 1993.20280    -999.25    -999.25 -154.52770    -999.25 -100.40290 2000.00000 -1350.91120 -1095.52340    -999.25 -1106.27050    -999.25   11.50000 2759.60000
 3800.00000  167.93250    -999.25    -999.25    -999.25  265.48200  240.84780  240.84780  256.59080  131.83510  277.10310  141.70450    0.02940    -999.25    5.86760   42.80000 2743.34500   -0.01950  170.42770  167.93250   13.45360   21.59050   23.74700   16.27660   16.27660  163.73920    0.02940    8.70100    8.70100   -0.01950    -999.25    -999.25    -999.25  672.45570  170.42770  163.73920    -999.25    -999.25  -67.83190    -999.25  -11.76950  672.45570 -1172.87830 -1151.34480    -999.25 -1148.79610    -999.25   42.80000 2773.10000
 3850.00000  158.90430    -999.25    -999.25    -999.25  243.68220  237.83780  237.83780  236.74520  122.74530  258.92230  131.60790    0.01150    -999.25    3.19210   -3.30000 2696.66200    0.00780  313.26890  158.90430    4.16930   11.82880   10.81460    9.32160    9.32160  294.53210    0.01150    7.45070    7.45070    0.00780    -999.25    -999.25    -999.25 1965.61320  313.26890  294.53210    -999.25    -999.25 -162.91560    -999.25  -96.20710 1965.61320 -1544.76610 -1095.71270    -999.25 -1104.96630    -999.25   -3.30000 2695.60000
 3900.00000  142.85530    -999.25    -999.25    -999.25  294.13840  272.73550  272.73550  245.09510  125.44200  349.56290  169.78710    0.16140    -999.25   30.56260   27.00000 2714.78800   -0.00280   32.71970  142.85530   54.64710   81.81000   82.64820   71.00890   71.00890   25.52680    0.16140    5.45910    5.45910   -0.00280    -999.25    -999.25    -999.25   41.82000   32.71970   25.52680    -999.25    -999.25    -999.25    -999.25    -999.25   41.82000 -1012.37480 -1048.92220    -999.25 -1065.91030    -999.25   27.00000 2718.10000
 3950.00000  167.91850    -999.25    -999.25    -999.25  227.82700  227.99510  227.99510  235.09810  121.54700  224.69730  108.83640    0.01920    -999.25    5.72860    3.40000 2709.65800    0.00020  174.56310  167.91850   18.37420   25.98930   25.41250   21.26060   21.26060 2000.00000    0.01920    5.47670    5.47670    0.00020    -999.25    -999.25    -999.25  449.62120  174.56310 2000.00000    -999.25    -999.25    -999.25    -999.25    -999.25  449.62120 -878.51500 -1018.81580    -999.25 -1014.93730    -999.25    3.40000 2709.20000
 4000.00000  181.22260    -999.25    -999.25    -999.25  231.76940  230.38470  230.38470  236.39770  121.78040  228.77900  112.21620    0.03980    -999.25    8.69710    5.10000 2684.35000    0.01500  114.98100  181.22260   20.19540   36.17220   35.02130   32.53530   32.53530 1316.62840    0.03980    5.30940    5.30940    0.01500    -999.25    -999.25    -999.25  413.82320  114.98100 1316.62840    -999.25    -999.25    -999.25    -999.25    -999.25  413.82320 -1172.96360 -1124.76290    -999.25 -1105.94690    -999.25    5.10000 2686.00000
 4050.00000  160.33410    -999.25    -999.25    -999.25  282.52010  246.27350  246.27350  233.29200  120.30550  328.34160  161.42430    0.00400    -999.25    0.50000   -0.20000 2729.15200   -0.01120 2000.00000  160.33410    8.93910   18.55970   17.69140   14.17280   14.17280 2000.00000    0.00400    5.85850    5.85850   -0.01120    -999.25    -999.25    -999.25 2000.00000 2000.00000 2000.00000    -999.25    -999.25 -217.32660    -999.25 -108.03370 2000.00000 -1095.32930 -1081.00760    -999.25 -1066.43890    -999.25   -0.20000 2735.80000
 4100.00000  175.24750    -999.25    -999.25    -999.25  286.06290  261.24130  261.24130  234.81150  121.00140  325.95410  168.21330    0.02890    -999.25    7.46350   -3.60000 2759.24800   -0.02880  133.98460  175.24750    8.37100   16.24790   15.86240   13.44290   13.44290   65.53500    0.02890    5.39710    5.39710   -0.02880    -999.25    -999.25    -999.25  527.95960  133.98460   65.53500    -999.25    -999.25 -315.02220    -999.25 -195.08320  527.95960 -1084.39970 -1084.09480    -999.25 -1073.08090    -999.25   -3.60000 2758.90000
 4150.00000  162.53990    -999.25    -999.25    -999.25  294.76580  285.02910  285.02910  235.36340  121.18370  353.03370  171.44000    0.01300    -999.25    0.51010    3.40000 2718.03700   -0.00470 1960.50490  162.53990    7.89500   13.73710   12.74310   11.45570   11.45570  493.27110    0.01300    7.27250    7.27250   -0.00470    -999.25    -999.25    -999.25 2000.00000 1960.50490  493.27110    -999.25    -999.25 -190.56430    -999.25  -59.97920 2000.00000 -1308.51210 -1125.09830    -999.25 -1143.06310    -999.25    3.40000 2724.20000
 4200.00000  160.91510    -999.25    -999.25    -999.25  259.01940  255.31820  255.31820  242.10400  124.31060  278.86130  137.06210    0.00070    -999.25    1.28790   12.30000 2716.49800   -0.00380  776.43010  160.91510    5.22790   12.60270   12.56320    9.73160    9.73160 2000.00000    0.00070    7.43650    7.43650   -0.00380    -999.25    -999.25    -999.25 1102.17580  776.43010 2000.00000    -999.25    -999.25 -221.21080    -999.25  -79.97960 1102.17580 -1141.87160 -1112.13790    -999.25 -1117.09610    -999.25   12.30000 2722.00000
 4250.00000  158.45530    -999.25    -999.25    -999.25  266.40180  255.32800  255.32800  244.48510  125.76310  287.58220  142.16230    0.01890    -999.25    0.49770   52.20000 2795.15800   -0.04980 2009.41700  158.45530   10.32270   20.14610   19.16600   16.35630   16.35630 2005.85600    0.01890    8.68850    8.68850   -0.04980    -999.25    -999.25    -999.25 2000.00000 2009.41700 2005.85600    -999.25    -999.25 -281.89920    -999.25 -130.02190 2000.00000 -1115.17890 -1197.97060    -999.25 -1190.45380    -999.25   52.20000 2800.96680
 4300.00000  171.80420    -999.25    -999.25    -999.25  338.01500  305.96520  305.96520  264.28690  136.18110  408.13190  211.39160    0.04470    -999.25    0.69550   59.10000 2756.51200   -0.02720 1437.87000  171.80420   15.42850   25.04730   24.93340   20.64160   20.64160  177.04260    0.04470    7.80690    7.80690   -0.02720    -999.25    -999.25    -999.25  234.53450 1437.87000  177.04260    -999.25    -999.25 -244.22180    -999.25  -81.69840  234.53450 -1170.21190 -1181.97200    -999.25 -1143.83790    -999.25   59.10000 2754.20000
 4350.00000  200.26670    -999.25    -999.25    -999.25  278.12670  249.84720  249.84720  244.55480  125.67090  286.88130  141.60610    0.10250    -999.25   23.00630   -1.30000 2741.97700   -0.01870   43.46640  200.26670   46.30720   74.52970   72.05020   65.89870   65.89870   63.38290    0.10250    5.71880    5.71880   -0.01870    -999.25    -999.25    -999.25   72.38510   43.46640   63.38290    -999.25    -999.25 -222.86680    -999.25  -50.35700   72.38510 -715.48730 -1097.06410    -999.25 -1081.24990    -999.25   -1.30000 2748.80000
 4400.00000  168.26460    -999.25    -999.25    -999.25  286.10110  266.42410  266.42410  256.31170  131.71570  308.96120  171.03190    0.01500    -999.25   14.54970    3.00000 2707.09300    0.00170   68.73000  168.26460   14.09290   27.32130   27.69330   23.70250   23.70250   87.79920    0.01500    6.56280    6.56280    0.00170    -999.25    -999.25    -999.25  107.33930   68.73000   87.79920    -999.25    -999.25 -251.36190    -999.25  -76.25150  107.33930 -1549.03390 -1091.54390    -999.25 -1079.24730    -999.25    3.00000 2708.50000
 4450.00000  228.89070    -999.25    -999.25    -999.25  315.84390  330.79180  330.79180  293.14900  149.21500  340.42770  168.04070    0.17890    -999.25  214.70290   27.70000 2702.30500    0.00450    4.65760  228.89070   49.12680   68.48620   68.05140   65.39320   65.39320    4.63890    0.17890    5.99410    5.99410    0.00450    -999.25    -999.25    -999.25    6.21800    4.65760    4.63890    -999.25    -999.25 -228.76750    -999.25  -51.05650    6.21800 -1154.93020 -983.54230    -999.25 -990.04020    -999.25   27.70000 2705.90000
