~Version ---------------------------------------------------
VERS.      2.0 : CWLS log ASCII Standard -VERSION 2.0
WRAP.       NO : One line per depth step
CREA. 01/04/18 : LAS Creation Date
~Well ------------------------------------------------------
STRT.FT                            1100.0 : START DEPTH
STOP.FT                           10550.0 : STOP DEPTH
STEP.FT                          50.00000 : STEP LENGTH
NULL.                             -999.25 : NULL VALUE
COMP.                CHEVRON STANDARD LTD : COMPANY
WELL. CHEVRON GULF SHININGBANK 3-13-56-15 : WELL
FLD .                                     : FIELD
LOC .                                     : LOCATION
CTRY.                              CANADA : COUNTRY
SRVC.              Schlumberger of Canada : SERVICE COMPANY
DATE.                         25-Oct-1976 : LOGDATE
PROV.                             Alberta : PROVINCE
UWI .                    100031305615W500 : UNIQUE WELL ID
SLAT.WGS84                       53.83559 : SURFACE LATITUDE
SLON.WGS84                      -116.0977 : SURFACE LONGITUDE
~Curve Information -----------------------------------------
DEPT    .FT    : Depth Curve
CALDED  .IN    : CALIPER FROM DENSITY LOG
CALSED  .IN    : CALIPER FROM SONIC LOG [ADJ. TO RESISTIVITY LOG]
CALWS   .IN    : CALIPER [CALSED]
CONDWS  .MMHO  : CONDUCTIVITY [1000/DRESWS]
DCORED  .G/C3  : DENSITY CORRECTION FROM DENSITY LOG
DCORWS  .G/C3  : DENSITY CORRECTION [DCORED]
DENWS   .G/C3  : FORMATION BULK DENSITY [M=2.71 F=1.00] [RHOBED AND SPL. CALC DPHISSED FROM TOP TO 1142']
DPHILSED.V/V   : DENSITY POROSITY LIME [M=2.71 F=1.00] FROM DENSITY LOG [ADJ. TO RHOBED]
DPHISSED.V/V   : DENSITY POROSITY SAND [M=2.65 F=1.00] FROM DENSITY LOG [ADJ. TO RHOBED]
DPOLSWS .V/V   : DENSITY POROSITY [M=2.71 F=1.00] [CALC FROM DENWS]
DRESWS  .OHMM  : DEEP RESISTIVITY [ILDED]
DTED    .US/F  : DELTA-T FROM SONIC LOG [ADJ. TO RESISTIVITY LOG]
DTWS    .US/F  : COMPRESSIONAL SONIC [DTED]
GRDED   .GAPI  : GAMMA RAY FROM DENSITY LOG
GRSED   .GAPI  : GAMMA RAY FROM SONIC LOG [ADJ. TO GRDED]
GRWS    .GAPI  : GAMMA RAY [GRSED]
ILDED   .OHMM  : DEEP INDUCTION FROM RESISTIVITY LOG
ILMED   .OHMM  : MEDIUM INDUCTION FROM RESISTIVITY LOG
LL8ED   .OHMM  : LATEROLOG 8 FROM RESISTIVITY LOG
MRESWS  .OHMM  : MEDIUM RESISTIVITY [ILMED]
NPHILSED.V/V   : NEUTRON POROSITY LIME FROM DENSITY LOG [ADJ. TO RHOBED]
NPHISSED.V/V   : NEUTRON POROSITY SAND FROM DENSITY LOG [ADJ. TO RHOBED]
NPOLSWS .V/V   : NEUTRON POROSITY LIME [SS MATRIX(SLB) CONVERTED TO LIME, SPL. TO NPHILSED @ 2164']
RHOBED  .G/C3  : BULK DENSITY FROM DENSITY LOG
SPRED   .MV    : SPONTANEOUS POTENTIAL FROM RESISTIVITY LOG
SPWS    .MV    : SPONTANEOUS POTENTIAL [BASELINE 0 MV, SPRED]
SRESWS  .OHMM  : SHALLOW RESISTIVITY [LL8ED]
TENDED  .LBF   : TENSION FROM DENSITY LOG
TENSED  .LBF   : TENSION FROM SONIC LOG [ADJ. TO RESISTIVITY LOG]
~Params ----------------------------------------------------
EKB .FT               2889.7 : KELLY BUSHING
EGL .FT               2873.6 : GROUND LEVEL
DATE.               10/25/76 : RUN DATE
RUN .                      1 : RUN NUMBER
DD  .FT                10595 : DEPTH DRILLER
DL  .FT                10593 : DEPTH LOGGER
BLI .FT                10592 : BOTTOM LOG INTERVAL
TLI .FT                 1094 : TOP LOG INTERVAL
CBD .FT               1094.6 : CASING BOTTOM DRILLER
CBL .FT                 1094 : CASING BOTTOM LOGGER
BS  .IN                 8.75 : BIT SIZE
BSD .FT                10595 : BIT SIZE AT DEPTH
DFT .               GEL CHEM : DRILLING FLUID TYPE
DFD .                    9.5 : DRILLING FLUID DENSITY
DFV .                    124 : DRILLING FLUID VISCOSITY
DFPH.                   10.5 : DRILLING FLUID PH
DFL .                     10 : DRILLING FLUID LOSS
RMC .OHMM               2.04 : RESISTIVITY MUD CAKE
MCST.DEGF                 56 : MUD CAKE SAMPLE TEMPERATURE
RMB .OHMM               0.41 : RESISTIVITY MUD AT BHT
TCS .HRS                   5 : TIME CIRCULATED STOPPED
LUN .                   7691 : LOGGING UNIT NUMBER
LUL .                    WCT : LOGGING UNIT LOCATION
ENGI.              CROCKFORD : RECORDING ENGINEER
WITN.        WONG RICHARDSON : WITNESSED BY
CLNT.                A2DTECH : CLIENT CODE
ORIG.            2" 5" PRINT : ORIGIN OF DATA
UWI .       100031305615W500 : UNIQUE WELL ID
DICO. A2D Technologies, Inc. : DIGITIZING COMPANY
~Other -----------------------------------------------------
~ASCII -----------------------------------------------------
# ...
 2350.00000    -999.25   11.23160   11.23160  155.18430    -999.25    -999.25    -999.25    -999.25    -999.25    -999.25    6.46410  107.77410  107.77410    -999.25   89.65860   89.65860    6.46410    5.88830    5.72190    5.88830    -999.25    -999.25    -999.25    -999.25  -33.47940   -3.46830    5.72190    -999.25  938.56800
 2400.00000    -999.25   10.00560   10.00560  246.20840    -999.25    -999.25    -999.25    -999.25    -999.25    -999.25    4.06160   95.96650   95.96650    -999.25   78.37530   78.37530    4.06160    3.54160    3.77070    3.54160    -999.25    -999.25    -999.25    -999.25  -33.15970   -3.14860    3.77070    -999.25 1182.56840
 2450.00000    -999.25   10.51980   10.51980  190.68240    -999.25    -999.25    -999.25    -999.25    -999.25    -999.25    5.24810   92.92770   92.92770    -999.25   80.28270   80.28270    5.24810    5.02010    4.88770    5.02010    -999.25    -999.25    -999.25    -999.25  -33.62050   -3.60940    4.88770    -999.25 1279.60530
 2500.00000    -999.25   10.33490   10.33490  226.98900    -999.25    -999.25    -999.25    -999.25    -999.25    -999.25    4.40550  108.46270  108.46270    -999.25   75.31390   75.31390    4.40550    4.13280    3.79690    4.13280    -999.25    -999.25    -999.25    -999.25  -34.25200   -4.24090    3.79690    -999.25 1453.74620
 2550.00000    -999.25   10.05890   10.05890  169.32790    -999.25    -999.25    -999.25    -999.25    -999.25    -999.25    5.90570   90.53740   90.53740    -999.25   83.52880   83.52880    5.90570    5.02800    5.06740    5.02800    -999.25    -999.25    -999.25    -999.25  -35.72820   -5.71710    5.06740    -999.25 1559.49690
 2600.00000    -999.25   10.45490   10.45490  239.64510    -999.25    -999.25    -999.25    -999.25    -999.25    -999.25    4.17620   95.56340   95.56340    -999.25   71.20010   71.20010    4.17620    3.91310    3.90910    3.91310    -999.25    -999.25    -999.25    -999.25  -33.63800   -3.62690    3.90910    -999.25 2021.33530
 2650.00000    -999.25   10.46770   10.46770  238.59520    -999.25    -999.25    -999.25    -999.25    -999.25    -999.25    4.19120   95.12050   95.12050    -999.25   77.26810   77.26810    4.19120    3.48710    4.12380    3.48710    -999.25    -999.25    -999.25    -999.25  -33.66710   -3.65600    4.12380    -999.25 1811.11570
 2700.00000    -999.25   12.54970   12.54970  261.68800    -999.25    -999.25    -999.25    -999.25    -999.25    -999.25    3.82200  116.15500  116.15500    -999.25   78.07150   78.07150    3.82200    3.15420    3.21610    3.15420    -999.25    -999.25    -999.25    -999.25  -34.01720   -4.00610    3.21610    -999.25 1766.22090
 2750.00000    -999.25   11.53350   11.53350  167.48450    -999.25    -999.25    -999.25    -999.25    -999.25    -999.25    5.97070   91.54950   91.54950    -999.25   77.48500   77.48500    5.97070    5.24270    5.93020    5.24270    -999.25    -999.25    -999.25    -999.25  -32.66140   -2.65030    5.93020    -999.25 1802.06140
 2800.00000    -999.25   10.63980   10.63980  124.49110    -999.25    -999.25    -999.25    -999.25    -999.25    -999.25    8.03270   84.12460   84.12460    -999.25   65.10880   65.10880    8.03270    8.69430    6.63300    8.69430    -999.25    -999.25    -999.25    -999.25  -33.13340   -3.12230    6.63300    -999.25 1758.54570
 2850.00000    -999.25    9.75550    9.75550   83.05420    -999.25    -999.25    -999.25    -999.25    -999.25    -999.25   12.04210   85.57550   85.57550    -999.25   49.93250   49.93250   12.04210   11.23940    9.98290   11.23940    -999.25    -999.25    -999.25    -999.25  -41.62210  -11.61100    9.98290    -999.25 1556.22110
 2900.00000    -999.25    9.86120    9.86120   85.03840    -999.25    -999.25    -999.25    -999.25    -999.25    -999.25   11.75940   86.56940   86.56940    -999.25   64.97640   64.97640   11.75940   10.40790   10.05700   10.40790    -999.25    -999.25    -999.25    -999.25  -39.07490   -9.06380   10.05700    -999.25 1595.74140
 2950.00000    -999.25   10.61870   10.61870  196.73660    -999.25    -999.25    -999.25    -999.25    -999.25    -999.25    5.08400   90.11660   90.11660    -999.25   62.90310   62.90310    5.08400    4.91310    5.74680    4.91310    -999.25    -999.25    -999.25    -999.25  -33.71650   -3.70540    5.74680    -999.25 1701.95200
 3000.00000    -999.25   10.35660   10.35660  110.81680    -999.25    -999.25    -999.25    -999.25    -999.25    -999.25    9.02390   84.06120   84.06120    -999.25   66.47340   66.47340    9.02390    8.52340    7.09760    8.52340    -999.25    -999.25    -999.25    -999.25  -36.37410   -6.36300    7.09760    -999.25 2082.25980
 3050.00000    -999.25   10.47190   10.47190   91.04230    -999.25    -999.25    -999.25    -999.25    -999.25    -999.25   10.98390   82.31240   82.31240    -999.25   66.12400   66.12400   10.98390   10.47320    9.64100   10.47320    -999.25    -999.25    -999.25    -999.25  -36.06810   -6.05700    9.64100    -999.25 1164.43710
 3100.00000    -999.25   11.47580   11.47580  250.50690    -999.25    -999.25    -999.25    -999.25    -999.25    -999.25    3.99450  107.79040  107.79040    -999.25   70.49690   70.49690    3.99450    3.11610    3.63570    3.11610    -999.25    -999.25    -999.25    -999.25  -31.43420   -1.42310    3.63570    -999.25 1424.43930
 3150.00000    -999.25   10.90510   10.90510  213.99530    -999.25    -999.25    -999.25    -999.25    -999.25    -999.25    4.67300   93.43960   93.43960    -999.25   60.62110   60.62110    4.67300    4.30780    6.00460    4.30780    -999.25    -999.25    -999.25    -999.25  -33.09330   -3.08220    6.00460    -999.25 1558.14200
 3200.00000    -999.25   10.97840   10.97840  120.52550    -999.25    -999.25    -999.25    -999.25    -999.25    -999.25    8.29800   84.41690   84.41690    -999.25   48.69530   48.69530    8.29800    7.91120    9.41300    7.91120    -999.25    -999.25    -999.25    -999.25  -33.24520   -3.23410    9.41300    -999.25 1537.57550
 3250.00000    -999.25   10.74090   10.74090  206.81240    -999.25    -999.25    -999.25    -999.25    -999.25    -999.25    4.83530  104.53500  104.53500    -999.25   65.89270   65.89270    4.83530    4.72270    4.35390    4.72270    -999.25    -999.25    -999.25    -999.25  -32.56470   -2.55360    4.35390    -999.25 2148.70340
 3300.00000    -999.25   11.19060   11.19060  194.78750    -999.25    -999.25    -999.25    -999.25    -999.25    -999.25    5.13380  114.60700  114.60700    -999.25   52.46300   52.46300    5.13380    4.54290   10.00210    4.54290    -999.25    -999.25    -999.25    -999.25  -30.75200   -0.74090   10.00210    -999.25 2113.58110
 3350.00000    -999.25   11.66800   11.66800  179.67920    -999.25    -999.25    -999.25    -999.25    -999.25    -999.25    5.56550   92.70700   92.70700    -999.25   59.45180   59.45180    5.56550    4.59030    5.31020    4.59030    -999.25    -999.25    -999.25    -999.25  -32.22520   -2.21410    5.31020    -999.25 1979.05860
 3400.00000    -999.25   11.45160   11.45160   84.32490    -999.25    -999.25    -999.25    -999.25    -999.25    -999.25   11.85890   81.15640   81.15640    -999.25   46.83740   46.83740   11.85890   10.23620   12.12070   10.23620    -999.25    -999.25    -999.25    -999.25  -34.92240   -4.91130   12.12070    -999.25 2325.06900
 3450.00000    -999.25   10.56120   10.56120   42.96600    -999.25    -999.25    -999.25    -999.25    -999.25    -999.25   23.37960   71.68340   71.68340    -999.25   42.18990   42.18990   23.37960   21.57570   27.23270   21.57570    -999.25    -999.25    -999.25    -999.25  -47.78030  -17.76920   27.23270    -999.25 2356.61950
 3500.00000    -999.25   11.63390   11.63390  208.85980    -999.25    -999.25    -999.25    -999.25    -999.25    -999.25    4.78790   91.93310   91.93310    -999.25   62.57940   62.57940    4.78790    4.32890    4.69130    4.32890    -999.25    -999.25    -999.25    -999.25  -32.13330   -2.12220    4.69130    -999.25 1614.64940
 3550.00000    -999.25   11.45110   11.45110  192.86780    -999.25    -999.25    -999.25    -999.25    -999.25    -999.25    5.18490   87.98530   87.98530    -999.25   67.13270   67.13270    5.18490    4.86350    5.44400    4.86350    -999.25    -999.25    -999.25    -999.25  -32.85510   -2.84400    5.44400    -999.25 2048.44410
