~Version ---------------------------------------------------
VERS.      2.0 : CWLS log ASCII Standard -VERSION 2.0
WRAP.       NO : One line per depth step
CREA. 10/01/14 : LAS Creation Date
~Well ------------------------------------------------------
STRT.FT                                  935.9 : START DEPTH
STOP.FT                                 9375.9 : STOP DEPTH
STEP.FT                                0.50000 : STEP LENGTH
NULL.                                  -999.25 : NULL VALUE
COMP. THE BRITISH AMERICAN OIL COMPANY LIMITED : COMPANY
WELL.        B.A. EAST GOOSE RIVER 10-22-66-15 : WELL
FLD .                                          : FIELD
LOC .                                          : LOCATION
CTRY.                                   CANADA : COUNTRY
SRVC.                   Schlumberger of Canada : SERVICE COMPANY
DATE.                              16-Mar-1960 : LOGDATE
PROV.                                  Alberta : PROVINCE
UWI .                         100102206615W500 : UNIQUE WELL ID
SLAT.WGS84                            54.72873 : SURFACE LATITUDE
SLON.WGS84                           -116.1771 : SURFACE LONGITUDE
~Curve Information -----------------------------------------
DEPT.FT      : DEPTH FEET
CILD.MMHO    : CONDUCTIVITY FROM RESISTIVITY LOG
DT  .US/F    : DELTA-T FROM SONIC LOG
GRS .MG/TON  : GAMMA RAY FROM SONIC LOG
ILD .OHMM    : DEEP INDUCTION FROM RESISTIVITY LOG
MCAL.IN      : MLT CALIPER FROM MICRO LOG
SN  .OHMM    : SHORT NORMAL FROM RESISTIVITY LOG
SPR .MV      : SPONTANEOUS POTENTIAL FROM RESISTIVITY LOG
~Params ----------------------------------------------------
LMF .                     KB : LOG MEASURED FROM
DMF .                     KB : DRILLING MEASURED FROM
EKB .FT                 3222 : KELLY BUSHING
EGL .FT                 3205 : GROUND LEVEL
DATE.               03/16/60 : RUN DATE
RUN .                      2 : RUN NUMBER
DD  .FT                 9370 : DEPTH DRILLER
DL  .FT                 9378 : DEPTH LOGGER
BLI .FT                 9373 : BOTTOM LOG INTERVAL
TLI .FT                 5000 : TOP LOG INTERVAL
CBD .FT                  975 : CASING BOTTOM DRILLER
BS  .IN                    9 : BIT SIZE
BSD .FT                 9370 : BIT SIZE AT DEPTH
DFT .                    GEL : DRILLING FLUID TYPE
DFD .                     10 : DRILLING FLUID DENSITY
DFV .                    120 : DRILLING FLUID VISCOSITY
DFPH.                     10 : DRILLING FLUID PH
DFL .                    6.2 : DRILLING FLUID LOSS
RMS .OHMM                2.8 : RESISTIVITY MUD SAMPLE
MST .DEGF                 59 : MUD SAMPLE TEMPERATURE
RMF .OHMM               1.41 : RESISTIVITY MUD FILTRATE SAMPLE
MFST.DEGF                 68 : MUD FILTRATE SAMPLE TEMPERATURE
RMC .OHMM               2.56 : RESISTIVITY MUD CAKE
MCST.DEGF                 67 : MUD CAKE SAMPLE TEMPERATURE
RMB .OHMM               0.94 : RESISTIVITY MUD AT BHT
TCS .HRS                 4.5 : TIME CIRCULATED STOPPED
LUN .                  1573C : LOGGING UNIT NUMBER
LUL .                     WC : LOGGING UNIT LOCATION
ENGI.              HAUSEGGER : RECORDING ENGINEER
WITN.                   COTE : WITNESSED BY
CLNT.                A2DTECH : CLIENT CODE
ORIG.            2" 5" PRINT : ORIGIN OF DATA
UWI .       100102206615W500 : UNIQUE WELL ID
DICO. A2D Technologies, Inc. : DIGITIZING COMPANY
~Other -----------------------------------------------------
~ASCII -----------------------------------------------------
# ...
 3230.90000  159.25270  109.79030    5.74370    6.36800   14.90730    6.69020  -42.25060
 3231.40000  159.08130  109.35520    5.79530    6.35830   15.16980    6.68450  -42.24490
 3231.90000  159.01910  107.46080    5.58030    6.32690   15.88150    6.67190  -42.22780
 3232.40000  159.45490  107.12530    5.44640    6.31600   15.73300    6.67280  -42.22210
 3232.90000  160.41740  107.97500    5.29830    6.28320   14.57180    6.67550  -42.18890
 3233.40000  160.42990  108.09470    5.38070    6.27220   13.95630    6.68660  -42.18220
 3233.90000  159.59470  108.70340    5.26880    6.23950   13.68700    6.72220  -42.16230
 3234.40000  158.80620  109.48030    5.11050    6.28850   13.76140    6.76570  -42.18520
 3234.90000  156.78000  111.91060    4.80350    6.46440   12.95750    6.94560  -42.24780
 3235.40000  155.17460  111.76610    4.76350    6.52960   13.29040    7.01380  -42.28680
 3235.90000  151.97670  110.56180    4.72920    6.72880   14.76260    7.21840  -42.46120
 3236.40000  149.80870  109.77560    4.90310    6.86290   15.67600    7.35480  -42.53460
 3236.90000  145.90620  110.71370    4.94280    6.99690   15.87210    7.49120  -42.74680
 3237.40000  142.61510  110.27630    4.92330    7.13100   15.88260    7.62760  -42.84280
 3237.90000  140.09470  108.31930    4.79140    7.26510   15.89290    7.78160  -42.82660
 3238.40000  137.82760  109.57120    4.91270    7.39920   15.90330    7.95680  -42.61470
 3238.90000  135.35960  111.70390    4.90280    7.55860   15.41510    8.13190  -42.48730
 3239.40000  131.54360  110.98570    4.94770    7.77040   15.87830    8.30710  -42.46370
 3239.90000  126.25000  110.35590    4.88440    7.87620   15.36410    8.39530  -42.44760
 3240.40000  121.62160  107.56990    4.59120    8.19380   10.97840    8.66600  -42.43760
 3240.90000  118.83850  103.79130    4.55110    8.28670   10.90410    8.68090  -42.54430
 3241.40000  117.76270   94.62270    4.78960    8.43610   11.10780    8.67190  -42.68480
 3241.90000  117.54250   93.56330    4.98380    8.46430   11.62440    8.67900  -42.72890
 3242.40000  117.46690   90.99450    5.23670    8.50140   13.02250    8.73890  -42.76590
 3242.90000  117.54550   90.16880    5.07570    8.48240   13.05720    8.76120  -42.76180
 3243.40000  119.07720   92.28550    4.61200    8.34380   14.09390    8.70520  -42.74940
 3243.90000  120.22070   95.48330    4.46110    8.26450   14.64260    8.61180  -42.74530
 3244.40000  125.63710  108.09160    4.11970    8.02650   15.89690    8.33160  -42.73300
 3244.90000  126.93250  108.38650    4.22150    7.94720   15.88660    8.26620  -42.72890
 3245.40000  129.96440  110.30280    4.49030    7.70920   15.71350    8.10620  -42.71650
 3245.90000  130.59750  111.06050    4.48780    7.66400   15.39560    8.06710  -42.71240
 3246.40000  132.30750  109.72750    4.57480    7.55930   15.89010    7.97380  -42.70010
 3246.90000  133.40800  103.37380    4.70810    7.49990   15.88630    7.91960  -42.69190
 3247.40000  134.48530  102.49460    4.94830    7.44040   15.86800    7.86550  -42.68360
 3247.90000  135.71440  103.40780    5.05550    7.38100   15.68720    7.81240  -42.67540
 3248.40000  136.46740  101.97390    4.83090    7.32150   15.89010    7.75990  -42.66720
 3248.90000  136.99400  102.25240    4.68220    7.26210   15.89160    7.70750  -42.65900
 3249.40000  137.88810  106.20720    4.49400    7.20270   15.89550    7.66650  -42.65070
 3249.90000  138.44650  101.56260    4.49380    7.16550   15.89950    7.63120  -42.46480
 3250.40000  139.10840  100.93240    4.51830    7.16600   15.87560    7.61360  -42.36990
 3250.90000  139.89740  103.74320    4.44770    7.16760   15.87890    7.60450  -42.27140
 3251.40000  139.93590  103.74810    4.51080    7.16850   15.87950    7.61680  -42.26960
 3251.90000  139.60360  104.65960    4.67280    7.18810   15.88020    7.66130  -42.26410
 3252.40000  139.72160  105.95230    4.70770    7.19740   15.56570    7.68290  -42.26230
 3252.90000  139.26590  111.01120    4.68550    7.22540   14.91520    7.74750  -42.25680
 3253.40000  139.03050  110.58470    4.72410    7.23470   15.07860    7.75180  -42.25500
 3253.90000  138.18860  107.31560    4.83450    7.22590   15.87450    7.75800  -42.23540
 3254.40000  138.37790  105.94450    4.96230    7.21000   15.79700    7.69600  -42.11590
 3254.90000  139.53290  103.47910    5.27050    7.11720   15.61190    7.50990  -41.83070
 3255.40000  140.42600  102.58930    5.15470    7.06170   15.37020    7.44780  -41.85100
 3255.90000  143.49200  101.11350    4.78780    6.89510   14.60020    7.28710  -41.90790
 3256.40000  144.45860  100.85410    4.76670    6.83960   14.51780    7.28800  -41.95600
 3256.90000  147.32150  100.69320    5.01760    6.68520   14.97800    7.32870  -42.12840
 3257.40000  147.81700  100.98250    5.26300    6.74460   15.20800    7.40810  -42.22420
 3257.90000  147.60810  100.31030    5.33310    6.80400   14.33330    7.48750  -42.22050
 3258.40000  147.23460   98.33370    5.46020    6.84220   14.76250    7.56070  -42.21690
 3258.90000  146.81530   97.21320    5.62730    6.86510   15.05730    7.52820  -42.21330
 3259.40000  146.27970   97.52710    5.64580    6.88790   14.91770    7.47230  -42.20970
 3259.90000  146.07770  100.00840    5.43480    6.89740   14.52570    7.38900  -41.98500
 3260.40000  146.23750  102.55720    5.55750    6.86750   13.59640    7.30580  -41.35310
 3260.90000  146.63190  102.50110    5.55470    6.85260   13.44820    7.26420  -41.28500
 3261.40000  147.08000  100.80810    5.68610    6.80790   12.58810    7.19540  -41.29350
 3261.90000  147.68330  100.77860    5.77060    6.79290   12.61580    7.19590  -41.28910
 3262.40000  148.44070  101.94070    5.80580    6.74820   13.90180    7.21900  -41.27580
 3262.90000  148.77130  102.19330    5.72750    6.73330   14.16790    7.23260  -41.23700
 3263.40000  149.61840  100.77610    5.23380    6.68850   14.44520    7.27330  -41.26010
 3263.90000  149.83690  100.74830    5.12040    6.67360   14.55080    7.28690  -41.26180
 3264.40000  151.37440  101.72320    4.88010    6.62890   14.86290    7.30730  -41.26880
 3264.90000  151.62580  102.04310    4.90120    6.62800   14.42260    7.30780  -41.25730
 3265.40000  151.07440  102.84510    4.98340    6.63390   13.24180    7.30910  -41.32410
 3265.90000  149.69000  103.73930    4.97300    6.63730   12.85890    7.30680  -41.57200
 3266.40000  146.66100  104.13700    4.87090    6.64760   12.30620    7.28140  -42.16930
 3266.90000  146.22210  100.07470    4.85620    6.65100   12.54490    7.26970  -42.26370
 3267.40000  146.05830   92.40130    4.92210    6.66120   14.22990    7.22910  -42.50790
 3267.90000  148.04880   98.58430    5.28200    6.66810   15.22810    7.20000  -42.50480
 3268.40000  149.24550  103.28630    5.44740    6.67490   15.73340    7.17100  -42.50170
 3268.90000  149.61440  102.45660    5.35660    6.68170   15.88920    7.14190  -42.49860
 3269.40000  149.97310  104.90070    5.43720    6.68850   15.89600    7.11290  -42.49550
 3269.90000  150.40810  115.13160    5.34540    6.69540   14.80430    7.08390  -42.49240
 3270.40000  150.74910  123.46720    5.24220    6.70220   14.58340    7.05480  -42.48930
 3270.90000  150.25530  121.92300    5.27000    6.70380   14.15340    7.08980  -42.48610
 3271.40000  150.21190  119.55200    5.25920    6.70160   14.30650    7.11060  -42.48450
 3271.90000  149.75750  111.27970    4.96280    6.69480   14.37280    7.17310  -42.47990
 3272.40000  150.35820  109.37640    4.80370    6.69250   14.57660    7.19390  -42.47830
 3272.90000  150.90990  101.73860    4.76710    6.68580   15.58230    7.19200  -42.47370
 3273.40000  151.14420  100.82150    4.88900    6.68360   15.58910    7.18020  -42.47210
 3273.90000  151.80050  100.71060    5.19450    6.67680   15.09370    7.14460  -42.45510
 3274.40000  152.03610  101.86290    5.26770    6.67450   14.82750    7.13280  -42.45020
 3274.90000  152.42810  106.53350    5.37790    6.66780   15.44200    7.09730  -42.23340
 3275.40000  152.43560  106.89570    5.33430    6.66550   15.19990    7.08540  -42.18770
