~Version ---------------------------------------------------
VERS.      2.0 : CWLS log ASCII Standard -VERSION 2.0
WRAP.       NO : One line per depth step
CREA. 12/29/17 : LAS Creation Date
~Well ------------------------------------------------------
STRT.FT                            300.0 : START DEPTH
STOP.FT                          10550.0 : STOP DEPTH
STEP.FT                         50.00000 : STEP LENGTH
NULL.                            -999.25 : NULL VALUE
COMP.      HUDSON'S BAY OIL & GAS CO LTD : COMPANY
WELL. HB PAN AM FINA KAYBOBS 10-29-59-18 : WELL
FLD .                                    : FIELD
LOC .                                    : LOCATION
CTRY.                             CANADA : COUNTRY
SRVC.                      Dresser Atlas : SERVICE COMPANY
DATE.                        20-Nov-1968 : LOGDATE
PROV.                            Alberta : PROVINCE
UWI .                   100102905918W500 : UNIQUE WELL ID
SLAT.WGS84                      54.13226 : SURFACE LATITUDE
SLON.WGS84                     -116.6597 : SURFACE LONGITUDE
~Curve Information -----------------------------------------
DEPT  .FT    : Depth Curve
ACED  .US/F  : DELTA TIME (ACOUSTIC) FROM SONIC LOG [ADJ TO ILDED]
CALWS .IN    : CALIPER [MCALED]
CILDED.MMHO  : CONDUCTIVITY FROM RESISTIVITY LOG
CONDWS.MMHO  : CONDUCTIVITY [1000/DRESWS]
DRESWS.OHMM  : DEEP RESISTIVITY [ILDED] IF ILDED<2;1000/CILDED;ELSE ILDED
DTWS  .US/F  : DELTA TIME [ACED]
GRED  .GAPI  : GAMMA RAY FROM GR LOG [ADJ TO GRSED]
GRSED .GAPI  : GAMMA RAY FROM SONIC LOG [ADJ TO ILDED]
GRWS  .GAPI  : GAMMA RAY [SPL GRD3ED <1112'> GRSED]
ILDED .OHMM  : INDUCTION LOG DEEP RESISTIVITY
ILMED .OHMM  : INDUCTION LOG MEDIUM RESISTIVITY
MCALED.IN    : CALIPER MICROLOG
MRESWS.OHMM  : MEDIUM RESISTIVITY [ILMED]
SFLED .OHMM  : SPHERICALLY FOCUSED LOG RESISTIVITY
SPRED .MV    : SPONTANEOUS POTENTIAL FROM RESISTIVITY LOG
SPWS  .MV    : SPONTANEOUS POTENTIAL [BASELINE 0 MV] [SPRED]
SRESWS.OHMM  : SHALLOW RESISTIVITY [SFLED]
~Params ----------------------------------------------------
PD  .                     GL : PERMANENT DATUM
EPD .FT               2683.7 : ELEVATION PERMANENT DATUM
LMF .                     KB : LOG MEASURED FROM
DAPD.FT                 13.3 : FEET ABOVE PERMANENT DATUM
DMF .                     KB : DRILLING MEASURED FROM
EKB .FT               2697.0 : KELLY BUSHING
EGL .FT               2683.7 : GROUND LEVEL
DATE.               11/20/68 : RUN DATE
RUN .                      1 : RUN NUMBER
DD  .FT                10598 : DEPTH DRILLER
DL  .FT                10592 : DEPTH LOGGER
BLI .FT                10588 : BOTTOM LOG INTERVAL
TLI .FT                 1145 : TOP LOG INTERVAL
CS  .IN                9.625 : CASING SIZE
CBD .FT                 1145 : CASING BOTTOM DRILLER
CBL .FT                 1145 : CASING BOTTOM LOGGER
BS  .IN                7.875 : BIT SIZE
BSD .FT                10598 : BIT SIZE AT DEPTH
DFT .                MUD GEL : DRILLING FLUID TYPE
DFD .                    9.7 : DRILLING FLUID DENSITY
DFV .                     68 : DRILLING FLUID VISCOSITY
DFPH.                   10.5 : DRILLING FLUID PH
DFL .                    9.8 : DRILLING FLUID LOSS
MSS .                   CIRC : MUD SAMPLE SOURCE
RMS .OHMM                2.2 : RESISTIVITY MUD SAMPLE
MST .DEGF                 55 : MUD SAMPLE TEMPERATURE
RMF .OHMM                1.9 : RESISTIVITY MUD FILTRATE SAMPLE
MFST.DEGF                 55 : MUD FILTRATE SAMPLE TEMPERATURE
RMC .OHMM                1.4 : RESISTIVITY MUD CAKE
MCST.DEGF                 55 : MUD CAKE SAMPLE TEMPERATURE
MFSS.                   MEAS : MUD FILTRATE SAMPLE SOURCE
MCSS.                   MEAS : MUD CAKE SAMPLE SOURCE
RMB .OHMM               0.51 : RESISTIVITY MUD AT BHT
TCS .HRS                 4.5 : TIME CIRCULATED STOPPED
LUN .                   6002 : LOGGING UNIT NUMBER
LUL .                    V V : LOGGING UNIT LOCATION
ENGI.              KOWALCHUK : RECORDING ENGINEER
WITN.                 HARRIS : WITNESSED BY
CLNT.                A2DTECH : CLIENT CODE
ORIG.            2" 5" PRINT : ORIGIN OF DATA
UWI .       100102905918W500 : UNIQUE WELL ID
DICO. A2D Technologies, Inc. : DIGITIZING COMPANY
~Other -----------------------------------------------------
IE-DIL-ML-SONIC LOGS RUN
RHOBED CURVE DATA FROM 2" SCALE
MCALED CURVE TOP-5380' FROM 2" SCALE
IE LOG ALL CURVES TOP-5300' FROM 2" SCALE
SONIC LOG ALL CURVES TOP-5300' FROM 2" SCALE
~ASCII -----------------------------------------------------
# ...
 8500.00000   55.29950   14.59090    9.10960   13.52390   73.94340   55.29950   29.38360   17.51010   17.51010   73.94340    -999.25   14.59090    -999.25   68.05870 -145.96050 -123.34820   68.05870
 8550.00000   53.95610   14.98030    7.10830   13.36610   74.81610   53.95610   28.44560   18.84360   18.84360   74.81610    -999.25   14.98030    -999.25   87.51390 -157.04930 -135.07630   87.51390
 8600.00000   53.86710   15.47910    7.38030   13.51120   74.01250   53.86710   21.91830   16.61390   16.61390   74.01250    -999.25   15.47910    -999.25   77.69360 -152.25220 -130.91840   77.69360
 8650.00000   52.02710   15.90090   15.93050   18.93340   52.81680   52.02710   26.53990   21.96410   21.96410   52.81680    -999.25   15.90090    -999.25   90.86000 -143.60490 -122.91030   90.86000
 8700.00000   53.00650   15.91660    2.22550    4.50980  221.73790   53.00650   39.55580   24.09450   24.09450  221.73790    -999.25   15.91660    -999.25   75.24990 -141.61210 -121.55990   75.24990
 8750.00000   53.05730   15.95710    9.08620   14.07260   71.06030   53.05730   29.61760   20.90200   20.90200   71.06030    -999.25   15.95710    -999.25   83.84950 -144.17300 -124.75690   83.84950
 8800.00000   52.08140   14.97270    8.52410   14.28150   70.02090   52.08140   28.84910   19.75140   19.75140   70.02090    -999.25   14.97270    -999.25   74.52870 -147.30900 -128.53210   74.52870
 8850.00000   53.78660   14.72760    7.93360    7.05630  141.71750   53.78660   32.44070   22.34430   22.34430  141.71750    -999.25   14.72760    -999.25   72.56610 -152.32450 -134.18680   72.56610
 8900.00000   49.41690    9.43570    6.23930    6.31540  158.34430   49.41690    -999.25   22.59770   22.59770  158.34430    -999.25    9.43570    -999.25  101.39030 -146.45090 -128.95250  101.39030
 8950.00000   60.22000   11.74640   75.35040   78.53580   12.73310   60.22000    -999.25  101.15030  101.15030   12.73310    -999.25   11.74640    -999.25   14.80110  -77.36000  -60.50400   14.80110
 9000.00000   56.59360   11.21540   29.23900   27.79440   35.97850   56.59360    -999.25   25.85660   25.85660   35.97850    -999.25   11.21540    -999.25   58.42290 -139.71590 -123.49590   58.42290
 9050.00000   54.14160   10.38470    9.83560    9.03220  110.71490   54.14160    -999.25   36.51750   36.51750  110.71490    -999.25   10.38470    -999.25   79.64470 -131.98700 -116.40630   79.64470
 9100.00000   52.22140   12.57990    9.66700    7.82220  127.84190   52.22140    -999.25   27.93200   27.93200  127.84190    -999.25   12.57990    -999.25   99.20570 -101.65380  -86.71230   99.20570
 9150.00000   51.92900    9.01870   12.03120   12.73310   78.53530   51.92900    -999.25   33.52600   33.52600   78.53530    -999.25    9.01870    -999.25   86.95730  -65.96260  -51.66030   86.95730
 9200.00000   54.89330    9.06050   13.75340   16.14370   61.94350   54.89330    -999.25   44.89510   44.89510   61.94350    -999.25    9.06050    -999.25   71.12140  -41.47530  -27.81550   71.12140
 9250.00000   53.90860   10.34210   12.67090   13.87610   72.06650   53.90860    -999.25   29.82780   29.82780   72.06650    -999.25   10.34210    -999.25   79.09960  -53.39530  -40.37150   79.09960
 9300.00000   54.78480    8.77920   15.37570   15.78430   63.35410   54.78480    -999.25   40.10060   40.10060   63.35410    -999.25    8.77920    -999.25   67.93850  -41.79700  -29.41240   67.93850
 9350.00000   56.01590    8.40930   15.27340   16.04320   62.33180   56.01590    -999.25   43.98990   43.98990   62.33180    -999.25    8.40930    -999.25   64.49150  -39.25250  -27.50710   64.49150
 9400.00000   54.84890    8.41750   18.08290   18.55210   53.90220   54.84890    -999.25   37.56420   37.56420   53.90220    -999.25    8.41750    -999.25   59.44290  -46.99840  -35.89230   59.44290
 9450.00000   59.64370    8.43090   32.97450   34.41130   29.06020   59.64370    -999.25   56.50810   56.50810   29.06020    -999.25    8.43090    -999.25   29.82170  -37.95380  -27.49000   29.82170
 9500.00000   70.93620   13.49610   78.09890   85.37960   11.71240   70.93620    -999.25   75.91820   75.91820   11.71240    -999.25   13.49610    -999.25   11.34000  -37.71450  -27.88680   11.34000
 9550.00000   65.98850    8.90000   55.59690   60.34930   16.57020   65.98850    -999.25   76.54040   76.54040   16.57020    -999.25    8.90000    -999.25   15.96580  -32.59080  -23.40240   15.96580
 9600.00000   63.71790    8.41270   35.13540   39.16590   25.53240   63.71790    -999.25   78.81680   78.81680   25.53240    -999.25    8.41270    -999.25   23.16180  -32.36010  -23.81090   23.16180
 9650.00000   79.90060   10.28060   56.96580   64.56990   15.48710   79.90060    -999.25   83.07680   83.07680   15.48710    -999.25   10.28060    -999.25   19.96270  -45.50340  -37.59340   19.96270
 9700.00000   84.99810    9.87800  115.25700  114.65190    8.72200   84.99810    -999.25   99.84410   99.84410    8.72200    -999.25    9.87800    -999.25    8.15560  -52.76640  -45.49880    8.15560
 9750.00000   73.18560   12.94840   80.33930   89.39750   11.18600   73.18560    -999.25   90.86410   90.86410   11.18600    -999.25   12.94840    -999.25   10.27070  -44.95540  -38.32390   10.27070
 9800.00000   64.34930    8.23830   32.50630   36.97310   27.04670   64.34930    -999.25   80.94000   80.94000   27.04670    -999.25    8.23830    -999.25   27.71960  -36.38130  -30.38900   27.71960
 9850.00000   70.15730    8.57680   49.70330   56.35520   17.74460   70.15730    -999.25   96.97280   96.97280   17.74460    -999.25    8.57680    -999.25   18.57190  -34.80260  -29.44950   18.57190
 9900.00000   65.28920    8.41530   41.75470   46.65700   21.43300   65.28920    -999.25   95.50840   95.50840   21.43300    -999.25    8.41530    -999.25   22.11650  -40.09400  -35.38020   22.11650
 9950.00000   73.11430    9.09530   61.53720   68.32160   14.63660   73.11430    -999.25  112.67660  112.67660   14.63660    -999.25    9.09530    -999.25   15.18370  -29.11710  -25.04570   15.18370
 10000.00000   71.85730   12.31880   74.92360   80.79630   12.37680   71.85730    -999.25  107.77480  107.77480   12.37680    -999.25   12.31880    -999.25   13.15530  -38.94490  -35.50950   13.15530
 10050.00000   74.44170   10.29160    -999.25   38.16310   26.20330   74.44170    -999.25  109.83390  109.83390   26.20330   28.08240   10.29160   28.08240   60.51760  -39.97640  -37.18030   60.51760
 10100.00000   78.17530    8.02180    -999.25    5.98030  167.21550   78.17530    -999.25  153.60560  153.60560  167.21550  287.94300    8.02180  287.94300 1182.36940  -30.87390  -28.71700 1182.36940
 10150.00000   79.57920    7.87610    -999.25    4.95070  201.99130   79.57920    -999.25  203.93390  203.93390  201.99130  291.77040    7.87610  291.77040 1606.90980  -53.18380  -51.66610 1606.90980
 10200.00000   78.52780    8.07540    -999.25    4.61290  216.78340   78.52780    -999.25  182.38300  182.38300  216.78340  264.17050    8.07540  264.17050 1586.13990  -49.88840  -49.01320 1586.13990
 10250.00000   84.12630    7.96880    -999.25    5.86350  170.54790   84.12630    -999.25  152.29520  152.29520  170.54790  241.46540    7.96880  241.46540  941.41660  -12.09400  -11.85480  941.41660
 10300.00000   52.08040    9.67530    -999.25    4.96660  201.34300   52.08040    -999.25   26.32790   26.32790  201.34300  443.36090    9.67530  443.36090 1469.86710  -40.85770  -41.01480 1469.86710
 10350.00000   52.12810    9.01530    -999.25    4.59590  217.58290   52.12810    -999.25   19.91140   19.91140  217.58290  316.38630    9.01530  316.38630 1676.55640  -86.96110  -87.11820 1676.55640
 10400.00000   50.99980    7.29690    -999.25    4.69320  213.07600   50.99980    -999.25   17.67970   17.67970  213.07600  394.46790    7.29690  394.46790 1487.77040 -108.75870 -108.91580 1487.77040
 10450.00000   52.63660    7.12680    -999.25    6.64160  150.56610   52.63660    -999.25   29.29750   29.29750  150.56610  258.74560    7.12680  258.74560  501.88340 -129.26670 -129.42370  501.88340
 10500.00000   53.24140    6.09860    -999.25    5.99390  166.83670   53.24140    -999.25   22.15830   22.15830  166.83670  276.63120    6.09860  276.63120  675.03590 -151.59430 -151.75140  675.03590
