~Version ---------------------------------------------------
VERS.      2.0 : CWLS log ASCII Standard -VERSION 2.0
WRAP.       NO : One line per depth step
CREA. 10/26/17 : LAS Creation Date
~Well ------------------------------------------------------
STRT.FT                              850.0 : START DEPTH
STOP.FT                             9300.0 : STOP DEPTH
STEP.FT                           50.00000 : STEP LENGTH
NULL.                              -999.25 : NULL VALUE
COMP.        CANADIAN EXPORT OIL & GAS LTD : COMPANY
WELL. CEGO CAN OXY CAEL SUNSET 12-25-69-19 : WELL
FLD .                                      : FIELD
LOC .                                      : LOCATION
CTRY.                               CANADA : COUNTRY
SRVC.                         Schlumberger : SERVICE COMPANY
DATE.                          23-Mar-1973 : LOGDATE
PROV.                              Alberta : PROVINCE
UWI .                     100122506919W500 : UNIQUE WELL ID
SLAT.WGS84                        55.00549 : SURFACE LATITUDE
SLON.WGS84                       -116.7667 : SURFACE LONGITUDE
~Curve Information -----------------------------------------
DEPT  .FT    : Depth Curve
CALSED.IN    : CALIPER FROM SONIC LOG
CALWS .IN    : CALIPER [CALSED]
CILDED.MMHO  : CONDUCTIVITY FROM RESISTIVITY LOG
CONDWS.MMHO  : CONDUCTIVITY [1000/DRESWS]
DRESWS.OHMM  : DEEP RESISTIVITY [1000/CILDED IF ILDED <=4.5, ILDED]
DTED  .US/F  : DELTA-T FROM SONIC LOG
DTWS  .US/F  : COMPRESSIONAL SONIC [DTED]
GRSED .GAPI  : GAMMA RAY FROM SONIC LOG
GRWS  .GAPI  : GAMMA RAY [GRSED]
ILDED .OHMM  : DEEP INDUCTION RESISTIVITY FROM RESISTIVITY LOG
SNED  .OHMM  : 16 INCH SHORT NORMAL FROM RESISTIVITY LOG
SPRED .MV    : SPONTANEOUS POTENTIAL FROM RESISTIVITY LOG
SPWS  .MV    : SPONTANEOUS POTENTIAL [BASELINE 0 MV, SPRED]
SRESWS.OHMM  : SHALLOW RESISTIVITY [SNED]
~Params ----------------------------------------------------
PD  .                     GL : PERMANENT DATUM
EPD .FT                 2705 : ELEVATION PERMANENT DATUM
LMF .                     KB : LOG MEASURED FROM
DAPD.FT                   14 : FEET ABOVE PERMANENT DATUM
EKB .FT                 2719 : KELLY BUSHING
EGL .FT                 2705 : GROUND LEVEL
DATE.               03/23/73 : RUN DATE
RUN .                      1 : RUN NUMBER
DD  .FT                 9320 : DEPTH DRILLER
DL  .FT                 9318 : DEPTH LOGGER
BLI .FT                 9317 : BOTTOM LOG INTERVAL
TLI .FT                  940 : TOP LOG INTERVAL
CS  .IN                8.625 : CASING SIZE
CBD .FT                  940 : CASING BOTTOM DRILLER
BS  .IN                7.875 : BIT SIZE
BSD .FT                 9320 : BIT SIZE AT DEPTH
DFT .              GEL BENEX : DRILLING FLUID TYPE
DFD .                    9.3 : DRILLING FLUID DENSITY
DFV .                     85 : DRILLING FLUID VISCOSITY
DFPH.                     10 : DRILLING FLUID PH
DFL .                      8 : DRILLING FLUID LOSS
RMS .OHMM               1.99 : RESISTIVITY MUD SAMPLE
MST .DEGF                 71 : MUD SAMPLE TEMPERATURE
RMF .OHMM               1.58 : RESISTIVITY MUD FILTRATE SAMPLE
MFST.DEGF                 71 : MUD FILTRATE SAMPLE TEMPERATURE
RMB .OHMM               0.85 : RESISTIVITY MUD AT BHT
TCS .HRS                 3.5 : TIME CIRCULATED STOPPED
LUN .                   7635 : LOGGING UNIT NUMBER
ENGI.                 GORDON : RECORDING ENGINEER
WITN.                  BAHAN : WITNESSED BY
CLNT.                A2DTECH : CLIENT CODE
ORIG.            2" 5" PRINT : ORIGIN OF DATA
UWI .       100122506919W500 : UNIQUE WELL ID
DICO. A2D Technologies, Inc. : DIGITIZING COMPANY
~Other -----------------------------------------------------
IEL-BCS LOG RUN
DATA FROM TOP-4500' FROM 2" LOG
~ASCII -----------------------------------------------------
  850.00000    -999.25    -999.25    -999.25    -999.25    -999.25    -999.25    -999.25   48.69440   48.69440    -999.25    -999.25    -999.25    -999.25    -999.25
  900.00000    -999.25    -999.25    -999.25    -999.25    -999.25    -999.25    -999.25   47.08710   47.08710    -999.25    -999.25    -999.25    -999.25    -999.25
  950.00000    8.08320    8.08320  284.16120  303.11300    3.29910  138.44220  138.44220   75.19540   75.19540    3.29910    0.92620 -105.16680   -6.35960    0.92620
 1000.00000    8.13540    8.13540  259.15350  273.45570    3.65690  131.40850  131.40850   68.71310   68.71310    3.65690    0.69520 -106.26840   -7.46120    0.69520
 1050.00000    8.00570    8.00570   93.60130   87.59790   11.41580  115.89300  115.89300   60.63380   60.63380   11.41580    7.52730 -118.46080  -19.68910    7.52730
 1100.00000    8.99900    8.99900  182.48970  172.12890    5.80960  123.65840  123.65840   63.96800   63.96800    5.80960    1.69140 -105.03380   -6.46370    1.69140
 1150.00000    8.31160    8.31160  229.27860  229.27890    4.36150  122.85810  122.85810   72.47020   72.47020    4.36200    0.94540 -103.95970   -5.58980    0.94540
 1200.00000    8.39680    8.39680  193.96270  193.59210    5.16550  116.94130  116.94130   65.04650   65.04650    5.16550    2.40110 -102.15240   -3.98410    2.40110
 1250.00000    8.08220    8.08220  191.36400  191.32530    5.22670  125.03790  125.03790   66.07690   66.07690    5.22670    2.54640 -103.36370   -5.39560    2.54640
 1300.00000    8.55590    8.55590  125.14120  116.72150    8.56740   79.62270   79.62270   56.20330   56.20330    8.56740    4.56570 -103.97460   -6.20570    4.56570
 1350.00000    8.64790    8.64790  289.70790  289.70390    3.45180  121.62100  121.62100   56.42820   56.42820    3.33720    1.80780 -105.52060   -7.80490    1.80780
 1400.00000    8.72160    8.72160  271.38020  271.37780    3.68490  129.55440  129.55440   62.64140   62.64140    3.68320    1.40590 -102.83020   -4.88780    1.40590
 1450.00000    8.72860    8.72860  308.75770  308.55630    3.24090  124.41050  124.41050   65.82920   65.82920    3.24640    1.45940 -100.63990   -2.46940    1.45940
 1500.00000    8.66970    8.66970  113.68410  108.68970    9.20050  111.83810  111.83810   61.76800   61.76800    9.20050    4.10290 -104.96770   -6.57060    4.10290
 1550.00000    8.29670    8.29670  101.39340  106.06250    9.42840  114.13940  114.13940   47.63710   47.63710    9.42840    6.93060 -116.37290  -17.74910    6.93060
 1600.00000    8.56390    8.56390  229.13330  229.13180    4.36430  113.24110  113.24110   48.97940   48.97940    4.36200    1.95690 -102.32470   -3.47280    1.95690
 1650.00000    8.05970    8.05970  272.17350  272.17550    3.67410  125.44830  125.44830   60.79770   60.79770    3.68060    1.45590 -103.01170   -3.92400    1.45590
 1700.00000    8.10180    8.10180  237.62020  237.57480    4.20920  113.10300  113.10300   72.95680   72.95680    4.12640    2.10380 -106.90560   -7.55580    2.10380
 1750.00000    7.85940    7.85940  247.64350  238.46430    4.19350  120.74760  120.74760   64.24290   64.24290    4.19350    2.05170 -110.82700  -11.21680    2.05170
 1800.00000    8.18050    8.18050  233.19100  233.19260    4.28830  110.69310  110.69310   63.99450   63.99450    4.35680    2.20370 -105.33140   -5.46090    2.20370
 1850.00000    8.65630    8.65630  274.57940  274.58190    3.64190  118.81490  118.81490   67.95140   67.95140    3.64430    1.61860 -105.55500   -5.42240    1.61860
 1900.00000    8.55390    8.55390  268.77670  268.77390    3.72060  116.48120  116.48120   69.76250   69.76250    3.71480    1.52230 -105.73160   -5.33860    1.52230
 1950.00000    9.97140    9.97140  177.49230  177.51270    5.63340  111.25190  111.25190   89.57640   89.57640    5.63340    3.64790 -109.58290   -8.92780    3.64790
 2000.00000    8.81960    8.81960  162.66520  162.55400    6.15180  102.95170  102.95170   92.16500   92.16500    6.15180    3.86870 -113.90360  -12.98810    3.86870
 2050.00000    8.64830    8.64830  183.17500  183.38870    5.45290  117.77260  117.77260  116.85480  116.85480    5.45290    3.47020 -113.63830  -12.46240    3.47020
 2100.00000    8.04170    8.04170  188.26950  191.02560    5.23490  118.95050  118.95050  149.30190  149.30190    5.23490    3.98730 -103.84970   -2.41170    3.98730
 2150.00000    8.40110    8.40110  190.23280  187.42390    5.33550  113.52380  113.52380  175.93170  175.93170    5.33550    4.01930 -105.21520   -3.58140    4.01930
 2200.00000    7.94080    7.94080  207.92930  207.93050    4.80930  114.68720  114.68720  131.91570  131.91570    4.81280    2.58390 -109.84530   -8.22600    2.58390
 2250.00000    8.18220    8.18220  153.62330  153.48720    6.51520  103.61100  103.61100   98.05690   98.05690    6.51520    3.26270 -113.55350  -11.94920    3.26270
 2300.00000    8.26450    8.26450  162.32400  162.19280    6.16550  110.34160  110.34160  120.11140  120.11140    6.16550    3.43760 -113.77380  -12.18440    3.43760
 2350.00000    8.02070    8.02070  148.65200  148.83610    6.71880  104.51430  104.51430  115.11640  115.11640    6.71880    3.12310 -115.70250  -14.12810    3.12310
 2400.00000    8.04500    8.04500  138.42640  138.44660    7.22300  101.95980  101.95980  104.77160  104.77160    7.22300    3.55200 -114.35260  -12.79310    3.55200
 2450.00000    8.35540    8.35540  183.26090  182.99940    5.46450  109.90450  109.90450  117.59030  117.59030    5.46450    2.50630 -115.89280  -14.34840    2.50630
 2500.00000    8.22680    8.22680  116.39790  112.73070    8.87070   98.27140   98.27140  108.68650  108.68650    8.87070    5.21540 -112.75930  -11.22980    5.21540
 2550.00000    8.46670    8.46670  153.11920  153.18860    6.52790   88.21200   88.21200  110.04870  110.04870    6.52790    3.47480 -112.85560  -11.34100    3.47480
 2600.00000    7.87560    7.87560  141.79290  141.82180    7.05110   98.23480   98.23480  110.99790  110.99790    7.05110    3.48850 -112.74960  -11.25010    3.48850
 2650.00000    7.89350    7.89350  187.40180  191.52320    5.22130  106.26070  106.26070  112.61340  112.61340    5.22130    2.72070 -110.58830   -9.10370    2.72070
 2700.00000    8.13740    8.13740  187.13130  186.20930    5.37030  109.87990  109.87990  116.23050  116.23050    5.37030    2.96500 -109.32220   -7.85260    2.96500
 2750.00000    9.27670    9.27670  175.10390  172.56260    5.79500  110.95920  110.95920  126.24490  126.24490    5.79500    3.63130 -104.70670   -3.25200    3.63130
 2800.00000    8.89340    8.89340  171.53520  171.49420    5.83110  112.19750  112.19750  131.68710  131.68710    5.83110    3.99680 -104.24150   -2.80180    3.99680
 2850.00000    8.49860    8.49860  142.31500  142.26370    7.02920  106.30750  106.30750  143.62260  143.62260    7.02920    5.52020 -106.87460   -5.44990    5.52020
 2900.00000    8.49250    8.49250  140.77550  146.70930    6.81620  102.41500  102.41500  148.06830  148.06830    6.81620    7.80020 -106.21300   -4.80320    7.80020
 2950.00000    8.33410    8.33410  232.33370  232.27720    4.30520  110.03640  110.03640  108.66540  108.66540    4.29950    2.66550 -110.36550   -9.94760    2.66550
 3000.00000    8.38970    8.38970  175.31290  170.60770    5.86140   93.93850   93.93850  100.09470  100.09470    5.86140    7.23910 -120.07310  -21.00780    7.23910
 3050.00000    8.55400    8.55400  220.37730  220.37600    4.53770  104.01730  104.01730  113.35360  113.35360    4.51170    2.82180 -100.82280   -3.11010    2.82180
 3100.00000    8.27370    8.27370  211.55580  211.55510    4.72690   98.22350   98.22350  104.33760  104.33760    4.72740    3.21680 -101.60070   -5.24940    3.21680
 3150.00000    9.12210    9.12210  223.83900  223.83880    4.46750  101.73640  101.73640  108.32190  108.32190    4.46490    2.85680  -99.82070   -4.82200    2.85680
 3200.00000    8.51080    8.51080  278.31530  278.31120    3.59310  100.59480  100.59480   98.10730   98.10730    3.59560    2.06650  -98.94330   -4.41860    2.06650
 3250.00000    9.19950    9.19950  175.56390  175.38940    5.70160   95.30670   95.30670  101.94240  101.94240    5.70160    3.95330 -102.53770   -8.21330    3.95330
