~Version ---------------------------------------------------
VERS.      2.0 : CWLS log ASCII Standard -VERSION 2.0
WRAP.       NO : One line per depth step
CREA. 11/13/17 : LAS Creation Date
~Well ------------------------------------------------------
STRT.FT                                  800.0 : START DEPTH
STOP.FT                                11750.0 : STOP DEPTH
STEP.FT                               50.00000 : STEP LENGTH
NULL.                                  -999.25 : NULL VALUE
COMP.               THE CALIFORNIA STANDARD CO : COMPANY
WELL. CALSTAN PAN AM WASKAHIGAN 12-1-64-24 #12 : WELL
FLD .                                          : FIELD
LOC .                                          : LOCATION
CTRY.                                   CANADA : COUNTRY
SRVC.                             Schlumberger : SERVICE COMPANY
DATE.                              23-Oct-1961 : LOGDATE
PROV.                                  Alberta : PROVINCE
UWI .                         100120106424W500 : UNIQUE WELL ID
SLAT.WGS84                            54.51049 : SURFACE LATITUDE
SLON.WGS84                            -117.501 : SURFACE LONGITUDE
~Curve Information -----------------------------------------
DEPT  .FT         : Depth Curve
CALWS .IN         : CALIPER [MCALED]
CILDED.MMHO       : CONDUCTIVITY FROM RESISTIVITY LOG
CONDWS.MMHO       : CONDUCTIVITY [1000/DRESWS]
DRESWS.OHMM       : DEEP RESISTIVITY [1000/CONDWS, IF ILDED<1, ILDED]
DT1ED .US/F       : DELTA TIME (1' SPACING) FROM SONIC LOG [ADJ. TO GRSED]
DTED  .US/F       : COMPRESSIONAL SONIC (3' SPACING) FROM SONIC LOG
DTWS  .US/F       : COMPRESSIONAL SONIC [DTED]
GRS1ED.UgRa-Eq/T  : GAMMA RAY FROM SONIC LOG [ADJ. TO GRSED]
GRSED .UgRa-Eq/T  : GAMMA RAY FROM SONIC LOG
GRWS  .GAPI       : GAMMA RAY [GRSED] [GRWS*16.50]
ILDED .OHMM       : DEEP INDUCTION RESISTIVITY FROM RESISTIVITY LOG
MCALED.IN         : CALIPER FROM RESISTIVITYLOG
SNED  .OHMM       : SHORT NORMAL RESISTIVITY FROMRESISTIVITY LOG
SPRED .MV         : SPONTANEOUS POTENTIAL FROM RESISTIVITY LOG
SPWS  .MV         : SPONTANEOUS POTENTIAL [BASE LINE 0 MV, SPRED]
SRESWS.OHMM       : SHALLOW RESISTIVITY [SNED]
~Params ----------------------------------------------------
PD  .                     GL : PERMANENT DATUM
EPD .FT                 2810 : ELEVATION PERMANENT DATUM
LMF .                     KB : LOG MEASURED FROM
DAPD.FT                   14 : FEET ABOVE PERMANENT DATUM
EKB .FT                 2824 : KELLY BUSHING
EGL .FT                 2810 : GROUND LEVEL
DATE.               10/23/61 : RUN DATE
RUN .                      2 : RUN NUMBER
DD  .FT                11793 : DEPTH DRILLER
DL  .FT                11795 : DEPTH LOGGER
BLI .FT                11794 : BOTTOM LOG INTERVAL
TLI .FT                 7600 : TOP LOG INTERVAL
BS  .IN                    9 : BIT SIZE
BSD .FT                11793 : BIT SIZE AT DEPTH
DFT .                    GEL : DRILLING FLUID TYPE
DFD .                   10.3 : DRILLING FLUID DENSITY
DFV .                    250 : DRILLING FLUID VISCOSITY
DFPH.                     10 : DRILLING FLUID PH
DFL .                    8.1 : DRILLING FLUID LOSS
RMS .OHMM               2.66 : RESISTIVITY MUD SAMPLE
MST .DEGF                 64 : MUD SAMPLE TEMPERATURE
RMF .OHMM               1.59 : RESISTIVITY MUD FILTRATE SAMPLE
MFST.DEGF                 80 : MUD FILTRATE SAMPLE TEMPERATURE
RMC .OHMM               1.89 : RESISTIVITY MUD CAKE
MCST.DEGF                 78 : MUD CAKE SAMPLE TEMPERATURE
TCS .HRS                   3 : TIME CIRCULATED STOPPED
LUN .                   1534 : LOGGING UNIT NUMBER
LUL .                     WC : LOGGING UNIT LOCATION
ENGI.                   GRAY : RECORDING ENGINEER
WITN.                BORWICK : WITNESSED BY
CLNT.                A2DTECH : CLIENT CODE
ORIG.            2" 5" PRINT : ORIGIN OF DATA
UWI .       100120106424W500 : UNIQUE WELL ID
DICO. A2D Technologies, Inc. : DIGITIZING COMPANY
~Other -----------------------------------------------------
~ASCII -----------------------------------------------------
# ...
 2950.00000   10.78740  166.72780  153.58670    6.52530    -999.25   97.23180   97.23180    -999.25    3.07770   50.78200    6.52530   10.78740    6.05210  -84.42270   -4.96930    6.05210
 3000.00000   11.25380  179.69330  163.43880    6.11850    -999.25   92.74300   92.74300    -999.25    3.26670   53.90060    6.11850   11.25380    5.37790  -83.37390   -4.06280    5.37790
 3050.00000   11.19160  201.08280  197.72220    5.05760    -999.25  105.92550  105.92550    -999.25    3.24230   53.49800    5.05760   11.19160    5.23460  -82.17660   -3.00850    5.23460
 3100.00000   11.44870  222.16160  201.21130    4.96990    -999.25  104.27620  104.27620    -999.25    2.89820   47.82030    4.96990   11.44870    5.12300  -81.99270   -2.96750    5.12300
 3150.00000    8.81790   34.35270   34.14880   29.28360    -999.25   69.09670   69.09670    -999.25    1.93370   31.90610   29.28360    8.81790   35.95910 -101.89840  -23.01620   35.95910
 3200.00000    8.92060   51.51330   52.42210   19.08180    -999.25   81.71550   81.71550    -999.25    2.64460   43.63670   19.08180    8.92060   18.17820 -101.24110  -22.50260   18.17820
 3250.00000   10.09400  196.20900  186.25440    5.36900    -999.25   86.96020   86.96020    -999.25    2.77160   45.73140    5.36900   10.09400    5.40890  -80.77780   -2.18150    5.40890
 3300.00000    9.26810   52.58010   52.46400   19.06070    -999.25   88.44580   88.44580    -999.25    2.58500   42.65250   19.06070    9.26810   19.96190 -101.33300  -22.87970   19.96190
 3350.00000   10.33760  184.42450  168.99600    5.91730    -999.25   97.13650   97.13650    -999.25    3.30270   54.49460    5.91730   10.33760    5.14230  -80.79870   -2.48830    5.14230
 3400.00000    9.97270   36.11010   35.24590   28.37210    -999.25   74.90900   74.90900    -999.25    2.25190   37.15640   28.37210    9.97270   31.66590  -92.96120  -14.77880   31.66590
 3450.00000    9.86140   87.59050   88.00820   11.36520    -999.25   77.95010   77.95010    -999.25    3.03010   49.99660   11.36520    9.86140   11.21510  -83.32470   -5.26740   11.21510
 3500.00000   12.11780  152.38620  142.78370    7.00360    -999.25   88.42270   88.42270    -999.25    3.23270   53.33950    7.00360   12.11780    6.67780  -81.41390   -3.48040    6.67780
 3550.00000    9.85150  155.99220  146.99830    6.80280    -999.25   93.67320   93.67320    -999.25    4.05210   66.85970    6.80280    9.85150    7.04090  -81.14220   -3.33320    7.04090
 3600.00000   11.67400   95.32380   93.26440   10.72220    -999.25   84.68120   84.68120    -999.25    4.91380   81.07770   10.72220   11.67400   10.15000  -82.76890   -5.08440   10.15000
 3650.00000   12.11660  113.05270  108.10930    9.24990    -999.25   88.54400   88.54400    -999.25    4.19910   69.28510    9.24990   12.11660    9.34330  -83.09770   -5.53760    9.34330
 3700.00000   12.79310  117.44720  111.29130    8.98540    -999.25   93.09290   93.09290    -999.25    4.95780   81.80370    8.98540   12.79310    9.77170  -82.41760   -4.98260    9.77170
 3750.00000   12.48150   77.74550   76.83150   13.01550    -999.25   88.35400   88.35400    -999.25    5.24920   86.61180   13.01550   12.48150   14.98510  -82.73570   -5.42450   14.98510
 3800.00000   10.76400   74.58730   74.79540   13.36980    -999.25   85.37050   85.37050    -999.25    4.47650   73.86220   13.36980   10.76400   15.52110  -82.05420   -4.86750   15.52110
 3850.00000   11.18790   95.08610   92.92820   10.76100    -999.25   88.33600   88.33600    -999.25    4.59280   75.78120   10.76100   11.18790   12.27350  -81.33790   -4.27570   12.27350
 3900.00000   11.02080  126.19330  118.54800    8.43540    -999.25   93.94300   93.94300    -999.25    5.27480   87.03420    8.43540   11.02080    8.58940  -81.87830   -4.94050    8.58940
 3950.00000   11.15220  121.21030  113.38480    8.81970    -999.25   92.85770   92.85770    -999.25    4.54630   75.01310    8.81970   11.15220    8.96810  -81.33280   -4.52010    8.96810
 4000.00000   11.50720  106.64720  101.93680    9.81000    -999.25   85.69400   85.69400    -999.25    4.19210   69.16970    9.81000   11.50720   10.05180  -81.25420   -4.56530   10.05180
 4050.00000   10.50370   83.28520   81.33260   12.29520    -999.25   90.95450   90.95450    -999.25    4.45740   73.54710   12.29520   10.50370   11.87490  -80.63650   -4.07210   11.87490
 4100.00000   10.87090  102.89040  101.01720    9.89930    -999.25   83.27280   83.27280    -999.25    4.16180   68.66970    9.89930   10.87090   10.28610  -80.60590   -4.16600   10.28610
 4150.00000   10.88070  120.93540  112.28010    8.90630    -999.25   92.56180   92.56180    -999.25    4.67750   77.17880    8.90630   10.88070    9.27850  -80.16330   -3.84780    9.27850
 4200.00000   10.95040  128.22580  122.68150    8.15120    -999.25   84.29630   84.29630    -999.25    4.46230   73.62790    8.15120   10.95040    8.37940  -80.08080   -3.89050    8.37940
 4250.00000   10.58660   98.70170   95.50370   10.47080    -999.25   82.59300   82.59300    -999.25    4.42530   73.01740   10.47080   10.58660   10.72350  -79.35960   -3.29300   10.72350
 4300.00000   10.97730   63.05310   61.59040   16.23630    -999.25   78.28270   78.28270    -999.25    4.17820   68.94030   16.23630   10.97730   17.09000  -79.98370   -4.04160   17.09000
 4350.00000   10.48460   66.47810   65.15970   15.34690    -999.25   81.89130   81.89130    -999.25    4.51380   74.47770   15.34690   10.48460   16.01930  -79.04100   -3.54980   16.01930
 4400.00000   10.95320   78.53770   75.77710   13.19660    -999.25   84.39720   84.39720    -999.25    4.48550   74.01080   13.19660   10.95320   13.66550  -77.99040   -3.02180   13.66550
 4450.00000   12.11950   92.44230   90.54740   11.04390    -999.25   83.20550   83.20550    -999.25    4.82660   79.63890   11.04390   12.11950   11.38440  -77.42940   -2.98600   11.38440
 4500.00000   12.14140   93.51580   92.46330   10.81510    -999.25   83.04420   83.04420    -999.25    4.10150   67.67470   10.81510   12.14140   11.08840  -76.35300   -2.42960   11.08840
 4550.00000   11.53300  103.31860   97.30090   10.27740    -999.25   92.44950   92.44950    -999.25    4.73490   78.12590   10.27740   11.53300   10.29260  -76.24520   -2.84440   10.29260
 4600.00000   11.25640  110.80400  106.31620    9.40590    -999.25   89.70150   89.70150    -999.25    4.69560   77.47740    9.40590   11.25640   10.63000  -75.39930   -2.52110   10.63000
 4650.00000   10.68060  114.39320  110.64760    9.03770    -999.25   90.20150   90.20150    -999.25    4.93080   81.35820    9.03770   10.68060   10.23450  -74.98160   -2.62600   10.23450
 4700.00000   10.15520   98.75260   96.92610   10.31720    -999.25   88.33600   88.33600    -999.25    4.85370   80.08690   10.31720   10.15520   12.32730  -75.07290   -3.24250   12.32730
 4750.00000   11.24220  101.30000   98.64660   10.13720    -999.25   89.59050   89.59050    -999.25    5.07990   83.81840   10.13720   11.24220   12.09020  -74.83590   -3.52550   12.09020
 4800.00000   10.74160   80.69760   78.30000   12.77140    -999.25   79.81200   79.81200    -999.25    4.98580   82.26570   12.77140   10.74160   16.00110  -74.88340   -4.09560   16.00110
 4850.00000   11.16310   96.53040   95.05340   10.52040    -999.25   90.59670   90.59670    -999.25    4.50870   74.39360   10.52040   11.16310   12.48770  -73.84040   -3.57520   12.48770
 4900.00000   11.00230   81.37800   79.35630   12.60140    -999.25   90.48500   90.48500    -999.25    4.88000   80.52000   12.60140   11.00230   15.46310  -73.15450   -3.41180   15.46310
 4950.00000    9.94810   69.59160   67.76580   14.75690    -999.25   96.64650   96.64650    -999.25    6.42250  105.97210   14.75690    9.94810   18.71440  -72.67900   -3.46160   18.71440
 5000.00000   11.16720   98.58790   96.83820   10.32650    -999.25   93.24180   93.24180    -999.25    5.41740   89.38710   10.32650   11.16720   13.00810  -71.91450   -3.21700   13.00810
 5050.00000   11.26980   63.55270   66.15900   15.11510    -999.25   93.44250   93.44250    -999.25    6.15710  101.59220   15.11510   11.26980   16.22190  -72.43390   -4.25900   16.22190
