~Version ---------------------------------------------------
VERS.      2.0 : CWLS log ASCII Standard -VERSION 2.0
WRAP.       NO : One line per depth step
CREA. 11/21/17 : LAS Creation Date
~Well ------------------------------------------------------
STRT.FT                          1000.0 : START DEPTH
STOP.FT                         13800.0 : STOP DEPTH
STEP.FT                        50.00000 : STEP LENGTH
NULL.                           -999.25 : NULL VALUE
COMP. HUDSONS BAY OIL & GAS COMPANY LTD : COMPANY
WELL. HB AMOCO FINA BAYBERNE 11-5-57-18 : WELL
FLD .                                   : FIELD
LOC .                                   : LOCATION
CTRY.                            CANADA : COUNTRY
SRVC.                           Unknown : SERVICE COMPANY
DATE.                       13-Aug-1977 : LOGDATE
PROV.                           Alberta : PROVINCE
UWI .                  100110505718W500 : UNIQUE WELL ID
SLAT.WGS84                     53.89911 : SURFACE LATITUDE
SLON.WGS84                    -116.6428 : SURFACE LONGITUDE
~Curve Information -----------------------------------------
DEPT    .FT    : Depth Curve
CALDED  .IN    : CALIPER FROM DENSITY LOG [ADJ. TO RESISTIVITY LOG]
CALSED  .IN    : CALIPER FROM SONIC LOG
CALWS   .IN    : CALIPER [CALSED SPL. TO CALDED @ 5994']
CILDED  .MMHO  : CONDUCTIVITY FROM RESISTIVITY LOG
CONDWS  .MMHO  : CONDUCTIVITY [1000/DRESWS]
DCORWS  .G/C3  : DENSITY CORRECTION [DRHOED]
DENWS   .G/C3  : FORMATION BULK DENSITY [RHOBED]
DPHILSED.V/V   : DENSITY POROSITY LIMESTONE [M=2.71, F=1.00] FROM DENSITY LOG [ADJ. TO RESISTIVITY LOG]
DPHISSED.V/V   : DENSITY POROSITY SANDSTONE [M=2.65, F=1.00] FROM DENSITY LOG [ADJ. TO RESISTIVITY LOG]
DPOLSWS .V/V   : DENSITY POROSITY LIMESTONE [CALC. FROM DENWS, M=2.71, F=1.00]
DRESWS  .OHMM  : DEEP RESISTIVITY [ILDED]
DRHOED  .G/C3  : DENSITY CORRECTION FROM DENSITY LOG [ADJ. TO RESISTIVITY LOG]
DTED    .US/F  : DELTA TIME FROM SONIC LOG
DTWS    .US/F  : COMPRESSIONAL SONIC [DTED]
GRDED   .GAPI  : GAMMA RAY FROM DENSITY LOG [ADJ. TO RESISTIVITY LOG]
GRSED   .GAPI  : GAMMA RAY FROM SONIC LOG
GRWS    .GAPI  : GAMMA RAY [GRSED SPL. TO GRDED @ 13780']
ILDED   .OHMM  : DEEP INDUCTION RESISTIVITY FROM RESISTIVITY LOG
ILMED   .OHMM  : MEDIUM INDUCTION RESISTIVITY FROM RESISTIVITY LOG
LL8ED   .OHMM  : LATEROLOG-8 RESISTIVITY FROM RESISTIVITY LOG
MRESWS  .OHMM  : MEDIUM RESISTIVITY [ILMED]
NPHILSED.V/V   : NEUTRON POROSITY LIMESTONE FROM DENSITY LOG [ADJ. TO RESISTIVITY LOG]
NPHISSED.V/V   : NEUTRON POROSITY SANDSTONE FROM DENSITY LOG [ADJ. TO RESISTIVITY LOG]
NPOLSWS .V/V   : NEUTRON POROSITY LIMESTONE [NPHISSED MATRIX CONVERSION FOR LIMESTONE, SPL. TO NPHILSED @ 8509']
RHOBED  .G/C3  : BULK DENSITY FROM DENSITY LOG [ADJ. TO RESISTIVITY LOG]
SPRED   .MV    : SPONTANEOUS POTENTIAL FROM RESISTIVITY LOG [ADJ. TO RESISTIVITY LOG]
SPWS    .MV    : SPONTANEOUS POTENTIAL [BASELINE 0 MV, SPRED]
SRESWS  .OHMM  : SHALLOW RESISTIVITY [LL8ED]
~Params ----------------------------------------------------
PD  .                     GL : PERMANENT DATUM
EPD .FT               3898.7 : ELEVATION PERMANENT DATUM
LMF .                     KB : LOG MEASURED FROM
DAPD.FT                 20.4 : FEET ABOVE PERMANENT DATUM
DMF .                     KB : DRILLING MEASURED FROM
EKB .FT               3919.1 : KELLY BUSHING
EGL .FT               3898.7 : GROUND LEVEL
DATE.               08/13/77 : RUN DATE
RUN .                      2 : RUN NUMBER
DD  .FT                13825 : DEPTH DRILLER
DL  .FT                13826 : DEPTH LOGGER
BLI .FT                13820 : BOTTOM LOG INTERVAL
TLI .FT                 8771 : TOP LOG INTERVAL
CBD .FT                 8770 : CASING BOTTOM DRILLER
CBL .FT                 8771 : CASING BOTTOM LOGGER
BS  .IN                  8.5 : BIT SIZE
BSD .FT                13825 : BIT SIZE AT DEPTH
DFT .                    GEL : DRILLING FLUID TYPE
DFD .                    8.9 : DRILLING FLUID DENSITY
DFV .                    120 : DRILLING FLUID VISCOSITY
DFPH.                     11 : DRILLING FLUID PH
DFL .                   11.2 : DRILLING FLUID LOSS
MSS .                    MUD : MUD SAMPLE SOURCE
RMS .OHMM               1.38 : RESISTIVITY MUD SAMPLE
MST .DEGF                 62 : MUD SAMPLE TEMPERATURE
RMF .OHMM                1.0 : RESISTIVITY MUD FILTRATE SAMPLE
MFST.DEGF                 62 : MUD FILTRATE SAMPLE TEMPERATURE
RMC .OHMM               1.72 : RESISTIVITY MUD CAKE
MCST.DEGF                 64 : MUD CAKE SAMPLE TEMPERATURE
RMB .OHMM               0.24 : RESISTIVITY MUD AT BHT
TCS .HRS                 3.5 : TIME CIRCULATED STOPPED
LUN .                   7809 : LOGGING UNIT NUMBER
LUL .                    EDM : LOGGING UNIT LOCATION
ENGI.     CROCKFORD DEROCHIE : RECORDING ENGINEER
WITN.       NORTON GILBREATH : WITNESSED BY
CLNT.                A2DTECH : CLIENT CODE
ORIG.            2" 5" PRINT : ORIGIN OF DATA
UWI .       100110505718W500 : UNIQUE WELL ID
DICO. A2D Technologies, Inc. : DIGITIZING COMPANY
~Other -----------------------------------------------------
DIL-FDC-CNL-BHC LOG RUN
ALL RESISTIVITY & SONIC DATA FROM SMALL SECTION @ TOP-5928'
CALS INVALID FROM 4993' TO CASING ON MAIN PASS, THEREFORE THIS SECTION WAS RELOGGED
~ASCII -----------------------------------------------------
# ...
 9750.00000    8.90520    8.79030    8.90520    -999.25   26.69840    0.01090    2.70460   -0.00150    -999.25    0.00320   37.45540    0.01090   55.10590   55.10590   39.50830   41.77700   41.77700   37.45540   39.23660   59.53400   39.23660    0.03570    -999.25    0.03570    2.70460  -37.09520   -6.17930   59.53400
 9800.00000    8.83590    8.79430    8.83590    -999.25    5.03880    0.01640    2.71730   -0.01060    -999.25   -0.00430  198.48710    0.01640   52.26800   52.26800   31.49290   36.94360   36.94360  198.48710  427.90650  410.23940  427.90650    0.01300    -999.25    0.01300    2.71730  -43.66310  -10.18280  410.23940
 9850.00000    8.51840    8.74440    8.51840    -999.25   12.58030    0.01370    2.68720    0.00580    -999.25    0.01330   79.48940    0.01370   54.86940   54.86940   58.66230   62.16830   62.16830   79.48940  114.45650  151.31010  114.45650    0.04420    -999.25    0.04420    2.68720  -41.77250   -6.01830  151.31010
 9900.00000   10.71620    8.99650   10.71620    -999.25    4.25200    0.16360    2.38010    0.21150    -999.25    0.19290  235.18440    0.16360   49.87680   49.87680   12.77390   16.16440   16.16440  235.18440  495.13610 1467.65860  495.13610    0.00740    -999.25    0.00740    2.38010  -59.64260  -24.07130 1467.65860
 9950.00000    9.57490    8.96060    9.57490    -999.25    1.41280    0.23660    2.63180    0.05090    -999.25    0.04570  707.80340    0.23660   48.34270   48.34270   11.71420   16.70270   16.70270  707.80340  679.68630 1093.53980  679.68630    0.01580    -999.25    0.01580    2.63180  -88.38360  -52.99640 1093.53980
 10000.00000    9.62670    9.01240    9.62670    -999.25    1.64570    0.24740    2.62400    0.05360    -999.25    0.05030  607.64970    0.24740   47.87950   47.87950   13.17430   21.44860   21.44860  607.64970  513.86580  986.10070  513.86580    0.01540    -999.25    0.01540    2.62400  -82.87080  -47.66650  986.10070
 10050.00000   11.15800    9.29440   11.15800    -999.25    0.94320    0.24980    2.43890    0.15820    -999.25    0.15850 1062.51160    0.24980   49.48970   49.48970   10.10690   13.21800   13.21800 1062.51160  259.78270  873.65880  259.78270    0.00740    -999.25    0.00740    2.43890  -96.43320  -61.41190  873.65880
 10100.00000   11.19880    9.39610   11.19880    -999.25    2.03030    0.20810    2.26830    0.26490    -999.25    0.25830  492.54130    0.20810   49.69650   49.69650    8.49870   12.58860   12.58860  492.54130  389.51200  392.21740  389.51200    0.01940    -999.25    0.01940    2.26830  -97.35560  -62.51840  392.21740
 10150.00000   11.74100    9.30100   11.74100    -999.25    1.19250    0.24620    2.28760    0.25580    -999.25    0.24700  838.57610    0.24620   48.95510   48.95510    9.80340   13.41400   13.41400  838.57610  461.48050  399.63270  461.48050    0.01210    -999.25    0.01210    2.28760  -95.60520  -60.95090  399.63270
 10200.00000   11.13260    9.82090   11.13260    -999.25    2.51230    0.15210    2.29770    0.24630    -999.25    0.24110  398.04220    0.15210   51.17180   51.17180    8.93220   12.42130   12.42130  398.04220  184.91210  150.30240  184.91210    0.00970    -999.25    0.00970    2.29770 -107.58740  -73.11730  150.30240
 10250.00000   11.22600    9.55210   11.22600    -999.25    5.89590    0.15290    2.17320    0.30920    -999.25    0.31390  169.61030    0.15290   49.10470   49.10470    8.14540   11.51180   11.51180  169.61030   66.79380  189.58170   66.79380    0.02760    -999.25    0.02760    2.17320 -120.07210  -85.78490  189.58170
 10300.00000   11.65980    9.13360   11.65980    -999.25    0.63640    0.20220    2.37490    0.19410    -999.25    0.19600 1571.34410    0.20220   51.08890   51.08890   12.97980   16.71130   16.71130 1571.34410  260.93440  383.28490  260.93440    0.01190    -999.25    0.01190    2.37490 -113.31670  -79.21240  383.28490
 10350.00000   11.08570    9.20120   11.08570    -999.25    1.01200    0.20190    2.35930    0.21220    -999.25    0.20510  988.13120    0.20190   50.32700   50.32700   12.09400   15.56330   15.56330  988.13120 1537.82390  707.92270 1537.82390    0.00870    -999.25    0.00870    2.35930 -115.83540  -81.91520  707.92270
 10400.00000   11.96370    9.44040   11.96370    -999.25    1.22510    0.18340    2.33450    0.24050    -999.25    0.21960  816.23670    0.18340   50.34980   50.34980   13.75720   18.66960   18.66960  816.23670  945.20360  698.60990  945.20360    0.01240    -999.25    0.01240    2.33450 -119.22240  -85.48520  698.60990
 10450.00000   10.62310    9.61110   10.62310    -999.25    0.63880    0.20330    2.31250    0.24680    -999.25    0.23250 1565.31930    0.20330   49.77810   49.77810   12.80910   16.87030   16.87030 1565.31930  503.76150 1142.50160  503.76150    0.00760    -999.25    0.00760    2.31250 -124.49020  -90.93710 1142.50160
 10500.00000   11.87520    9.07180   11.87520    -999.25    1.86300    0.16570    2.49640    0.12920    -999.25    0.12490  536.77720    0.16570   49.05510   49.05510    9.17660   11.14410   11.14410  536.77720  360.88380  305.59200  360.88380    0.00620    -999.25    0.00620    2.49640 -128.29890  -94.92870  305.59200
 10550.00000   11.11090    9.66820   11.11090    -999.25    2.80740    0.11130    2.53640    0.11510    -999.25    0.10150  360.22560    0.11130   49.44020   49.44020    9.44930   15.83790   15.83790  360.22560  201.28340  482.20010  201.28340   -0.00050    -999.25   -0.00050    2.53640 -129.12670  -95.93950  482.20010
 10600.00000   10.61500    9.68290   10.61500    -999.25    4.08080    0.24360    2.49100    0.11740    -999.25    0.12810  245.05060    0.24360   45.20910   45.20910   26.02860   29.53080   29.53080  245.05060  298.01400  157.86450  298.01400    0.01120    -999.25    0.01120    2.49100 -123.67900  -90.67590  157.86450
 10650.00000    8.64540    9.06600    8.64540    -999.25   33.57210    0.02750    2.63120    0.04120    -999.25    0.04610   29.78660    0.02750   60.29890   60.29890   95.47040   95.06020   95.06020   29.78660   31.31440   48.31510   31.31440    0.04690    -999.25    0.04690    2.63120  -78.85580  -46.03560   48.31510
 10700.00000    9.03490    9.16430    9.03490    -999.25    2.09080   -0.00430    2.89000   -0.12080    -999.25   -0.10530  478.28190   -0.00430   48.45900   48.45900   13.71100   19.20840   19.20840  478.28190  821.47380 1433.77750  821.47380    0.00400    -999.25    0.00400    2.89000 -128.12540  -95.48930 1433.77750
 10750.00000   12.01550   10.07870   12.01550    -999.25    5.50050    0.15340    1.77380    0.45000    -999.25    0.54750  181.80230    0.15340   50.78970   50.78970   15.38910   18.40120   18.40120  181.80230   46.89820   72.50710   46.89820    0.07500    -999.25    0.07500    1.77380 -105.51110  -73.05800   72.50710
 10800.00000   13.36270    9.44520   13.36270    -999.25    6.46640    0.19270    1.96370    0.43440    -999.25    0.43640  155.58480    0.19270   51.45580   51.45580   21.21240   26.92070   26.92070  155.58480  256.86270  454.02300  256.86270    0.04690    -999.25    0.04690    1.96370  -90.59750  -58.32730  454.02300
 10850.00000    8.79430    9.19700    8.79430    -999.25    4.02250    0.02030    2.69400   -0.00090    -999.25    0.00940  248.60410    0.02030   50.69010   50.69010   20.69330   24.60640   24.60640  248.60410  260.86290  384.21890  260.86290    0.01130    -999.25    0.01130    2.69400  -61.54840  -29.46230  384.21890
 10900.00000    8.77150    9.06590    8.77150    -999.25   16.43410    0.01420    2.70660   -0.00560    -999.25    0.00200   60.84910    0.01420   53.79600   53.79600   32.73270   38.80560   38.80560   60.84910   51.93910  100.80660   51.93910    0.03350    -999.25    0.03350    2.70660  -44.32890  -12.42580  100.80660
 10950.00000    8.80890    8.95220    8.80890    -999.25   22.60410    0.02330    2.73250   -0.02060    -999.25   -0.01320   44.23980    0.02330   53.31390   53.31390   37.49230   39.56060   39.56060   44.23980   45.80940   58.79580   45.80940    0.03450    -999.25    0.03450    2.73250  -38.97270   -7.25370   58.79580
