~Version ---------------------------------------------------
VERS.      2.0 : CWLS log ASCII Standard -VERSION 2.0
WRAP.       NO : One line per depth step
CREA. 07/10/13 : LAS Creation Date
~Well ------------------------------------------------------
STRT.FT                         55.3 : START DEPTH
STOP.FT                      11119.8 : STOP DEPTH
STEP.FT                      0.50000 : STEP LENGTH
NULL.                        -999.25 : NULL VALUE
COMP.         PACIFIC PETROLEUMS LTD : COMPANY
WELL. PACIFIC ET AL TONY 10-18-63-21 : WELL
FLD .                     TONY TOWER : FIELD
LOC .                                : LOCATION
CTRY.                         CANADA : COUNTRY
SRVC.                   Schlumberger : SERVICE COMPANY
DATE.                    24-Sep-1975 : LOGDATE
PROV.                        Alberta : PROVINCE
UWI .               100101806321W500 : UNIQUE WELL ID
SLAT.WGS84                  54.45338 : SURFACE LATITUDE
SLON.WGS84                 -117.1585 : SURFACE LONGITUDE
~Curve Information -----------------------------------------
DEPT   .FT    : DEPTH FEET
CALD   .IN    : CALIPER FROM DENSITY LOG
DCOR   .G/C3  : DENSITY CORRECTION FROM DENSITY LOG
DPHI_LS.DEC   : DENSITY POROSITY LIMESTONE [M=2.71,F=1.0] FROM DENSITY LOG
DPHI_SS.DEC   : DENSITY POROSITY SANDSTONE [M=2.65,F=1.0] FROM DENSITY LOG
GRD    .GAPI  : GAMMA RAY FROM DENSITY LOG
ILD    .OHMM  : DEEP INDUCTION FROM RESISTIVITY LOG
ILM    .OHMM  : MEDIUM INDUCTION FROM RESISTIVITY LOG
LL8    .OHMM  : LATEROLOG FROM RESISTIVITY LOG
NPHI_LS.DEC   : NEUTRON POROSITY LIMESTONE FROM DENSITY LOG
NPHI_SS.DEC   : NEUTRON POROSITY SANDSTONE FROM DENSITY LOG
RHOB   .G/C3  : BULK DENSITY FROM DENSITY LOG
SPR    .MV    : SPONTANEOUS POTENTIAL FROM RESISTIVITY LOG
~Params ----------------------------------------------------
PD  .                     GL : PERMANENT DATUM
EPD .FT                 2714 : ELEVATION PERMANENT DATUM
LMF .                     KB : LOG MEASURED FROM
DAPD.FT                 13.7 : FEET ABOVE PERMANENT DATUM
EKB .FT               2727.7 : KELLY BUSHING
EGL .FT                 2714 : GROUND LEVEL
DATE.               09/24/75 : RUN DATE
RUN .                      1 : RUN NUMBER
DD  .FT                11125 : DEPTH DRILLER
DL  .FT                11121 : DEPTH LOGGER
BLI .FT                11115 : BOTTOM LOG INTERVAL
TLI .FT                 1125 : TOP LOG INTERVAL
CBD .FT                 1125 : CASING BOTTOM DRILLER
CBL .FT                 1125 : CASING BOTTOM LOGGER
BS  .IN                 8.75 : BIT SIZE
BSD .FT                11125 : BIT SIZE AT DEPTH
DFT .               GEL CHEM : DRILLING FLUID TYPE
DFD .                    9.3 : DRILLING FLUID DENSITY
DFV .                    147 : DRILLING FLUID VISCOSITY
DFPH.                    9.5 : DRILLING FLUID PH
DFL .                    9.2 : DRILLING FLUID LOSS
MSS .               FLOWLINE : MUD SAMPLE SOURCE
RMS .OHMM               1.62 : RESISTIVITY MUD SAMPLE
MST .DEGF                 72 : MUD SAMPLE TEMPERATURE
RMF .OHMM               1.26 : RESISTIVITY MUD FILTRATE SAMPLE
MFST.DEGF                 68 : MUD FILTRATE SAMPLE TEMPERATURE
RMB .OHMM               0.41 : RESISTIVITY MUD AT BHT
TCS .HRS                 3.5 : TIME CIRCULATED STOPPED
LUN .                   7691 : LOGGING UNIT NUMBER
LUL .                    EDM : LOGGING UNIT LOCATION
ENGI.              CROCKFORD : RECORDING ENGINEER
WITN.                   ROSS : WITNESSED BY
CLNT.                A2DTECH : CLIENT CODE
ORIG.            2" 5" PRINT : ORIGIN OF DATA
UWI .       100101806321W500 : UNIQUE WELL ID
DICO. A2D Technologies, Inc. : DIGITIZING COMPANY
~Other -----------------------------------------------------
~ASCII -----------------------------------------------------
# ...
 3779.30000   11.37370    0.11920    -999.25    0.08850  102.13860    6.58030    5.72480    6.97150    -999.25    0.34030    2.52960  -92.27570
 3779.80000   11.20070    0.12600    -999.25    0.08590  100.84990    6.61500    5.74180    7.06060    -999.25    0.34120    2.51990  -92.24590
 3780.30000   11.10960    0.12970    -999.25    0.08650   99.29020    6.63970    5.73980    7.13730    -999.25    0.34500    2.50960  -91.84970
 3780.80000   11.02790    0.12020    -999.25    0.09260   98.23920    6.65890    5.65420    7.11840    -999.25    0.34850    2.50560  -91.36720
 3781.30000   11.03980    0.12910    -999.25    0.08360   97.40810    6.64090    5.60420    7.03300    -999.25    0.35010    2.51530  -91.03750
 3781.80000   11.19640    0.13210    -999.25    0.08360   97.16170    6.62200    5.55470    6.98260    -999.25    0.34960    2.52340  -90.73720
 3782.30000   11.19430    0.13860    -999.25    0.09330   97.16860    6.60310    5.54100    6.93400    -999.25    0.34600    2.52220  -91.18300
 3782.80000   11.15660    0.10740    -999.25    0.10800   97.22320    6.58430    5.63050    6.88570    -999.25    0.33850    2.49530  -91.78230
 3783.30000   11.36840    0.12240    -999.25    0.09700   97.22210    6.56560    5.70970    6.87080    -999.25    0.33310    2.48440  -92.47350
 3783.80000   11.29420    0.12610    -999.25    0.10070   97.18370    6.57210    5.78710    6.96650    -999.25    0.33370    2.49240  -92.80870
 3784.30000   10.95250    0.12870    -999.25    0.09540   97.14520    6.61730    5.86550    7.06970    -999.25    0.34170    2.50310  -92.69800
 3784.80000   11.19920    0.12370    -999.25    0.09640   97.13560    6.72380    5.94500    7.21650    -999.25    0.34700    2.50590  -92.50210
 3785.30000   11.28960    0.12590    -999.25    0.09860   97.11420    6.85700    6.02040    7.33200    -999.25    0.34260    2.50490  -92.09060
 3785.80000   11.28100    0.11500    -999.25    0.10880   97.37710    6.98230    6.01260    7.40980    -999.25    0.33930    2.49220  -92.14920
 3786.30000   11.23520    0.10490    -999.25    0.10800   97.72700    6.98230    6.04240    7.38290    -999.25    0.34440    2.48230  -91.94710
 3786.80000   11.19820    0.10230    -999.25    0.10030   98.53490    6.98230    6.07240    7.36960    -999.25    0.35030    2.48390  -91.92360
 3787.30000   11.14540    0.09970    -999.25    0.09160   98.77610    6.98230    6.10250    7.35620    -999.25    0.35200    2.49650  -91.85560
 3787.80000   11.05690    0.10780    -999.25    0.07180   98.92480    6.99740    6.13280    7.34290    -999.25    0.34600    2.51550  -91.99280
 3788.30000   10.94210    0.14120    -999.25    0.07860   98.37870    7.03830    6.15330    7.40990    -999.25    0.33950    2.53890  -91.76110
 3788.80000   10.88420    0.14440    -999.25    0.10000   97.90530    7.07940    6.16970    7.48810    -999.25    0.33720    2.52680  -91.78980
 3789.30000   10.96970    0.11720    -999.25    0.11440   98.11710    7.12070    6.19590    7.66170    -999.25    0.34130    2.49820  -91.74750
 3789.80000   11.03180    0.09420    -999.25    0.11370   98.98740    7.14620    6.17640    7.78070    -999.25    0.34280    2.47230  -92.08970
 3790.30000   10.93570    0.08470    -999.25    0.10010   99.97400    7.15000    6.16330    7.72010    -999.25    0.33910    2.47760  -92.40950
 3790.80000   11.07100    0.08580    -999.25    0.09320  100.46630    7.11040    6.07000    7.55100    -999.25    0.33560    2.49680  -92.76200
 3791.30000   11.09160    0.09410    -999.25    0.08370  100.70600    7.05710    6.01920    7.44260    -999.25    0.33140    2.50610  -93.03600
 3791.80000   10.94650    0.09810    -999.25    0.08110  100.67550    6.99610    5.99400    7.38600    -999.25    0.32510    2.52200  -93.18710
 3792.30000   10.85590    0.09960    -999.25    0.07560  100.54480    6.92270    5.91780    7.40610    -999.25    0.32150    2.52630  -93.01540
 3792.80000   11.21060    0.10830    -999.25    0.07110  100.47240    6.85010    5.84260    7.42820    -999.25    0.32620    2.54240  -92.78410
 3793.30000   11.12760    0.11710    -999.25    0.07620  100.48130    6.77820    5.76840    7.47910    -999.25    0.33260    2.54120  -92.51890
 3793.80000   10.97000    0.12400    -999.25    0.08240  100.83880    6.73100    5.69510    7.45950    -999.25    0.33740    2.53100  -92.42120
 3794.30000   11.30250    0.11440    -999.25    0.09130  101.23920    6.70910    5.61710    7.33010    -999.25    0.34720    2.52070  -91.58810
 3794.80000   11.39100    0.09750    -999.25    0.08770  101.46350    6.72150    5.51580    7.14970    -999.25    0.35460    2.50940  -91.14030
 3795.30000   11.54110    0.11570    -999.25    0.07880  101.86330    6.77290    5.53980    7.04080    -999.25    0.36020    2.51770  -90.86890
 3795.80000   11.31060    0.11130    -999.25    0.08250  102.35730    6.82760    5.66970    7.13050    -999.25    0.37070    2.53250  -91.15780
 3796.30000   11.15630    0.12400    -999.25    0.10390  102.64980    6.89370    5.83440    7.35090    -999.25    0.38070    2.52880  -91.63670
 3796.80000   11.14290    0.09870    -999.25    0.12680  101.99150    6.96050    5.87530    7.55880    -999.25    0.37950    2.49410  -91.82300
 3797.30000   10.97490    0.07610    -999.25    0.14200  101.09620    7.00420    5.90160    7.67670    -999.25    0.37110    2.45640  -92.00260
 3797.80000   10.98490    0.06990    -999.25    0.13320  100.33290    6.96800    5.90460    7.67670    -999.25    0.35790    2.42850  -92.23810
 3798.30000   11.11120    0.08490    -999.25    0.12640   99.94970    6.93200    5.85460    7.56450    -999.25    0.34550    2.43580  -92.10560
 3798.80000   11.10160    0.09560    -999.25    0.11730   99.69060    6.89620    5.80810    7.44380    -999.25    0.34310    2.45250  -92.15340
 3799.30000   11.00740    0.10680    -999.25    0.10320   99.42400    6.87760    5.80280    7.36590    -999.25    0.34560    2.46080  -91.84170
 3799.80000   10.98310    0.12050    -999.25    0.09840   99.97300    6.86090    5.79820    7.34810    -999.25    0.33940    2.48360  -92.00030
 3800.30000   10.97750    0.12270    -999.25    0.09670  100.54260    6.87910    5.79580    7.33100    -999.25    0.33660    2.50220  -92.31950
 3800.80000   11.12030    0.13080    -999.25    0.09610  101.07750    6.92960    5.81050    7.38450    -999.25    0.34690    2.50510  -92.12890
 3801.30000   11.13670    0.13460    -999.25    0.09670  101.57160    6.97830    5.81810    7.43840    -999.25    0.35750    2.50460  -92.12420
 3801.80000   10.80530    0.11150    -999.25    0.09890  101.63730    7.01610    5.81360    7.53390    -999.25    0.36670    2.50130  -91.91900
 3802.30000   11.07150    0.10840    -999.25    0.10470  101.02940    7.05420    5.83440    7.65520    -999.25    0.37260    2.49670  -92.35020
 3802.80000   11.13010    0.09510    -999.25    0.11260   99.69090    7.09250    5.85120    7.74010    -999.25    0.36510    2.48080  -92.69000
 3803.30000   11.03200    0.07930    -999.25    0.10950   98.08550    7.13110    5.86810    7.71580    -999.25    0.35210    2.47380  -92.73630
 3803.80000   11.02790    0.08000    -999.25    0.09930   97.07350    7.09820    5.88500    7.58740    -999.25    0.34060    2.48650  -92.55530
 3804.30000   11.34140    0.09550    -999.25    0.09990   97.07350    7.06130    5.89690    7.46120    -999.25    0.33920    2.49920  -92.39380
 3804.80000   11.22330    0.09270    -999.25    0.11230   97.17080    7.08280    5.92260    7.39290    -999.25    0.34230    2.49140  -92.55150
 3805.30000   10.97810    0.08980    -999.25    0.12680   97.82350    7.11060    5.94650    7.42640    -999.25    0.35110    2.47280  -92.76300
 3805.80000   10.97110    0.08840    -999.25    0.12280   98.57990    7.17380    5.94320    7.46820    -999.25    0.36150    2.45270  -92.84400
 3806.30000   11.23550    0.10330    -999.25    0.11170   99.96120    7.23770    6.02070    7.51060    -999.25    0.36060    2.45490  -92.88230
 3806.80000   11.43970    0.12620    -999.25    0.09980  101.89410    7.30200    6.14470    7.64900    -999.25    0.34740    2.47630  -92.85570
