~Version ---------------------------------------------------
VERS.      2.0 : CWLS log ASCII Standard -VERSION 2.0
WRAP.       NO : One line per depth step
CREA. 01/02/18 : LAS Creation Date
~Well ------------------------------------------------------
STRT.FT                     2050.0 : START DEPTH
STOP.FT                    11200.0 : STOP DEPTH
STEP.FT                   50.00000 : STEP LENGTH
NULL.                      -999.25 : NULL VALUE
COMP.     CHEVRON STANDARD LIMITED : COMPANY
WELL. CHEVRON KAYBOB S 10-19-60-18 : WELL
FLD .                              : FIELD
LOC .                              : LOCATION
CTRY.                       CANADA : COUNTRY
SRVC.                      Unknown : SERVICE COMPANY
DATE.                  02-Dec-1969 : LOGDATE
PROV.                      Alberta : PROVINCE
UWI .             100101906018W500 : UNIQUE WELL ID
SLAT.WGS84                54.20497 : SURFACE LATITUDE
SLON.WGS84               -116.6847 : SURFACE LONGITUDE
~Curve Information -----------------------------------------
DEPT  .FT    : Depth Curve
ACED  .US/F  : DELTA TIME FROM SONIC LOG [ADJ. TO RESISTIVITY LOG]
CALSED.IN    : CALIPER FROM SONIC LOG [ADJ. TO RESISTIVITY LOG]
CALWS .IN    : CALIPER [CALSED]
CONDWS.MMHO  : CONDUCTIVITY [1000/DRESWS]
DRESWS.OHMM  : DEEP RESISTIVITY [ILDED]
DTWS  .US/F  : COMPRESSIONAL SONIC [ACED]
GRSED .GAPI  : GAMMA RAY FROM SONIC LOG [ADJ. TO RESISTIVITY LOG]
GRWS  .GAPI  : GAMMA RAY [GRSED]
ILDED .OHMM  : DEEP INDUCTION FROM RESISTIVITY LOG
ILMED .OHMM  : MEDIUM INDUCTION FROM RESISTIVITY LOG
MRESWS.OHMM  : MEDIUM RESISTIVITY [ILMED]
SFLED .OHMM  : SPHERICALLY FOCUSED RESISTIVITY FROM RESISTIVITY LOG
SPRED .MV    : SPONTANEOUS POTENTIAL FROM RESISTIVITY LOG
SPWS  .MV    : SPONTANEOUS POTENTIAL [BASELINE 0 MV, SPRED]
SRESWS.OHMM  : SHALLOW RESISTIVITY [SFLED]
~Params ----------------------------------------------------
PD  .                     GL : PERMANENT DATUM
EPD .FT               3271.7 : ELEVATION PERMANENT DATUM
LMF .                     KB : LOG MEASURED FROM
DAPD.FT                 15.5 : FEET ABOVE PERMANENT DATUM
DMF .                     KB : DRILLING MEASURED FROM
EKB .FT               3287.2 : KELLY BUSHING
EGL .FT               3271.7 : GROUND LEVEL
DATE.               12/02/69 : RUN DATE
RUN .                      1 : RUN NUMBER
DD  .FT                11226 : DEPTH DRILLER
DL  .FT                11223 : DEPTH LOGGER
BLI .FT                11221 : BOTTOM LOG INTERVAL
TLI .FT                 2044 : TOP LOG INTERVAL
CS  .IN                9.625 : CASING SIZE
CBD .FT                 2041 : CASING BOTTOM DRILLER
CBL .FT                 2044 : CASING BOTTOM LOGGER
BS  .IN                 8.75 : BIT SIZE
BSD .FT                11226 : BIT SIZE AT DEPTH
DFT .                MUD GEL : DRILLING FLUID TYPE
DFD .                    9.2 : DRILLING FLUID DENSITY
DFV .                    124 : DRILLING FLUID VISCOSITY
DFPH.                   11.4 : DRILLING FLUID PH
DFL .                    7.6 : DRILLING FLUID LOSS
MSS .                   CIRC : MUD SAMPLE SOURCE
RMS .OHMM               1.75 : RESISTIVITY MUD SAMPLE
MST .DEGF                 50 : MUD SAMPLE TEMPERATURE
RMF .OHMM               1.25 : RESISTIVITY MUD FILTRATE SAMPLE
MFST.DEGF                 60 : MUD FILTRATE SAMPLE TEMPERATURE
RMC .OHMM                2.1 : RESISTIVITY MUD CAKE
MCST.DEGF                 60 : MUD CAKE SAMPLE TEMPERATURE
MFSS.                   MEAS : MUD FILTRATE SAMPLE SOURCE
MCSS.                   MEAS : MUD CAKE SAMPLE SOURCE
TCS .HRS                   7 : TIME CIRCULATED STOPPED
LUN .                   6002 : LOGGING UNIT NUMBER
LUL .                    V V : LOGGING UNIT LOCATION
ENGI.              KOWALCHUK : RECORDING ENGINEER
WITN.               PETERSON : WITNESSED BY
CLNT.                A2DTECH : CLIENT CODE
ORIG.            2" 5" PRINT : ORIGIN OF DATA
UWI .       100101906018W500 : UNIQUE WELL ID
DICO. A2D Technologies, Inc. : DIGITIZING COMPANY
~Other -----------------------------------------------------
~ASCII -----------------------------------------------------
 2050.00000  140.61000   11.58730   11.58730    -999.25    -999.25  140.61000  104.55510  104.55510    -999.25    -999.25    -999.25    2.87760    -999.25    -999.25    2.87760
 2100.00000   92.99000   11.23870   11.23870  212.36830    4.70880   92.99000  105.76440  105.76440    4.70880    5.19400    5.19400    5.73770  -99.38990  -17.16480    5.73770
 2150.00000  174.49000   11.16020   11.16020  186.93690    5.34940  174.49000  107.32960  107.32960    5.34940    4.92710    4.92710    4.87480 -100.63020  -18.40510    4.87480
 2200.00000  140.22000   10.84110   10.84110  211.67250    4.74380  140.22000   95.51820   95.51820    4.74380    5.06230    5.06230    4.46530  -99.62500  -17.39990    4.46530
 2250.00000  142.71000   11.41580   11.41580  553.74050    1.80590  142.71000  125.59940  125.59940    1.80590    1.56570    1.56570    2.80140  -98.18850  -15.96340    2.80140
 2300.00000   99.16000   13.02240   13.02240  237.62000    4.20840   99.16000  110.00900  110.00900    4.20840    4.03330    4.03330    4.43640  -99.17080  -16.94570    4.43640
 2350.00000   87.60750   11.40630   11.40630   83.51150   11.97440   87.60750   73.25620   73.25620   11.97440   11.36300   11.36300   10.22480 -101.38780  -19.16270   10.22480
 2400.00000  121.79000   12.93620   12.93620  289.31000    3.45650  121.79000  107.79940  107.79940    3.45650    3.27570    3.27570    3.58570  -98.77910  -16.55400    3.58570
 2450.00000  146.20500   11.28360   11.28360  225.62020    4.43280  146.20500  108.17860  108.17860    4.43280    4.16340    4.16340    3.87010  -99.68250  -17.45740    3.87010
 2500.00000  132.07000   10.62600   10.62600  235.98820    4.23750  132.07000  100.78710  100.78710    4.23750    3.67280    3.67280    3.96310  -98.57700  -16.35190    3.96310
 2550.00000  128.78000   11.12340   11.12340  125.36510    7.97670  128.78000  120.36950  120.36950    7.97670    6.65530    6.65530    7.16330 -100.11150  -17.88640    7.16330
 2600.00000  140.01000   11.94980   11.94980  348.11670    2.87260  140.01000  111.68700  111.68700    2.87260    2.58370    2.58370    3.01550  -98.79900  -16.57390    3.01550
 2650.00000  108.45000   12.19650   12.19650  351.30860    2.84650  108.45000  103.66000  103.66000    2.84650    2.70050    2.70050    3.29670  -98.77760  -16.55250    3.29670
 2700.00000  103.51000   12.93330   12.93330  223.35140    4.47950  103.51000  110.45420  110.45420    4.47950    4.23040    4.23040    4.70560  -98.91760  -16.69250    4.70560
 2750.00000  132.71500   10.96920   10.96920  145.95980    6.85120  132.71500  123.00800  123.00800    6.85120    6.04700    6.04700    8.75940 -100.22570  -18.00060    8.75940
 2800.00000  110.63000   12.64350   12.64350  314.22830    3.18240  110.63000  104.33710  104.33710    3.18240    3.07140    3.07140    3.24100  -98.86210  -16.63700    3.24100
 2850.00000  140.16000   14.07910   14.07910  588.65080    1.69880  140.16000  114.30580  114.30580    1.69880    1.74880    1.74880    2.65770  -99.71950  -17.49440    2.65770
 2900.00000  101.59000   14.49660   14.49660  206.04960    4.85320  101.59000  141.88610  141.88610    4.85320    4.48020    4.48020    4.27660 -100.62180  -18.39670    4.27660
 2950.00000  144.13250   11.89500   11.89500  342.98320    2.91560  144.13250  108.81940  108.81940    2.91560    2.73980    2.73980    3.41110 -101.02240  -19.12850    3.41110
 3000.00000   86.86000   10.94040   10.94040   79.60580   12.56190   86.86000   75.70670   75.70670   12.56190   11.66150   11.66150    8.23290 -113.23480  -31.67640    8.23290
 3050.00000  114.67000   11.31790   11.31790  240.91740    4.15080  114.67000  101.20270  101.20270    4.15080    3.82590    3.82590    3.61770 -105.41610  -24.19330    3.61770
 3100.00000  182.09000   13.08170   13.08170  873.74400    1.14450  182.09000  148.79110  148.79110    1.14450    1.38600    1.38600    2.44830 -105.00170  -24.11670    2.44830
 3150.00000   91.12000   11.41410   11.41410  145.50320    6.87270   91.12000   86.26250   86.26250    6.87270    6.40280    6.40280    6.18130 -111.33320  -30.78380    6.18130
 3200.00000   90.71000   11.78490   11.78490  202.64270    4.93590   90.71000  111.48680  111.48680    4.93590    5.18150    5.18150    5.67360 -110.57600  -30.36440    5.67360
 3250.00000  139.88000   11.63730   11.63730  253.97470    3.93740  139.88000  106.55910  106.55910    3.93740    4.84600    4.84600    6.73850 -115.00100  -35.12500    6.73850
 3300.00000  139.41500   13.59570   13.59570  267.68740    3.73570  139.41500   90.04070   90.04070    3.73570    4.02030    4.02030    3.50700 -112.99930  -33.45880    3.50700
 3350.00000  102.70500   11.45100   11.45100  178.52680    5.60140  102.70500  101.44500  101.44500    5.60140    5.91830    5.91830    5.30890 -117.19160  -37.98890    5.30890
 3400.00000  100.50000   13.05750   13.05750  221.01400    4.52460  100.50000   90.65700   90.65700    4.52460    4.84120    4.84120    5.79340 -116.84180  -37.97470    5.79340
 3450.00000  120.08000   11.21830   11.21830  243.64180    4.10450  120.08000   92.54870   92.54870    4.10450    4.35760    4.35760    5.26280 -118.64090  -40.11160    5.26280
 3500.00000   76.65000   11.11420   11.11420  128.56780    7.77800   76.65000   84.30060   84.30060    7.77800    8.38200    8.38200    7.13380 -119.72380  -41.53010    7.13380
 3550.00000  140.00000   11.92450   11.92450  209.77550    4.76700  140.00000   71.73060   71.73060    4.76700    5.22000    5.22000    4.29260 -118.58050  -40.72230    4.29260
 3600.00000  106.82000   12.52840   12.52840  244.05720    4.09740  106.82000   89.98520   89.98520    4.09740    4.40590    4.40590    4.51690 -117.42150  -39.90110    4.51690
 3650.00000  100.31000   13.41670   13.41670  196.34790    5.09300  100.31000   83.69190   83.69190    5.09300    5.36820    5.36820    5.68200 -117.43250  -40.24770    5.68200
 3700.00000   95.08000   12.50990   12.50990  164.27190    6.08830   95.08000   77.40870   77.40870    6.08830    6.65440    6.65440    8.08800 -119.77100  -42.92400    8.08800
 3750.00000   80.46000   12.22960   12.22960  128.34660    7.79140   80.46000   86.25020   86.25020    7.79140    8.54070    8.54070    8.88370 -117.65740  -41.14600    8.88370
 3800.00000   80.46500   14.27830   14.27830  116.66430    8.57160   80.46500   69.81050   69.81050    8.57160    8.79840    8.79840   14.26180 -120.38290  -44.20710   14.26180
 3850.00000  101.47000   11.77020   11.77020  162.66250    6.14770  101.47000   86.86470   86.86470    6.14770    6.59290    6.59290    8.65130 -116.11160  -40.27350    8.65130
 3900.00000  103.83000   13.84260   13.84260  216.79280    4.61270  103.83000   85.83140   85.83140    4.61270    4.88720    4.88720    4.46050 -112.58480  -37.08230    4.46050
 3950.00000   95.11000   11.97440   11.97440  156.43190    6.39510   95.11000   80.49330   80.49330    6.39510    7.37050    7.37050    6.36690 -107.19060  -32.02590    6.36690
 4000.00000   77.16000   10.61640   10.61640   60.70720   16.47250   77.16000   63.02290   63.02290   16.47250   21.78720   21.78720   20.54080 -132.28840  -57.45930   20.54080
 4050.00000   85.13000   10.87780   10.87780  104.79650    9.54230   85.13000   69.41290   69.41290    9.54230   11.00530   11.00530   10.45220 -114.99380  -40.50030   10.45220
 4100.00000  111.76000   12.27860   12.27860  191.52320    5.22130  111.76000   94.54570   94.54570    5.22130    5.63410    5.63410    7.06250 -110.16340  -36.00770    7.06250
 4150.00000   89.01000   11.51170   11.51170  137.02570    7.29790   89.01000   92.39520   92.39520    7.29790    7.89230    7.89230    9.98460 -111.37940  -37.55920    9.98460
 4200.00000   94.47000   12.31690   12.31690  181.75940    5.50320   94.47000  106.70070  106.70070    5.50320    5.75010    5.75010    6.30550 -113.78900  -40.30660    6.30550
 4250.00000   95.42000   12.30740   12.30740  150.94570    6.62490   95.42000  129.26000  129.26000    6.62490    6.96530    6.96530    6.20390 -117.90080  -44.75400    6.20390
 4300.00000   91.45000   12.77580   12.77580  140.53230    7.11580   91.45000  109.82710  109.82710    7.11580    7.64600    7.64600    6.67040 -119.59520  -46.78400    6.67040
