~Version ---------------------------------------------------
VERS.      2.0 : CWLS log ASCII Standard -VERSION 2.0
WRAP.       NO : One line per depth step
CREA. 10/26/17 : LAS Creation Date
~Well ------------------------------------------------------
STRT.FT                    1300.0 : START DEPTH
STOP.FT                   12250.0 : STOP DEPTH
STEP.FT                  50.00000 : STEP LENGTH
NULL.                     -999.25 : NULL VALUE
COMP.  TEXACO EXPLORATION COMPANY : COMPANY
WELL. TEXACO MARLBORO 10-12-54-18 : WELL
FLD .                             : FIELD
LOC .                             : LOCATION
CTRY.                      CANADA : COUNTRY
SRVC.      Schlumberger of Canada : SERVICE COMPANY
DATE.                 04-Oct-1969 : LOGDATE
PROV.                     Alberta : PROVINCE
UWI .            100101205418W500 : UNIQUE WELL ID
SLAT.WGS84                53.6526 : SURFACE LATITUDE
SLON.WGS84               -116.514 : SURFACE LONGITUDE
~Curve Information -----------------------------------------
DEPT   .FT    : Depth Curve
CALDED .IN    : CALIPER FROM DENSITY LOG [DEP. ADJ. TO RESIST. LOG]
CALSED .IN    : CALIPER FROM SONIC LOG [DEP. ADJ. TO RESIST. LOG]
CALWS  .IN    : CALIPER [3734' CALSED 8553'CALDED]
CILDED .MMHO  : CONDUCTIVITY FROM RESISTIVITY LOG
CONDWS .MMHO  : CONDUCTIVITY [1000/DRESWS]
DCORWS .G/C3  : DENSITY CORRECTION [DRHOED]
DENWS  .G/C3  : BULK DENSITY [M=2.71, F=1.00 ASSUMED] [RHOBED]
DPOLSWS.V/V   : DENSITY POROSITY [M=2.71, F=1.00 ASSUMED] [CAL. FROM DENWS]
DRESWS .OHMM  : DEEP RESISTIVITY [1000/CILDED][READINGS >2000 ARE REDUCED TO 2000 OHMM]
DRHOED .G/C3  : DENSITY CORRECTION FROM DENSITY LOG [DEP. ADJ. TO RESIST. LOG]
DTED   .US/F  : DELTA TIME FROM SONIC LOG [DEP. ADJ. TO RESIST. LOG]
DTWS   .US/F  : DELTA TIME [DTED]
GRDED  .GAPI  : GAMMA RAY FROM DENSITY LOG [DEP. ADJ. TO RESIST. LOG]
GRSED  .GAPI  : GAMMA RAY FROM SONIC LOG [DEP. ADJ. TO RESIST. LOG]
GRWS   .GAPI  : GAMMA RAY [3734' GRSED 8556' GRDED]
ILDED  .OHMM  : INDUCTION LOG DEEP RESISTIVITY
RHOBED .G/C3  : BULK DENSITY FROM DENSITY LOG [DEP. ADJ. TO RESIST. LOG]
SNED   .OHMM  : 16 INCH SHORT NORMAL RESISTIVITY FROM IEL
SPRED  .MV    : SPONTANEOUS POTENTIAL FROM RESISTIVITY LOG
SPWS   .MV    : SPONTANEOUS POTENTIAL [BASELINE 0 MV] [SPRED]
SRESWS .OHMM  : SHALLOW RESISTIVITY [SNED]
~Params ----------------------------------------------------
PD  .                     GL : PERMANENT DATUM
EPD .FT               3162.6 : ELEVATION PERMANENT DATUM
LMF .                     KB : LOG MEASURED FROM
DAPD.FT                 13.7 : FEET ABOVE PERMANENT DATUM
EKB .FT               3179.3 : KELLY BUSHING
EGL .FT               3165.6 : GROUND LEVEL
DATE.               11/18/69 : RUN DATE
RUN .                      1 : RUN NUMBER
DD  .FT                12259 : DEPTH DRILLER
DL  .FT                12263 : DEPTH LOGGER
BLI .FT                12262 : BOTTOM LOG INTERVAL
TLI .FT                 8816 : TOP LOG INTERVAL
CBD .FT                 1266 : CASING BOTTOM DRILLER
CBL .FT                 1264 : CASING BOTTOM LOGGER
BSD .FT                12259 : BIT SIZE AT DEPTH
DFT .               GEL CHEM : DRILLING FLUID TYPE
DFD .                   10.5 : DRILLING FLUID DENSITY
DFV .                     60 : DRILLING FLUID VISCOSITY
DFPH.                      9 : DRILLING FLUID PH
DFL .                    6.8 : DRILLING FLUID LOSS
RMS .OHMM               1.58 : RESISTIVITY MUD SAMPLE
MST .DEGF                 68 : MUD SAMPLE TEMPERATURE
RMF .OHMM               1.05 : RESISTIVITY MUD FILTRATE SAMPLE
MFST.DEGF                 66 : MUD FILTRATE SAMPLE TEMPERATURE
RMC .OHMM               1.92 : RESISTIVITY MUD CAKE
MCST.DEGF                 68 : MUD CAKE SAMPLE TEMPERATURE
RMB .OHMM               0.47 : RESISTIVITY MUD AT BHT
TCS .HRS                 2.5 : TIME CIRCULATED STOPPED
LUN .                   7502 : LOGGING UNIT NUMBER
LUL .                    EDM : LOGGING UNIT LOCATION
ENGI.                 SLADEN : RECORDING ENGINEER
WITN.               BRYNLUND : WITNESSED BY
CLNT.                A2DTECH : CLIENT CODE
ORIG.            2" 5" PRINT : ORIGIN OF DATA
UWI .       100101205418W500 : UNIQUE WELL ID
DICO. A2D Technologies, Inc. : DIGITIZING COMPANY
~Other -----------------------------------------------------
~ASCII -----------------------------------------------------
# ...
 6250.00000    -999.25   15.23010   15.23010   95.27840   95.27840    -999.25    -999.25    -999.25   10.49560    -999.25   83.74550   83.74550    -999.25   66.21780   66.21780   10.05940    -999.25   13.75620    3.94330   -5.58070   13.75620
 6300.00000    -999.25   10.51530   10.51530   78.03760   78.03760    -999.25    -999.25    -999.25   12.81430    -999.25   77.69610   77.69610    -999.25   86.97750   86.97750   12.02230    -999.25   14.92610    4.79450   -5.47020   14.92610
 6350.00000    -999.25   10.79690   10.79690   93.81900   93.81900    -999.25    -999.25    -999.25   10.65880    -999.25   80.28350   80.28350    -999.25   82.39310   82.39310   10.56290    -999.25   12.67740    5.30410   -5.70620   12.67740
 6400.00000    -999.25   10.06380   10.06380   77.70520   77.70520    -999.25    -999.25    -999.25   12.86920    -999.25   74.80410   74.80410    -999.25   87.05180   87.05180   11.93280    -999.25   15.46850    5.91020   -5.84080   15.46850
 6450.00000    -999.25   10.49700   10.49700   93.61200   93.61200    -999.25    -999.25    -999.25   10.68240    -999.25   79.34790   79.34790    -999.25   83.75970   83.75970   10.20450    -999.25   13.33730    6.93190   -5.56460   13.33730
 6500.00000    -999.25   10.67400   10.67400   87.00160   87.00160    -999.25    -999.25    -999.25   11.49400    -999.25   85.13030   85.13030    -999.25   88.00340   88.00340   10.99220    -999.25   14.28180    8.40270   -4.83450   14.28180
 6550.00000    -999.25    9.78340    9.78340   79.65780   79.65780    -999.25    -999.25    -999.25   12.55370    -999.25   86.54050   86.54050    -999.25  100.84760  100.84760   12.06540    -999.25   17.41510   10.94900   -3.02890   17.41510
 6600.00000    -999.25    9.61130    9.61130   73.69240   73.69240    -999.25    -999.25    -999.25   13.56990    -999.25   83.60010   83.60010    -999.25  102.82010  102.82010   12.93090    -999.25   19.09270   12.16930   -2.55420   19.09270
 6650.00000    -999.25   10.15270   10.15270   68.90920   68.90920    -999.25    -999.25    -999.25   14.51190    -999.25   83.89280   83.89280    -999.25  104.02600  104.02600   13.57880    -999.25   19.91880   12.69490   -2.76930   19.91880
 6700.00000    -999.25    9.49920    9.49920   72.84470   72.84470    -999.25    -999.25    -999.25   13.72780    -999.25   84.54340   84.54340    -999.25  102.77050  102.77050   12.83800    -999.25   19.71170   14.24570   -1.96410   19.71170
 6750.00000    -999.25    9.57890    9.57890   53.46650   53.46650    -999.25    -999.25    -999.25   18.70330    -999.25   86.52640   86.52640    -999.25  107.33840  107.33840   17.30250    -999.25   26.54600   15.58210   -1.36840   26.54600
 6800.00000    -999.25    9.89400    9.89400   58.18790   58.18790    -999.25    -999.25    -999.25   17.18570    -999.25   88.71830   88.71830    -999.25  102.04120  102.04120   16.49830    -999.25   24.86830   15.53800   -1.88250   24.86830
 6850.00000    -999.25   10.69070   10.69070   87.39930   87.39930    -999.25    -999.25    -999.25   11.44170    -999.25   83.40130   83.40130    -999.25   86.80560   86.80560   11.13670    -999.25   15.94650   14.78610   -2.91450   15.94650
 6900.00000    -999.25    9.83270    9.83270   67.75060   67.75060    -999.25    -999.25    -999.25   14.76000    -999.25   82.41810   82.41810    -999.25   89.51730   89.51730   13.94660    -999.25   20.13520   14.94750   -3.03140   20.13520
 6950.00000    -999.25    9.82370    9.82370   50.34560   50.34560    -999.25    -999.25    -999.25   19.86270    -999.25   88.13640   88.13640    -999.25  140.63200  140.63200   18.31820    -999.25   26.77820   15.67220   -2.58680   26.77820
 7000.00000    -999.25   10.28130   10.28130  103.33660  103.33660    -999.25    -999.25    -999.25    9.67710    -999.25   77.11000   77.11000    -999.25   72.79740   72.79740    9.18450    -999.25   12.72200   14.04440   -4.49290   12.72200
 7050.00000    -999.25   10.41420   10.41420  127.95610  127.95610    -999.25    -999.25    -999.25    7.81520    -999.25   79.54290   79.54290    -999.25   84.78180   84.78180    7.61660    -999.25   11.26450   14.60390   -4.21170   11.26450
 7100.00000    -999.25   12.59580   12.59580  130.87220  130.87220    -999.25    -999.25    -999.25    7.64100    -999.25   84.57370   84.57370    -999.25   79.61000   79.61000    7.63300    -999.25   10.01250   14.65860   -4.43710   10.01250
 7150.00000    -999.25   10.02180   10.02180   87.55130   87.55130    -999.25    -999.25    -999.25   11.42190    -999.25   73.45400   73.45400    -999.25   85.06850   85.06850   10.68510    -999.25   15.22340   14.79770   -4.57630   15.22340
 7200.00000    -999.25   10.09580   10.09580  111.75490  111.75490    -999.25    -999.25    -999.25    8.94820    -999.25   75.76840   75.76840    -999.25   86.21590   86.21590    8.85930    -999.25   12.34190   15.77490   -3.87930   12.34190
 7250.00000    -999.25   12.74800   12.74800  104.53280  104.53280    -999.25    -999.25    -999.25    9.56640    -999.25   78.82430   78.82430    -999.25   83.86900   83.86900    9.14610    -999.25   12.73000   15.38240   -4.55010   12.73000
 7300.00000    -999.25    9.69320    9.69320  107.41640  107.41640    -999.25    -999.25    -999.25    9.30960    -999.25   84.35260   84.35260    -999.25  103.28100  103.28100    8.87770    -999.25   13.35100   16.97980   -3.23100   13.35100
 7350.00000    -999.25   11.64210   11.64210  185.92050  185.92050    -999.25    -999.25    -999.25    5.37860    -999.25   84.54610   84.54610    -999.25   82.25330   82.25330    5.37480    -999.25    7.72630   16.25040   -4.24050    7.72630
 7400.00000    -999.25    9.90220    9.90220  109.01680  109.01680    -999.25    -999.25    -999.25    9.17290    -999.25   79.01520   79.01520    -999.25   87.92480   87.92480    8.75400    -999.25   13.08320   18.30430   -2.46490   13.08320
 7450.00000    -999.25    9.45220    9.45220   43.95390   43.95390    -999.25    -999.25    -999.25   22.75110    -999.25   69.23970   69.23970    -999.25   72.79740   72.79740   20.61470    -999.25   28.13860   17.43640   -3.61290   28.13860
 7500.00000    -999.25   11.44990   11.44990  296.10130  296.10130    -999.25    -999.25    -999.25    3.37720    -999.25   87.24010   87.24010    -999.25   84.10460   84.10460    3.56640    -999.25    5.28830   16.30160   -5.02600    5.28830
 7550.00000    -999.25    9.35800    9.35800   36.88080   36.88080    -999.25    -999.25    -999.25   27.11440    -999.25   67.62360   67.62360    -999.25   49.85200   49.85200   23.96720    -999.25   31.82800   -3.38310  -24.98900   31.82800
 7600.00000    -999.25   11.53880   11.53880  100.88380  100.88380    -999.25    -999.25    -999.25    9.91240    -999.25   79.29800   79.29800    -999.25   86.16320   86.16320    9.73280    -999.25   12.98860   18.21230   -3.67370   12.98860
 7650.00000    -999.25    9.47040    9.47040   52.04540   52.04540    -999.25    -999.25    -999.25   19.21400    -999.25   68.27750   68.27750    -999.25   63.39450   63.39450   17.47860    -999.25   22.31340   15.50590   -6.65840   22.31340
 7700.00000    -999.25    9.70680    9.70680   70.03300   70.03300    -999.25    -999.25    -999.25   14.27900    -999.25   73.32320   73.32320    -999.25   76.40570   76.40570   13.12650    -999.25   21.06350   20.18280   -2.26170   21.06350
 7750.00000    -999.25    9.54370    9.54370   56.59980   56.59980    -999.25    -999.25    -999.25   17.66790    -999.25   68.98240   68.98240    -999.25   70.97960   70.97960   16.22960    -999.25   25.22390   15.88760   -6.83520   25.22390
 7800.00000    -999.25    9.92350    9.92350   74.26470   74.26470    -999.25    -999.25    -999.25   13.46530    -999.25   74.74800   74.74800    -999.25   68.96470   68.96470   12.58580    -999.25   20.06430   17.14420   -5.85690   20.06430
 7850.00000    -999.25    9.76130    9.76130   55.16630   55.16630    -999.25    -999.25    -999.25   18.12700    -999.25   68.74420   68.74420    -999.25   69.35030   69.35030   17.28560    -999.25   26.69200   16.24720   -7.03400   26.69200
