~Version ---------------------------------------------------
VERS.      2.0 : CWLS log ASCII Standard -VERSION 2.0
WRAP.       NO : One line per depth step
CREA. 11/15/17 : LAS Creation Date
~Well ------------------------------------------------------
STRT.FT                        950.0 : START DEPTH
STOP.FT                       9400.0 : STOP DEPTH
STEP.FT                     50.00000 : STEP LENGTH
NULL.                        -999.25 : NULL VALUE
COMP. CANADIAN PACIFIC OIL & GAS LTD : COMPANY
WELL.       CPOG OBERLIN 10-15-38-21 : WELL
FLD .                                : FIELD
LOC .                                : LOCATION
CTRY.                         CANADA : COUNTRY
SRVC.                        Unknown : SERVICE COMPANY
DATE.                    13-Apr-1967 : LOGDATE
PROV.                        Alberta : PROVINCE
UWI .               100101503821W400 : UNIQUE WELL ID
SLAT.WGS84                  52.26833 : SURFACE LATITUDE
SLON.WGS84                 -112.9183 : SURFACE LONGITUDE
~Curve Information -----------------------------------------
DEPT   .FT    : Depth Curve
CALDED .IN    : CALIPER FROM DENSITY LOG
CALED  .IN    : CALIPER FROM CALIPER LOG
CALWS  .IN    : CALIPER [CALED SPL. TO CALED @ 4501']
CONDWS .MMHO  : CONDUCTIVITY [1000/DRESWS]
DCORED .G/C3  : DENSITY CORRECTION [DRHOED]
DCORWS .G/C3  : DENSITY CORRECTION [DCORED]
DENWS  .G/C3  : FORMATION BULK DENSITY [RHOBED]
DPOLSWS.V/V   : DENSITY POROSITY LIMESTONE [CALC ROM DENWS, M=2.71, F=1.00]
DRESWS .OHMM  : DEEP RESISTIVITY [ILDED]
DRHOED .G/C3  : DENSITY CORRECTION FROM DENSITY LOG
DTED   .US/F  : DELTA TIME FROM SONIC LOG [ADJ. TO RESISTIVITY LOG]
DTWS   .US/F  : COMPRESSIONAL SONIC [DTED]
GRNED  .GAPI  : GAMMA RAY FROM NEUTRON GAMMA RAY LOG [ADJ. TO RESISTIVITY LOG]
GRSED  .GAPI  : GAMMA RAY FROM SONIC LOG [ADJ. TO RESISTIVITY LOG]
GRWS   .GAPI  : GAMMA RAY [GRSED]
ILDED  .OHMM  : DEEP INDUCTION FROM RESISTIVITY LOG
ILMED  .OHMM  : INDUCTION MEDIUM FROM RESISTIVITY LOG
LL8ED  .OHMM  : LATEROLOG-8 FROM RESISTIVITY LOG
MRESWS .OHMM  : MEDIUM RESISTIVITY [ILMED]
NEUTED .NAPI  : NEUTRON FROM NEUTRON GAMMA RAY LOG [ADJ. TO RESISTIVITY LOG]
NEUTWS .NAPI  : NEUTRON [NEUTED]
RHOBED .G/C3  : BULK DENSITY FROM DENSITY LOG
SPRED  .MV    : SPONTANEOUS POTENTIAL FROM RESISTIVITY
SPWS   .MV    : SPONTANEOUS POTENTIAL [SPRED]
SRESWS .OHMM  : SHALLOW RESISTIVITY [LL8ED]
~Params ----------------------------------------------------
PD  .                     GL : PERMANENT DATUM
EPD .FT               2675.8 : ELEVATION PERMANENT DATUM
LMF .                     KB : LOG MEASURED FROM
DAPD.FT                   13 : FEET ABOVE PERMANENT DATUM
DMF .                     KB : DRILLING MEASURED FROM
EKB .FT               2688.8 : KELLY BUSHING
EGL .FT               2675.8 : GROUND LEVEL
DATE.               04/13/67 : RUN DATE
RUN .                      1 : RUN NUMBER
DD  .FT                 9418 : DEPTH DRILLER
DL  .FT                 9417 : DEPTH LOGGER
BLI .FT                 9413 : BOTTOM LOG INTERVAL
TLI .FT                  920 : TOP LOG INTERVAL
CBD .FT                  920 : CASING BOTTOM DRILLER
CBL .FT                  918 : CASING BOTTOM LOGGER
BS  .IN                 8.75 : BIT SIZE
BSD .FT                 9417 : BIT SIZE AT DEPTH
DFT .            CAUSTIC GEL : DRILLING FLUID TYPE
DFD .                   10.4 : DRILLING FLUID DENSITY
DFV .                     68 : DRILLING FLUID VISCOSITY
DFPH.                   10.5 : DRILLING FLUID PH
DFL .                    9.6 : DRILLING FLUID LOSS
MSS .               FLOWLINE : MUD SAMPLE SOURCE
RMS .OHMM              0.397 : RESISTIVITY MUD SAMPLE
MST .DEGF                 62 : MUD SAMPLE TEMPERATURE
RMF .OHMM              0.211 : RESISTIVITY MUD FILTRATE SAMPLE
MFST.DEGF                 76 : MUD FILTRATE SAMPLE TEMPERATURE
RMB .OHMM              0.094 : RESISTIVITY MUD AT BHT
TCS .HRS                   3 : TIME CIRCULATED STOPPED
LUN .                   7014 : LOGGING UNIT NUMBER
LUL .                  STETT : LOGGING UNIT LOCATION
ENGI.                  YOUNG : RECORDING ENGINEER
WITN.                KOZBIAL : WITNESSED BY
CLNT.                A2DTECH : CLIENT CODE
ORIG.            2" 5" PRINT : ORIGIN OF DATA
UWI .       100101503821W400 : UNIQUE WELL ID
DICO. A2D Technologies, Inc. : DIGITIZING COMPANY
~Other -----------------------------------------------------
~ASCII -----------------------------------------------------
# ...
 2350.00000    -999.25    -999.25    -999.25  303.79440    -999.25    -999.25    -999.25    -999.25    3.29170    -999.25  108.26810  108.26810    -999.25   67.18970   67.18970    3.29170    3.06260    3.95990    3.06260    -999.25    -999.25    -999.25 -109.73550   -4.27630    3.95990
 2400.00000    -999.25    -999.25    -999.25  186.96490    -999.25    -999.25    -999.25    -999.25    5.34860    -999.25   93.77370   93.77370    -999.25   77.57940   77.57940    5.34860    4.46450    5.79250    4.46450    -999.25    -999.25    -999.25 -110.33030   -4.94140    5.79250
 2450.00000    -999.25    -999.25    -999.25  185.12010    -999.25    -999.25    -999.25    -999.25    5.40190    -999.25   93.00560   93.00560    -999.25   72.07250   72.07250    5.40190    4.29660    6.02100    4.29660    -999.25    -999.25    -999.25 -110.93450   -5.61640    6.02100
 2500.00000    -999.25    -999.25    -999.25  117.53510    -999.25    -999.25    -999.25    -999.25    8.50810    -999.25   89.49830   89.49830    -999.25   68.43190   68.43190    8.50810    5.97350   11.60560    5.97350    -999.25    -999.25    -999.25 -111.57400   -6.32630   11.60560
 2550.00000    -999.25    -999.25    -999.25  161.60450    -999.25    -999.25    -999.25    -999.25    6.18800    -999.25   99.05250   99.05250    -999.25   76.72000   76.72000    6.18800    5.00070    6.75760    5.00070    -999.25    -999.25    -999.25 -111.03410   -5.85670    6.75760
 2600.00000    -999.25    -999.25    -999.25  163.26800    -999.25    -999.25    -999.25    -999.25    6.12490    -999.25   88.77640   88.77640    -999.25   82.42440   82.42440    6.12490    4.99720    6.62900    4.99720    -999.25    -999.25    -999.25 -110.07130   -4.96470    6.62900
 2650.00000    -999.25    -999.25    -999.25  151.40810    -999.25    -999.25    -999.25    -999.25    6.60470    -999.25   97.62060   97.62060    -999.25   92.27730   92.27730    6.60470    5.45220    7.63730    5.45220    -999.25    -999.25    -999.25 -111.98010   -6.94390    7.63730
 2700.00000    -999.25    -999.25    -999.25  163.59650    -999.25    -999.25    -999.25    -999.25    6.11260    -999.25  101.68800  101.68800    -999.25   95.72760   95.72760    6.11260    5.10010    7.57760    5.10010    -999.25    -999.25    -999.25 -111.00380   -6.03840    7.57760
 2750.00000    -999.25    -999.25    -999.25  107.25010    -999.25    -999.25    -999.25    -999.25    9.32400    -999.25   88.73690   88.73690    -999.25   94.10450   94.10450    9.32400    8.29730   11.91230    8.29730    -999.25    -999.25    -999.25 -110.75140   -5.85630   11.91230
 2800.00000    -999.25    -999.25    -999.25  160.54720    -999.25    -999.25    -999.25    -999.25    6.22890    -999.25   94.43050   94.43050    -999.25   97.06490   97.06490    6.22890    5.52440    8.39380    5.52440    -999.25    -999.25    -999.25 -110.68010   -5.85540    8.39380
 2850.00000    -999.25    -999.25    -999.25  178.74700    -999.25    -999.25    -999.25    -999.25    5.59450    -999.25  101.47630  101.47630    -999.25   90.43240   90.43240    5.59450    4.71090    7.00280    4.71090    -999.25    -999.25    -999.25 -110.69880   -5.94490    7.00280
 2900.00000    -999.25    -999.25    -999.25  165.53380    -999.25    -999.25    -999.25    -999.25    6.04120    -999.25   92.17420   92.17420    -999.25   85.41120   85.41120    6.04120    5.47840    6.76340    5.47840    -999.25    -999.25    -999.25 -110.54120   -5.85760    6.76340
 2950.00000    -999.25    -999.25    -999.25  229.73190    -999.25    -999.25    -999.25    -999.25    4.35290    -999.25  100.55630  100.55630    -999.25   95.91540   95.91540    4.35290    3.99140    5.08430    3.99140    -999.25    -999.25    -999.25 -110.52360   -5.86360    5.08430
 3000.00000    -999.25    -999.25    -999.25  215.90340    -999.25    -999.25    -999.25    -999.25    4.63170    -999.25  102.04000  102.04000    -999.25   84.73940   84.73940    4.63170    4.06390    5.37160    4.06390    -999.25    -999.25    -999.25 -108.24010   -3.58010    5.37160
 3050.00000    -999.25    -999.25    -999.25  174.89200    -999.25    -999.25    -999.25    -999.25    5.71840    -999.25   93.13190   93.13190    -999.25   82.65990   82.65990    5.71840    4.82230    6.17500    4.82230    -999.25    -999.25    -999.25 -108.98610   -4.32610    6.17500
 3100.00000    -999.25    -999.25    -999.25  189.23980    -999.25    -999.25    -999.25    -999.25    5.28430    -999.25   97.47680   97.47680    -999.25   85.83390   85.83390    5.28430    4.70250    5.89680    4.70250    -999.25    -999.25    -999.25 -109.71870   -5.05870    5.89680
 3150.00000    -999.25    -999.25    -999.25  195.31100    -999.25    -999.25    -999.25    -999.25    5.12010    -999.25  100.05400  100.05400    -999.25   88.74040   88.74040    5.12010    4.57140    5.89860    4.57140    -999.25    -999.25    -999.25 -109.12060   -4.46060    5.89860
 3200.00000    -999.25    -999.25    -999.25  159.78270    -999.25    -999.25    -999.25    -999.25    6.25850    -999.25   93.94780   93.94780    -999.25   86.35040   86.35040    6.25850    5.37690    7.60820    5.37690    -999.25    -999.25    -999.25 -110.15080   -5.49080    7.60820
 3250.00000    -999.25    -999.25    -999.25  155.03640    -999.25    -999.25    -999.25    -999.25    6.45010    -999.25   89.91790   89.91790    -999.25   90.53270   90.53270    6.45010    4.85300    6.24700    4.85300    -999.25    -999.25    -999.25 -110.54940   -5.88940    6.24700
 3300.00000    -999.25    -999.25    -999.25  173.51560    -999.25    -999.25    -999.25    -999.25    5.76320    -999.25   97.80650   97.80650    -999.25   94.08300   94.08300    5.76320    4.75610    5.47700    4.75610    -999.25    -999.25    -999.25 -110.38620   -5.72620    5.47700
 3350.00000    -999.25    -999.25    -999.25  193.78340    -999.25    -999.25    -999.25    -999.25    5.16040    -999.25   91.56650   91.56650    -999.25   92.99620   92.99620    5.16040    4.88360    6.02770    4.88360    -999.25    -999.25    -999.25 -110.72700   -6.06700    6.02770
 3400.00000    -999.25    -999.25    -999.25  199.92290    -999.25    -999.25    -999.25    -999.25    5.00210    -999.25   98.67620   98.67620    -999.25   93.40330   93.40330    5.00210    4.28790    6.07420    4.28790    -999.25    -999.25    -999.25 -111.67750   -7.01750    6.07420
 3450.00000    -999.25    -999.25    -999.25  226.36210    -999.25    -999.25    -999.25    -999.25    4.41770    -999.25  100.33020  100.33020    -999.25   96.61410   96.61410    4.41770    3.88710    5.71360    3.88710    -999.25    -999.25    -999.25 -110.88900   -6.22900    5.71360
 3500.00000    -999.25    -999.25    -999.25  135.75890    -999.25    -999.25    -999.25    -999.25    7.36600    -999.25   95.23260   95.23260    -999.25  112.20090  112.20090    7.36600    6.81140   10.75720    6.81140    -999.25    -999.25    -999.25 -110.64370   -5.98370   10.75720
 3550.00000    -999.25    -999.25    -999.25  112.68290    -999.25    -999.25    -999.25    -999.25    8.87530    -999.25   90.34100   90.34100    -999.25   83.89990   83.89990    8.87530    8.53890   12.99250    8.53890    -999.25    -999.25    -999.25 -112.51350   -7.93030   12.99250
 3600.00000    -999.25   13.24730   13.24730  202.94680    -999.25    -999.25    -999.25    -999.25    4.92740    -999.25   96.24950   96.24950    -999.25   94.86790   94.86790    4.92740    4.54500    6.29120    4.54500    -999.25    -999.25    -999.25 -112.23770   -7.74480    6.29120
 3650.00000    -999.25   11.29950   11.29950  106.06010    -999.25    -999.25    -999.25    -999.25    9.42880    -999.25  102.90160  102.90160    -999.25  162.86060  162.86060    9.42880    8.98690   17.52270    8.98690    -999.25    -999.25    -999.25 -113.85500   -9.45190   17.52270
 3700.00000    -999.25   11.39460   11.39460  201.11820    -999.25    -999.25    -999.25    -999.25    4.97220    -999.25  106.63010  106.63010    -999.25  144.29010  144.29010    4.97220    4.62560    7.62830    4.62560    -999.25    -999.25    -999.25 -112.24690   -7.93420    7.62830
