~Version ---------------------------------------------------
VERS.      2.0 : CWLS log ASCII Standard -VERSION 2.0
WRAP.       NO : One line per depth step
CREA. 12/14/17 : LAS Creation Date
~Well ------------------------------------------------------
STRT.FT                     1150.0 : START DEPTH
STOP.FT                    10050.0 : STOP DEPTH
STEP.FT                   50.00000 : STEP LENGTH
NULL.                      -999.25 : NULL VALUE
COMP.     HOME OIL COMPANY LIMITED : COMPANY
WELL. HOME HB CHIP LAKE 8-33-55-12 : WELL
FLD .                              : FIELD
LOC .                              : LOCATION
CTRY.                       CANADA : COUNTRY
SRVC.                      Unknown : SERVICE COMPANY
DATE.                  04-Jan-1962 : LOGDATE
PROV.                      Alberta : PROVINCE
UWI .             100083305512W500 : UNIQUE WELL ID
SLAT.WGS84                53.79379 : SURFACE LATITUDE
SLON.WGS84               -115.7126 : SURFACE LONGITUDE
~Curve Information -----------------------------------------
DEPT  .FT    : Depth Curve
CALWS .IN    : CALIPER [MCALED]
CILDED.MMHO  : DEEP INDUCTION CONDUCTIVITY FROM IEL LOG [ADJ. TO ILDED]
CONDWS.MMHO  : DEEP CONDUCTIVITY [CILDED]
DRESWS.OHMM  : DEEP RESISTIVITY [1000/CILDED]
DTED  .US/F  : DELTA-T (3' SPACING & 3' PICKUP SPAN) FROM SONIC LOG [ADJ. TO IEL LOG]
DTWS  .US/F  : COMPRESSIONAL SONIC [DTED]
GRSED .GAPI  : GAMMA RAY FROM SONIC LOG [ADJ. TO IEL LOG]
GRWS  .GAPI  : GAMMA RAY [GRSED]
ILDED .OHMM  : DEEP INDUCTION RESISTIVITY FROM IEL LOG
MCALED.IN    : MICRO CALIPER FROM ML LOG
SNED  .OHMM  : 16 INCH  SHORT NORMAL FROM IEL LOG
SPRED .MV    : SPONTANEOUS POTENTIAL FROM IEL LOG
SPWS  .MV    : SPONTANEOUS POTENTIAL [BASELINE 0 MV,SPRED]
SRESWS.OHMM  : SHALLOW RESISTIVITY [SNED]
~Params ----------------------------------------------------
PD  .                    CBF : PERMANENT DATUM
EPD .FT               2849.9 : ELEVATION PERMANENT DATUM
LMF .                     KB : LOG MEASURED FROM
DAPD.FT                 13.4 : FEET ABOVE PERMANENT DATUM
EKB .FT               2863.3 : KELLY BUSHING
EGL .FT               2849.9 : GROUND LEVEL
DATE.               01/04/62 : RUN DATE
RUN .                      2 : RUN NUMBER
DD  .FT                10056 : DEPTH DRILLER
DL  .FT                10055 : DEPTH LOGGER
BLI .FT                10055 : BOTTOM LOG INTERVAL
TLI .FT                 6100 : TOP LOG INTERVAL
CBD .FT                 1152 : CASING BOTTOM DRILLER
BS  .IN                 8.75 : BIT SIZE
BSD .FT                10056 : BIT SIZE AT DEPTH
DFT .                 UNICAL : DRILLING FLUID TYPE
DFD .                    9.7 : DRILLING FLUID DENSITY
DFV .                    135 : DRILLING FLUID VISCOSITY
DFPH.                    9.0 : DRILLING FLUID PH
DFL .                    5.0 : DRILLING FLUID LOSS
RMS .OHMM                2.2 : RESISTIVITY MUD SAMPLE
MST .DEGF                 53 : MUD SAMPLE TEMPERATURE
RMF .OHMM                1.3 : RESISTIVITY MUD FILTRATE SAMPLE
MFST.DEGF                 50 : MUD FILTRATE SAMPLE TEMPERATURE
RMC .OHMM                2.7 : RESISTIVITY MUD CAKE
MCST.DEGF                 50 : MUD CAKE SAMPLE TEMPERATURE
RMB .OHMM               0.72 : RESISTIVITY MUD AT BHT
TCS .HRS                 2.5 : TIME CIRCULATED STOPPED
LUN .                   1576 : LOGGING UNIT NUMBER
LUL .                     DV : LOGGING UNIT LOCATION
ENGI.                NORQUAY : RECORDING ENGINEER
WITN.                  SCOTT : WITNESSED BY
CLNT.                A2DTECH : CLIENT CODE
ORIG.            2" 5" PRINT : ORIGIN OF DATA
UWI .       100083305512W500 : UNIQUE WELL ID
DICO. A2D Technologies, Inc. : DIGITIZING COMPANY
~Other -----------------------------------------------------
~ASCII -----------------------------------------------------
# ...
 6050.00000   10.04850   83.76420   83.76420   11.93830   74.30500   74.30500   69.22700   69.22700   12.39950   10.04850   17.86590  -31.14830   -8.24560   17.86590
 6100.00000    9.52210   95.14320   95.14320   10.51050   81.34980   81.34980   73.35190   73.35190   10.75630    9.52210   16.44930  -26.85670   -4.54290   16.44930
 6150.00000    9.21910   59.42580   59.42580   16.82770   67.09410   67.09410   51.28300   51.28300   20.11460    9.21910   39.50740  -24.49620   -2.76740   39.50740
 6200.00000    9.01820   65.70310   65.70310   15.22000   71.54490   71.54490   75.16990   75.16990   15.93350    9.01820   26.27440  -42.45230  -21.22860   26.27440
 6250.00000    8.88260   18.68500   18.68500   53.51890   73.78270   73.78270   31.04710   31.04710   76.33460    8.88260   96.23340  -57.47070  -36.69940   96.23340
 6300.00000   10.25770  142.79730  142.79730    7.00290   76.77880   76.77880   92.49570   92.49570    7.26000   10.25770   12.10510  -26.30170   -5.98280   12.10510
 6350.00000    9.54920  122.79240  122.79240    8.14380   89.96620   89.96620  105.15450  105.15450    7.72870    9.54920   12.94160  -23.69340   -3.82990   12.94160
 6400.00000    8.76540    7.52890    7.52890  132.82150   56.64570   56.64570   23.92090   23.92090  327.75630    8.76540  311.68240 -106.13990  -86.34160  311.68240
 6450.00000    8.73380    9.46930    9.46930  105.60440   57.59450   57.59450   52.11330   52.11330  298.86140    8.73380  264.32010  -77.19200  -57.42890  264.32010
 6500.00000    8.38120 1197.12130 1197.12130    0.83530   71.75480   71.75480   39.05560   39.05560    0.73640    8.38120   13.77040 -190.84430 -171.11620   13.77040
 6550.00000    8.70820   94.87730   94.87730   10.53990   54.74950   54.74950   37.96470   37.96470   10.65210    8.70820   19.90880 -112.83230  -93.13920   19.90880
 6600.00000    8.35790  101.99340  101.99340    9.80460   52.46020   52.46020   21.81340   21.81340    9.99870    8.35790   56.20700 -184.01320 -164.35530   56.20700
 6650.00000    9.64550  126.37970  126.37970    7.91270   62.89570   62.89570   93.47230   93.47230    7.91240    9.64550   12.96750  -58.97840  -39.35550   12.96750
 6700.00000    9.03410  107.13340  107.13340    9.33420   66.03210   66.03210   40.39860   40.39860    9.97750    9.03410   26.86200  -85.50070  -65.91300   26.86200
 6750.00000   10.98790   18.13920   18.13920   55.12920   53.89280   53.89280   33.05610   33.05610   83.91520   10.98790   36.13300  -54.07780  -34.52510   36.13300
 6800.00000    9.51020   11.41860   11.41860   87.57640   55.05200   55.05200   24.90730   24.90730  194.13770    9.51020   87.40620  -41.86710  -22.34940   87.40620
 6850.00000    9.34480   19.82770   19.82770   50.43450   56.44530   56.44530   43.65210   43.65210   76.59190    9.34480   51.86980  -29.09720   -9.61480   51.86980
 6900.00000    8.78120   28.85860   28.85860   34.65170   58.23820   58.23820   37.52720   37.52720   50.64850    8.78120   46.25030  -30.58530  -11.13790   46.25030
 6950.00000    8.80340   19.68550   19.68550   50.79880   58.59030   58.59030   41.63130   41.63130   70.90660    8.80340   55.34380  -23.95140   -4.53920   55.34380
 7000.00000    8.76780   20.63320   20.63320   48.46560   57.83070   57.83070   42.92830   42.92830   72.00690    8.76780   53.07230  -27.82730   -8.45010   53.07230
 7050.00000    8.97430   22.80140   22.80140   43.85700   58.04000   58.04000   45.57790   45.57790   56.31150    8.97430   49.93000  -31.10070  -11.75850   49.93000
 7100.00000    9.00350   14.82710   14.82710   67.44410   57.59500   57.59500   42.81220   42.81220  109.51050    9.00350   69.63670  -27.95060   -8.64360   69.63670
 7150.00000    9.04870   27.01020   27.01020   37.02310   70.13980   70.13980   99.55640   99.55640   55.39360    9.04870   47.89420  -20.37260   -1.10060   47.89420
 7200.00000    8.94550   36.84760   36.84760   27.13880   64.94770   64.94770  108.19490  108.19490   49.60730    8.94550   45.15320  -34.56830  -15.14890   45.15320
 7250.00000    9.76180    5.07270    5.07270  197.13370   51.54450   51.54450   18.34960   18.34960  562.98980    9.76180  134.93060  -91.63280  -72.06320  134.93060
 7300.00000    8.79470    5.66170    5.66170  176.62540   50.69120   50.69120   16.59440   16.59440  564.14550    8.79470  107.77040  -85.99320  -66.27350  107.77040
 7350.00000    8.63870    4.67070    4.67070  214.10070   48.59530   48.59530   16.04630   16.04630  561.27390    8.63870  150.74270  -94.27390  -74.40310  150.74270
 7400.00000    8.97160    4.51260    4.51260  221.60170   53.63420   53.63420   14.00310   14.00310  561.44490    8.97160  135.96620 -117.76010  -97.73920  135.96620
 7450.00000   11.36400    6.51560    6.51560  153.47780   52.80430   52.80430   22.48180   22.48180  559.66670   11.36400  133.96710 -124.97120 -104.79920  133.96710
 7500.00000   10.66390    3.67170    3.67170  272.35340   53.78780   53.78780   19.41700   19.41700  561.35750   10.66390  144.25090 -114.85990  -94.53770  144.25090
 7550.00000    8.67340   11.36400   11.36400   87.99720   50.98280   50.98280   15.18630   15.18630  235.73180    8.67340  116.56760 -127.18370 -106.71140  116.56760
 7600.00000    9.95370    7.68650    7.68650  130.09820   54.02900   54.02900   14.99680   14.99680  392.72570    9.95370  106.73390 -105.19020  -84.56680  106.73390
 7650.00000    9.58820   14.60210   14.60210   68.48330   52.08850   52.08850   14.09670   14.09670  114.19910    9.58820  102.86450 -115.55400  -94.78050  102.86450
 7700.00000   10.41550    2.18540    2.18540  457.58210   54.32090   54.32090   16.80170   16.80170  558.99740   10.41550  162.75570 -106.35330  -85.42870  162.75570
 7750.00000    8.88800    6.47420    6.47420  154.45920   51.14100   51.14100   11.63810   11.63810  562.97920    8.88800  142.04050 -109.39570  -88.32100  142.04050
 7800.00000    8.10480   46.04050   46.04050   21.72000   52.70980   52.70980   14.87740   14.87740   26.32960    8.10480  103.47670 -187.76970 -166.54480  103.47670
 7850.00000    7.95810  105.97220  105.97220    9.43640   54.81150   54.81150   17.57310   17.57310   11.11990    7.95810   68.48790 -183.51950 -162.14350   68.48790
 7900.00000    9.03610   35.04560   35.04560   28.53430   57.11800   57.11800   46.93270   46.93270   30.66010    9.03610   41.27690  -86.54990  -65.02380   41.27690
 7950.00000    8.88840   34.82650   34.82650   28.71380   48.96230   48.96230   23.63320   23.63320   40.78140    8.88840   63.73600 -115.24360  -93.56640   63.73600
 8000.00000    8.80350   16.41180   16.41180   60.93180   58.36650   58.36650   49.73070   49.73070  114.79640    8.80350   77.09010 -105.36580  -83.53850   77.09010
 8050.00000    8.69460    8.36210    8.36210  119.58720   56.24170   56.24170   36.42810   36.42810  461.00420    8.69460   85.16470 -106.40810  -84.43070   85.16470
 8100.00000    8.71050   12.61480   12.61480   79.27200   55.55250   55.55250   39.09840   39.09840  145.27620    8.71050   79.37080  -49.23880  -27.11020   79.37080
 8150.00000    8.69750   22.26830   22.26830   44.90690   59.01080   59.01080   50.69720   50.69720   68.36310    8.69750   52.54200  -48.77620  -26.49750   52.54200
 8200.00000   11.74450   75.19140   75.19140   13.29940   68.81560   68.81560   64.53930   64.53930   14.59850   11.74450   17.12550  -47.34090  -24.91110   17.12550
 8250.00000   14.38930  181.48110  181.48110    5.51020   80.64600   80.64600   92.90510   92.90510    5.86680   14.38930    7.01850  -41.98150  -19.40160    7.01850
 8300.00000   13.14240  118.45090  118.45090    8.44230   74.86030   74.86030   73.49370   73.49370    8.77110   13.14240   10.28870  -38.30770  -15.57770   10.28870
 8350.00000   11.37510  132.26180  132.26180    7.56080   81.70780   81.70780   89.49700   89.49700    7.62370   11.37510   10.27410  -50.70810  -27.82700   10.27410
 8400.00000    8.78120   39.70980   39.70980   25.18270   61.31380   61.31380   45.84270   45.84270   30.22710    8.78120   33.69170  -46.92720  -23.89590   33.69170
 8450.00000   11.25070  115.69830  115.69830    8.64320   77.76890   77.76890   76.17490   76.17490    9.12470   11.25070   12.22580  -44.36390  -21.18150   12.22580
