~Version ---------------------------------------------------
VERS.      2.0 : CWLS log ASCII Standard -VERSION 2.0
WRAP.       NO : One line per depth step
CREA. 10/05/17 : LAS Creation Date
~Well ------------------------------------------------------
STRT.FT                  900.0 : START DEPTH
STOP.FT                11100.0 : STOP DEPTH
STEP.FT               50.00000 : STEP LENGTH
NULL.                   -999.0 : NULL VALUE
COMP.     CHEVRON STANDARD LTD : COMPANY
WELL. CHEVRON CLARK 10-2-59-18 : WELL
FLD .             KAYBOB SOUTH : FIELD
LOC .                          : LOCATION
CTRY.                   CANADA : COUNTRY
SRVC.             Schlumberger : SERVICE COMPANY
DATE.              17-Jul-1968 : LOGDATE
PROV.                  Alberta : PROVINCE
UWI .         100100205918W500 : UNIQUE WELL ID
SLAT.WGS84            54.07468 : SURFACE LATITUDE
SLON.WGS84           -116.5832 : SURFACE LONGITUDE
~Curve Information -----------------------------------------
DEPT    .FT    : Depth Curve
CALDED  .IN    : CALIPER FROM DENSITY LOG
CALNED  .IN    : CALIPER FROM NEUTRON LOG [ADJ. TO RESISTIVITY LOG]
CALSED  .IN    : CALIPER FROM SONIC LOG [ADJ. TO RESISTIVITY LOG]
CALWS   .IN    : CALIPER [CALSED SPL. TO CALDED @ 10654']
CONDWS  .MMHO  : CONDUCTIVITY [1000/DRESWS]
DCORWS  .G/C3  : DENSITY CORRECTION [DRHOED]
DENWS   .G/C3  : FORMATION BULK DENSITY [RHOBED]
DPHIDLED.V/V   : DENSITY POROSITY DOLOMITE [M=2.85, F=1.00] FROM DENSITY LOG [ADJ. TO RESISTIVITY LOG]
DPHILSED.V/V   : DENSITY POROSITY LIMESTONE [M=2.71,F=1.0] FROM DENSITY LOG [ADJ. TO RESISTIVITY LOG]
DPOLSWS .V/V   : DENSITY POROSITY LIMESTONE [CALC FROM DENWS,M=2.71, F=1.00]
DRESWS  .OHMM  : DEEP RESISTIVITY [ILDED]
DRHOED  .G/C3  : BULK DENSITY CORRECTION FROM DENSITY LOG [ADJ. TO RESISTIVITY LOG]
DTED    .US/F  : DELTA-T FROM SONIC LOG [ADJ. TO RESISTIVITY LOG]
DTWS    .US/F  : COMPRESSIONAL SONIC [DTED]
GRSED   .GAPI  : GAMMA RAY FROM SONIC LOG [ADJ. TO RESISTIVITY LOG]
GRWS    .GAPI  : GAMMA RAY [GRSED]
ILDED   .OHMM  : DEEP INDUCTION RESISTIVITY FROM RESISTIVITY LOG
ILMED   .OHMM  : MEDIUM INDUCTION RESISTIVITY FROM RESISTIVITY LOG
LL8ED   .OHMM  : LATEROLOG-8 RESISTIVITY FROM RESISTIVITY LOG
MRESWS  .OHMM  : MEDIUM RESISTIVITY [ILMED]
NPOLSWS .V/V   : NEUTRON POROSITY [SNPLSED]
RHOBED  .G/C3  : BULK DENSITY FROM DENSITY LOG
SNPLSED .V/V   : SIDEWALL NEUTRON POROSITY LIMESONTE FROM SNP LOG [ADJ. TO RESISTIVITY LOG]
SPRED   .MV    : SPONTANEOUS POTENTIAL FROM RESISTIVITY LOG
SPWS    .MV    : SPONTANEOUS POTENTIAL [BASELINE 0 MV,SPRED]
SRESWS  .OHMM  : SHALLOW RESISTIVITY [LL8ED]
~Params ----------------------------------------------------
PD  .                     GL : PERMANENT DATUM
EPD .FT                 3126 : ELEVATION PERMANENT DATUM
LMF .                     KB : LOG MEASURED FROM
DAPD.FT                   14 : FEET ABOVE PERMANENT DATUM
EKB .FT                 3140 : KELLY BUSHING
EDF .FT                 3126 : DRILLING FLOOR
DATE.               08/13/68 : RUN DATE
RUN .                      2 : RUN NUMBER
DD  .FT                11108 : DEPTH DRILLER
DL  .FT                11107 : DEPTH LOGGER
BLI .FT                11102 : BOTTOM LOG INTERVAL
TLI .FT                10629 : TOP LOG INTERVAL
CBD .FT                10630 : CASING BOTTOM DRILLER
CBL .FT                10629 : CASING BOTTOM LOGGER
BS  .IN                 6.25 : BIT SIZE
BSD .FT                11108 : BIT SIZE AT DEPTH
DFT .                    GEL : DRILLING FLUID TYPE
DFD .                    9.7 : DRILLING FLUID DENSITY
DFV .                     87 : DRILLING FLUID VISCOSITY
RMS .OHMM               1.52 : RESISTIVITY MUD SAMPLE
MST .DEGF                 70 : MUD SAMPLE TEMPERATURE
RMF .OHMM               1.25 : RESISTIVITY MUD FILTRATE SAMPLE
MFST.DEGF                 75 : MUD FILTRATE SAMPLE TEMPERATURE
RMC .OHMM               1.55 : RESISTIVITY MUD CAKE
MCST.DEGF                 70 : MUD CAKE SAMPLE TEMPERATURE
TCS .HRS                 1.5 : TIME CIRCULATED STOPPED
LUN .                   3702 : LOGGING UNIT NUMBER
LUL .                     DC : LOGGING UNIT LOCATION
ENGI.                   BIGG : RECORDING ENGINEER
WITN.         HOVDEBO GHAZAR : WITNESSED BY
CLNT.                A2DTECH : CLIENT CODE
ORIG.            2" 5" PRINT : ORIGIN OF DATA
UWI .       100100205918W500 : UNIQUE WELL ID
DICO. A2D Technologies, Inc. : DIGITIZING COMPANY
~Other -----------------------------------------------------
DIL-LAT/FDC/SNP/BCS LOG RAN
MATRIX VALUE NOT MENTION
~ASCII -----------------------------------------------------
# ...
 3600.00000     -999.0     -999.0   12.99820   12.99820  188.39490     -999.0     -999.0     -999.0     -999.0     -999.0    5.30800     -999.0   87.48710   87.48710   51.17850   51.17850    5.30800    5.10750    4.91720    5.10750     -999.0     -999.0     -999.0 -132.84070   -6.07230    4.91720
 3650.00000     -999.0     -999.0   13.65600   13.65600  192.59290     -999.0     -999.0     -999.0     -999.0     -999.0    5.19230     -999.0   89.87410   89.87410   51.23550   51.23550    5.19230    4.92900    5.28640    4.92900     -999.0     -999.0     -999.0 -129.03430   -2.49790    5.28640
 3700.00000     -999.0     -999.0   13.45900   13.45900  166.79460     -999.0     -999.0     -999.0     -999.0     -999.0    5.99690     -999.0   90.13770   90.13770   49.09120   49.09120    5.99690    5.78290    5.54320    5.78290     -999.0     -999.0     -999.0 -129.26770   -2.96480    5.54320
 3750.00000     -999.0     -999.0   12.91640   12.91640  181.13320     -999.0     -999.0     -999.0     -999.0     -999.0    5.52080     -999.0   98.00110   98.00110   56.03680   56.03680    5.52080    5.20030    4.95760    5.20030     -999.0     -999.0     -999.0 -130.68150   -4.61050    4.95760
 3800.00000     -999.0     -999.0   12.75290   12.75290  211.32710     -999.0     -999.0     -999.0     -999.0     -999.0    4.73200     -999.0   99.04810   99.04810   51.10570   51.10570    4.73200    4.49190    4.35810    4.49190     -999.0     -999.0     -999.0 -127.24150   -1.40250    4.35810
 3850.00000     -999.0     -999.0   13.36610   13.36610  110.00620     -999.0     -999.0     -999.0     -999.0     -999.0    9.09040     -999.0   80.09920   80.09920   50.30710   50.30710    9.09040    9.67800    8.66470    9.67800     -999.0     -999.0     -999.0 -131.95160   -6.34610    8.66470
 3900.00000     -999.0     -999.0   13.45480   13.45480  135.08770     -999.0     -999.0     -999.0     -999.0     -999.0    7.40260     -999.0   88.36830   88.36830   55.61860   55.61860    7.40260    7.05650    6.87790    7.05650     -999.0     -999.0     -999.0 -129.79190   -4.41830    6.87790
 3950.00000     -999.0     -999.0   12.42050   12.42050  373.63870     -999.0     -999.0     -999.0     -999.0     -999.0    2.67650     -999.0  100.51500  100.51500   64.03870   64.03870    2.67650    2.45130    2.54020    2.45130     -999.0     -999.0     -999.0 -128.96930   -3.82920    2.54020
 4000.00000     -999.0     -999.0   11.96780   11.96780   80.67830     -999.0     -999.0     -999.0     -999.0     -999.0   12.39490     -999.0   78.12080   78.12080   50.95660   50.95660   12.39490   15.49410   14.05030   15.49410     -999.0     -999.0     -999.0 -136.48720  -11.57910   14.05030
 4050.00000     -999.0     -999.0   13.22830   13.22830  174.81300     -999.0     -999.0     -999.0     -999.0     -999.0    5.72040     -999.0  115.01730  115.01730   58.74800   58.74800    5.72040    5.11700    5.44810    5.11700     -999.0     -999.0     -999.0 -128.86850   -4.19240    5.44810
 4100.00000     -999.0     -999.0   11.98360   11.98360   77.32340     -999.0     -999.0     -999.0     -999.0     -999.0   12.93270     -999.0   78.10800   78.10800   42.83730   42.83730   12.93270   16.59990   14.09550   16.59990     -999.0     -999.0     -999.0 -144.85940  -20.41680   14.09550
 4150.00000     -999.0     -999.0   12.89340   12.89340  151.61620     -999.0     -999.0     -999.0     -999.0     -999.0    6.59560     -999.0   86.48820   86.48820   57.98270   57.98270    6.59560    6.84900    5.97870    6.84900     -999.0     -999.0     -999.0 -131.24390   -7.03320    5.97870
 4200.00000     -999.0     -999.0   13.75650   13.75650  153.12010     -999.0     -999.0     -999.0     -999.0     -999.0    6.53670     -999.0   87.98990   87.98990   61.36540   61.36540    6.53670    6.91470    7.19380    6.91470     -999.0     -999.0     -999.0 -129.44840   -5.47120    7.19380
 4250.00000     -999.0     -999.0   12.87530   12.87530  133.63090     -999.0     -999.0     -999.0     -999.0     -999.0    7.48330     -999.0   86.29610   86.29610   66.50540   66.50540    7.48330    7.80930    8.01980    7.80930     -999.0     -999.0     -999.0 -130.85120   -7.10600    8.01980
 4300.00000     -999.0     -999.0   12.73520   12.73520  129.31090     -999.0     -999.0     -999.0     -999.0     -999.0    7.73330     -999.0   88.48130   88.48130   73.27500   73.27500    7.73330    7.18760    6.24850    7.18760     -999.0     -999.0     -999.0 -132.82350   -9.31030    6.24850
 4350.00000     -999.0     -999.0   13.37520   13.37520  136.83450     -999.0     -999.0     -999.0     -999.0     -999.0    7.30810     -999.0   93.57160   93.57160   75.50390   75.50390    7.30810    6.86860    6.45610    6.86860     -999.0     -999.0     -999.0 -132.52280   -9.24310    6.45610
 4400.00000     -999.0     -999.0   13.02970   13.02970  133.80430     -999.0     -999.0     -999.0     -999.0     -999.0    7.47360     -999.0   89.63780   89.63780   88.77720   88.77720    7.47360    7.42050    7.84950    7.42050     -999.0     -999.0     -999.0 -131.45360   -8.40580    7.84950
 4450.00000     -999.0     -999.0   11.91940   11.91940  160.83770     -999.0     -999.0     -999.0     -999.0     -999.0    6.22010     -999.0   90.15300   90.15300   89.16750   89.16750    6.22010    6.97640    7.91990    6.97640     -999.0     -999.0     -999.0 -131.13830   -8.32400    7.91990
 4500.00000     -999.0     -999.0   11.50060   11.50060   87.19310     -999.0     -999.0     -999.0     -999.0     -999.0   11.46880     -999.0   85.00270   85.00270   79.34310   79.34310   11.46880   14.26630   14.91060   14.26630     -999.0     -999.0     -999.0 -132.43670   -9.85440   14.91060
 4550.00000     -999.0     -999.0   12.23830   12.23830  111.20130     -999.0     -999.0     -999.0     -999.0     -999.0    8.99270     -999.0   85.07970   85.07970   82.71720   82.71720    8.99270    9.93390   10.23880    9.93390     -999.0     -999.0     -999.0 -130.97440   -8.62400   10.23880
 4600.00000     -999.0     -999.0   12.61400   12.61400  125.48470     -999.0     -999.0     -999.0     -999.0     -999.0    7.96910     -999.0   89.33480   89.33480   87.80030   87.80030    7.96910    8.17970    8.54590    8.17970     -999.0     -999.0     -999.0 -130.71740   -8.60050    8.54590
 4650.00000     -999.0     -999.0   13.71550   13.71550  138.28960     -999.0     -999.0     -999.0     -999.0     -999.0    7.23120     -999.0   88.92870   88.92870   73.49410   73.49410    7.23120    6.86630    6.49200    6.86630     -999.0     -999.0     -999.0 -131.11930   -9.23440    6.49200
 4700.00000     -999.0     -999.0   13.38970   13.38970  119.15730     -999.0     -999.0     -999.0     -999.0     -999.0    8.39280     -999.0   85.24850   85.24850   70.78190   70.78190    8.39280    8.04970    7.40540    8.04970     -999.0     -999.0     -999.0 -131.77010  -10.11870    7.40540
 4750.00000     -999.0     -999.0   12.66610   12.66610  113.31320     -999.0     -999.0     -999.0     -999.0     -999.0    8.82510     -999.0   84.21450   84.21450   70.75120   70.75120    8.82510    9.04980    8.06270    9.04980     -999.0     -999.0     -999.0 -131.67160  -10.25220    8.06270
 4800.00000     -999.0     -999.0   12.78190   12.78190   84.02510     -999.0     -999.0     -999.0     -999.0     -999.0   11.90120     -999.0   77.29510   77.29510   65.33340   65.33340   11.90120   11.72440   11.15370   11.72440     -999.0     -999.0     -999.0 -135.45240  -14.26490   11.15370
 4850.00000     -999.0     -999.0   12.90210   12.90210  122.73550     -999.0     -999.0     -999.0     -999.0     -999.0    8.14760     -999.0   87.89290   87.89290   78.15240   78.15240    8.14760    8.47410    7.39690    8.47410     -999.0     -999.0     -999.0 -129.39060   -8.43660    7.39690
 4900.00000     -999.0     -999.0   12.28790   12.28790  128.37140     -999.0     -999.0     -999.0     -999.0     -999.0    7.78990     -999.0   83.78600   83.78600   85.06280   85.06280    7.78990    7.56090    7.18430    7.56090     -999.0     -999.0     -999.0 -129.18180   -8.45980    7.18430
