~Version ---------------------------------------------------
VERS.      2.0 : CWLS log ASCII Standard -VERSION 2.0
WRAP.       NO : One line per depth step
CREA. 01/03/18 : LAS Creation Date
~Well ------------------------------------------------------
STRT.FT                           650.0 : START DEPTH
STOP.FT                          9200.0 : STOP DEPTH
STEP.FT                        50.00000 : STEP LENGTH
NULL.                           -999.25 : NULL VALUE
COMP.                DENISON MINES LTD. : COMPANY
WELL. DENISON ET AL VIRGHILLS 2-6-65-12 : WELL
FLD .                                   : FIELD
LOC .                                   : LOCATION
CTRY.                            CANADA : COUNTRY
SRVC.                      Schlumberger : SERVICE COMPANY
DATE.                       14-Mar-1976 : LOGDATE
PROV.                           Alberta : PROVINCE
UWI .                  100020606512W500 : UNIQUE WELL ID
SLAT.WGS84                     54.59091 : SURFACE LATITUDE
SLON.WGS84                    -115.7994 : SURFACE LONGITUDE
~Curve Information -----------------------------------------
DEPT  .FT    : Depth Curve
CALSED.IN    : CALIPER FROM SONIC LOG
CALWS .IN    : CALIPER [CALSED]
CILDED.MMHO  : CONDUCTIVITY FROM RESISTIVITY LOG
CONDWS.MMHO  : CONDUCTIVITY [1000/DRESWS]
DRESWS.OHMM  : DEEP RESISTIVITY [ILDED] FROM TOP TO 3965' IF ILDED<1;1000/CILDED;ELSE ILDED
DTED  .US/F  : DELTA TIME FROM SONIC LOG
DTWS  .US/F  : DELTA TIME [DTED] [DEPTH ADJ TO LL8]
GRSED .GAPI  : GAMMA RAY FROM SONIC LOG
GRWS  .GAPI  : GAMMA RAY [GRSED]
ILDED .OHMM  : INDUCTION LOG DEEP RESISTIVITY
ILMED .OHMM  : INDUCTION LOG MEDIUM RESISTIVITY
LL8ED .OHMM  : 8 INCH LATEROLOG RESISTIVITY
MRESWS.OHMM  : MEDIUM RESISTIVITY [ILMED]
SPRED .MV    : SPONTANEOUS POTENTIAL FROM RESISTIVITY LOG SHIFTED
SPWS  .MV    : SPONTANEOUS POTENTIAL [BASELINE 0 MV] [SPRED]
SRESWS.OHMM  : SHALLOW RESISTIVITY [LL8ED]
~Params ----------------------------------------------------
PD  .                     GL : PERMANENT DATUM
EPD .FT               3411.5 : ELEVATION PERMANENT DATUM
LMF .                     KB : LOG MEASURED FROM
DAPD.FT                 14.2 : FEET ABOVE PERMANENT DATUM
EKB .FT               3425.7 : KELLY BUSHING
EGL .FT               3411.5 : GROUND LEVEL
DATE.               03/14/76 : RUN DATE
RUN .                      1 : RUN NUMBER
DD  .FT                 9226 : DEPTH DRILLER
DL  .FT                 9229 : DEPTH LOGGER
BLI .FT                 9223 : BOTTOM LOG INTERVAL
TLI .FT                  637 : TOP LOG INTERVAL
CBD .FT                  639 : CASING BOTTOM DRILLER
CBL .FT                  637 : CASING BOTTOM LOGGER
BS  .IN                7.875 : BIT SIZE
BSD .FT                 9226 : BIT SIZE AT DEPTH
DFT .               GEL CHEM : DRILLING FLUID TYPE
DFD .                    9.4 : DRILLING FLUID DENSITY
DFV .                    120 : DRILLING FLUID VISCOSITY
DFPH.                    9.5 : DRILLING FLUID PH
DFL .                    7.8 : DRILLING FLUID LOSS
MSS .             CIRCULATED : MUD SAMPLE SOURCE
RMS .OHMM               2.51 : RESISTIVITY MUD SAMPLE
MST .DEGF                 54 : MUD SAMPLE TEMPERATURE
RMF .OHMM               1.99 : RESISTIVITY MUD FILTRATE SAMPLE
MFST.DEGF                 50 : MUD FILTRATE SAMPLE TEMPERATURE
RMC .OHMM               2.94 : RESISTIVITY MUD CAKE
MCST.DEGF                 50 : MUD CAKE SAMPLE TEMPERATURE
RMB .OHMM               0.56 : RESISTIVITY MUD AT BHT
TCS .HRS                 3.5 : TIME CIRCULATED STOPPED
LUN .                   7691 : LOGGING UNIT NUMBER
LUL .                    EDM : LOGGING UNIT LOCATION
ENGI.              CROCKFORD : RECORDING ENGINEER
WITN.             CARRINGTON : WITNESSED BY
CLNT.                A2DTECH : CLIENT CODE
ORIG.            2" 5" PRINT : ORIGIN OF DATA
UWI .       100020606512W500 : UNIQUE WELL ID
DICO. A2D Technologies, Inc. : DIGITIZING COMPANY
~Other -----------------------------------------------------
~ASCII -----------------------------------------------------
# ...
 4950.00000   10.53280   10.53280    -999.25  168.18030    5.94600   83.56570   83.56570   49.93540   49.93540    5.94600    6.30840    8.71150    6.30840  -86.90240  -50.22970    8.71150
 5000.00000    9.95450    9.95450    -999.25  173.16320    5.77490   81.49610   81.49610   71.28090   71.28090    5.77490    6.12550    7.68470    6.12550  -57.53440  -20.89500    7.68470
 5050.00000    9.28030    9.28030    -999.25  147.65250    6.78110   77.52950   77.52950   58.03290   58.03290    6.78110    7.99360   11.89660    7.99360  -91.99610  -55.38980   11.89660
 5100.00000   10.33250   10.33250    -999.25  200.70650    4.98240   82.63010   82.63010   74.17720   74.17720    4.98240    5.06730    6.29240    5.06730  -57.25650  -20.68370    6.29240
 5150.00000   10.36250   10.36250    -999.25  175.83390    5.68730   79.45110   79.45110   54.39400   54.39400    5.68730    6.34190   11.22380    6.34190  -87.43900  -50.89930   11.22380
 5200.00000    9.48990    9.48990    -999.25  202.36770    4.94150   81.04670   81.04670   76.65100   76.65100    4.94150    5.19010    7.28880    5.19010  -59.93500  -23.42880    7.28880
 5250.00000    9.45140    9.45140    -999.25  153.09010    6.53210   79.81120   79.81120   81.94570   81.94570    6.53210    6.99700    7.77030    6.99700  -53.02570  -16.55280    7.77030
 5300.00000    9.41650    9.41650    -999.25  174.30870    5.73700   77.54110   77.54110   75.53990   75.53990    5.73700    5.46840    6.82020    5.46840  -49.54650  -13.10670    6.82020
 5350.00000   11.00270   11.00270    -999.25  194.65480    5.13730   84.98290   84.98290   84.78850   84.78850    5.13730    5.31730    5.69010    5.31730  -53.63750  -17.23120    5.69010
 5400.00000    8.42020    8.42020    -999.25   66.55070   15.08160   72.28870   72.28870   42.26010   42.26010   15.08160   17.86200   34.42710   17.86200  -80.43150  -44.05830   34.42710
 5450.00000    9.05870    9.05870    -999.25   89.16710   11.21490   73.98830   73.98830   77.37710   77.37710   11.21490   10.81490   13.05180   10.81490  -53.83090  -17.49120   13.05180
 5500.00000    9.18350    9.18350    -999.25  113.03910    8.84650   70.35940   70.35940   71.95860   71.95860    8.84650   10.04590   10.57320   10.04590  -59.32730  -23.02090   10.57320
 5550.00000    9.65820    9.65820    -999.25  142.47580    7.02080   75.75370   75.75370  105.54600  105.54600    7.02080    7.52410    8.90170    7.52410  -52.06790  -15.79470    8.90170
 5600.00000    9.07480    9.07480    -999.25  166.78900    5.99560   58.77310   58.77310   29.13220   29.13220    5.99560    5.25090   41.28040    5.25090 -111.43420  -75.19450   41.28040
 5650.00000    9.26210    9.26210    -999.25   89.26570   11.26280   62.20150   62.20150   44.21930   44.21930   11.26280   12.31680   21.42980   12.31680  -57.42760  -21.22100   21.42980
 5700.00000    8.32260    8.32260    -999.25   91.13780   10.97240   59.19430   59.19430   12.27710   12.27710   10.97240   21.11810   57.13320   21.11810 -162.35710 -126.18400   57.13320
 5750.00000    8.19710    8.19710    -999.25   41.96320   23.83040   52.97010   52.97010   14.16170   14.16170   23.83040   39.07320  204.44460   39.07320 -156.70320 -120.56340  204.44460
 5800.00000    8.50730    8.50730    -999.25   26.89960   37.17690   52.02030   52.02030   15.47610   15.47610   37.17690   55.90540  401.89400   55.90540 -162.14710 -126.04040  401.89400
 5850.00000    9.83340    9.83340    -999.25  436.85290    2.28910   73.73190   73.73190   64.04980   64.04980    2.28910    2.46240    3.59090    2.46240  -70.27760  -34.20440    3.59090
 5900.00000    8.37410    8.37410    -999.25  290.48780    3.44350   65.57800   65.57800   45.27060   45.27060    3.44350    4.59860   15.47680    4.59860 -117.18130  -81.14120   15.47680
 5950.00000    8.66340    8.66340    -999.25   54.00010   18.51850   55.96850   55.96850   42.46580   42.46580   18.51850   20.44440  106.74040   20.44440  -56.71620  -20.70960  106.74040
 6000.00000    8.42590    8.42590    -999.25    4.39930  227.30970   50.10730   50.10730   14.05540   14.05540  227.30970  299.21810  620.43700  299.21810  -67.64570  -31.67240  620.43700
 6050.00000    8.37850    8.37850    -999.25   10.52700   95.00330   53.08470   53.08470   21.49170   21.49170   95.00330  116.87130  220.51170  116.87130  -44.63330   -8.69320  220.51170
 6100.00000    8.30580    8.30580    -999.25   32.35270   30.90930   55.21130   55.21130   24.08650   24.08650   30.90930   32.91730   51.60490   32.91730  -62.88730  -26.98060   51.60490
 6150.00000    8.15240    8.15240    -999.25   35.21430   28.39910   56.71510   56.71510   33.45490   33.45490   28.39910   29.46990   37.47730   29.46990  -44.59810   -8.72450   37.47730
 6200.00000    8.07640    8.07640    -999.25   32.62030   30.65580   56.71870   56.71870   33.72880   33.72880   30.65580   31.87550   39.71100   31.87550  -48.91030  -13.07020   39.71100
 6250.00000    8.05870    8.05870    -999.25   32.85600   30.43580   56.56720   56.56720   27.11520   27.11520   30.43580   31.89060   39.97180   31.89060  -59.74510  -23.93840   39.97180
 6300.00000    8.84950    8.84950    -999.25  140.59640    7.11960   72.36800   72.36800   87.84720   87.84720    7.11960    7.84300    8.64950    7.84300  -35.99390   -0.22020    8.64950
 6350.00000    8.78270    8.78270    -999.25  172.91170    5.78330   76.07390   76.07390  104.36210  104.36210    5.78330    6.10870    7.18590    6.10870  -37.47960   -1.73950    7.18590
 6400.00000    8.29140    8.29140    -999.25   29.70640   33.76500   53.38460   53.38460   39.18600   39.18600   33.76500   39.99070   60.94330   39.99070  -51.23540  -15.52840   60.94330
 6450.00000    8.16840    8.16840    -999.25   27.25270   36.69360   90.28610   90.28610  274.32760  274.32760   36.69360   43.54910  111.93200   43.54910  -44.52470   -8.85120  111.93200
 6500.00000    8.24980    8.24980    -999.25    7.85130  127.36740   50.77490   50.77490   14.94700   14.94700  127.36740  184.74400  720.49900  184.74400  -95.62460  -59.85730  720.49900
 6550.00000    8.31990    8.31990    -999.25    3.82200  261.91130   49.95610   49.95610   14.46970   14.46970  261.91130  327.90930  570.89980  327.90930  -57.34390  -21.34620  570.89980
 6600.00000    8.32430    8.32430    -999.25    1.65520  604.13850   50.33310   50.33310   14.06810   14.06810  604.13850  675.09480  888.96610  675.09480  -68.79170  -32.56130  888.96610
 6650.00000    8.38900    8.38900    -999.25    3.12270  320.34960   49.32570   49.32570    9.67110    9.67110  320.34960  339.37010  712.87220  339.37010 -100.23330  -63.77250  712.87220
 6700.00000    8.25260    8.25260    -999.25   10.68600   93.58060   50.31690   50.31690   19.95120   19.95120   93.58060  108.46940  112.40700  108.46940  -81.21420  -44.52080  112.40700
 6750.00000    7.82940    7.82940    -999.25   26.74810   37.38580   56.10490   56.10490   11.79460   11.79460   37.38580   62.91750  162.49280   62.91750 -156.69120 -119.76620  162.49280
 6800.00000    8.23490    8.23490    -999.25   45.82440   21.88290   50.23160   50.23160   12.08570   12.08570   21.88290   29.43480   95.74910   29.43480 -157.94440 -120.78910   95.74910
 6850.00000    7.97430    7.97430    -999.25   37.13740   26.92700   52.94200   52.94200   13.90280   13.90280   26.92700   43.07160  247.88750   43.07160 -166.37780 -128.98980  247.88750
 6900.00000    8.54280    8.54280    -999.25   40.09330   24.94230   51.64320   51.64320   11.78390   11.78390   24.94230   31.51630  115.28310   31.51630 -147.87510 -110.25670  115.28310
 6950.00000    8.45190    8.45190    -999.25    7.27000  137.55140   49.74020   49.74020   12.83190   12.83190  137.55140  157.88380  193.46210  157.88380 -119.86540  -82.01430  193.46210
 7000.00000    8.66700    8.66700    -999.25    2.97970  335.60030   48.43170   48.43170   15.17020   15.17020  335.60030  599.11630  940.48880  599.11630 -117.78550  -79.70290  940.48880
 7050.00000    8.58930    8.58930    -999.25   16.16790   61.89250   49.36140   49.36140   13.71610   13.71610   61.89250  105.65640  471.91850  105.65640 -154.39760 -116.08470  471.91850
