~Version ---------------------------------------------------
VERS.      2.0 : CWLS log ASCII Standard -VERSION 2.0
WRAP.       NO : One line per depth step
CREA. 12/19/17 : LAS Creation Date
~Well ------------------------------------------------------
STRT.FT                            1200.0 : START DEPTH
STOP.FT                           10150.0 : STOP DEPTH
STEP.FT                          50.00000 : STEP LENGTH
NULL.                             -999.25 : NULL VALUE
COMP.               CANADIAN FINA OIL LTD : COMPANY
WELL. FINA PAN AM HB HEAVYSOUND 2-6-62-16 : WELL
FLD .                                     : FIELD
LOC .                                     : LOCATION
CTRY.                              CANADA : COUNTRY
SRVC.              Schlumberger of Canada : SERVICE COMPANY
DATE.                         03-Mar-1959 : LOGDATE
PROV.                             Alberta : PROVINCE
UWI .                    100020606216W500 : UNIQUE WELL ID
SLAT.WGS84                       54.32879 : SURFACE LATITUDE
SLON.WGS84                       -116.385 : SURFACE LONGITUDE
~Curve Information -----------------------------------------
DEPT  .FT         : Depth Curve
CALMED.IN         : CALIPER FROM ML LOG
CALWS .IN         : CALIPER [CALMED]
CILDED.MMHO       : CONDUCTIVITY FROM RESISTIVITY LOG
CONDWS.MMHO       : CONDUCTIVITY [1000/DRESWS]
DRESWS.OHMM       : DEEP RESISTIVITY [1000/CILDED IF ILDED < 4, ILDED]
DTED  .US/F       : SONIC FROM SONIC LOG
DTWS  .US/F       : COMPRESSIONAL SONIC [DTED]
GRSED .UgRa-Eq/T  : GAMMA RAY FROM SONIC LOG
GRWS  .GAPI       : GAMMA RAY [GRSED*16.5, Converting to API Unit]
ILDED .OHMM       : INDUCTION DEEP FROM RESISTIVITY LOG
LL7ED .OHMM       : LATEROLOG 7 FT FROM RESISTIVITY LOG
MLLED .OHMM       : LATEROLOG MICRO FROM ML LOG
SNED  .OHMM       : SHORT NORMAL FROM RESISTIVITY LOG
SPRED .MV         : SPONTANEOUS POTENTIAL FROM RESISTIVITY LOG
SPWS  .MV         : SPONTANEOUS POTENTIAL [BASELINE 0 MV, SPRED]
SRESWS.OHMM       : SHALLOW RESISTIVITY [SNED]
~Params ----------------------------------------------------
~Other -----------------------------------------------------
IEL-LL-ML-BCS LOG RUN
~ASCII -----------------------------------------------------
# ...
 3350.00000    -999.25    -999.25  237.19450  237.19450    4.21590  101.18320  101.18320    4.62590   76.32730    3.54190    7.14640    -999.25    5.49390  -76.10120   -2.16880    5.49390
 3400.00000    -999.25    -999.25  126.10590  130.62500    7.65550   89.05040   89.05040    5.00990   82.66330    7.65550   14.72200    -999.25   11.17020  -77.94020   -1.36120   11.17020
 3450.00000    -999.25    -999.25  181.85100  205.17870    4.87380   96.77020   96.77020    5.73280   94.59120    4.87380    9.68270    -999.25    6.79310  -79.25810   -2.33170    6.79310
 3500.00000    -999.25    -999.25  147.23430  157.80340    6.33700   85.12640   85.12640    5.75180   94.90470    6.33700   11.30570    -999.25    8.11070  -78.90590   -1.63410    8.11070
 3550.00000    -999.25    -999.25  165.39970  184.29780    5.42600   95.40220   95.40220    6.19750  102.25870    5.42600   10.58300    -999.25    7.85410  -79.05040   -1.43390    7.85410
 3600.00000    -999.25    -999.25  178.03240  195.87490    5.10530   99.80700   99.80700    7.37970  121.76510    5.10530   10.53100    -999.25    7.70160  -78.93520   -0.97130    7.70160
 3650.00000    -999.25    -999.25  111.40630  110.89670    9.01740   90.85410   90.85410    6.41870  105.90860    9.01740   16.11040    -999.25   12.57130  -79.64740   -2.50030   12.57130
 3700.00000    -999.25    -999.25  145.14120  154.04050    6.49180   92.11850   92.11850    6.79020  112.03830    6.49180   12.36800    -999.25    9.23890  -78.58200   -1.69930    9.23890
 3750.00000    -999.25    -999.25  124.64300  126.59030    7.89950   90.50170   90.50170    5.78880   95.51520    7.89950   14.92200    -999.25   10.15330  -80.18220   -3.56240   10.15330
 3800.00000    -999.25    -999.25  159.45330  169.47430    5.90060   96.96060   96.96060    6.27560  103.54740    5.90060   10.86160    -999.25    7.50380  -79.63620   -3.27870    7.50380
 3850.00000    -999.25    -999.25  118.98410  119.89400    8.34070   93.01350   93.01350    5.41860   89.40690    8.34070   13.70220    -999.25    9.76840  -79.71000   -3.61700    9.76840
 3900.00000    -999.25    -999.25  140.89180  149.54840    6.68680   92.79580   92.79580    6.38440  105.34260    6.68680   11.96720    -999.25    8.38970  -77.66350   -1.83330    8.38970
 3950.00000    -999.25    -999.25  173.75550  192.75250    5.18800   97.07810   97.07810    6.66630  109.99400    5.18800   10.28220    -999.25    7.22430  -77.94960   -2.38390    7.22430
 4000.00000    -999.25    -999.25  191.07050  215.87080    4.63240   98.56050   98.56050    7.04560  116.25240    4.63240    9.51710    -999.25    6.60250  -76.52760   -1.22480    6.60250
 4050.00000    -999.25    -999.25  174.03490  188.54410    5.30380   98.67600   98.67600    6.57770  108.53210    5.30380   10.46990    -999.25    6.95600  -77.37880   -0.71950    6.95600
 4100.00000    -999.25    -999.25  146.74310  153.78460    6.50260   97.64080   97.64080    6.26870  103.43360    6.50260   11.01710    -999.25    8.04110  -78.69540   -1.42690    8.04110
 4150.00000    -999.25    -999.25  168.77570  186.51500    5.36150   94.71820   94.71820    5.36880   88.58520    5.36150    9.24480    -999.25    7.53500  -77.51890   -1.12480    7.53500
 4200.00000    -999.25    -999.25  135.28500  140.89870    7.09730   89.29410   89.29410    6.60800  109.03200    7.09730   12.15920    -999.25    8.97860  -78.24950   -2.41970    8.97860
 4250.00000    -999.25    -999.25  136.98360  142.42780    7.02110   90.79510   90.79510    6.69370  110.44610    7.02110   12.02950    -999.25    9.05230  -78.59970   -2.76990    9.05230
 4300.00000    -999.25    -999.25  145.14540  153.40250    6.51880   93.52020   93.52020    6.44820  106.39530    6.51880   11.34690    -999.25    8.41780  -78.77830   -2.94850    8.41780
 4350.00000    -999.25    -999.25  155.94300  173.71970    5.75640   92.22990   92.22990    6.26520  103.37580    5.75640   10.89490    -999.25    8.02670  -77.09520   -1.26540    8.02670
 4400.00000    -999.25    -999.25  153.97550  164.84240    6.06640   93.35010   93.35010    6.33080  104.45820    6.06640   10.75850    -999.25    8.57210  -78.66750   -3.14660    8.57210
 4450.00000    -999.25    -999.25  145.72660  155.29400    6.43940   93.57990   93.57990    6.86030  113.19490    6.43940   11.76290    -999.25    9.58980  -76.19470   -1.34500    9.58980
 4500.00000    -999.25    -999.25  139.86570  146.55880    6.82320   97.54470   97.54470    7.32050  120.78830    6.82320   12.30610    -999.25   10.25150  -76.26650   -2.08400   10.25150
 4550.00000    -999.25    -999.25  124.75810  127.88710    7.81940   98.16970   98.16970    7.82340  129.08610    7.81940   13.68400    -999.25   11.84740  -74.80730   -1.29060   11.84740
 4600.00000    -999.25    -999.25  102.99500   99.16400   10.08430   94.35950   94.35950    7.76630  128.14390   10.08430   18.29400    -999.25   15.66120  -73.50420   -0.65880   15.66120
 4650.00000    -999.25    -999.25  117.40290  118.26200    8.45580   94.56450   94.56450    6.77720  111.82380    8.45580   14.93670    -999.25   12.84740  -73.24030   -1.06210   12.84740
 4700.00000    -999.25    -999.25  142.39800  152.62520    6.55200  104.82620  104.82620   11.03530  182.08240    6.55200   17.42090    -999.25   11.51180  -70.92470   -1.42120   11.51180
 4750.00000    -999.25    -999.25  143.81510  152.05190    6.57670   79.70870   79.70870    4.84520   79.94580    6.57670   11.63950    -999.25    9.27700  -78.52840   -6.74520    9.27700
 4800.00000    -999.25    -999.25  147.10550  146.27370    6.83650   74.24280   74.24280    5.32070   87.79160    6.83650   18.50160    -999.25   10.85180  -76.39420   -2.04470   10.85180
 4850.00000    -999.25    -999.25  138.74430  144.66550    6.91250   84.80110   84.80110    5.93130   97.86650    6.91250   10.71110    -999.25    9.29070  -75.63920   -2.21140    9.29070
 4900.00000    -999.25    -999.25  165.31260  179.42690    5.57330   87.44630   87.44630    6.35420  104.84430    5.57330    9.31160    -999.25    7.92170  -74.05550   -1.54380    7.92170
 4950.00000    -999.25    -999.25  138.30040  144.33760    6.92820   87.78930   87.78930    6.17300  101.85450    6.92820   11.80190    -999.25    9.48290  -74.59770   -2.12950    9.48290
 5000.00000    -999.25    -999.25  188.30060  212.27820    4.71080   91.35250   91.35250    6.16550  101.73080    4.71080    8.16680    -999.25    6.74580  -75.00040   -2.22550    6.74580
 5050.00000    -999.25    -999.25  187.24400  212.33230    4.70960   92.74600   92.74600    6.66230  109.92800    4.70960    8.70590    -999.25    7.33960  -73.43070   -2.28010    7.33960
 5100.00000    -999.25    -999.25  314.58160  314.58160    3.17880  101.67270  101.67270    8.53770  140.87200    2.57750    5.46720    -999.25    4.67890  -71.05600   -1.54270    4.67890
 5150.00000    -999.25    -999.25  342.37630  342.37630    2.92080   90.96890   90.96890    5.93700   97.96050    2.01250    5.42540    -999.25    4.12210  -71.30210   -1.73070    4.12210
 5200.00000    -999.25    -999.25  272.70990  272.70990    3.66690   98.01010   98.01010    6.54250  107.95130    2.93460    5.20550    -999.25    4.52140  -71.82360   -1.85540    4.52140
 5250.00000    -999.25    -999.25  214.83130  233.55210    4.28170   89.58670   89.58670    5.94650   98.11730    4.28170    6.57550    -999.25    6.61890  -70.65990   -2.07030    6.61890
 5300.00000    -999.25    -999.25  115.81310  116.21020    8.60510   85.50080   85.50080    5.43620   89.69730    8.60510   11.01570    -999.25   10.46490  -75.10860   -4.58630   10.46490
 5350.00000    -999.25    -999.25  131.68880  136.92250    7.30340   85.67860   85.67860    5.28540   87.20910    7.30340   11.80350    -999.25   10.33350  -71.87050   -3.99610   10.33350
 5400.00000    -999.25    -999.25  102.68540  101.06420    9.89470   77.86410   77.86410    3.41640   56.37060    9.89470   17.06560    -999.25   12.95640  -79.96330  -11.81760   12.95640
 5450.00000    -999.25    -999.25   85.28510   79.04450   12.65110   82.09770   82.09770    2.95540   48.76410   12.65110   20.52770    -999.25   16.94140  -96.98890  -28.57020   16.94140
