~Version ---------------------------------------------------
VERS.      2.0 : CWLS log ASCII Standard -VERSION 2.0
WRAP.       NO : One line per depth step
CREA. 09/29/17 : LAS Creation Date
~Well ------------------------------------------------------
STRT.FT                         1450.0 : START DEPTH
STOP.FT                        11100.0 : STOP DEPTH
STEP.FT                       50.00000 : STEP LENGTH
NULL.                          -999.25 : NULL VALUE
COMP. AMOCO CANADA PETROLEUM CO., LTD. : COMPANY
WELL.       AMOCO PEX TONY 10-16-64-22 : WELL
FLD .                                  : FIELD
LOC .                                  : LOCATION
CTRY.                           CANADA : COUNTRY
SRVC.           Schlumberger of Canada : SERVICE COMPANY
DATE.                      08-Apr-1978 : LOGDATE
PROV.                          Alberta : PROVINCE
UWI .                 100101606422W500 : UNIQUE WELL ID
SLAT.WGS84                    54.53914 : SURFACE LATITUDE
SLON.WGS84                   -117.2632 : SURFACE LONGITUDE
~Curve Information -----------------------------------------
DEPT    .FT    : Depth Curve
CALDED  .IN    : CALIPER FROM DENSITY LOG [ADJ. TO RESISTIVITY LOG]
CALSED  .IN    : CALIPER FROM SONIC LOG [ADJ. TO RESISTIVITY LOG]
CALWS   .IN    : CALIPER [CALDED]
CONDWS  .MMHO  : CONDUCTIVITY [1000/DRESWS]
DCORWS  .G/C3  : DENSITY CORRECTION [DRHOED]
DENWS   .G/C3  : BULK DENSITY [RHOBED]
DPHILSED.V/V   : DENSITY POROSITY LIMESTONE [M=2710,F=1000] FROM DENSITY LOG [ADJ. TO RESISTIVITY LOG]
DPHISSED.V/V   : DENSITY POROSITY SANDSTONE [M=2650,F=1000] FROM DENSITY LOG [ADJ. TO RESISTIVITY LOG]
DPOLSWS .V/V   : DENSITY POROSITY LIMESTONE [CALC. FROM DENWS,M=2710,F=1000]
DRESWS  .OHMM  : DEEP RESISTIVITY [ILDED]
DRHOED  .G/C3  : BULK DENSITY CORRECTION FROM DENSITY LOG [ADJ. TO RESISTIVITY LOG]
DTED    .US/F  : DELTA -T FROM SONIC LOG [ADJ. TO RESISTIVITY LOG]
DTWS    .US/F  : COMPRESSIONAL SONIC [DTED]
GRDED   .GAPI  : GAMMA RAY FROM DENSITY LOG [ADJ. TO RESISTIVITY LOG]
GRED    .GAPI  : GAMMA RAY FROM CBL LOG [ADJ. TO RESISTIVITY LOG]
GRSED   .GAPI  : GAMMA RAY FROM SONIC LOG [ADJ. TO RESISTIVITY LOG]
GRWS    .GAPI  : GAMMA RAY [GRED SPL. TO GRDED SPL. TO 458M]
ILDED   .OHMM  : DEEP INDUCTION RESISTIVITY FROM RESISTIVITY LOG
ILMED   .OHMM  : MEDIUM INDUCTION RESISTIVITY FROM RESISTIVITY LOG
LL8ED   .OHMM  : LATEROLOG-8 RESISTIVITY FROM RESISTIVITY LOG
MRESWS  .OHMM  : MEDIUM RESISTIVITY [ILMED]
NEUTED  .NAPI  : NEUTRON FROM CBL LOG [ADJ. TO RESISTIVITY LOG
NEUTWS  .NAPI  : NEUTRON [NEUTED]
NPHILSED.V/V   : NEUTRON POROSITY LIMESTONE FROM DENSITY LOG [ADJ. TO RESISTIVITY LOG]
NPHISSED.V/V   : NEUTRON POROSITY SANDSTONE FROM DENSITY LOG [ADJ. TO RESISTIVITY LOG]
NPOLSWS .V/V   : NEUTRON POROSITY LIMESTONE [NPHISSED CONVERTED TO LIMESTONE MATRIX,SPL. TO NPHILSED @2035M ]
RHOBED  .G/C3  : BULK DENSITYFROM DENSITY LOG [ADJ. TO RESISTIVITY LOG]
SPRED   .MV    : SPONTANEOUS POTENTIAL FROM RESISTIVITY LOG
SPWS    .MV    : SPONTANEOUS POTENTIAL [BASELINE 0 MV,SPRED]
SRESWS  .OHMM  : SHALLOW RESISTIVITY [LL8ED]
~Params ----------------------------------------------------
PD  .                     GL : PERMANENT DATUM
EPD .FT               2639.4 : ELEVATION PERMANENT DATUM
LMF .                     KB : LOG MEASURED FROM
DAPD.FT                 21.4 : FEET ABOVE PERMANENT DATUM
EKB .FT               2660.8 : KELLY BUSHING
EGL .FT               2639.4 : GROUND LEVEL
DATE.               04/08/78 : RUN DATE
RUN .                      2 : RUN NUMBER
DD  .FT                11105 : DEPTH DRILLER
DL  .FT                11103 : DEPTH LOGGER
BLI .FT                11099 : BOTTOM LOG INTERVAL
TLI .FT                 6000 : TOP LOG INTERVAL
CBD .FT                 1528 : CASING BOTTOM DRILLER
CBL .FT                 1528 : CASING BOTTOM LOGGER
BS  .IN                 8.75 : BIT SIZE
BSD .FT                11105 : BIT SIZE AT DEPTH
DFT .              GEL GELEX : DRILLING FLUID TYPE
DFD .                      9 : DRILLING FLUID DENSITY
DFV .                     92 : DRILLING FLUID VISCOSITY
DFPH.                      9 : DRILLING FLUID PH
DFL .                    9.8 : DRILLING FLUID LOSS
MSS .               FLOWLINE : MUD SAMPLE SOURCE
RMS .OHMM               1.91 : RESISTIVITY MUD SAMPLE
MST .DEGF                 52 : MUD SAMPLE TEMPERATURE
RMF .OHMM               1.45 : RESISTIVITY MUD FILTRATE SAMPLE
MFST.DEGF                 60 : MUD FILTRATE SAMPLE TEMPERATURE
TCS .HRS                 2.5 : TIME CIRCULATED STOPPED
LUN .              OSU C 244 : LOGGING UNIT NUMBER
LUL .                    EDM : LOGGING UNIT LOCATION
ENGI.                   GUNN : RECORDING ENGINEER
WITN.                   WALL : WITNESSED BY
CLNT.                A2DTECH : CLIENT CODE
ORIG.            2" 5" PRINT : ORIGIN OF DATA
UWI .       100101606422W500 : UNIQUE WELL ID
DICO. A2D Technologies, Inc. : DIGITIZING COMPANY
~Other -----------------------------------------------------
~ASCII -----------------------------------------------------
# ...
 6250.00000   10.69010    9.19130   10.69010   51.48350   -0.03440    2.57370    -999.25    0.07370    0.07970   19.42370   -0.03440   69.44280   69.44280   89.86750   62.77760  116.07980   89.86750   19.42370   20.22330   29.50650   20.22330  892.47120  892.47120    -999.25    0.22010    0.17640    2.57370  -74.67830   -6.61750   29.50650
 6300.00000   10.92190    9.29080   10.92190   49.11240   -0.02210    2.55590    -999.25    0.06410    0.09010   20.57720   -0.02210   67.17440   67.17440   66.93960   46.71160   75.92350   66.93960   20.57720   25.09850   59.28260   25.09850  916.14410  916.14410    -999.25    0.18370    0.14050    2.55600  -75.01840  -10.59460   59.28260
 6350.00000   10.92200    9.25150   10.92200   57.46040   -0.01990    2.62160    -999.25    0.00940    0.05170   17.40330   -0.01990   64.42090   64.42090   66.19300   47.73050   75.89770   66.19300   17.40330   19.24940   25.33290   19.24940  962.91060  962.91060    -999.25    0.14110    0.09870    2.62160  -74.20240  -13.11770   25.33290
 6400.00000   10.57630    9.02320   10.57630   42.18250   -0.01710    2.49860    -999.25    0.09440    0.12360   23.70650   -0.01710   69.55090   69.55090   89.51010   55.88760  107.12990   89.51010   23.70650   28.48370   37.63670   28.48370  921.17360  921.17360    -999.25    0.16630    0.12340    2.49870  -79.54560  -19.76920   37.63670
 6450.00000   10.26160    8.98760   10.26160   46.57080   -0.02830    2.61130    -999.25    0.01750    0.05770   21.47270   -0.02830   63.80600   63.80600   80.22510   56.07490   97.51190   80.22510   21.47270   24.38090   31.55090   24.38090  975.72690  975.72690    -999.25    0.15150    0.10890    2.61140  -84.08230  -25.62280   31.55090
 6500.00000    9.72490    8.77370    9.72490  178.72460    0.01620    2.42750    -999.25    0.11270    0.16520    5.59520    0.01620   69.00860   69.00860   39.46310   25.37320   44.55400   39.46310    5.59520    6.77980   23.45200    6.77980  962.45760  962.45760    -999.25    0.17080    0.12780    2.42750 -145.02310  -87.87180   23.45200
 6550.00000    9.98090    8.85900    9.98090   76.60070   -0.02200    2.53580    -999.25    0.06650    0.10190   13.05660   -0.02200   67.15210   67.15210   67.78680   42.30120   86.21840   67.78680   13.05660   14.39150   22.74500   14.39150  958.70940  958.70940    -999.25    0.15380    0.11120    2.53570  -98.73880  -42.89580   22.74500
 6600.00000    9.72870    8.70810    9.72870  121.18860    0.00510    2.30880    -999.25    0.21010    0.23460    8.25160    0.00510   74.40770   74.40770   41.30200   29.74280   53.18610   41.30200    8.25160   11.09020   31.40760   11.09020  849.24220  849.24220    -999.25    0.20740    0.16390    2.30870 -132.60310  -78.07700   31.40760
 6650.00000    9.85010    8.96630    9.85010   22.92220   -0.04180    2.42780    -999.25    0.13620    0.16500   43.62580   -0.04180   84.92820   84.92820  151.54330   97.38620  151.54330  151.54330   43.62580   79.14970  532.49850   79.14970  810.50840  810.50840    -999.25    0.32630    0.28240    2.42790  -98.06930  -44.85140  532.49850
 6700.00000    8.64030    8.54740    8.64030   12.95920    0.02210    2.45370    0.15680    -999.25    0.14990   77.16550    0.02210   71.40590   71.40590  300.02380  179.73580  300.02380  300.02380   77.16550   89.77520   97.32520   89.77520  886.42480  886.42480    0.20210    -999.25    0.20210    2.45370  -84.12330  -31.24110   97.32520
 6750.00000    8.82600    8.52190    8.82600   71.05050    0.02800    2.67120    0.02310    -999.25    0.02270   14.07450    0.02800   62.01920   62.01920   93.76680   58.11220   88.09420   93.76680   14.07450   14.92120   17.10090   14.92120  934.95810  934.95810    0.09960    -999.25    0.09960    2.67110  -71.24280  -18.36060   17.10090
 6800.00000    8.93300    8.85550    8.93300  122.96830    0.04300    2.64160    0.03770    -999.25    0.04000    8.13220    0.04300   63.70170   63.70170   85.72270   50.85900   82.09220   85.72270    8.13220    8.90110   13.89140    8.90110  717.01240  717.01240    0.09390    -999.25    0.09390    2.64160  -98.06280  -45.18060   13.89140
 6850.00000    8.86150    8.58650    8.86150   50.09740    0.01490    2.76610   -0.03820    -999.25   -0.03280   19.96110    0.01490   56.94940   56.94940   74.12120   44.47840   76.56140   74.12120   19.96110   22.14890   27.02430   22.14890  761.22550  761.22550    0.06810    -999.25    0.06810    2.76610  -64.88360  -12.00140   27.02430
 6900.00000    9.13280    8.79700    9.13280   55.96220    0.00150    2.67650    0.01730    -999.25    0.01960   17.86920    0.00150   62.81830   62.81830   93.84110   62.76960   88.11350   93.84110   17.86920   19.40630   23.29030   19.40630  672.24270  672.24270    0.09000    -999.25    0.09000    2.67640  -61.28610   -8.40390   23.29030
 6950.00000    9.19300    8.80370    9.19300   60.67890    0.02030    2.70740   -0.00270    -999.25    0.00150   16.48020    0.02030   62.87690   62.87690  104.65060    -999.25  101.96710  104.65060   16.48020   17.29870   20.26640   17.29870    -999.25    -999.25    0.09300    -999.25    0.09300    2.70740  -58.57040   -5.68820   20.26640
 7000.00000    8.74010    8.48200    8.74010   19.49830    0.02350    2.70970   -0.00010    -999.25    0.00020   51.28660    0.02350   57.72570   57.72570   74.40310    -999.25   71.51980   74.40310   51.28660   56.20500   68.98510   56.20500    -999.25    -999.25    0.05730    -999.25    0.05730    2.70970  -65.38890  -12.50670   68.98510
 7050.00000    8.98090    9.21630    8.98090   33.14780    0.00270    2.69990    0.00420    -999.25    0.00590   30.17080    0.00270   59.37220   59.37220   99.14690    -999.25   98.26480   99.14690   30.17080   32.11400   39.12280   32.11400    -999.25    -999.25    0.08940    -999.25    0.08940    2.69990  -55.84400   -2.96330   39.12280
 7100.00000    8.24270    8.50430    8.24270  506.17530    0.10390    2.51560    0.11690    -999.25    0.11370    1.97560    0.10390   63.09950   63.09950   21.74130    -999.25   21.59170   21.74130    1.97560    3.50110   18.03350    3.50110    -999.25    -999.25    0.19850    -999.25    0.19850    2.51550 -173.56460 -120.79880   18.03350
 7150.00000    8.47000    9.28570    8.47000   28.76590    0.01270    2.74300   -0.02350    -999.25   -0.01930   34.76340    0.01270   53.70670   53.70670   27.68600    -999.25   25.49960   27.68600   34.76340   36.45650   40.56260   36.45650    -999.25    -999.25    0.10960    -999.25    0.10960    2.74300 -138.24420  -85.59260   40.56260
 7200.00000    8.91620    9.16060    8.91620   31.55000    0.22630    2.64280    0.04240    -999.25    0.03930   31.69570    0.22630   54.97110   54.97110   26.37700    -999.25   26.23770   26.37700   31.69570   41.08750   64.62190   41.08750    -999.25    -999.25    0.10400    -999.25    0.10400    2.64280 -121.97420  -69.43750   64.62190
 7250.00000    8.77520    9.17790    8.77520    4.18670    0.00930    2.84130   -0.08710    -999.25   -0.07680  238.85100    0.00930   46.78000   46.78000   28.71250    -999.25   26.31400   28.71250  238.85100  127.82640 1240.93770  127.82640    -999.25    -999.25    0.01020    -999.25    0.01020    2.84130 -117.65610  -65.23360 1240.93770
 7300.00000    8.82730    9.16680    8.82730   15.63790    0.00450    2.74970   -0.02610    -999.25   -0.02320   65.25970    0.00450   50.27430   50.27430   29.53200    -999.25   28.10820   29.53200   65.25970   66.48390  191.76190   66.48390    -999.25    -999.25    0.05230    -999.25    0.05230    2.74960 -126.16680  -73.85850  191.76190
 7350.00000    9.21170    9.59940    9.21170   13.53750    0.08600    2.67840    0.02050    -999.25    0.01850   73.86910    0.08600   50.86920   50.86920   17.49660    -999.25   21.35940   17.49660   73.86910   90.98460  159.98560   90.98460    -999.25    -999.25    0.01790    -999.25    0.01790    2.67830 -147.14460  -94.95120  159.98560
 7400.00000    9.32730    8.66490    9.32730  108.28960    0.02080    2.73070   -0.01240    -999.25   -0.01210    9.23450    0.02080   62.38030   62.38030   80.01450    -999.25   82.08580   80.01450    9.23450    -999.25   14.46140    -999.25    -999.25    -999.25    0.10760    -999.25    0.10760    2.73060  -69.26300  -17.18380   14.46140
