~Version ---------------------------------------------------
VERS.      2.0 : CWLS log ASCII Standard -VERSION 2.0
WRAP.       NO : One line per depth step
CREA. 11/07/17 : LAS Creation Date
~Well ------------------------------------------------------
STRT.FT               600.0 : START DEPTH
STOP.FT              5750.0 : STOP DEPTH
STEP.FT            50.00000 : STEP LENGTH
NULL.               -999.25 : NULL VALUE
COMP.          PETRO-CANADA : COMPANY
WELL. ARCO NIPISI 4-17-80-9 : WELL
FLD .                nipisi : FIELD
LOC .                       : LOCATION
CTRY.                CANADA : COUNTRY
SRVC.         Dresser Atlas : SERVICE COMPANY
DATE.           03-Dec-1969 : LOGDATE
PROV.               Alberta : PROVINCE
UWI .      100041708009W500 : UNIQUE WELL ID
SLAT.WGS84    55.9317855835 : SURFACE LATITUDE
SLON.WGS84  -115.3810501099 : SURFACE LONGITUDE
~Curve Information -----------------------------------------
DEPT  .FT    : Depth Curve
ACED  .US/F  : DELTA TIME (ACOUSTIC) FROM SONIC LOG [DEPTH ADJ TO RES.]
CALSED.IN    : CALIPER FROM SONIC LOG [DEPTH ADJ TO RES.]
CALWS .IN    : CALIPER [CALSED]
CILDED.MMHO  : CONDUCTIVITY FROM IEL LOG
CONDWS.MMHO  : CONDUCTIVITY [1000/DRESWS]
DRESWS.OHMM  : DEEP RESISTIVITY [ILDED]
DTWS  .US/F  : DELTA TIME [DTED]
GRSED .GAPI  : GAMMA RAY FROM SONIC LOG [DEPTH SHIFTED TO RES.]
GRWS  .GAPI  : GAMMA RAY [GRSED]
ILDED .OHMM  : INDUCTION LOG DEEP RESISTIVITY
SNED  .OHMM  : 16 INCH SHORT NORMAL RESISTIVITY FROM IEL LOG
SPRED .MV    : SPONTANEOUS POTENTIAL FROM IEL LOG
SPWS  .MV    : SPONTANEOUS POTENTIAL [BASELINE 0 MV] [SPRED]
SRESWS.OHMM  : SHALLOW RESISTIVITY [SNED]
~Params ----------------------------------------------------
PD  .                     GL : PERMANENT DATUM
EPD .FT               2117.8 : ELEVATION PERMANENT DATUM
LMF .                     KB : LOG MEASURED FROM
DAPD.FT                 13.2 : FEET ABOVE PERMANENT DATUM
DMF .                     KB : DRILLING MEASURED FROM
EKB .FT                 2131 : KELLY BUSHING
EGL .FT               2117.8 : GROUND LEVEL
DATE.               12/03/69 : RUN DATE
RUN .                      1 : RUN NUMBER
DD  .FT                 5801 : DEPTH DRILLER
DL  .FT                 5802 : DEPTH LOGGER
BLI .FT                 5798 : BOTTOM LOG INTERVAL
TLI .FT                  624 : TOP LOG INTERVAL
CS  .IN                8.625 : CASING SIZE
CBD .FT                  623 : CASING BOTTOM DRILLER
CBL .FT                  624 : CASING BOTTOM LOGGER
BS  .IN                7.875 : BIT SIZE
BSD .FT                 5801 : BIT SIZE AT DEPTH
DFT .            MUD GEL OIL : DRILLING FLUID TYPE
DFD .                    9.4 : DRILLING FLUID DENSITY
DFV .                     50 : DRILLING FLUID VISCOSITY
DFPH.                      9 : DRILLING FLUID PH
DFL .                      5 : DRILLING FLUID LOSS
MSS .                   CIRC : MUD SAMPLE SOURCE
RMS .OHMM                2.8 : RESISTIVITY MUD SAMPLE
MST .DEGF                 65 : MUD SAMPLE TEMPERATURE
RMF .OHMM                2.4 : RESISTIVITY MUD FILTRATE SAMPLE
MFST.DEGF                 65 : MUD FILTRATE SAMPLE TEMPERATURE
RMC .OHMM                3.4 : RESISTIVITY MUD CAKE
MCST.DEGF                 64 : MUD CAKE SAMPLE TEMPERATURE
MFSS.                   MEAS : MUD FILTRATE SAMPLE SOURCE
MCSS.                   MEAS : MUD CAKE SAMPLE SOURCE
RMB .OHMM               1.38 : RESISTIVITY MUD AT BHT
TCS .HRS                   3 : TIME CIRCULATED STOPPED
LUN .                HL 1252 : LOGGING UNIT NUMBER
LUL .                    R D : LOGGING UNIT LOCATION
ENGI.               MAC LEON : RECORDING ENGINEER
WITN.                    REA : WITNESSED BY
CLNT.                A2DTECH : CLIENT CODE
ORIG.            2" 5" PRINT : ORIGIN OF DATA
UWI .       100041708009W500 : UNIQUE WELL ID
DICO. A2D Technologies, Inc. : DIGITIZING COMPANY
~Other -----------------------------------------------------
~ASCII -----------------------------------------------------
  600.00000    -999.25    -999.25    -999.25    -999.25    -999.25    -999.25    -999.25   62.87410   62.87410    -999.25    -999.25    -999.25    -999.25    -999.25
  650.00000   61.37600   12.81660   12.81660  211.61080  212.30070    4.71030   61.37600   76.96560   76.96560    4.71030    5.47500  -68.40370  -12.21950    5.47500
  700.00000   47.67480    9.65560    9.65560  224.71180  213.70720    4.67930   47.67480   90.15720   90.15720    4.67930    5.24960  -63.29580   -8.12190    5.24960
  750.00000  150.56360   10.30690   10.30690  203.43160  196.32860    5.09350  150.56360   96.44380   96.44380    5.09350    5.92470  -60.59190   -6.42820    5.92470
  800.00000  156.42380   11.27450   11.27450  175.98180  177.13220    5.64550  156.42380   85.81390   85.81390    5.64550    5.93000  -58.64810   -5.49470    5.93000
  850.00000  140.00000   11.31380   11.31380  339.92630  328.99070    3.03960  140.00000  128.82290  128.82290    3.03960    3.85270  -59.36060   -7.21740    3.85270
  900.00000  210.20020   13.62500   13.62500  355.95770  338.71900    2.95230  210.20020   75.86260   75.86260    2.95230    4.00700  -55.62730   -4.49430    4.00700
  950.00000  240.00000   11.45370   11.45370  309.88310  297.11500    3.36570  240.00000   90.17450   90.17450    3.36570    4.30690  -54.81930   -4.69660    4.30690
 1000.00000   71.66710   11.15060   11.15060  311.13300  286.50830    3.49030   71.66710   91.04320   91.04320    3.49030    4.21070  -55.40550   -6.29300    4.21070
 1050.00000  135.19860    9.32080    9.32080  184.64570  184.46440    5.42110  135.19860   57.77440   57.77440    5.42110    7.73500  -70.50190  -22.38350    7.73500
 1100.00000  119.96920    8.71620    8.71620  223.96760  221.74420    4.50970  119.96920   58.32040   58.32040    4.50970    6.74350  -71.00720  -23.86040    6.74350
 1150.00000  175.68620   11.31180   11.31180  282.14430  280.72540    3.56220  175.68620   55.54080   55.54080    3.56220    5.28510  -57.52210  -11.34690    5.28510
 1200.00000  159.52800   11.44660   11.44660  262.10110  262.81900    3.80490  159.52800   60.17390   60.17390    3.80490    4.77950  -57.91840  -12.71490    4.77950
 1250.00000  146.98830    9.11020    9.11020  183.44430  178.45030    5.60380  146.98830   80.39870   80.39870    5.60380    8.83450  -63.78930  -19.17060    8.83450
 1300.00000  129.19450    9.17930    9.17930  189.20050  200.01200    4.99970  129.19450   68.29720   68.29720    4.99970    9.37390  -66.28950  -22.11960    9.37390
 1350.00000  218.97970    9.31460    9.31460  160.06280  158.40080    6.31310  218.97970   61.04710   61.04710    6.31310   12.37310  -73.50580  -29.78480   12.37310
 1400.00000  236.97920    9.68390    9.68390  239.73450  231.86250    4.31290  236.97920   71.89950   71.89950    4.31290    6.27560  -61.04600  -17.77390    6.27560
 1450.00000   97.72330    9.58470    9.58470  205.51750  197.09870    5.07360   97.72330   72.67610   72.67610    5.07360    8.04880  -64.93240  -22.10910    8.04880
 1500.00000  121.28490    9.41550    9.41550  187.41780  187.26940    5.33990  121.28490   54.23860   54.23860    5.33990    8.90700  -68.46880  -26.09440    8.90700
 1550.00000  136.47130   11.87770   11.87770  230.83850  231.73900    4.31520  136.47130   62.76630   62.76630    4.31520    5.41080  -58.67780  -16.75220    5.41080
 1600.00000  236.79600   12.78920   12.78920  247.66070  245.32050    4.07630  236.79600   66.33130   66.33130    4.07630    5.75190  -57.28000  -15.80330    5.75190
 1650.00000   87.62440   12.32900   12.32900  233.51260  219.40890    4.55770   87.62440   68.01990   68.01990    4.55770    5.56650  -55.70340  -14.67560    5.56650
 1700.00000  124.54330   12.71280   12.71280  144.89530  144.80580    6.90580  124.54330   78.50670   78.50670    6.90580    8.07980  -62.17010  -21.59110    8.07980
 1750.00000   98.03570   11.45380   11.45380  164.09520  163.32930    6.12260   98.03570   63.02420   63.02420    6.12260    7.73170  -59.40780  -19.27770    7.73170
 1800.00000  240.00000   11.94570   11.94570  187.97040  180.31340    5.54590  240.00000   81.98500   81.98500    5.54590    6.45930  -61.18890  -21.50770    6.45930
 1850.00000  240.00000   12.87540   12.87540  134.63530  135.83080    7.36210  240.00000   38.96410   38.96410    7.36210    8.69760  -54.95040  -15.71800    8.69760
 1900.00000  139.87480   10.21600   10.21600   78.51780   81.29490   12.30090  139.87480   29.59390   29.59390   12.30090   18.21590  -59.79030  -21.00680   18.21590
 1950.00000   82.84550    9.15390    9.15390   14.14650  137.53270    7.27100   82.84550   11.40970   11.40970    7.27100  107.31780  -71.82470  -33.49000  107.31780
 2000.00000  113.30640   11.88570   11.88570  138.37250  130.25240    7.67740  113.30640   52.79320   52.79320    7.67740    8.37200  -50.97130  -13.08550    8.37200
 2050.00000   65.97310   11.77890   11.77890  190.20430  174.38010    5.73460   65.97310   53.78840   53.78840    5.73460    6.77880  -54.90250  -17.46560    6.77880
 2100.00000  131.36050   11.64620   11.64620  151.58990  145.95560    6.85140  131.36050   54.59180   54.59180    6.85140   23.11100  -54.89180  -17.90370   23.11100
 2150.00000  132.86010   10.30960   10.30960  154.80620  147.48830    6.78020  132.86010   25.42210   25.42210    6.78020   12.40540  -55.29110  -18.75190   12.40540
 2200.00000   71.07300    9.42040    9.42040   30.66010   26.15290   38.23670   71.07300   25.31090   25.31090   38.23670   38.29920  -67.00690  -30.91660   38.29920
 2250.00000   73.29900   10.03980   10.03980   80.00360   79.14710   12.63470   73.29900   16.93770   16.93770   12.63470   19.30820  -48.40110  -12.75960   19.30820
 2300.00000   43.49120   10.04170   10.04170  285.58800  266.38960    3.75390   43.49120   44.78770   44.78770    3.75390    5.78040  -52.77850  -17.58590    5.78040
 2350.00000  131.66780    9.58960    9.58960   87.24600   88.65800   11.27930  131.66780   23.95520   23.95520   11.27930   17.47600  -37.64310   -2.89930   17.47600
 2400.00000   63.14530    9.11880    9.11880   42.22890   43.00470   23.25330   63.14530   30.45010   30.45010   23.25330   34.76550  -47.69560  -13.40070   34.76550
 2450.00000  140.00000   11.65740   11.65740  264.23750  248.60160    4.02250  140.00000   45.16380   45.16380    4.02250    5.38230  -37.61280   -3.76680    5.38230
 2500.00000  140.00000   10.66290   10.66290  172.50400  167.59400    5.96680  140.00000   36.03460   36.03460    5.96680    7.79340  -35.01030   -1.61310    7.79340
 2550.00000   69.03210    9.63120    9.63120   57.35660   58.77550   17.01390   69.03210   24.46480   24.46480   17.01390   22.84510  -44.30000  -11.35170   22.84510
 2600.00000   66.08540    9.35080    9.35080   46.71080   46.12290   21.68120   66.08540   25.26360   25.26360   21.68120   30.05100  -47.56190  -15.06250   30.05100
 2650.00000   67.03290    9.35630    9.35630   74.68370   73.50830   13.60390   67.03290   24.78460   24.78460   13.60390   19.06720  -39.75980   -7.59410   19.06720
 2700.00000   71.87160   12.29800   12.29800  245.42230  231.08560    4.32740   71.87160   54.50350   54.50350    4.32740    5.42860  -35.64370   -3.52970    5.42860
 2750.00000  151.66470   10.86220   10.86220  202.74240  193.44980    5.16930  151.66470   52.30550   52.30550    5.16930    7.36200  -32.49750   -0.43530    7.36200
 2800.00000   79.69280    9.52650    9.52650   88.71110   89.71670   11.14620   79.69280   38.80470   38.80470   11.14620   16.40930  -37.20120   -5.19070   16.40930
 2850.00000  126.75530   13.44820   13.44820  334.58390  311.82760    3.20690  126.75530  116.11940  116.11940    3.20690    4.42800  -39.56140   -7.60270    4.42800
 2900.00000   62.05330    9.46550    9.46550   30.82010   32.25900   30.99910   62.05330   24.28470   24.28470   30.99910   37.53960  -51.52480  -19.61780   37.53960
 2950.00000   61.13840    9.38490    9.38490   29.17280   30.13720   33.18160   61.13840    9.87190    9.87190   33.18160   68.95260 -103.84030  -71.98510   68.95260
 3000.00000   55.62760    9.33770    9.33770   28.76890   26.92360   37.14210   55.62760   10.43230   10.43230   37.14210   45.47640  -68.74110  -36.93760   45.47640
