~Version ---------------------------------------------------
VERS. 2.0 : CWLS log ASCII Standard -VERSION 2.0
WRAP.  NO : ONE LINE PER DEPTH STEP
~Well ------------------------------------------------------
STRT.F                                   347.3 : START DEPTH
STOP.F                                  9458.8 : STOP DEPTH
STEP.F                                 0.50000 : STEP LENGTH
NULL.                                  -999.25 : NULL VALUE
COMP. THE BRITISH AMERICAN OIL COMPANY LIMITED : COMPANY
WELL.              B.A. GOOSE RIVER 4-32-66-18 : WELL
FLD .                                          : FIELD
LOC .                                          : LOCATION
CTRY.                                   CANADA : COUNTRY
SRVC.                             Schlumberger : SERVICE COMPANY
DATE.                              02-Dec-1964 : LOGDATE
PROV.                                  Alberta : PROVINCE
UWI .                         100043206618W500 : UNIQUE WELL ID
SLAT.WGS84                            54.75185 : SURFACE LATITUDE
SLON.WGS84                           -116.6939 : SURFACE LONGITUDE
~Curve Information -----------------------------------------
DEPT.F    0   1   0  0 : 1 MEASURED DEPTH
GRN .GAPI 35 310 01 00 : GAMMA RAY FROM GRN LOG
NEUT.NAPI 35 330 01 00 : NEUTRON
GR  .GAPI 30 310 00 00 : GAMMA RAY
CILD.MMHO 05 110 46 00 : INDUCTION DEEP CONDUCTIVITY
ILD .OHMM 05 120 46 00 : INDUCTION DEEP RESISTIVITY
SN  .OHMM 05 040 16 00 : SHORT NORMAL RESISTIVITY
SPR .MV   05 010 01 00 : SPONTANEOUS POTENTIAL FROM RESISTIVITY LOG
GRS .GAPI 60 310 01 00 : GAMMA RAY FROM SONIC LOG
DT  .US/F 60 500 00 00 : DELTA-T (INTERVAL TRANSIT TIME)
CALS.IN   60 280 50 00 : CALIPER FROM SONIC LOG
DT_1.US/F 60 500 31 00 : DELTA-T (INTERVAL TRANSIT TIME)
~Params ----------------------------------------------------
PD  .                     GL : PERMANENT DATUM
EPD .FT                 2485 : ELEVATION PERMANENT DATUM
LMF .                     KB : LOG MEASURED FROM
DAPD.FT                   15 : FEET ABOVE PERMANENT DATUM
EKB .FT                 2500 : KELLY BUSHING
EGL .FT                 2485 : GROUND LEVEL
DATE.               12/02/64 : RUN DATE
RUN .                      1 : RUN NUMBER
DD  .FT                 9461 : DEPTH DRILLER
DL  .FT                 9460 : DEPTH LOGGER
BLI .FT                 9459 : BOTTOM LOG INTERVAL
TLI .FT                  781 : TOP LOG INTERVAL
CBD .FT                  784 : CASING BOTTOM DRILLER
CBL .FT                  781 : CASING BOTTOM LOGGER
BS  .IN                7.625 : BIT SIZE
BSD .FT                 9461 : BIT SIZE AT DEPTH
DFT .               GEL CHEM : DRILLING FLUID TYPE
DFD .                    9.8 : DRILLING FLUID DENSITY
DFV .                     95 : DRILLING FLUID VISCOSITY
DFPH.                    9.5 : DRILLING FLUID PH
DFL .                    7.4 : DRILLING FLUID LOSS
RMS .OHMM               2.38 : RESISTIVITY MUD SAMPLE
MST .DEGF                 64 : MUD SAMPLE TEMPERATURE
RMF .OHMM                2.1 : RESISTIVITY MUD FILTRATE SAMPLE
MFST.DEGF                 66 : MUD FILTRATE SAMPLE TEMPERATURE
RMC .OHMM               2.32 : RESISTIVITY MUD CAKE
MCST.DEGF                 66 : MUD CAKE SAMPLE TEMPERATURE
RMB .OHMM               0.84 : RESISTIVITY MUD AT BHT
TCS .HRS                   6 : TIME CIRCULATED STOPPED
LUN .                   3534 : LOGGING UNIT NUMBER
LUL .                    V V : LOGGING UNIT LOCATION
ENGI.               CHENOSKY : RECORDING ENGINEER
WITN.                  WEISS : WITNESSED BY
CLNT.                A2DTECH : CLIENT CODE
ORIG.            2" 5" PRINT : ORIGIN OF DATA
UWI .       100043206618W500 : UNIQUE WELL ID
DICO. A2D Technologies, Inc. : DIGITIZING COMPANY
~Other -----------------------------------------------------
~ASCII -----------------------------------------------------
# ...
 7118.30000    -999.25    -999.25    -999.25   18.44240   55.39100  151.39430 -168.53540   15.00090   50.03650    8.20660    -999.25
 7118.80000    -999.25    -999.25    -999.25   21.11160   48.63820  148.85910 -169.70270   15.80370   49.93580    8.20690    -999.25
 7119.30000    -999.25    -999.25    -999.25   23.06030   44.38760  147.00390 -170.94850   16.71310   49.78720    8.16010    -999.25
 7119.80000    -999.25    -999.25    -999.25   25.01050   40.96610  143.06730 -172.43310   18.22770   49.79540    8.24740    -999.25
 7120.30000    -999.25    -999.25    -999.25   26.58960   38.72670  138.17670 -173.25660   19.95760   50.00720    8.08440    -999.25
 7120.80000    -999.25    -999.25    -999.25   27.36240   37.58770  135.13810 -173.97900   18.86400   50.49440    7.69070    -999.25
 7121.30000    -999.25    -999.25    -999.25   27.81750   37.14140  132.60040 -174.45640   14.55750   51.17000    7.34540    -999.25
 7121.80000    -999.25    -999.25    -999.25   27.77320   37.08730  130.94970 -174.64920   14.52660   51.93930    7.34180    -999.25
 7122.30000    -999.25    -999.25    -999.25   27.81600   37.20980  128.98780 -174.75320   15.69500   52.61840    7.35860    -999.25
 7122.80000    -999.25    -999.25    -999.25   27.19360   38.01600  128.96420 -174.61290   17.03260   53.16410    7.33400    -999.25
 7123.30000    -999.25    -999.25    -999.25   26.38480   39.94120  128.80010 -174.47760   17.33240   53.63400    7.31640    -999.25
 7123.80000    -999.25    -999.25    -999.25   25.04890   42.32750  130.10760 -173.75050   17.24610   54.21120    7.32840    -999.25
 7124.30000    -999.25    -999.25    -999.25   23.16750   46.08480  131.32410 -173.04240   16.76320   54.62900    7.36170    -999.25
 7124.80000    -999.25    -999.25    -999.25   21.35950   53.26370  132.83640 -172.46960   15.96410   54.69700    7.35670    -999.25
 7125.30000    -999.25    -999.25    -999.25   19.56150   60.44260  134.48470 -171.73060   16.06410   54.59260    7.36070    -999.25
 7125.80000    -999.25    -999.25    -999.25   17.53030   73.19160  135.40980 -170.58380   15.08310   54.39480    7.37550    -999.25
 7126.30000    -999.25    -999.25    -999.25   14.64690   87.24220  136.33490 -169.34810   15.57380   53.71310    7.41840    -999.25
 7126.80000    -999.25    -999.25    -999.25   12.34930  103.87400  137.24150 -168.14620   16.04380   52.94860    7.50600    -999.25
 7127.30000    -999.25    -999.25    -999.25   10.37730  122.41730  138.07490 -167.14630   16.04630   51.94830    7.70150    -999.25
 7127.80000    -999.25    -999.25    -999.25    9.16060  139.70620  139.14900 -166.51040   16.09940   51.27840    7.98850    -999.25
 7128.30000    -999.25    -999.25    -999.25    8.31210  158.14480  139.08330 -165.49120   16.13250   50.85150    8.13070    -999.25
 7128.80000    -999.25    -999.25    -999.25    7.54450  160.32880  138.78670 -164.79740   14.43400   50.42710    8.13500    -999.25
 7129.30000    -999.25    -999.25    -999.25    7.73850  143.83110  138.34790 -164.35260   14.14690   50.20720    8.13030    -999.25
 7129.80000    -999.25    -999.25    -999.25    8.87700  119.41860  134.75690 -163.97610   14.09920   50.18900    8.13640    -999.25
 7130.30000    -999.25    -999.25    -999.25   10.92290   93.40160  129.54370 -163.27630   15.10630   50.11720    8.14250    -999.25
 7130.80000    -999.25    -999.25    -999.25   13.06360   76.49850  123.55710 -162.76990   17.76850   49.89410    8.14860    -999.25
 7131.30000    -999.25    -999.25    -999.25   15.97420   64.58330  117.49710 -162.20720   20.70690   49.67650    8.15460    -999.25
 7131.80000    -999.25    -999.25    -999.25   19.40040   49.32630  112.59050 -162.28020   19.05140   49.63220    8.16080    -999.25
 7132.30000    -999.25    -999.25    -999.25   22.47680   44.55800  109.02380 -162.38150   16.25010   49.69950    8.17190    -999.25
 7132.80000    -999.25    -999.25    -999.25   25.76240   38.61170  107.46920 -162.66060   15.95360   49.90120    8.18300    -999.25
 7133.30000    -999.25    -999.25    -999.25   29.18770   34.56870  106.53610 -163.36890   15.85000   50.31830    8.20030    -999.25
 7133.80000    -999.25    -999.25    -999.25   31.35170   32.09310  106.54830 -164.50930   15.73910   50.99600    8.21870    -999.25
 7134.30000    -999.25    -999.25    -999.25   33.27340   30.60250  106.55550 -165.47890   15.27470   51.70750    8.23720    -999.25
 7134.80000    -999.25    -999.25    -999.25   33.55920   30.28830  106.65620 -166.01960   14.51290   51.93450    8.22880    -999.25
 7135.30000    -999.25    -999.25    -999.25   33.63530   31.08720  107.43340 -166.70420   14.20360   52.16190    8.08150    -999.25
 7135.80000    -999.25    -999.25    -999.25   32.87120   32.34170  107.67070 -166.93740   14.25460   52.67440    7.89260    -999.25
 7136.30000    -999.25    -999.25    -999.25   30.61840   34.69340  108.51780 -167.16370   14.49620   52.97560    7.74990    -999.25
 7136.80000    -999.25    -999.25    -999.25   28.18130   37.95130  109.13640 -166.87080   14.45800   52.99960    7.73200    -999.25
 7137.30000    -999.25    -999.25    -999.25   26.02000   42.28080  109.57610 -166.48830   14.17890   52.97060    7.72580    -999.25
 7137.80000    -999.25    -999.25    -999.25   23.03240   48.89810  109.92590 -165.78320   14.49310   53.09460    7.77110    -999.25
 7138.30000    -999.25    -999.25    -999.25   20.53760   60.77340  108.67510 -165.20990   15.13240   53.13430    7.83160    -999.25
 7138.80000    -999.25    -999.25    -999.25   18.14880   67.40120  106.81020 -164.56060   15.14940   53.12160    7.89660    -999.25
 7139.30000    -999.25    -999.25    -999.25   16.38540   75.30270  103.80100 -163.57950   14.55680   52.90120    7.96160    -999.25
 7139.80000    -999.25    -999.25    -999.25   15.45310   78.35080  100.34520 -162.52680   13.05540   52.42390    8.02660    -999.25
 7140.30000    -999.25    -999.25    -999.25   14.23010   79.76300   96.88940 -161.34370   11.67490   52.03530    8.06680    -999.25
 7140.80000    -999.25    -999.25    -999.25   14.38100   76.46880   93.43360 -160.14420   12.23160   51.94410    8.06220    -999.25
 7141.30000    -999.25    -999.25    -999.25   15.34700   71.08970   90.35030 -158.91800   12.84270   51.66980    8.06610    -999.25
 7141.80000    -999.25    -999.25    -999.25   16.76520   64.58010   87.54330 -158.21500   12.61210   51.04970    8.06990    -999.25
 7142.30000    -999.25    -999.25    -999.25   18.63890   60.68030   86.27660 -157.39270   14.17230   50.71240    8.07380    -999.25
 7142.80000    -999.25    -999.25    -999.25   20.38360   53.71860   85.95930 -157.06770   15.09940   50.75850    8.07770    -999.25
 7143.30000    -999.25    -999.25    -999.25   22.09960   46.75690   87.01400 -157.00270   15.37020   50.78490    8.08150    -999.25
 7143.80000    -999.25    -999.25    -999.25   24.00510   43.11540   89.39330 -157.16890   14.70760   50.68700    8.08540    -999.25
 7144.30000    -999.25    -999.25    -999.25   25.58950   40.03230   92.23450 -157.41560   12.97430   51.16730    8.08930    -999.25
 7144.80000    -999.25    -999.25    -999.25   26.87160   38.40820   95.68650 -157.81120   11.85950   51.45100    8.09310    -999.25
 7145.30000    -999.25    -999.25    -999.25   26.88170   38.84180   99.12560 -158.29600   12.17980   51.88590    8.09700    -999.25
 7145.80000    -999.25    -999.25    -999.25   26.21520   40.97360  102.77370 -158.27340   12.57580   52.25270    8.10080    -999.25
 7146.30000    -999.25    -999.25    -999.25   24.27670   45.34630  106.93950 -157.90660   12.56800   52.31780    8.09860    -999.25
 7146.80000    -999.25    -999.25    -999.25   21.71510   49.92120  110.95190 -157.18720   14.12710   52.44270    7.87870    -999.25
 7147.30000    -999.25    -999.25    -999.25   19.19290   65.07250  113.95760 -156.19950   15.83880   52.41180    7.62470    -999.25
 7147.80000    -999.25    -999.25    -999.25   16.87630   73.37620  116.22760 -155.24730   15.78080   52.32030    7.64000    -999.25
 7148.30000    -999.25    -999.25    -999.25   14.90890   80.49570  119.00630 -153.90580   14.99180   51.97120    7.83220    -999.25
