~Version ---------------------------------------------------
VERS.      2.0 : CWLS log ASCII Standard -VERSION 2.0
WRAP.       NO : One line per depth step
CREA. 10/27/17 : LAS Creation Date
~Well ------------------------------------------------------
STRT.FT                              1150.0 : START DEPTH
STOP.FT                             12400.0 : STOP DEPTH
STEP.FT                            50.00000 : STEP LENGTH
NULL.                               -999.25 : NULL VALUE
COMP. HUDSONS BAY OIL & GAS COMPANY LIMITED : COMPANY
WELL.        HB SHELL SIMONETTE 13-23-63-25 : WELL
FLD .                                       : FIELD
LOC .                                       : LOCATION
CTRY.                                CANADA : COUNTRY
SRVC.                          Schlumberger : SERVICE COMPANY
DATE.                           12-Mar-1973 : LOGDATE
PROV.                               Alberta : PROVINCE
UWI .                      100132306325W500 : UNIQUE WELL ID
SLAT.WGS84                            54.47 : SURFACE LATITUDE
SLON.WGS84                        -117.6781 : SURFACE LONGITUDE
~Curve Information -----------------------------------------
DEPT   .FT    : Depth Curve
ASNED  .OHMM  : AMPLIFIED SHORT NORMAL RESISTIVITY FROM IEL LOG [ADJ. TO DIL LOG]
CALSED .IN    : CALIPER FROM SONIC LOG
CALWS  .IN    : CALIPER [CALSED]
CILD1ED.MMHO  : CONDUCTIVITY FROM IEL LOG [ADJ. TO DIL LOG]
CILDED .MMHO  : CONDUCTIVITY FROM DIL LOG
CONDWS .MMHO  : CONDUCTIVITY [1000/DRESWS]
DRESWS .OHMM  : DEEP RESISTIVITY [SPLICED ILDED/ILD1ED AT 1737/3618] [FROM TOP TO 1737 IF ILDED<5;1000/CILDED;ELSE ILDED/ILD1ED<1;1000/CILD1ED;ELSED ILD1ED]
DTED   .US/F  : DELTA TIME FROM SONIC LOG [DEPTH ADJ TO RESISTIVITY LOG]
DTWS   .US/F  : COMPRESSIONAL SONIC [DTED]
GRNED  .GAPI  : GAMMA RAY FROM GRN LOG
GRSED  .GAPI  : GAMMA RAY FROM SONIC LOG
GRWS   .GAPI  : GAMMA RAY [GRSED SPL.  TO GRNED @ 11962']
ILD1ED .OHMM  : DEEP INDUCTION RESISTIVITY  FROM IEL LOG [ADJ. TO DIL LOG]
ILDED  .OHMM  : DEEP  INDUCTION RESISTIVITY FROM DIL LOG
ILMED  .OHMM  : MEDIUM INDUCTION RESISTIVITY FROM DIL LOG
LL8ED  .OHMM  : LATEROLOG 8 FROM DIL LOG
MRESWS .OHMM  : MEDIUM RESISTIVITY [ILMED]
NEUTED .NAPI  : NEUTRON FROM GRN LOG [DEPTH ADJ TO RESISTIVITY LOG]
NEUTWS .NAPI  : NEUTRON [NEUTED]
SPED   .MV    : SPONTANEOUS POTENTIAL [SPRED SPL. TO SPR1ED @ 11990']
SPR1ED .MV    : SPONTANEOUS POTENTIAL FROM IEL LOG [ADJ. TO DIL LOG]
SPRED  .MV    : SPONTANEOUS POTENTIAL FROM DIL LOG
SPWS   .MV    : SPONTANEOUS POTENIAL [BASELINE 0 MV, SPRED]
SRESWS .OHMM  : SHALLOW RESISTIVITY [LL8ED SPL. TO ASNED @ 11946']
~Params ----------------------------------------------------
PD  .                     GL : PERMANENT DATUM
EPD .FT                 2976 : ELEVATION PERMANENT DATUM
LMF .                     KB : LOG MEASURED FROM
DAPD.FT                   21 : FEET ABOVE PERMANENT DATUM
EKB .FT                 2997 : KELLY BUSHING
EGL .FT                 2976 : GROUND LEVEL
DATE.             03/12/1973 : RUN DATE
RUN .                      1 : RUN NUMBER
DD  .FT                12400 : DEPTH DRILLER
DL  .FT                11435 : DEPTH LOGGER
BLI .FT                12434 : BOTTOM LOG INTERVAL
TLI .FT                11300 : TOP LOG INTERVAL
CS  .IN               13.375 : CASING SIZE
BS  .IN                 8.75 : BIT SIZE
BSD .FT                12434 : BIT SIZE AT DEPTH
DFT .              FRESH GEL : DRILLING FLUID TYPE
DFD .                    9.3 : DRILLING FLUID DENSITY
DFV .                    400 : DRILLING FLUID VISCOSITY
DFPH.                   10.5 : DRILLING FLUID PH
DFL .                    8.4 : DRILLING FLUID LOSS
RMB .OHMM                1.1 : RESISTIVITY MUD AT BHT
LUN .               7670 EDM : LOGGING UNIT NUMBER
ENGI.                 CALVIN : RECORDING ENGINEER
WITN.                FOGARTY : WITNESSED BY
CLNT.                A2DTECH : CLIENT CODE
ORIG.            2" 5' PRINT : ORIGIN OF DATA
UWI .       100132306325W500 : UNIQUE WELL ID
DICO. A2D Technologies, Inc. : DIGITIZING COMPANY
~Other -----------------------------------------------------
DIL-IEL-GRN-BCS LOG RUN
SUFFIX OF THE CURVES ARE NOT REMOVED DUE TO DIFFERENT TOOL. BUT THEY HAVE SAME MNEMONICS
~ASCII -----------------------------------------------------
# ...
 8400.00000    -999.25    8.45280    8.45280    -999.25    -999.25  320.96550    3.11560   63.98520   63.98520    -999.25   23.65170   23.65170    -999.25    3.11560    5.60400   28.46060    5.60400    -999.25    -999.25 -168.42110    -999.25 -179.42110 -109.22310   28.46060
 8450.00000    -999.25    8.61700    8.61700    -999.25    -999.25  165.19370    6.05350   67.10760   67.10760    -999.25   46.45720   46.45720    -999.25    6.05350   10.02540   36.13050   10.02540    -999.25    -999.25 -155.66310    -999.25 -166.66310  -97.14580   36.13050
 8500.00000    -999.25    8.85390    8.85390    -999.25    -999.25    8.63230  115.84430   51.73150   51.73150    -999.25   57.49170   57.49170    -999.25  115.84430  138.98900 1119.12950  138.98900    -999.25    -999.25  -93.77260    -999.25 -104.77260  -35.93590 1119.12950
 8550.00000    -999.25    9.24510    9.24510    -999.25    -999.25    0.64070 1560.70670   47.73580   47.73580    -999.25   18.95580   18.95580    -999.25 1560.70670 1341.83650 1669.11920 1341.83650    -999.25    -999.25 -131.70830    -999.25 -142.70830  -74.54890 1669.11920
 8600.00000    -999.25    8.88910    8.88910    -999.25    -999.25    0.62140 1609.24220   50.83940   50.83940    -999.25    8.35440    8.35440    -999.25 1609.24220 1340.10290 1735.98910 1340.10290    -999.25    -999.25 -103.17440    -999.25 -114.17440  -46.69900 1735.98910
 8650.00000    -999.25    8.71490    8.71490    -999.25    -999.25    0.62730 1594.01000   50.25110   50.25110    -999.25   18.67990   18.67990    -999.25 1594.01000 1315.79740 1703.50720 1315.79740    -999.25    -999.25  -67.32960    -999.25  -78.32960  -11.53490 1703.50720
 8700.00000    -999.25    8.87690    8.87690    -999.25    -999.25    1.46100  684.44350   47.95980   47.95980    -999.25   31.23940   31.23940    -999.25  684.44350 1298.35670 1778.65330 1298.35670    -999.25    -999.25  -86.40180    -999.25  -97.40180  -31.28770 1778.65330
 8750.00000    -999.25    8.77890    8.77890    -999.25    -999.25  420.22100    2.37970   58.47590   58.47590    -999.25   31.51530   31.51530    -999.25    2.37970    4.81530   18.50800    4.81530    -999.25    -999.25 -161.96640    -999.25 -172.96640 -107.53300   18.50800
 8800.00000    -999.25    9.10640    9.10640    -999.25    -999.25   32.99630   30.30640   50.91300   50.91300    -999.25   14.26470   14.26470    -999.25   30.30640   60.30300 1622.79800   60.30300    -999.25    -999.25 -117.37080    -999.25 -128.37080  -63.61470 1622.79800
 8850.00000    -999.25    9.27420    9.27420    -999.25    -999.25    4.93460  202.65150   50.57890   50.57890    -999.25   13.02590   13.02590    -999.25  202.65150 1016.97800 1674.88850 1016.97800    -999.25    -999.25  -96.85440    -999.25 -107.85440  -43.78230 1674.88850
 8900.00000    -999.25    9.36120    9.36120    -999.25    -999.25    8.98250  111.32730   51.46470   51.46470    -999.25    9.74790    9.74790    -999.25  111.32730  216.42840  657.05640  216.42840    -999.25    -999.25  -77.08340    -999.25  -88.08340  -24.29810  657.05640
 8950.00000    -999.25    8.55280    8.55280    -999.25    -999.25  231.94860    4.31130   58.57810   58.57810    -999.25   29.78520   29.78520    -999.25    4.31130    8.38980   40.77820    8.38980    -999.25    -999.25 -163.87690    -999.25 -174.87690 -110.31350   40.77820
 9000.00000    -999.25    9.23340    9.23340    -999.25    -999.25  110.12000    9.08100   58.18280   58.18280    -999.25   32.91000   32.91000    -999.25    9.08100   11.61460   23.22280   11.61460    -999.25    -999.25 -118.82990    -999.25 -129.82990  -64.48830   23.22280
 9050.00000    -999.25    9.29050    9.29050    -999.25    -999.25   60.52570   16.52190   56.38850   56.38850    -999.25   42.85740   42.85740    -999.25   16.52190   17.93360   35.45760   17.93360    -999.25    -999.25  -95.03240    -999.25 -106.03240  -39.91660   35.45760
 9100.00000    -999.25    9.15650    9.15650    -999.25    -999.25   13.30430   75.16340   54.33070   54.33070    -999.25   47.04520   47.04520    -999.25   75.16340   82.98740  165.25750   82.98740    -999.25    -999.25  -75.37310    -999.25  -86.37310  -19.47530  165.25750
 9150.00000    -999.25    9.19260    9.19260    -999.25    -999.25   19.92720   50.18260   50.88390   50.88390    -999.25   20.28200   20.28200    -999.25   50.18260   72.55560  659.41890   72.55560    -999.25    -999.25 -121.68740    -999.25 -132.68740  -65.01150  659.41890
 9200.00000    -999.25    9.06840    9.06840    -999.25    -999.25  124.95000    8.00320   52.62060   52.62060    -999.25   13.37950   13.37950    -999.25    8.00320   20.84720  140.85960   20.84720    -999.25    -999.25 -168.00870    -999.25 -179.00870 -110.55460  140.85960
 9250.00000    -999.25    9.20930    9.20930    -999.25    -999.25    7.66510  130.46100   49.66770   49.66770    -999.25    8.16230    8.16230    -999.25  130.46100  275.13970 1586.05190  275.13970    -999.25    -999.25 -132.31210    -999.25 -143.31210  -74.07990 1586.05190
 9300.00000    -999.25    9.02080    9.02080    -999.25    -999.25   65.12150   15.35590   62.94440   62.94440    -999.25   89.60470   89.60470    -999.25   15.35590   17.99690   56.59820   17.99690    -999.25    -999.25  -74.38730    -999.25  -85.38730  -17.12620   56.59820
 9350.00000    -999.25    9.04840    9.04840    -999.25    -999.25  311.95410    3.20560   62.96920   62.96920    -999.25   41.62450   41.62450    -999.25    3.20560    3.62850    7.21290    3.62850    -999.25    -999.25 -108.44590    -999.25 -119.44590  -54.95880    7.21290
 9400.00000    -999.25    9.16720    9.16720    -999.25    -999.25   54.49620   18.34990   56.76120   56.76120    -999.25   66.30410   66.30410    -999.25   18.34990   21.51350   44.70350   21.51350    -999.25    -999.25  -54.36130    -999.25  -65.36130   -4.62940   44.70350
 9450.00000    -999.25    9.18240    9.18240    -999.25    -999.25   13.05390   76.60570   55.32000   55.32000    -999.25   39.27150   39.27150    -999.25   76.60570  109.72550  688.00210  109.72550    -999.25    -999.25  -58.72470    -999.25  -69.72470  -12.74800  688.00210
 9500.00000    -999.25    9.46090    9.46090    -999.25    -999.25    7.51720  133.02840   51.13870   51.13870    -999.25   22.94310   22.94310    -999.25  133.02840  300.17320 1769.10120  300.17320    -999.25    -999.25  -65.68340    -999.25  -76.68340  -23.46190 1769.10120
 9550.00000    -999.25    9.23490    9.23490    -999.25    -999.25   66.71030   14.99020   58.70000   58.70000    -999.25   39.62770   39.62770    -999.25   14.99020   17.01980   33.50530   17.01980    -999.25    -999.25  -53.73860    -999.25  -64.73860  -15.25360   33.50530
 9600.00000    -999.25    9.06860    9.06860    -999.25    -999.25   15.99930   62.50280   54.69680   54.69680    -999.25   34.64280   34.64280    -999.25   62.50280   87.51720  390.21150   87.51720    -999.25    -999.25  -58.75100    -999.25  -69.75100  -24.04000  390.21150
 9650.00000    -999.25    8.97680    8.97680    -999.25    -999.25   22.28040   44.88240   55.91570   55.91570    -999.25   32.87870   32.87870    -999.25   44.88240   63.25190  196.29880   63.25190    -999.25    -999.25  -48.81570    -999.25  -59.81570  -17.85990  196.29880
 9700.00000    -999.25    9.08050    9.08050    -999.25    -999.25   26.20280   38.16390   55.18360   55.18360    -999.25   40.18490   40.18490    -999.25   38.16390   51.98040  121.03140   51.98040    -999.25    -999.25  -62.49240    -999.25  -73.49240  -35.29180  121.03140
 9750.00000    -999.25    9.05220    9.05220    -999.25    -999.25    3.29930  303.09600   50.74900   50.74900    -999.25   22.47800   22.47800    -999.25  303.09600 1240.34730 1728.06010 1240.34730    -999.25    -999.25  -59.52990    -999.25  -70.52990  -36.08450 1728.06010
 9800.00000    -999.25    8.96230    8.96230    -999.25    -999.25   13.99060   71.47670   54.52010   54.52010    -999.25   34.04120   34.04120    -999.25   71.47670  106.11710  473.34760  106.11710    -999.25    -999.25  -24.36370    -999.25  -35.36370   -4.65470  473.34760
