~Version ---------------------------------------------------
VERS.      2.0 : CWLS log ASCII Standard -VERSION 2.0
WRAP.       NO : One line per depth step
CREA. 11/13/17 : LAS Creation Date
~Well ------------------------------------------------------
STRT.FT                                  800.0 : START DEPTH
STOP.FT                                11750.0 : STOP DEPTH
STEP.FT                               50.00000 : STEP LENGTH
NULL.                                  -999.25 : NULL VALUE
COMP.               THE CALIFORNIA STANDARD CO : COMPANY
WELL. CALSTAN PAN AM WASKAHIGAN 12-1-64-24 #12 : WELL
FLD .                                          : FIELD
LOC .                                          : LOCATION
CTRY.                                   CANADA : COUNTRY
SRVC.                             Schlumberger : SERVICE COMPANY
DATE.                              23-Oct-1961 : LOGDATE
PROV.                                  Alberta : PROVINCE
UWI .                         100120106424W500 : UNIQUE WELL ID
SLAT.WGS84                            54.51049 : SURFACE LATITUDE
SLON.WGS84                            -117.501 : SURFACE LONGITUDE
~Curve Information -----------------------------------------
DEPT  .FT         : Depth Curve
CALWS .IN         : CALIPER [MCALED]
CILDED.MMHO       : CONDUCTIVITY FROM RESISTIVITY LOG
CONDWS.MMHO       : CONDUCTIVITY [1000/DRESWS]
DRESWS.OHMM       : DEEP RESISTIVITY [1000/CONDWS, IF ILDED<1, ILDED]
DT1ED .US/F       : DELTA TIME (1' SPACING) FROM SONIC LOG [ADJ. TO GRSED]
DTED  .US/F       : COMPRESSIONAL SONIC (3' SPACING) FROM SONIC LOG
DTWS  .US/F       : COMPRESSIONAL SONIC [DTED]
GRS1ED.UgRa-Eq/T  : GAMMA RAY FROM SONIC LOG [ADJ. TO GRSED]
GRSED .UgRa-Eq/T  : GAMMA RAY FROM SONIC LOG
GRWS  .GAPI       : GAMMA RAY [GRSED] [GRWS*16.50]
ILDED .OHMM       : DEEP INDUCTION RESISTIVITY FROM RESISTIVITY LOG
MCALED.IN         : CALIPER FROM RESISTIVITYLOG
SNED  .OHMM       : SHORT NORMAL RESISTIVITY FROMRESISTIVITY LOG
SPRED .MV         : SPONTANEOUS POTENTIAL FROM RESISTIVITY LOG
SPWS  .MV         : SPONTANEOUS POTENTIAL [BASE LINE 0 MV, SPRED]
SRESWS.OHMM       : SHALLOW RESISTIVITY [SNED]
~Params ----------------------------------------------------
PD  .                     GL : PERMANENT DATUM
EPD .FT                 2810 : ELEVATION PERMANENT DATUM
LMF .                     KB : LOG MEASURED FROM
DAPD.FT                   14 : FEET ABOVE PERMANENT DATUM
EKB .FT                 2824 : KELLY BUSHING
EGL .FT                 2810 : GROUND LEVEL
DATE.               10/23/61 : RUN DATE
RUN .                      2 : RUN NUMBER
DD  .FT                11793 : DEPTH DRILLER
DL  .FT                11795 : DEPTH LOGGER
BLI .FT                11794 : BOTTOM LOG INTERVAL
TLI .FT                 7600 : TOP LOG INTERVAL
BS  .IN                    9 : BIT SIZE
BSD .FT                11793 : BIT SIZE AT DEPTH
DFT .                    GEL : DRILLING FLUID TYPE
DFD .                   10.3 : DRILLING FLUID DENSITY
DFV .                    250 : DRILLING FLUID VISCOSITY
DFPH.                     10 : DRILLING FLUID PH
DFL .                    8.1 : DRILLING FLUID LOSS
RMS .OHMM               2.66 : RESISTIVITY MUD SAMPLE
MST .DEGF                 64 : MUD SAMPLE TEMPERATURE
RMF .OHMM               1.59 : RESISTIVITY MUD FILTRATE SAMPLE
MFST.DEGF                 80 : MUD FILTRATE SAMPLE TEMPERATURE
RMC .OHMM               1.89 : RESISTIVITY MUD CAKE
MCST.DEGF                 78 : MUD CAKE SAMPLE TEMPERATURE
TCS .HRS                   3 : TIME CIRCULATED STOPPED
LUN .                   1534 : LOGGING UNIT NUMBER
LUL .                     WC : LOGGING UNIT LOCATION
ENGI.                   GRAY : RECORDING ENGINEER
WITN.                BORWICK : WITNESSED BY
CLNT.                A2DTECH : CLIENT CODE
ORIG.            2" 5" PRINT : ORIGIN OF DATA
UWI .       100120106424W500 : UNIQUE WELL ID
DICO. A2D Technologies, Inc. : DIGITIZING COMPANY
~Other -----------------------------------------------------
~ASCII -----------------------------------------------------
# ...
 7250.00000   15.01810  220.21500  205.93930    4.85580    -999.25  123.76530  123.76530    -999.25    3.55690   58.68890    4.85580   15.01810    5.54930  -30.50200   -6.93970    5.54930
 7300.00000   10.66800    7.69190    3.47320  287.91670    -999.25   77.37150   77.37150    -999.25    6.79090  112.04980  287.91670   10.66800  198.09410  -35.04010  -11.09380  198.09410
 7350.00000    9.74860   10.55150    5.53230  180.75600    -999.25   92.72280   92.72280    -999.25    9.17310  151.35610  180.75600    9.74860  114.22390  -56.58070  -30.86400  114.22390
 7400.00000   10.55440   37.57000   36.70610   27.24340    -999.25   64.78430   64.78430    -999.25    4.47120   73.77480   27.24340   10.55440   31.92870  -30.82030   -3.38930   31.92870
 7450.00000    9.83730   64.37960   64.46370   15.51410    -999.25   62.13340   62.13340    -999.25    3.38680   55.88300   15.51410    9.83730   17.89860  -55.72630  -32.14000   17.89860
 7500.00000    9.37560   23.92390   23.13140   43.23120    -999.25   59.79620   59.79620    -999.25    3.87140   63.87810   43.23120    9.37560   45.28420  -39.67860  -19.89890   45.28420
 7550.00000    9.38620   30.31520   28.26130   35.38410    -999.25   57.29120   57.29120    -999.25    3.45690   57.03890   35.38410    9.38620   36.06890  -45.30860  -27.52490   36.06890
 7600.00000    9.13050   22.21240   19.63530   50.92870    -999.25   58.29230   58.29230    -999.25    3.64090   60.07480   50.92870    9.13050   53.97090  -49.78520  -27.87180   53.97090
 7650.00000    9.16880   27.64190   26.48370   37.75910    -999.25   60.11950   60.11950    -999.25    4.16350   68.69770   37.75910    9.16880   41.31920  -42.96570  -16.92270   41.31920
 7700.00000    9.50640   27.89870   25.45150   39.29840    -999.25   59.32780   59.32780    -999.25    4.46490   73.67000   39.29840    9.50640   41.84790  -39.01510   -8.82180   41.84790
 7750.00000    9.10890   28.52450   26.61650   37.57070    -999.25   54.81550   54.81550    -999.25    2.52030   41.58500   37.57070    9.10890   39.62550  -82.27900  -45.17730   39.62550
 7800.00000    8.82670  182.49290  168.21990    5.94460    -999.25   57.50430   57.50430    -999.25    2.09210   34.51960    5.94460    8.82670   25.01700 -128.52870  -81.80830   25.01700
 7850.00000    8.54010   45.53090   46.27720   21.60890    -999.25   54.63030   54.63030    -999.25    2.32000   38.28000   21.60890    8.54010   59.68240  -64.57460   -8.23560   59.68240
 7900.00000   10.95490    6.26920    4.13800  241.66310    -999.25   52.72500   52.72500    -999.25    1.14180   18.83970  241.66310   10.95490  250.37700 -130.71450  -74.85390  250.37700
 7950.00000   10.11150    7.01370    5.72830  174.79880    -999.25   49.76660   49.76660    -999.25    1.76820   29.17450  174.79880   10.11150  166.01180  -93.76720  -39.15120  166.01180
 8000.00000   13.71860   42.67340   38.32520   26.09250    -999.25   55.87880   55.87880    -999.25    1.40140   23.12310   26.09250   13.71860   35.54230 -127.31110  -73.92710   35.54230
 8050.00000   10.52760   21.51000   20.09730   49.75800    -999.25   54.00550   54.00550    -999.25    1.65900   27.37350   49.75800   10.52760   81.55710 -144.38500  -92.23940   81.55710
 8100.00000   10.43780   41.36740   38.26860   26.13110    -999.25   53.21180   53.21180    -999.25    1.29460   21.36090   26.13110   10.43780   69.56610 -169.22820 -118.32090   69.56610
 8150.00000   10.18140   15.35530   10.17630   98.26750    -999.25   56.10450   56.10450    -999.25    3.04020   50.16330   98.26750   10.18140   70.72730  -84.50300  -34.83400   70.72730
 8200.00000   11.35910   33.44060   32.79200   30.49590    -999.25   64.00810   64.00810    -999.25    4.00120   66.01980   30.49590   11.35910   35.94150  -54.40000   -2.88780   35.94150
 8250.00000    9.37780    9.79290    9.18340  108.89220    -999.25   54.43200   54.43200    -999.25    1.18890   19.61680  108.89220    9.37780  107.13670 -110.55690  -48.22870  107.13670
 8300.00000    9.40620  190.80040  177.49690    5.63390    -999.25   60.05350   60.05350    -999.25    2.01980   33.32670    5.63390    9.40620   20.14470 -168.79040  -95.59180   20.14470
 8350.00000   10.25380   50.87530   48.81260   20.48650    -999.25   55.78750   55.78750    -999.25    2.21990   36.62830   20.48650   10.25380   30.73520  -94.24770  -10.17860   30.73520
 8400.00000   10.52510   30.38490   29.78540   33.57350    -999.25   53.01250   53.01250    -999.25    1.60180   26.42970   33.57350   10.52510   55.18110 -128.12630  -46.11410   55.18110
 8450.00000   11.80030    6.67390    5.45780  183.22530    -999.25   53.24760   53.24760    -999.25    1.11470   18.39170  183.22530   11.80030  168.03510 -131.24880  -53.07540  168.03510
 8500.00000   10.28540   52.61280   48.75580   20.51040    -999.25   51.89150   51.89150    -999.25    1.32330   21.83450   20.51040   10.28540   76.19540 -203.28480 -128.91200   76.19540
 8550.00000   11.23030    9.63030    9.36530  106.77720    -999.25   50.17320   50.17320    -999.25    1.38050   22.77830  106.77720   11.23030  115.93770 -184.71110 -114.15800  115.93770
 8600.00000   10.31880   45.80860   47.32920   21.12860    -999.25   62.17080   62.17080    -999.25    5.06650   83.59720   21.12860   10.31880   32.50840  -82.92840  -16.19500   32.50840
 8650.00000   10.58160  210.54080  195.42320    5.11710    -999.25   66.11250   66.11250    -999.25    4.46380   73.65270    5.11710   10.58160    9.01930 -102.12920  -37.20030    9.01930
 8700.00000    9.99840   23.64610   21.52480   46.65900    -999.25   53.68140   53.68140    -999.25    1.80510   29.78420   46.65900    9.99840   37.42260  -78.23350  -14.96560   37.42260
 8750.00000   13.21130   76.29750   62.90220   15.89770    -999.25   49.49480   49.49480    -999.25    2.42040   39.93660   15.89770   13.21130   17.63320  -76.71640  -15.09300   17.63320
 8800.00000   11.90070   70.59280   66.80340   14.96930    -999.25   63.16700   63.16700    -999.25    3.14410   51.87760   14.96930   11.90070   21.06110  -68.20120   -8.23050   21.06110
 8850.00000   11.47930   12.60780   10.87070   91.99020    -999.25   53.34050   53.34050    -999.25    1.97470   32.58250   91.99020   11.47930   96.58720 -118.02840  -60.54740   96.58720
 8900.00000   11.35990    7.45990    7.75270  128.98720    -999.25   52.82380   52.82380    -999.25    1.07120   17.67480  128.98720   11.35990   84.31600 -106.00300  -51.48250   84.31600
 8950.00000   11.66260   12.12070   10.76700   92.88590    -999.25   52.22320   52.22320    -999.25    1.49750   24.70960   92.88590   11.66260   90.47390  -64.14570  -12.60040   90.47390
 9000.00000    9.36240   23.72930   24.25890   41.22200    -999.25   58.56830   58.56830    -999.25    2.79320   46.08780   41.22200    9.36240   55.49410  -58.78220  -10.18260   55.49410
 9050.00000    9.07150    6.86060    6.52710  153.20740    -999.25   54.95030   54.95030    -999.25    2.76110   45.55810  153.20740    9.07150  126.34540  -55.67250  -10.03330  126.34540
 9100.00000    9.53260    8.36210    6.58300  151.90650    -999.25   55.78450   55.78450    -999.25    2.96460   48.91590  151.90650    9.53260  102.87400  -53.56360  -14.42550  102.87400
 9150.00000    9.09400    8.55720    6.15100  162.57650    -999.25   54.48500   54.48500    -999.25    2.32890   38.42690  162.57650    9.09400  141.28020  -44.39170  -12.37960  141.28020
 9200.00000    9.14860    5.01560    3.39540  294.51540    -999.25   59.71650   59.71650    -999.25    3.57620   59.00730  294.51540    9.14860  188.01110  -32.44360   -7.59300  188.01110
 9250.00000    9.46060   51.25990   46.00830   21.73520    -999.25   59.45970   59.45970    -999.25    -999.25    -999.25   21.73520    9.46060   37.54530  -34.89150  -17.13120   37.54530
 9300.00000   11.41800    5.16960    2.68540  372.38440    -999.25   48.50000   48.50000    -999.25    1.33270   21.98960  372.38440   11.41800  273.49130  -63.34700  -40.77180  273.49130
 9350.00000   10.55580    7.13460    3.71760  268.99340    -999.25   48.94470   48.94470    -999.25    1.61760   26.69040  268.99340   10.55580  191.07000  -83.49270  -54.31830  191.07000
