~Version ---------------------------------------------------
VERS.      2.0 : CWLS log ASCII Standard -VERSION 2.0
WRAP.       NO : One line per depth step
CREA. 11/28/17 : LAS Creation Date
~Well ------------------------------------------------------
STRT.FT                         1150.0 : START DEPTH
STOP.FT                        10350.0 : STOP DEPTH
STEP.FT                       50.00000 : STEP LENGTH
NULL.                          -999.25 : NULL VALUE
COMP.           QUINTANA PETROLEUM LTD : COMPANY
WELL. QUINTANA ET AL HSOUND 6-33-61-17 : WELL
FLD .                                  : FIELD
LOC .                                  : LOCATION
CTRY.                           CANADA : COUNTRY
SRVC.                     Schlumberger : SERVICE COMPANY
DATE.                      09-Sep-1973 : LOGDATE
PROV.                          Alberta : PROVINCE
UWI .                 100063306117W500 : UNIQUE WELL ID
SLAT.WGS84                    54.31664 : SURFACE LATITUDE
SLON.WGS84                   -116.4934 : SURFACE LONGITUDE
~Curve Information -----------------------------------------
DEPT  .FT    : Depth Curve
CALSED.IN    : CALIPER FROM SONIC LOG
CALWS .IN    : CALIPER [CALSED]
CILDED.MMHO  : DEEP INDUCTION CONDUCTIVITY FROM RESISTIVITY LOG
CONDWS.MMHO  : CONDUCTIVITY [1000/DRESWS]
DRESWS.OHMM  : DEEP RESISTIVITY [1000/CILDED IF ILDED <=5, ILDED]
DTED  .US/F  : DELTA-TIME FROM SONIC LOG
DTWS  .US/F  : COMPRESSIONAL SONIC [DTED]
GRSED .GAPI  : GAMMA RAY FROM SONIC LOG
GRWS  .GAPI  : GAMMA RAY [GRSED]
ILDED .OHMM  : DEEP INDUCTION RESISTIVITY FROM RESISTIVITY LOG
ILMED .OHMM  : MEDIUM INDUCTION RESISTIVITY FROM RESISTIVITY LOG
LL8ED .OHMM  : 8 INCH LATEROLOG FROM RESWISTIVITY LOG
MRESWS.OHMM  : MEDIUM RESISTIVITY [ILMED]
SPRED .MV    : SPONTANEOUS POTENTIAL FROM RESISTIVITY LOG
SPWS  .MV    : SPONTANEOUS POTENTIAL [BASELINE 0 MV, SPRED]
SRESWS.OHMM  : SHALLOW RESISTIVITY [LL8ED]
~Params ----------------------------------------------------
PD  .                     GL : PERMANENT DATUM
EPD .FT               2958.7 : ELEVATION PERMANENT DATUM
LMF .                     KB : LOG MEASURED FROM
DAPD.FT                 17.5 : FEET ABOVE PERMANENT DATUM
EKB .FT               2976.2 : KELLY BUSHING
EGL .FT               2958.7 : GROUND LEVEL
DATE.               09/09/73 : RUN DATE
RUN .                      1 : RUN NUMBER
DD  .FT                10370 : DEPTH DRILLER
DL  .FT                10364 : DEPTH LOGGER
BLI .FT                10358 : BOTTOM LOG INTERVAL
TLI .FT                 1130 : TOP LOG INTERVAL
CBD .FT                 1130 : CASING BOTTOM DRILLER
CBL .FT                 1130 : CASING BOTTOM LOGGER
BS  .IN                 8.75 : BIT SIZE
BSD .FT                10370 : BIT SIZE AT DEPTH
DFT .               GEL CHEM : DRILLING FLUID TYPE
DFD .                    9.2 : DRILLING FLUID DENSITY
DFV .                    125 : DRILLING FLUID VISCOSITY
DFPH.                   10.5 : DRILLING FLUID PH
DFL .                    9.8 : DRILLING FLUID LOSS
MSS .             CIRCULATED : MUD SAMPLE SOURCE
RMS .OHMM               2.45 : RESISTIVITY MUD SAMPLE
MST .DEGF                 66 : MUD SAMPLE TEMPERATURE
RMF .OHMM               2.33 : RESISTIVITY MUD FILTRATE SAMPLE
MFST.DEGF                 65 : MUD FILTRATE SAMPLE TEMPERATURE
RMB .OHMM               0.85 : RESISTIVITY MUD AT BHT
TCS .HRS                 2.5 : TIME CIRCULATED STOPPED
LUN .                   7502 : LOGGING UNIT NUMBER
LUL .                    RDM : LOGGING UNIT LOCATION
ENGI.                  LEITH : RECORDING ENGINEER
WITN.                  FEDOR : WITNESSED BY
CLNT.                A2DTECH : CLIENT CODE
ORIG.            2" 5" PRINT : ORIGIN OF DATA
UWI .       100063306117W500 : UNIQUE WELL ID
DICO. A2D Technologies, Inc. : DIGITIZING COMPANY
~Other -----------------------------------------------------
~ASCII -----------------------------------------------------
# ...
 5450.00000   12.61020   12.61020    -999.25  179.18930    5.58740   81.95960   81.95960   83.80820   83.80820    5.58740    5.14550    6.85800    5.14550  -76.90420  -13.41640    6.85800
 5500.00000   10.27360   10.27360    -999.25   63.53720   15.73880   75.67840   75.67840   46.90920   46.90920   15.73880   19.10670   23.44380   19.10670 -122.74010  -59.46030   23.44380
 5550.00000   10.82890   10.82890    -999.25  110.09580    9.08300   75.18950   75.18950   79.58010   79.58010    9.08300    9.79970   10.75070    9.79970  -84.23980  -21.16800   10.75070
 5600.00000   11.10320   11.10320    -999.25  177.46860    5.63480   87.26470   87.26470   93.42800   93.42800    5.63480    4.93220    6.93890    4.93220  -75.45100  -12.58850    6.93890
 5650.00000   10.58050   10.58050    -999.25  101.68800    9.83400   79.59290   79.59290   81.04630   81.04630    9.83400    9.36910   10.94170    9.36910  -71.87560   -9.22110   10.94170
 5700.00000   10.38200   10.38200    -999.25   93.68830   10.67410   72.50990   72.50990   80.36520   80.36520   10.67410   11.19710   15.52720   11.19710  -73.19720  -10.75210   15.52720
 5750.00000   11.04250   11.04250    -999.25  126.60790    7.89840   74.06520   74.06520   53.16280   53.16280    7.89840    8.14820    8.76750    8.14820  -76.31560  -14.07840    8.76750
 5800.00000   10.09110   10.09110    -999.25   71.96940   13.89480   67.65680   67.65680   72.92650   72.92650   13.89480   13.06150   17.19610   13.06150  -77.63720  -15.60800   17.19610
 5850.00000    8.94020    8.94020    -999.25   95.20640   10.50350   77.01900   77.01900   54.43360   54.43360   10.50350   13.50460   19.44800   13.50460 -108.36390  -46.54410   19.44800
 5900.00000   10.72170   10.72170    -999.25  111.30030    8.98470   91.41870   91.41870   55.79620   55.79620    8.98470    9.40310   13.45750    9.40310  -91.95580  -30.34400   13.45750
 5950.00000   10.17110   10.17110    -999.25   82.84030   12.07160   67.50440   67.50440   49.45470   49.45470   12.07160   13.66770   29.81750   13.66770  -99.97680  -38.57430   29.81750
 6000.00000   10.70350   10.70350    -999.25  124.04490    8.06160   73.17320   73.17320   68.73890   68.73890    8.06160    8.37300    8.89530    8.37300  -78.31510  -17.12060    8.89530
 6050.00000   10.27490   10.27490    -999.25  154.73650    6.46260   74.16170   74.16170   70.31720   70.31720    6.46260    6.98870    9.30710    6.98870  -79.29420  -18.30770    9.30710
 6100.00000    9.40610    9.40610    -999.25   85.30600   11.72250   71.05300   71.05300   82.12540   82.12540   11.72250   12.11580   15.20510   12.11580  -66.90440   -6.12730   15.20510
 6150.00000    9.59340    9.59340    -999.25  109.51100    9.13150   76.35490   76.35490   81.89810   81.89810    9.13150    9.55360   15.96130    9.55360  -66.63850   -6.06930   15.96130
 6200.00000   11.18590   11.18590    -999.25  130.84940    7.64300   79.06340   79.06340   80.66360   80.66360    7.64300    8.10980   10.09760    8.10980  -68.02250   -7.66270   10.09760
 6250.00000    9.14230    9.14230    -999.25   60.98010   16.39880   65.54650   65.54650   59.75830   59.75830   16.39880   18.79530   36.61270   18.79530  -69.13870   -8.98690   36.61270
 6300.00000    9.01800    9.01800    -999.25   57.51190   17.38770   65.75280   65.75280   76.01130   76.01130   17.38770   18.81520   23.49260   18.81520  -73.36460  -13.42080   23.49260
 6350.00000   11.70740   11.70740    -999.25  159.52270    6.26870   76.99310   76.99310   80.07600   80.07600    6.26870    7.09560    9.45770    7.09560  -68.87370   -9.13920    9.45770
 6400.00000   11.57040   11.57040    -999.25  260.72220    3.83550   88.31220   88.31220   86.22850   86.22850    3.83550    3.60960    5.07030    3.60960  -65.27420   -5.74770    5.07030
 6450.00000   10.27590   10.27590    -999.25   28.69790   35.07740   96.55340   96.55340  101.74720  101.74720   35.07740   25.54240  140.60630   25.54240  -62.95870   -3.64160  140.60630
 6500.00000   12.05240   12.05240    -999.25  128.73160    7.76810   77.84950   77.84950   65.18820   65.18820    7.76810    9.00540   14.82380    9.00540  -66.14190   -7.49280   14.82380
 6550.00000    7.89030    7.89030    -999.25   16.59430   60.26170   63.49410   63.49410  169.84570  169.84570   60.26170   77.46990  505.07210   77.46990  -67.59920   -9.70430  505.07210
 6600.00000    9.13320    9.13320    -999.25   35.78560   27.94420   65.68270   65.68270  299.90480  299.90480   27.94420   29.81610   43.88790   29.81610  -76.64170  -19.50600   43.88790
 6650.00000    9.31670    9.31670    -999.25   69.85240   14.31590   64.78270   64.78270   58.80690   58.80690   14.31590   15.15080   28.26970   15.15080  -92.26980  -35.88840   28.26970
 6700.00000    9.57070    9.57070    -999.25   57.47940   17.39750   63.69950   63.69950   69.61860   69.61860   17.39750   19.43110   24.03470   19.43110  -90.25430  -34.63210   24.03470
 6750.00000    8.90990    8.90990    -999.25   37.99840   26.31690   50.19850   50.19850   25.11760   25.11760   26.31690   38.92670  189.51230   38.92670 -103.95010  -49.08220  189.51230
 6800.00000    9.20940    9.20940    -999.25  152.53900    6.55570   57.04500   57.04500   35.78540   35.78540    6.55570    7.33820   16.84890    7.33820 -111.20010  -57.08640   16.84890
 6850.00000    9.75310    9.75310    -999.25  137.32870    7.28180   58.76290   58.76290   45.05870   45.05870    7.28180    8.04940   14.64540    8.04940 -113.43030  -60.07580   14.64540
 6900.00000   10.19060   10.19060    -999.25  153.09720    6.53180   59.81680   59.81680   40.80550   40.80550    6.53180    7.34010   11.05950    7.34010 -109.39140  -56.79120   11.05950
 6950.00000   10.34720   10.34720    -999.25    2.63490  386.95070   50.68930   50.68930    5.95410    5.95410  386.95070 1290.80490 1473.36680 1290.80490 -118.97450  -67.13350 1473.36680
 7000.00000    9.41970    9.41970    -999.25   69.06840   14.47840   50.23720   50.23720   11.08060   11.08060   14.47840   25.74610  218.66670   25.74610 -168.54710 -117.46040  218.66670
 7050.00000    8.98400    8.98400    -999.25   68.26450   14.64890   54.23770   54.23770   13.67990   13.67990   14.64890   23.28930  154.75570   23.28930 -180.24050 -129.90800  154.75570
 7100.00000    9.34670    9.34670    -999.25  310.62650    3.21930   63.30030   63.30030   65.51800   65.51800    3.21930    3.26970    5.40990    3.26970 -111.44960  -61.87630    5.40990
 7150.00000    9.14810    9.14810    -999.25  110.30340    9.06590   64.21450   64.21450   91.43880   91.43880    9.06590    9.41360   13.48300    9.41360  -74.41590  -25.59690   13.48300
 7200.00000    9.39690    9.39690    -999.25   37.76890   26.49880   53.35030   53.35030   38.19610   38.19610   26.49880   30.38570   42.25880   30.38570  -78.78100  -30.72120   42.25880
 7250.00000    9.26480    9.26480    -999.25   57.00540   17.54220   64.37750   64.37750   62.53340   62.53340   17.54220   18.66740   22.47740   18.66740  -66.79960  -19.49410   22.47740
 7300.00000    9.25980    9.25980    -999.25   21.22840   47.10680   55.10100   55.10100   37.41750   37.41750   47.10680   49.87490   83.22220   49.87490  -60.34860  -13.79730   83.22220
 7350.00000    8.71210    8.71210    -999.25    9.94800  100.52250   53.09420   53.09420   29.76620   29.76620  100.52250  125.88030  174.25880  125.88030  -55.77990   -9.98780  174.25880
 7400.00000    8.94830    8.94830    -999.25   28.18840   35.47560   55.75790   55.75790   40.48210   40.48210   35.47560   31.38620   48.65930   31.38620  -63.53110  -18.49330   48.65930
 7450.00000    8.75360    8.75360    -999.25    9.79480  102.13340   52.28860   52.28860   24.70980   24.70980  102.13340  120.35490  228.42550  120.35490  -65.28050  -21.00190  228.42550
 7500.00000    8.67500    8.67500    -999.25    2.16940  460.95540   50.94410   50.94410   20.20960   20.20960  460.95540 1339.34750 1466.56960 1339.34750  -66.79870  -23.27440 1466.56960
 7550.00000    8.66990    8.66990    -999.25    2.67960  373.19450   53.95330   53.95330   36.89340   36.89340  373.19450 1253.48330 1456.70480 1253.48330  -50.25390   -7.45270 1456.70480
