~Version ---------------------------------------------------
VERS. 2.0 : CWLS log ASCII Standard -VERSION 2.0
WRAP.  NO : ONE LINE PER DEPTH STEP
~Well ------------------------------------------------------
STRT.M                     450.0 : START DEPTH
STOP.M                    3450.0 : STOP DEPTH
STEP.M                  50.00000 : STEP LENGTH
NULL.                    -999.25 : NULL VALUE
COMP.  GULF CANADA RESOURCES INC : COMPANY
WELL. GULF ANTE CREEK 12-1-66-25 : WELL
FLD .                            : FIELD
LOC .                            : LOCATION
CTRY.                     CANADA : COUNTRY
SRVC.                    Unknown : SERVICE COMPANY
DATE.                30-Dec-1983 : LOGDATE
PROV.                    Alberta : PROVINCE
UWI .           100120106625W500 : UNIQUE WELL ID
SLAT.WGS84              54.68568 : SURFACE LATITUDE
SLON.WGS84             -117.6494 : SURFACE LONGITUDE
~Curve Information -----------------------------------------
DEPT   .M    0   1   0  0 : 1 MEASURED DEPTH
ILD    .OHMM 07 120 45 00 : INDUCTION DEEP RESISTIVITY
ILM    .OHMM 07 120 44 00 : INDUCTION MEDIUM RESISTIVITY
SFLU   .OHMM 07 220 01 00 : SHALLOW FOCUSED RESISTIVITY (UNAVERAGED)
SPR    .MV   07 010 01 00 : SPONTANEOUS POTENTIAL FROM RESISTIVITY LOG
GRS    .GAPI 60 310 01 00 : GAMMA RAY FROM SONIC LOG
DT     .US/M 60 500 00 00 : DELTA-T (INTERVAL TRANSIT TIME)
CALS   .MM   60 280 50 00 : CALIPER FROM SONIC LOG
GRD    .GAPI 45 310 01 00 : GAMMA RAY FROM DENSITY LOG
NPHI_SS.DEC  42 890 03 00 : NEUTRON POROSITY SANDSTONE
DPHI_SS.DEC  45 890 12 00 : DENSITY POROSITY SANDSTONE
C1D    .MM   45 280 13 00 : AUTOMATICALLY ADDED BY PROCLASCURVE_INSERT.
C2D    .MM   45 280 24 00 : CALIPER 2
NPHI_LS.DEC  42 890 01 00 : NEUTRON POROSITY LIMESTONE
DPHI_LS.DEC  45 890 10 00 : DENSITY POROSITY LIMESTONE
DRHO   .K/M3 45 356 01 00 : BULK DENSITY CORRECTION
RHOB   .K/M3 45 350 01 00 : BULK DENSITY
~Params ----------------------------------------------------
PD  .                         GL : PERMANENT DATUM
EPD .M                     763.3 : ELEVATION PERMANENT DATUM
LMF .                         KB : LOG MEASURED FROM
DAPD.M                      4.87 : FEET ABOVE PERMANENT DATUM
DMF .                         KB : DRILLING MEASURED FROM
EKB .M                    768.17 : KELLY BUSHING
EGL .M                     763.3 : GROUND LEVEL
DATE.                   12/30/83 : RUN DATE
RUN .                          1 : RUN NUMBER
DD  .M                    3487.5 : DEPTH DRILLER
DL  .M                    3487.6 : DEPTH LOGGER
BLI .M                    3486.7 : BOTTOM LOG INTERVAL
TLI .M                       449 : TOP LOG INTERVAL
CS  .MM                    244.5 : CASING SIZE
CBD .M                       449 : CASING BOTTOM DRILLER
CBL .M                       449 : CASING BOTTOM LOGGER
BS  .MM                    222.2 : BIT SIZE
BSD .M                    3487.5 : BIT SIZE AT DEPTH
DFT .                   GEL CHEM : DRILLING FLUID TYPE
DFD .                       1130 : DRILLING FLUID DENSITY
DFV .                         64 : DRILLING FLUID VISCOSITY
DFPH.                          9 : DRILLING FLUID PH
DFL .                         11 : DRILLING FLUID LOSS
MSS .                   FLOWLINE : MUD SAMPLE SOURCE
RMS .OHMM                   1.16 : RESISTIVITY MUD SAMPLE
MST .DEGC                   12.5 : MUD SAMPLE TEMPERATURE
RMF .OHMM                   0.94 : RESISTIVITY MUD FILTRATE SAMPLE
MFST.DEGC                   14.5 : MUD FILTRATE SAMPLE TEMPERATURE
RMC .OHMM                  0.327 : RESISTIVITY MUD CAKE
MCST.DEGC                   82.2 : MUD CAKE SAMPLE TEMPERATURE
MFSS.                      PRESS : MUD FILTRATE SAMPLE SOURCE
RMB .OHMM                  0.381 : RESISTIVITY MUD AT BHT
TCS .HRS                    1230 : TIME CIRCULATED STOPPED
TLAB.HRS                    2015 : TIME LOGGER AT BOTTOM
LUN .                       8156 : LOGGING UNIT NUMBER
LUL .                        EDM : LOGGING UNIT LOCATION
ENGI.                    GAGGINO : RECORDING ENGINEER
WITN.             GHORASHI ZADEH : WITNESSED BY
CLNT.                    A2DTECH : CLIENT CODE
ORIG. 6.5"/100M 16.5"/100M PRINT : ORIGIN OF DATA
UWI .           100120106625W500 : UNIQUE WELL ID
DICO.     A2D Technologies, Inc. : DIGITIZING COMPANY
~Other -----------------------------------------------------
~ASCII -----------------------------------------------------
  450.00000 1902.13810  651.50590    0.25090  -72.08430   50.19500  391.66670  235.99170   51.49870    0.52280    0.02720  232.38930  227.94490    -999.25    -999.25 -182.59700 2597.40700
  500.00000    3.74050    3.16680    2.72320  -53.48820   75.55240  356.55390  297.72370   65.81860    0.44770    0.38510  356.02770  253.74550    -999.25    -999.25  112.30400 2036.80150
  550.00000    4.92110    4.38300    3.87370  -54.17460   71.78560  329.89580  287.45750   65.56310    0.43750    0.19820  335.29140  245.18380    -999.25    -999.25   37.85080 2325.68070
  600.00000    3.25470    3.13520    2.89740  -50.75180   79.27820  341.56750  260.42310   64.91390    0.44810    0.25590  324.75840  226.03390    -999.25    -999.25   14.39380 2208.06690
  650.00000    5.05130    4.36870    3.96240  -51.71100   92.95890  316.86410  247.63350   59.15740    0.39680    0.18520  326.98840  203.75500    -999.25    -999.25   71.16410 2350.63820
  700.00000   12.08760   10.88540    9.75820  -50.67410   45.83900  310.97090  238.07990   39.08850    0.38250    0.23780  268.23110  198.08530    -999.25    -999.25   37.49660 2267.45120
  750.00000    3.64500    3.33550    3.23530  -48.98350   85.78400  333.86570  239.95500   73.12240    0.44770    0.19170  255.92140  263.68280    -999.25    -999.25   51.17380 2337.73320
  800.00000   10.58110   10.22470   11.04170  -50.39770   46.47750  312.93860  238.17060   48.11530    0.35780    0.20290  266.30780  221.99070    -999.25    -999.25   85.58220 2321.77760
  850.00000    5.13740    4.93780    4.67640  -46.49580   76.66440  309.91200  250.29280   66.46530    0.42530    0.32690  245.65190  241.58160    -999.25    -999.25  137.02630 2102.45970
  900.00000    7.64720    6.95480    7.95800  -49.35890  126.63420  330.54330  254.84050  113.10600    0.33780    0.16650  344.60580  164.85550    -999.25    -999.25   20.83820 2378.41140
  950.00000    6.85590    6.36160    6.53830  -47.00340  116.02540  308.69240  256.68120  102.59070    0.33780    0.13150  382.71640  161.44620    -999.25    -999.25   65.04960 2435.79170
 1000.00000   12.58260   11.78850   11.18520  -45.16140   92.87190  304.00060  268.47340   88.30320    0.30710    0.12090  347.28870  187.41290    -999.25    -999.25   62.57420 2452.87350
 1050.00000    8.82440    8.01180    7.65360  -45.13680  101.50490  303.68630  260.53240   91.35030    0.45510    0.45080  242.13610  258.17050    -999.25    -999.25  113.86960 2001.44820
 1100.00000    9.63160    9.19090    8.63710  -44.38160   88.94190  300.84640  244.95540   89.12270    0.37680    0.33600  271.52150  224.30760    -999.25    -999.25  124.71930 2106.75880
 1150.00000    7.46330    6.89800    7.75830  -43.36610  111.59040  311.41740  280.22130   94.86980    0.42310    0.36480  250.57880  298.69060    -999.25    -999.25  165.76880 2042.10030
 1200.00000    7.89730    7.51350    8.44700  -42.47710  108.55630  308.77370  263.77830  100.02060    0.41340    0.30790  269.54150  257.35510    -999.25    -999.25  147.62860 2139.24830
 1250.00000    9.99350   10.51680   13.22630  -42.37750  157.88560  333.54060  232.37210  123.45280    0.45580    0.15960  228.59250  233.94870    -999.25    -999.25  145.25870 2387.65260
 1300.00000   11.17200   10.21390   15.18390  -46.85690   71.02200  246.67220  272.04600   61.07370    0.28700    0.04150  260.22230  271.65750    -999.25    -999.25  247.43620 2545.54910
 1350.00000    8.04660    8.53820    9.20490  -38.59630  110.83520  269.88750  244.38480   88.30770    0.27340    0.11720  242.94000  231.12820    -999.25    -999.25  234.82120 2463.51640
 1400.00000    7.20260    6.60970    6.82370  -37.58390   92.57000  280.70450  256.61780   90.59610    0.30180    0.15460  269.74410  219.51330    -999.25    -999.25  181.65580 2393.41190
 1450.00000    3.18780    3.01500    3.63250  -35.38840  120.40070  330.43180  302.43620  103.44020    0.44450    0.31610  279.39420  288.88070    -999.25    -999.25  139.90510 2129.44380
 1500.00000    4.26700    4.09380    4.49120  -32.49820   97.75660  313.89690  305.76170   83.73810    0.40040    0.24160  282.41850  309.35640    -999.25    -999.25  137.47720 2248.07450
 1550.00000    8.78100    8.28680    7.83870  -32.42680   86.74800  253.77340  285.61140   77.65480    0.34350    0.25900  319.11480  261.15840    -999.25    -999.25  157.88440 2225.81200
 1600.00000    6.26240    6.64370    5.91170  -32.56120   51.58420  250.07350  321.22660   42.05910    0.31050    0.07860  320.49130  282.40540    -999.25    -999.25  165.32570 2519.80050
 1650.00000   16.47330   17.55640   18.97690  -58.07570   41.40300  247.76230  248.21150   35.62350    0.23050    0.14750  234.45940  230.37910    -999.25    -999.25   51.15870 2410.98900
 1700.00000   15.70420   16.84640   28.34640  -39.70970   76.27310  360.03650  323.20450   76.43410    0.51450    0.32190  346.77660  322.43890    -999.25    -999.25   27.46270 2205.03390
 1750.00000    9.41020    9.88500   10.09440  -18.80120   65.55780  233.12450  276.46930   66.33800    0.28920    0.06500  293.34720  278.60660    -999.25    -999.25   26.77940 2539.72580
 1800.00000   14.39620   15.10050   16.07190  -31.58280   58.67550  209.33910  291.25000   61.78290    0.26480    0.06550  304.80950  251.99670    -999.25    -999.25   13.94510 2544.17260
 1850.00000    9.98040   12.58440   12.95950  -79.74040   41.74050  230.25650  269.39380   35.28240    0.23840    0.16850  288.64790  223.42440    -999.25    -999.25  194.52880 2374.23540
 1900.00000   18.37710   21.22830   25.21670  -31.07870   76.31260  211.96600  275.88490   72.57600    0.24220    0.04640  290.14890  258.65610    -999.25    -999.25   -3.07650 2562.84180
 1950.00000    8.71410   13.14210   19.15580   -7.23280   30.37090  234.44490  234.84680   36.92430    0.25640    0.13090  247.00380  227.98520    -999.25    -999.25   83.27220 2437.51460
 2000.00000    4.40960    3.39630    5.01390 -163.81880   77.15570  363.01340  384.82480   68.87820    0.56210    0.34270  386.44690  379.48740    -999.25    -999.25   87.07010 2089.34810
 2050.00000   32.03980   33.48570   43.48750 -221.58940   85.23980  219.27170  269.85620   73.77080    0.14990    0.04290  289.45490  232.65790    0.11400    0.07270    5.85710 2585.60860
 2100.00000   21.17720   22.12360   24.26400 -122.26140   78.62580  209.62140  267.01720   74.03400    -999.25    -999.25  257.50090  244.42220    0.07430    0.06700   10.94540 2595.53860
 2150.00000   29.64840   30.86760   37.26780  -68.21190   94.80770  207.74830  283.02970   92.37530    -999.25    -999.25  267.70400  270.53720    0.11460    0.04680   -4.80860 2631.73190
 2200.00000   26.27800   23.46130   51.04590 -113.35960   24.54790  172.71440  265.57020   22.31900    -999.25    -999.25  321.69750  289.66360    0.07260    0.02290  245.36800 2667.29000
 2250.00000   16.28160   20.05480   48.32050  -37.79820   17.59690  180.25190  231.18450   14.42510    -999.25    -999.25  251.99870  221.78970    0.08110    0.11390  169.80140 2551.51560
 2300.00000    4.61500    9.15190   87.27000 -149.72570   15.41550  183.41470  219.03350   16.09200    -999.25    -999.25  216.26910  213.07110    0.19410    0.05130  117.63990 2622.66890
 2350.00000  135.55000  238.13900  879.93550  -45.85190   21.16070  168.93870  251.01920   21.58640    -999.25    -999.25  275.66770  236.52050    0.00910   -0.00950  247.32910 2686.18650
 2400.00000   10.15510   19.17980   83.21690 -149.37620   46.14360  177.33070  236.51250   30.17910    -999.25    -999.25  257.64700  226.58110    0.02410    0.13140  236.29740 2362.46020
 2450.00000 1872.46720  490.55470 1978.37020 -324.36010    9.12790  168.85010  250.50480    9.70200    -999.25    -999.25  265.55800  234.66360    0.00190   -0.09870   -0.80000 2883.47610
 2500.00000   10.71400    9.46980   16.28370 -144.97810   70.36720  209.16490  244.84160   68.23580    -999.25    -999.25  254.83450  229.92600    0.15730    0.02330   21.00150 2674.99680
 2550.00000   31.39080   27.48180   74.31100 -160.21380   52.18130  192.00280  265.59400   42.44360    -999.25    -999.25  304.59440  245.23280    0.04930    0.00570  234.10820 2684.96410
