~Version ---------------------------------------------------
VERS.      2.0 : CWLS log ASCII Standard -VERSION 2.0
WRAP.       NO : One line per depth step
CREA. 10/06/17 : LAS Creation Date
~Well ------------------------------------------------------
STRT.FT                        650.0 : START DEPTH
STOP.FT                       4450.0 : STOP DEPTH
STEP.FT                     50.00000 : STEP LENGTH
NULL.                        -999.25 : NULL VALUE
COMP. NORTHWESTERN UTILITIES LIMITED : COMPANY
WELL.        NUL KINSELLA 7-23-48-11 : WELL
FLD .                                : FIELD
LOC .                                : LOCATION
CTRY.                         CANADA : COUNTRY
SRVC.                        Unknown : SERVICE COMPANY
DATE.                    19-Dec-1971 : LOGDATE
PROV.                        Alberta : PROVINCE
UWI .               100072304811W400 : UNIQUE WELL ID
SLAT.WGS84                  53.15128 : SURFACE LATITUDE
SLON.WGS84                 -111.4989 : SURFACE LONGITUDE
~Curve Information -----------------------------------------
DEPT  .FT    : Depth Curve
CALSED.IN    : CALIPER FROM SONIC LOG [ADJ. TO RESISTIVITY LOG]
CALWS .IN    : CALIPER [CALSED]
CILDED.MMHO  : CONDUCTIVITY FROM RESISTIVITY LOG
CONDWS.MMHO  : CONDUCTIVITY [1000/DRESWS]
DRESWS.OHMM  : DEEP RESISTIVITY [1000/CILDED, IF ILDED<2, ILDED]
DTED  .US/F  : DELTA TIME FROM SONIC LOG [ADJ. TO RESISTIVITY LOG]
DTWS  .US/F  : COMPRESSIONAL  SONIC [DTED]
GRSED .GAPI  : GAMMA RAY FROM SONIC LOG [ADJ. TO RESISTIVITY LOG]
GRWS  .GAPI  : GAMMA RAY [GRSED]
ILDED .OHMM  : DEEP INDUCTION FROM RESISTIVITY LOG
SNED  .OHMM  : 16 INCH SHORT NORMAL RESISTIVITY FROM RESISTIVITY LOG
SPRED .MV    : SPONTANEOUS POTENTIAL FROM RESISTIVITY LOG
SPWS  .MV    : SPONTANEOUS POTENTIAL [BASELINE 0 MV, SPRED]
SRESWS.OHMM  : SHALLOW RESISTIVITY [SNED]
~Params ----------------------------------------------------
PD  .                     GL : PERMANENT DATUM
EPD .FT                 2318 : ELEVATION PERMANENT DATUM
LMF .                     KB : LOG MEASURED FROM
DAPD.FT                   12 : FEET ABOVE PERMANENT DATUM
DMF .                     KB : DRILLING MEASURED FROM
EKB .FT                 2330 : KELLY BUSHING
EGL .FT                 2318 : GROUND LEVEL
DATE.               12/19/71 : RUN DATE
RUN .                      2 : RUN NUMBER
DD  .FT                 4463 : DEPTH DRILLER
DL  .FT                 4464 : DEPTH LOGGER
BLI .FT                 4463 : BOTTOM LOG INTERVAL
TLI .FT                 2669 : TOP LOG INTERVAL
CBD .FT                  625 : CASING BOTTOM DRILLER
CBL .FT                  625 : CASING BOTTOM LOGGER
BS  .IN                 8.75 : BIT SIZE
BSD .FT                 4463 : BIT SIZE AT DEPTH
DFT .               GEL CHEM : DRILLING FLUID TYPE
DFD .                    9.6 : DRILLING FLUID DENSITY
DFV .                     60 : DRILLING FLUID VISCOSITY
DFL .                     12 : DRILLING FLUID LOSS
RMS .OHMM               0.51 : RESISTIVITY MUD SAMPLE
MST .DEGF                 85 : MUD SAMPLE TEMPERATURE
RMF .OHMM               0.71 : RESISTIVITY MUD FILTRATE SAMPLE
MFST.DEGF                 82 : MUD FILTRATE SAMPLE TEMPERATURE
RMB .OHMM               0.38 : RESISTIVITY MUD AT BHT
TCS .HRS                   2 : TIME CIRCULATED STOPPED
LUN .                7502 RD : LOGGING UNIT NUMBER
ENGI.                   CHUK : RECORDING ENGINEER
WITN.                LOWTHES : WITNESSED BY
CLNT.                A2DTECH : CLIENT CODE
ORIG.            2" 5" PRINT : ORIGIN OF DATA
UWI .       100072304811W400 : UNIQUE WELL ID
DICO. A2D Technologies, Inc. : DIGITIZING COMPANY
~Other -----------------------------------------------------
IEL-BCS LOG RAN
~ASCII -----------------------------------------------------
# ...
 3100.00000    9.02500    9.02500   90.00850   82.56270   12.11200   67.54790   67.54790   33.25170   33.25170   12.11200   15.18370  -21.73630  -14.57380   15.18370
 3150.00000    9.02970    9.02970   77.04820   69.73550   14.33990   92.10390   92.10390   63.04750   63.04750   14.33990   21.53360  -22.13730  -18.14290   21.53360
 3200.00000   10.62850   10.62850   98.69880   93.06050   10.74570   70.97350   70.97350   41.21960   41.21960   10.74570   13.49110  -15.96900  -14.47720   13.49110
 3250.00000   10.09380   10.09380   52.44260   45.27730   22.08610   54.97700   54.97700   20.63950   20.63950   22.08610   22.93180  -27.44890  -28.01540   22.93180
 3300.00000   10.33600   10.33600   97.09560   93.40560   10.70600   59.25540   59.25540   28.90690   28.90690   10.70600   14.98330  -12.21210  -13.17510   14.98330
 3350.00000   11.06210   11.06210   72.19380   65.92480   15.16880   64.65000   64.65000   28.24620   28.24620   15.16880   16.44340  -12.07700   -9.33300   16.44340
 3400.00000   10.57330   10.57330   54.41820   49.28800   20.28890   54.33560   54.33560   17.37900   17.37900   20.28890   24.18250  -24.25940  -19.16770   24.18250
 3450.00000   10.84580   10.84580   98.35440   94.35030   10.59880   56.59180   56.59180   30.06250   30.06250   10.59880   15.60120  -23.72290  -17.76130   15.60120
 3500.00000   10.42150   10.42150   92.13420   81.83040   12.22040   54.92970   54.92970   10.33490   10.33490   12.22040   25.94380  -59.38470  -52.55890   25.94380
 3550.00000   10.97020   10.97020   56.40460   48.44610   20.64150   57.53000   57.53000   18.93510   18.93510   20.64150   21.27140  -31.48040  -23.79040   21.27140
 3600.00000    9.08900    9.08900  188.71290  194.82920    5.13270   59.15680   59.15680   14.05680   14.05680    5.13270   18.98730  -96.85160  -88.29170   18.98730
 3650.00000   10.53280   10.53280  255.71380  266.88730    3.74690   59.39370   59.39370   11.35230   11.35230    3.74690   15.25720  -85.86350  -76.43930   15.25720
 3700.00000   12.42800   12.42800   97.64570   93.82180   10.65850   66.35470   66.35470   36.36700   36.36700   10.65850   11.66210  -24.76510  -14.47100   11.66210
 3750.00000   10.52330   10.52330  115.08840  114.20610    8.75610   59.96300   59.96300   15.50060   15.50060    8.75610   15.12400  -48.54470  -37.38640   15.12400
 3800.00000   12.00230   12.00230  168.92550  170.08250    5.87950   58.39900   58.39900   24.83200   24.83200    5.87950   11.37820  -59.24050  -47.21800   11.37820
 3850.00000   10.24830   10.24830   54.39700   48.73340   20.51980   53.99470   53.99470   17.78270   17.78270   20.51980   23.86410  -43.57400  -30.96780   23.86410
 3900.00000   10.62070   10.62070   96.94770   90.00980   11.10990   65.44470   65.44470   35.05350   35.05350   11.10990   16.81430  -25.87790  -12.86550   16.81430
 3950.00000   11.29620   11.29620  338.51180  357.37260    2.79820   60.94180   60.94180   10.37330   10.37330    2.79820    7.64180  -64.13770  -50.71640    7.64180
 4000.00000    9.47390    9.47390   86.98750   80.84400   12.36950   54.07860   54.07860   12.95310   12.95310   12.36950   24.04930  -82.30910  -68.48160   24.04930
 4050.00000   11.53830   11.53830  106.45630  103.24500    9.68570   58.16600   58.16600   13.92200   13.92200    9.68570   12.84420  -65.37480  -51.14110   12.84420
 4100.00000   11.24160   11.24160  172.65340  176.19590    5.67550   59.51730   59.51730   16.22690   16.22690    5.67550   11.08100  -79.60640  -64.96380   11.08100
 4150.00000    9.80380    9.80380  184.89180  184.75410    5.41260   54.74820   54.74820   11.93890   11.93890    5.41260   12.55060  -87.21390  -72.16510   12.55060
 4200.00000    9.14670    9.14670   74.86860   69.32170   14.42550   53.72940   53.72940   11.42040   11.42040   14.42550   16.81870  -58.57100  -43.11330   16.81870
 4250.00000   12.06570   12.06570  324.06550  341.95050    2.92440   84.53160   84.53160   76.01070   76.01070    2.92440    4.32350  -25.62090   -9.75700    4.32350
 4300.00000    9.42900    9.42900   74.99270   68.37000   14.62630   58.31700   58.31700   28.54190   28.54190   14.62630   14.20060  -29.44100  -13.66080   14.20060
 4350.00000    8.95310    8.95310   88.68110   82.78280   12.07980   57.83960   57.83960   25.01120   25.01120   12.07980   16.48830  -29.93680  -16.16610   16.48830
 4400.00000    9.04790    9.04790  227.06070  229.89030    4.34990   70.81250   70.81250   74.44920   74.44920    4.34990    6.57600  -33.12600  -21.35160    6.57600
 4450.00000   11.77750   11.77750  120.60220  116.47820    8.58530   71.38720   71.38720    -999.25    -999.25    8.58530   62.53780  -16.02450   -6.25960   62.53780
