~Version ---------------------------------------------------
VERS.      2.0 : CWLS log ASCII Standard -VERSION 2.0
WRAP.       NO : One line per depth step
CREA. 10/24/17 : LAS Creation Date
~Well ------------------------------------------------------
STRT.FT                        1200.0 : START DEPTH
STOP.FT                       11700.0 : STOP DEPTH
STEP.FT                      50.00000 : STEP LENGTH
NULL.                         -999.25 : NULL VALUE
COMP.            MOBIL OIL CANADA LTD : COMPANY
WELL. MOBIL ICG MARSH HEAD 11-3-60-20 : WELL
FLD .                                 : FIELD
LOC .                                 : LOCATION
CTRY.                          CANADA : COUNTRY
SRVC.                    Schlumberger : SERVICE COMPANY
DATE.                     05-Jan-1976 : LOGDATE
PROV.                         Alberta : PROVINCE
UWI .                100110306020W500 : UNIQUE WELL ID
SLAT.WGS84                   54.15991 : SURFACE LATITUDE
SLON.WGS84                  -116.9171 : SURFACE LONGITUDE
~Curve Information -----------------------------------------
DEPT    .FT    : Depth Curve
CALDED  .IN    : CALIPER FROM DENSITY LOG [ADJ. TO RESISTIVITY LOG]
CALSED  .IN    : CALIPER FROM SONIC LOG [ADJ. TO RESISTIVITY LOG]
CALWS   .IN    : CALIPER [CALDED SPL. TO CALSED FROM 2516'-2535']
CONDWS  .MMHO  : CONDUCTIVITY [1000/DRESWS]
DCORWS  .G/C3  : DENSITY CORRECTION [DRHOED]
DENWS   .G/C3  : FORMATION BULK DENSITY [RHOBED]
DPHILSED.V/V   : DENSITY POROSITY LIMESTONE  FROM DENSITY LOG [ADJ. TO RESISTIVITY LOG]
DPOLSWS .V/V   : DENSITY POROSITY LIMESTONE [CALC FROM DENWS,M=2.71, F=1.00]
DRESWS  .OHMM  : DEEP RESISTIVITY [ILDED]
DRHOED  .G/C3  : DENSITY CORRECTION FROM DENSITY LOG [ADJ. TO RESISTIVITY LOG]
DTED    .US/F  : DELTA TIME FROM SONIC LOG [ADJ. TO RESISTIVITY LOG]
DTWS    .US/F  : COMPRESSIONAL SONIC [DTED]
GRDED   .GAPI  : GAMMA RAY FROM DENSITY LOG [ADJ. TO RESISTIVITY LOG]
GRSED   .GAPI  : GAMMA RAY FROM SONIC LOG [ADJ. TO RESISTIVITY LOG]
GRWS    .GAPI  : GAMMA RAY [GRDED SPL. TO GRSED FROM 2507'-2550']
ILDED   .OHMM  : DEEP INDUCTION RESISTIVITY FROM RESISTIVITY LOG
ILMED   .OHMM  : MEDIUM INDUCTION RESISTIVITY FROM RESISTIVITY LOG
LL8ED   .OHMM  : 8 INCH LATEROLOG RESISTIVITY FROM RESISTIVITY LOG
MRESWS  .OHMM  : MEDIUM RESISTIVITY [ILMED]
NPHILSED.V/V   : NEUTRON POROSITY LIMESTONE FROM DENSITY LOG [ADJ. TO RESISTIVITY LOG]
NPOLSWS .V/V   : NEUTRON POROSITY LIMESTONE [NPHILSED]
RHOBED  .G/C3  : BULK DENSITY FROM DENSITY LOG [ADJ. TO RESISTIVITY LOG]
SPRED   .MV    : SPONTANEOUS POTENTIAL FROM RESISTIVITY LOG
SPWS    .MV    : SPONTANEOUS POTENTIAL [BASELINE 0 MV, SPRED]
SRESWS  .OHMM  : SHALLOW RESISTIVITY [LL8ED]
~Params ----------------------------------------------------
PD  .                     GL : PERMANENT DATUM
EPD .FT               3132.5 : ELEVATION PERMANENT DATUM
LMF .                     KB : LOG MEASURED FROM
DAPD.FT                 14.5 : FEET ABOVE PERMANENT DATUM
EKB .FT                 3147 : KELLY BUSHING
EGL .FT               3132.5 : GROUND LEVEL
DATE.               01/05/76 : RUN DATE
RUN .                      1 : RUN NUMBER
DD  .FT                11725 : DEPTH DRILLER
DL  .FT                11730 : DEPTH LOGGER
BLI .FT                11724 : BOTTOM LOG INTERVAL
TLI .FT                 1203 : TOP LOG INTERVAL
CBD .FT                 1203 : CASING BOTTOM DRILLER
CBL .FT                 1203 : CASING BOTTOM LOGGER
BS  .IN                 8.75 : BIT SIZE
BSD .FT                11725 : BIT SIZE AT DEPTH
DFT .                    GEL : DRILLING FLUID TYPE
DFD .                    9.6 : DRILLING FLUID DENSITY
DFV .                    110 : DRILLING FLUID VISCOSITY
DFPH.                   10.5 : DRILLING FLUID PH
DFL .                    9.8 : DRILLING FLUID LOSS
MSS .               FLOWLINE : MUD SAMPLE SOURCE
RMS .OHMM               2.42 : RESISTIVITY MUD SAMPLE
MST .DEGF                 74 : MUD SAMPLE TEMPERATURE
RMF .OHMM               1.63 : RESISTIVITY MUD FILTRATE SAMPLE
MFST.DEGF                 74 : MUD FILTRATE SAMPLE TEMPERATURE
RMB .OHMM               0.67 : RESISTIVITY MUD AT BHT
TCS .HRS                   3 : TIME CIRCULATED STOPPED
LUN .                   7658 : LOGGING UNIT NUMBER
LUL .                     RD : LOGGING UNIT LOCATION
ENGI.              DODSWORTH : RECORDING ENGINEER
WITN.   OLINYK LINDENSCHMIDT : WITNESSED BY
CLNT.                A2DTECH : CLIENT CODE
ORIG.            2" 5" PRINT : ORIGIN OF DATA
UWI .       100110306020W500 : UNIQUE WELL ID
DICO. A2D Technologies, Inc. : DIGITIZING COMPANY
~Other -----------------------------------------------------
DIL-LL-CNFD-BHC LOG RUN
CNFD DATA MISSING AROUND 25256' (MAY BE DUE TO LOG SPLICING)
~ASCII -----------------------------------------------------
# ...
 6800.00000   10.29100    9.38470   10.29100   35.33270    0.01060    2.66540    0.02650    0.02610   28.35250    0.01060   55.09660   55.09660   22.08990   27.61350   22.08990   28.35250   66.05990  267.62750   66.05990    0.03760    0.03760    2.66540 -103.66610   -7.05480  267.62750
 6850.00000   15.01520   13.86370   15.01520   40.18190    0.00160    1.43050    0.45000    0.74820   24.88680    0.00160  112.35190  112.35190   55.88260   56.43730   55.88260   24.88680    9.68500   44.12060    9.68500    0.44850    0.44850    1.43050 -100.35280   -3.68730   44.12060
 6900.00000   10.84770    9.44160   10.84770   55.52070    0.00220    2.54080    0.09930    0.09890   18.01130    0.00220   66.82340   66.82340   59.22480   72.72470   59.22480   18.01130   15.53320   20.40870   15.53320    0.14520    0.14520    2.54080 -104.04030   -7.16630   20.40870
 6950.00000   10.92020    9.44000   10.92020   51.66250    0.01040    2.52470    0.10870    0.10840   19.35640    0.01040   67.12600   67.12600   82.84630   78.12210   82.84630   19.35640   16.29480   22.69730   16.29480    0.14720    0.14720    2.52470 -106.53660   -9.45410   22.69730
 7000.00000   10.25000    9.52820   10.25000   49.11080    0.07860    2.27430    0.26060    0.25480   20.36210    0.07860   75.26620   75.26620   78.40350   79.41760   78.40350   20.36210   16.91280   25.38930   16.91280    0.20200    0.20200    2.27430 -103.02720   -5.73620   25.38930
 7050.00000   10.99270    9.47910   10.99270   52.65860    0.02550    2.58710    0.07270    0.07190   18.99050    0.02550   66.88720   66.88720   52.40000   55.29930   52.40000   18.99050   18.71030   28.92770   18.71030    0.13790    0.13790    2.58710 -103.81130   -6.31280   28.92770
 7100.00000   11.01470    9.95520   11.01470   82.44630    0.03970    2.53740    0.10040    0.10090   12.12910    0.03970   69.00420   69.00420   66.84710   62.20390   66.84710   12.12910   11.29530   13.83030   11.29530    0.14670    0.14670    2.53740 -102.48900   -4.78100   13.83030
 7150.00000   10.68140    9.47610   10.68140   50.01480    0.02270    2.55400    0.08830    0.09120   19.99410    0.02270   67.95780   67.95780   55.63780   62.07480   55.63780   19.99410   19.13470   23.10850   19.13470    0.10690    0.10690    2.55400 -116.38550  -19.17300   23.10850
 7200.00000   10.65690    9.47770   10.65690   51.91410    0.01130    2.59570    0.06650    0.06680   19.26260    0.01130   66.37660   66.37660   84.02880   78.96910   84.02880   19.26260   18.06300   27.83460   18.06300    0.12680    0.12680    2.59570 -101.19580   -4.89230   27.83460
 7250.00000   10.71280    9.43140   10.71280   49.10260    0.01690    2.58770    0.07190    0.07150   20.36550    0.01690   70.43000   70.43000   87.27770   82.73310   87.27770   20.36550   18.95530   24.17430   18.95530    0.15450    0.15450    2.58770  -99.26210   -3.86750   24.17430
 7300.00000   11.00180    9.44810   11.00180   64.09570    0.08470    2.49730    0.12880    0.12440   15.65040    0.08470   69.30600   69.30600   87.73280   83.40310   87.73280   15.65040   18.91400   24.18830   18.91400    0.18540    0.18540    2.49730 -100.12690   -5.63680   24.18830
 7350.00000   13.49570   10.22320   13.49570   78.83200    0.18560    2.14110    0.33010    0.33270   12.68520    0.18560   76.16320   76.16320   84.96540   83.24460   84.96540   12.68520   13.57630   17.07140   13.57630    0.24910    0.24910    2.14110 -100.97570   -7.39910   17.07140
 7400.00000   12.03470   10.17880   12.03470   33.59810    0.21200    2.19610    0.29540    0.30050   29.76360    0.21200   81.01530   81.01530   86.62160   94.25890   86.62160   29.76360   20.93990   23.56540   20.93990    0.26520    0.26520    2.19610  -99.80370   -7.13610   23.56540
 7450.00000    9.77680    9.41460    9.77680   52.89520    0.00660    2.53240    0.10780    0.10390   18.90530    0.00660   60.89340   60.89340   79.88650   70.38840   79.88650   18.90530   34.40460   78.23290   34.40460    0.10150    0.10150    2.53240 -100.93080   -9.17210   78.23290
 7500.00000    9.97600    9.44540    9.97600   25.76870    0.09180    2.49510    0.12690    0.12570   38.80680    0.09180   69.43260   69.43260   70.92580   81.59240   70.92580   38.80680   32.27940   58.41720   32.27940    0.15030    0.15030    2.49510  -98.61880   -7.76910   58.41720
 7550.00000   11.84240    9.40550   11.84240   64.40320    0.16930    2.08640    0.36960    0.36460   15.53800    0.16930   67.64640   67.64640   97.10350   93.18870   97.10350   15.53800   16.86790   23.94580   16.86790    0.21150    0.21150    2.08640  -91.22550   -1.28030   23.94580
 7600.00000    9.94980    9.18600    9.94980   18.92610    0.18750    2.42710    0.17030    0.16550   52.83700    0.18750   65.81120   65.81120   53.53880   52.95460   53.53880   52.83700   33.22950   47.47730   33.22950    0.10160    0.10160    2.42710 -133.30470  -44.35230   47.47730
 7650.00000   14.08780   13.33570   14.08780  144.40020    0.11680    1.85490    0.45000    0.50010    6.92520    0.11680  102.96210  102.96210   78.72640   71.00230   78.72640    6.92520    6.03790    7.36060    6.03790    0.44030    0.44030    1.85490  -95.59210   -7.68310    7.36060
 7700.00000   13.69790   12.72540   13.69790  131.39570    0.14800    1.89450    0.45000    0.47690    7.61060    0.14800   86.06060   86.06060   89.08350   76.04480   89.08350    7.61060    5.83550    8.08230    5.83550    0.38780    0.38780    1.89450  -90.30880   -4.45880    8.08230
 7750.00000   11.66470   10.80130   11.66470  194.66990    0.05790    2.00310    0.45000    0.41340    5.13690    0.05790  135.69390  135.69390   92.66530   77.74670   92.66530    5.13690    3.00330    6.78850    3.00330    0.41330    0.41330    2.00310  -90.04830   -8.22870    6.78850
 7800.00000   10.87790   11.18690   10.87790   56.40460    0.20130    2.19560    0.29970    0.30080   17.75920    0.20130   95.38550   95.38550   92.85550   87.18940   92.85550   17.75920   20.42760   40.20190   20.42760    0.34700    0.34700    2.19560  -81.12150   -3.29480   40.20190
 7850.00000    9.19430    8.98610    9.19430    9.10150    0.00530    2.42310    0.17060    0.16780  109.87160    0.00530   68.33750   68.33750  300.01390  299.84880  300.01390  109.87160  114.55710  800.67140  114.55710    0.16310    0.16310    2.42310 -118.96530  -41.68860  800.67140
 7900.00000    9.49730    9.17120    9.49730   47.37740    0.01360    2.58290    0.07440    0.07430   21.10710    0.01360   61.29440   61.29440   78.95540   71.25600   78.95540   21.10710   24.48340   32.60220   24.48340    0.05510    0.05510    2.58290  -92.88920  -16.15970   32.60220
 7950.00000    9.48940    9.14250    9.48940   24.02340    0.03280    2.61560    0.05340    0.05520   41.62610    0.03280   59.83080   59.83080   86.90450   78.52450   86.90450   41.62610   44.31710   60.37870   44.31710    0.06890    0.06890    2.61560  -82.84800   -6.66580   60.37870
 8000.00000    9.47240    9.12810    9.47240   20.13450    0.00080    2.61090    0.05830    0.05800   49.66610    0.00080   58.16830   58.16830   94.90100   85.38170   94.90100   49.66610   53.92220   81.75980   53.92220    0.07600    0.07600    2.61090  -77.02780   -1.39280   81.75980
 8050.00000    9.17520    8.79460    9.17520   19.51710    0.18820    2.51710    0.11440    0.11280   51.23820    0.18820   50.61540   50.61540   20.04900   23.21290   20.04900   51.23820   56.24460  202.91480   56.24460    0.04710    0.04710    2.51710 -163.87980  -89.66080  202.91480
 8100.00000   10.50050    8.99090   10.50050   28.75520    0.20620    2.44830    0.15460    0.15300   34.77630    0.20620   52.93590   52.93590   43.81690   41.13520   43.81690   34.77630   31.87960   52.75840   31.87960    0.08530    0.08530    2.44830 -128.42370  -55.97970   52.75840
 8150.00000   12.17120    9.11980   12.17120   10.68370    0.19430    2.40010    0.18040    0.18120   93.60070    0.19430   52.23490   52.23490   35.08070   39.25740   35.08070   93.60070  106.55410  244.32550  106.55410    0.07410    0.07410    2.40010 -146.41790  -75.73990  244.32550
