~Version ---------------------------------------------------
VERS.      2.0 : CWLS log ASCII Standard -VERSION 2.0
WRAP.       NO : One line per depth step
CREA. 11/15/17 : LAS Creation Date
~Well ------------------------------------------------------
STRT.FT                        1000.0 : START DEPTH
STOP.FT                       10050.0 : STOP DEPTH
STEP.FT                      50.00000 : STEP LENGTH
NULL.                         -999.25 : NULL VALUE
COMP.        SKELLY OIL OF CANADA LTD : COMPANY
WELL. SKELLY A2 TWO CREEK 10-20-62-16 : WELL
FLD .                              WC : FIELD
LOC .                                 : LOCATION
CTRY.                          CANADA : COUNTRY
SRVC.                   Dresser Atlas : SERVICE COMPANY
DATE.                     30-Jan-1976 : LOGDATE
PROV.                         Alberta : PROVINCE
UWI .                100102006216W500 : UNIQUE WELL ID
SLAT.WGS84                   54.38094 : SURFACE LATITUDE
SLON.WGS84                  -116.3576 : SURFACE LONGITUDE
~Curve Information -----------------------------------------
DEPT  .FT    : Depth Curve
ACED  .US/F  : DELTA TIME (ACOUSTIC) FROM BHC LOG [DEPTH ADJ. TO SFLED]
CALSED.IN    : CALIPER FROM BHC LOG [DEPTH ADJ. TO SFLED]
CALWS .IN    : CALIPER [CALSED]
CONDWS.MMHO  : CONDUCTIVITY [1000/DRESWS]
DRESWS.OHMM  : DEEP RESISTIVITY [ILDED]
DTWS  .US/F  : DELTA TIME [ACED]
GRSED .GAPI  : GAMMA RAY FROM BHC LOG [DEPTH ADJ. TO SFLED]
GRWS  .GAPI  : GAMMA RAY [GRSED]
ILDED .OHMM  : INDUCTION LOG DEEP RESISTIVITY FROM DIFL LOG
ILMED .OHMM  : INDUCTION LOG MEDIUM RESISTIVITY FROM DIFL LOG
MCALED.IN    : CALIPER MICROLOG FROM ML LOG [DEPTH ADJ. TO CALSED]
MRESWS.OHMM  : MEDIUM RESISTIVITY [ILMED]
SFLED .OHMM  : SPHERICALLY FOCUSED LOG RESISTIVITY FROM DIFL LOG
SPRED .MV    : SPONTANEOUS POTENTIAL FROM DIFL LOG
SPWS  .MV    : SPONTANEOUS POTENTIAL [BASELINE 0 MV] [SPRED]
SRESWS.OHMM  : SHALLOW RESISTIVITY [SFLED]
~Params ----------------------------------------------------
PD  .                     GL : PERMANENT DATUM
EPD .FT               3027.7 : ELEVATION PERMANENT DATUM
LMF .                     KB : LOG MEASURED FROM
DAPD.FT                 13.6 : FEET ABOVE PERMANENT DATUM
DMF .                     KB : DRILLING MEASURED FROM
EKB .FT               3041.3 : KELLY BUSHING
EGL .FT               3027.7 : GROUND LEVEL
DATE.               01/30/76 : RUN DATE
RUN .                      1 : RUN NUMBER
DD  .FT                10050 : DEPTH DRILLER
DL  .FT                10058 : DEPTH LOGGER
BLI .FT                10056 : BOTTOM LOG INTERVAL
TLI .FT                 1050 : TOP LOG INTERVAL
CS  .IN                9.625 : CASING SIZE
CBD .FT                 1062 : CASING BOTTOM DRILLER
CBL .FT                 1050 : CASING BOTTOM LOGGER
BS  .IN                  8.5 : BIT SIZE
BSD .FT                10050 : BIT SIZE AT DEPTH
DFT .           MUD GEL CHEM : DRILLING FLUID TYPE
DFD .                    9.1 : DRILLING FLUID DENSITY
DFV .                    100 : DRILLING FLUID VISCOSITY
DFPH.                     10 : DRILLING FLUID PH
DFL .                    7.8 : DRILLING FLUID LOSS
MSS .                   CIRC : MUD SAMPLE SOURCE
RMS .OHMM                2.2 : RESISTIVITY MUD SAMPLE
MST .DEGF                 62 : MUD SAMPLE TEMPERATURE
RMF .OHMM                1.8 : RESISTIVITY MUD FILTRATE SAMPLE
MFST.DEGF                 62 : MUD FILTRATE SAMPLE TEMPERATURE
RMC .OHMM                2.5 : RESISTIVITY MUD CAKE
MCST.DEGF                 60 : MUD CAKE SAMPLE TEMPERATURE
MFSS.                   MEAS : MUD FILTRATE SAMPLE SOURCE
MCSS.                   MEAS : MUD CAKE SAMPLE SOURCE
RMB .OHMM                0.8 : RESISTIVITY MUD AT BHT
TCS .HRS                   7 : TIME CIRCULATED STOPPED
LUN .                   6155 : LOGGING UNIT NUMBER
LUL .                    EDM : LOGGING UNIT LOCATION
ENGI.           HETHERINGTON : RECORDING ENGINEER
WITN.           BALL SHEDDON : WITNESSED BY
CLNT.                A2DTECH : CLIENT CODE
ORIG.        2" 5" 10" PRINT : ORIGIN OF DATA
UWI .       100102006216W500 : UNIQUE WELL ID
DICO. A2D Technologies, Inc. : DIGITIZING COMPANY
~Other -----------------------------------------------------
~ASCII -----------------------------------------------------
 1000.00000    -999.25    -999.25    -999.25    -999.25    -999.25    -999.25   58.12740   58.12740    -999.25    -999.25    -999.25    -999.25    -999.25    -999.25    -999.25    -999.25
 1050.00000    -999.25    -999.25    -999.25    -999.25    -999.25    -999.25   38.28540   38.28540    -999.25    -999.25    -999.25    -999.25    -999.25    -999.25    -999.25    -999.25
 1100.00000  104.18660    8.90770    8.90770  132.75450    7.53270  104.18660   98.48920   98.48920    7.53270    7.16370    -999.25    7.16370    6.05420  -74.56020   -5.57320    6.05420
 1150.00000  112.61740    9.37470    9.37470  271.27470    3.68630  112.61740  112.73120  112.73120    3.68630    4.00390    -999.25    4.00390    4.26920  -72.23080   -3.24380    4.26920
 1200.00000  106.02900    9.36730    9.36730  280.35160    3.56690  106.02900  109.51640  109.51640    3.56690    3.92110    -999.25    3.92110    4.31860  -68.33740    0.64950    4.31860
 1250.00000  158.80920    9.56210    9.56210  296.57750    3.37180  158.80920   98.99180   98.99180    3.37180    3.91270    -999.25    3.91270    3.99540  -66.95420    2.03280    3.99540
 1300.00000  126.48680    9.66390    9.66390  254.75110    3.92540  126.48680   84.53200   84.53200    3.92540    4.16390    -999.25    4.16390    4.76100  -72.32480   -3.18690    4.76100
 1350.00000  125.19430    9.17780    9.17780  257.43010    3.88460  125.19430  102.68900  102.68900    3.88460    4.17780    -999.25    4.17780    4.70470  -72.93010   -3.31820    4.70470
 1400.00000  103.15620    9.06170    9.06170  365.59060    2.73530  103.15620  124.88740  124.88740    2.73530    3.21690    -999.25    3.21690    5.46280  -72.50840   -2.42720    5.46280
 1450.00000  149.85220    9.07900    9.07900  310.56870    3.21990  149.85220   89.33980   89.33980    3.21990    3.46690    -999.25    3.46690    4.47360  -73.05470   -2.49950    4.47360
 1500.00000  116.91670    9.29670    9.29670  316.68620    3.15770  116.91670  110.35520  110.35520    3.15770    3.44390    -999.25    3.44390    3.93210  -73.97560   -2.95120    3.93210
 1550.00000  107.26960    9.44440    9.44440  227.79560    4.38990  107.26960  107.65570  107.65570    4.38990    4.65940    -999.25    4.65940    5.30290  -73.95910   -2.46300    5.30290
 1600.00000  105.75540    9.19980    9.19980  273.10090    3.66160  105.75540  107.27270  107.27270    3.66160    3.86780    -999.25    3.86780    4.11450  -74.37310   -2.40300    4.11450
 1650.00000  107.46770    9.59180    9.59180  279.17360    3.58200  107.46770  105.55280  105.55280    3.58200    3.99060    -999.25    3.99060    4.68680  -75.35300   -2.91370    4.68680
 1700.00000  115.57340    8.98890    8.98890  169.50730    5.89940  115.57340  118.67780  118.67780    5.89940    6.48650    -999.25    6.48650    8.90330  -74.95640   -2.04310    8.90330
 1750.00000  135.12410    9.23910    9.23910  363.94080    2.74770  135.12410  109.43700  109.43700    2.74770    3.11160    -999.25    3.11160    3.49930  -75.15410   -1.77150    3.49930
 1800.00000  126.56230    9.52170    9.52170  522.16590    1.91510  126.56230  110.17260  110.17260    1.91510    2.24450    -999.25    2.24450    3.51210  -74.71590   -0.86170    3.51210
 1850.00000  110.35460    9.62490    9.62490  284.41820    3.51600  110.35460   99.06240   99.06240    3.51600    3.90080    -999.25    3.90080    4.45570  -75.66760   -1.33940    4.45570
 1900.00000   99.68900    9.39780    9.39780  107.90510    9.26740   99.68900   83.32050   83.32050    9.26740   10.23390    -999.25   10.23390    8.18240  -80.35050   -5.55310    8.18240
 1950.00000  106.85370    9.37090    9.37090  319.24910    3.13230  106.85370  114.92970  114.92970    3.13230    3.56440    -999.25    3.56440    4.01880  -77.69710   -2.42570    4.01880
 2000.00000  117.83220    9.04080    9.04080  260.74940    3.83510  117.83220  126.20880  126.20880    3.83510    4.00250    -999.25    4.00250    4.44820  -77.17340   -1.43270    4.44820
 2050.00000   99.12550    8.78690    8.78690   89.73280   11.14420   99.12550   99.61370   99.61370   11.14420   12.99170    -999.25   12.99170   10.65290  -84.43470   -8.22240   10.65290
 2100.00000   98.85780    8.81180    8.81180  221.75160    4.50950   98.85780   97.40700   97.40700    4.50950    4.96880    -999.25    4.96880    4.87720  -76.42590    0.26040    4.87720
 2150.00000   98.77380    8.83260    8.83260  118.14470    8.46420   98.77380   88.11510   88.11510    8.46420    9.23870    -999.25    9.23870    6.70680  -86.36090   -9.20530    6.70680
 2200.00000  103.20490    8.54230    8.54230   81.82640   12.22100  103.20490   61.70930   61.70930   12.22100   13.65110    -999.25   13.65110    9.30120  -96.35340  -18.72380    9.30120
 2250.00000  105.42190    9.19600    9.19600  256.48920    3.89880  105.42190   93.25110   93.25110    3.89880    4.56810    -999.25    4.56810    4.40030  -87.64480   -9.54600    4.40030
 2300.00000   98.97540    8.42110    8.42110  154.15920    6.48680   98.97540   95.70300   95.70300    6.48680    7.95420    -999.25    7.95420    7.10130  -83.53850   -4.96810    7.10130
 2350.00000  118.19590    9.66030    9.66030  296.54670    3.37220  118.19590   89.46670   89.46670    3.37220    3.73470    -999.25    3.73470    5.00170  -82.58520   -3.54080    5.00170
 2400.00000   95.26340    9.61870    9.61870  209.23570    4.77930   95.26340  108.39080  108.39080    4.77930    5.09800    -999.25    5.09800    5.77350  -83.49860   -3.98490    5.77350
 2450.00000   95.43210    9.43790    9.43790  168.49770    5.93480   95.43210   85.77950   85.77950    5.93480    6.66710    -999.25    6.66710    5.82580  -84.05750   -4.06990    5.82580
 2500.00000   91.46960    8.52730    8.52730   46.42200   21.54150   91.46960   61.74700   61.74700   21.54150   25.18940    -999.25   25.18940   29.00590  -86.98770   -6.53080   29.00590
 2550.00000   99.43710    9.74400    9.74400  284.55170    3.51430   99.43710   93.37730   93.37730    3.51430    3.87150    -999.25    3.87150    4.55080  -83.42060   -2.49200    4.55080
 2600.00000   93.45620    9.81210    9.81210  211.76350    4.72220   93.45620   83.48910   83.48910    4.72220    5.20910    -999.25    5.20910    7.45200  -85.17990   -3.77730    7.45200
 2650.00000  119.52620    9.67710    9.67710  307.76810    3.24920  119.52620   85.59220   85.59220    3.24920    3.51990    -999.25    3.51990    4.20860  -83.64150   -1.76970    4.20860
 2700.00000   97.05990    8.78020    8.78020   81.35070   12.29240   97.05990   76.32070   76.32070   12.29240   13.72370    -999.25   13.72370   11.71640  -93.34340  -10.99760   11.71640
 2750.00000  116.56250    9.03630    9.03630  272.59840    3.66840  116.56250   78.02450   78.02450    3.66840    4.04510    -999.25    4.04510    4.26300  -85.27620   -2.41960    4.26300
 2800.00000   92.33930    8.65800    8.65800   50.23480   19.90650   92.33930   66.88910   66.88910   19.90650   22.92720    -999.25   22.92720   21.48620 -107.08320  -23.69200   21.48620
 2850.00000   97.01780    9.64990    9.64990  222.31610    4.49810   97.01780   87.93830   87.93830    4.49810    5.18130    -999.25    5.18130    8.09110  -89.64990   -5.72150    8.09110
 2900.00000   96.87600    9.05440    9.05440  155.76080    6.42010   96.87600   79.01720   79.01720    6.42010    7.15770    -999.25    7.15770    6.38020  -89.33010   -4.86980    6.38020
 2950.00000   90.58730    9.34880    9.34880  159.91170    6.25350   90.58730   77.86310   77.86310    6.25350    6.87270    -999.25    6.87270   10.92310  -90.02290   -5.02540   10.92310
 3000.00000   82.71160    8.94410    8.94410   54.76870   18.25860   82.71160   59.73410   59.73410   18.25860   23.19680    -999.25   23.19680   15.62710 -109.51980  -23.99040   15.62710
 3050.00000   92.29670    8.66060    8.66060   43.21200   23.14170   92.29670   52.07030   52.07030   23.14170   31.17930    -999.25   31.17930   17.48920 -118.56100  -32.49700   17.48920
 3100.00000   90.89320    8.71460    8.71460   81.85110   12.21730   90.89320   57.04700   57.04700   12.21730   14.82030    -999.25   14.82030   15.99200 -113.47730  -26.87610   15.99200
