~Version ---------------------------------------------------
VERS.      2.0 : CWLS log ASCII Standard -VERSION 2.0
WRAP.       NO : One line per depth step
CREA. 11/20/17 : LAS Creation Date
~Well ------------------------------------------------------
STRT.FT                            1200.0 : START DEPTH
STOP.FT                           11350.0 : STOP DEPTH
STEP.FT                          50.00000 : STEP LENGTH
NULL.                             -999.25 : NULL VALUE
COMP.       AMOCO CANADA PETROLEUM CO LTD : COMPANY
WELL. AMOCO MOBIL L-2 WAHIGAN 10-16-64-23 : WELL
FLD .                                     : FIELD
LOC .                                     : LOCATION
CTRY.                              CANADA : COUNTRY
SRVC.                             Unknown : SERVICE COMPANY
DATE.                         06-Feb-1976 : LOGDATE
PROV.                             Alberta : PROVINCE
UWI .                    100101606423W500 : UNIQUE WELL ID
SLAT.WGS84                       54.53986 : SURFACE LATITUDE
SLON.WGS84                      -117.4124 : SURFACE LONGITUDE
~Curve Information -----------------------------------------
DEPT    .FT    : Depth Curve
ACED    .US/F  : ACOUSTIC TIME FROM SONIC LOG [ADJ. TO RESISTIVITY LOG]
CALDED  .IN    : CALIPER FROM DENSITY LOG
CALSED  .IN    : CALIPER FROM SONIC LOG [ADJ. TO RESISTIVITY LOG]
CALWS   .IN    : CALIPER [CALDED]
CONDWS  .MMHO  : CONDUCTIVITY [1000/DRESWS]
CORRED  .G/C3  : DENSITY CORRECTION FROM DENSITY LOG [ADJ. TO RESISTIVITY LOG]
DCORWS  .G/C3  : DENSITY CORRECTION [CORRED]
DENWS   .G/C3  : FORMATION BULK DENSITY [RHOBED]
DPHILSED.V/V   : DENSITY POROSITY LIMESTONE [M=2.71, F=1.00] FROM DENSITY LOG [ADJ. TO RESISTIVITY LOG]
DPHISSED.V/V   : DENSITY POROSITY SANDSTONE [M=2.65, F=1.00]FROM DENSITY LOG [ADJ. TO RESISTIVITY LOG]
DPOLSWS .V/V   : DENSITY POROSITY LIMESTONE [CALC. FROM DENWS, M=2.71, F=1.00]
DRESWS  .OHMM  : DEEP RESISTIVITY [ILDED]
DTWS    .US/F  : COMPRESSIONAL SONIC [ACED]
GRDED   .GAPI  : GAMMA RAY FROM DENSITY LOG
GRSED   .GAPI  : GAMMA RAY FROM SONIC LOG [ADJ. TO RESISTIVITY LOG]
GRWS    .GAPI  : GAMMA RAY [GRSED SPL. TO GRDED @ 11348']
ILDED   .OHMM  : DEEP INDUCTION LOG RESISTIVITY FROM RESISTIVITY LOG
ILMED   .OHMM  : MEDIUM INDUCTION LOG RESISTIVITY FROM RESISTIVITY LOG
MRESWS  .OHMM  : MEDIUM RESISTIVITY [ILMED]
NPHILSED.V/V   : NEUTRON POROSITY LIMESTONE FROM DENSITY LOG [ADJ. TO RESISTIVITY LOG]
NPHISSED.V/V   : NEUTRON POROSITY SANDSTONE FROM DENSITY LOG [ADJ. TO RESISTIVITY LOG]
NPOLSWS .V/V   : NEUTRON POROSITY LIMESTONE [NPHISSED MATRIX CONVERSION FOR LIMESTONE & SPL. TO NPHILSED @ 6845']
RHOBED  .G/C3  : BULK DENSITY FROM DENSITY LOG [ADJ. TO RESISTIVITY LOG]
SFLED   .OHMM  : SPHERICALLY FOCUSED RESISTIVITY FROM RESISTIVITY LOG
SPRED   .MV    : SPONTANEOUS POTENTIAL FROM RESISTIVITY LOG
SPWS    .MV    : SPONTANEOUS POTENTIAL [BASELINE 0 MV, SPRED]
SRESWS  .OHMM  : SHALLOW RESISTIVITY [SFLED]
~Params ----------------------------------------------------
PD  .                     GL : PERMANENT DATUM
EPD .FT               2628.5 : ELEVATION PERMANENT DATUM
LMF .                     KB : LOG MEASURED FROM
DAPD.FT                 13.5 : FEET ABOVE PERMANENT DATUM
DMF .                     KB : DRILLING MEASURED FROM
EKB .FT                 2642 : KELLY BUSHING
EGL .FT               2628.5 : GROUND LEVEL
DATE.               02/06/76 : RUN DATE
RUN .                      1 : RUN NUMBER
DD  .FT                11378 : DEPTH DRILLER
DL  .FT                11410 : DEPTH LOGGER
BLI .FT                11408 : BOTTOM LOG INTERVAL
TLI .FT                 1219 : TOP LOG INTERVAL
CS  .IN                9.625 : CASING SIZE
CBD .FT                 1208 : CASING BOTTOM DRILLER
CBL .FT                 1219 : CASING BOTTOM LOGGER
BS  .IN                 8.75 : BIT SIZE
BSD .FT                11378 : BIT SIZE AT DEPTH
DFT .           MUD GEL CHEM : DRILLING FLUID TYPE
DFD .                    9.3 : DRILLING FLUID DENSITY
DFV .                    135 : DRILLING FLUID VISCOSITY
DFPH.                     10 : DRILLING FLUID PH
DFL .                    8.1 : DRILLING FLUID LOSS
MSS .                   CIRC : MUD SAMPLE SOURCE
RMS .OHMM                3.5 : RESISTIVITY MUD SAMPLE
MST .DEGF                 67 : MUD SAMPLE TEMPERATURE
RMF .OHMM                3.5 : RESISTIVITY MUD FILTRATE SAMPLE
MFST.DEGF                 62 : MUD FILTRATE SAMPLE TEMPERATURE
RMC .OHMM                2.8 : RESISTIVITY MUD CAKE
MCST.DEGF                 67 : MUD CAKE SAMPLE TEMPERATURE
MFSS.                   MEAS : MUD FILTRATE SAMPLE SOURCE
MCSS.                   MEAS : MUD CAKE SAMPLE SOURCE
RMB .OHMM               1.21 : RESISTIVITY MUD AT BHT
TCS .HRS                   7 : TIME CIRCULATED STOPPED
LUN .                   6155 : LOGGING UNIT NUMBER
LUL .                    EDM : LOGGING UNIT LOCATION
ENGI.                    GAU : RECORDING ENGINEER
WITN.                  KAREL : WITNESSED BY
CLNT.                A2DTECH : CLIENT CODE
ORIG.            2" 5" PRINT : ORIGIN OF DATA
UWI .       100101606423W500 : UNIQUE WELL ID
DICO. A2D Technologies, Inc. : DIGITIZING COMPANY
~Other -----------------------------------------------------
~ASCII -----------------------------------------------------
# ...
 10300.00000   84.72850    9.85980    9.36290    9.85980  193.59210    0.21180    0.21180    2.55160    0.08290    -999.25    0.09260    5.16550   84.72850  152.12080  119.95000  119.95000    5.16550    5.59340    5.59340    0.28940    -999.25    0.28940    2.55160   10.14510   17.88170  -34.57520   10.14510
 10350.00000   73.14210    9.69830    9.22780    9.69830  197.52700    0.24310    0.24310    2.55510    0.06580    -999.25    0.09060    5.06260   73.14210  107.49000   84.17010   84.17010    5.06260    6.07080    6.07080    0.12950    -999.25    0.12950    2.55510    8.49780   25.42780  -28.98980    8.49780
 10400.00000   83.73610   10.39420   11.84750   10.39420  472.52280    0.21640    0.21640    2.16030    0.30670    -999.25    0.32140    2.11630   83.73610  137.94560   88.00540   88.00540    2.11630    2.75080    2.75080    0.32450    -999.25    0.32450    2.16030    3.72650   54.58040   -1.71800    3.72650
 10450.00000   79.35220    9.91250    9.75840    9.91250  374.63410    0.27760    0.27760    2.31610    0.23720    -999.25    0.23040    2.67020   79.35220  123.19070   90.80480   90.80480    2.67020    3.59230    3.59230    0.27850    -999.25    0.27850    2.31610    5.11240   54.17440   -2.94550    5.11240
 10500.00000   87.04790    9.52020   10.72570    9.52020  529.85750    0.18240    0.18240    2.00230    0.39720    -999.25    0.41390    1.88730   87.04790  147.86990  115.10090  115.10090    1.88730    2.68370    2.68370    0.34020    -999.25    0.34020    2.00230    4.18500   44.57960  -13.35640    4.18500
 10550.00000   69.51920    8.73510    8.97480    8.73510  216.64720    0.03830    0.03830    2.61600    0.05130    -999.25    0.05500    4.61580   69.51920  119.07900   84.07670   84.07670    4.61580    6.27100    6.27100    0.16330    -999.25    0.16330    2.61600    9.27190   41.17640  -17.57570    9.27190
 10600.00000   71.87090    8.05830    8.87320    8.05830  209.22250    0.05900    0.05900    2.65680    0.02940    -999.25    0.03110    4.77960   71.87090  145.40910   95.84000   95.84000    4.77960    6.21630    6.21630    0.16320    -999.25    0.16320    2.65680    8.64550   20.69110  -38.88240    8.64550
 10650.00000   73.27260    9.04260    9.21600    9.04260  285.07080    0.24300    0.24300    2.45720    0.11610    -999.25    0.14780    3.50790   73.27260  127.26590   90.43680   90.43680    3.50790    4.67660    4.67660    0.17560    -999.25    0.17560    2.45720    8.20810    9.69530  -50.69430    8.20810
 10700.00000   76.33830    9.16810    8.96170    9.16810  348.82110    0.05460    0.05460    2.60810    0.05680    -999.25    0.05960    2.86680   76.33830  139.77120  101.39190  101.39190    2.86680    3.91000    3.91000    0.19200    -999.25    0.19200    2.60810    5.83050   19.99790  -41.21320    5.83050
 10750.00000   77.22600    9.17420    8.99360    9.17420  352.13750    0.02400    0.02400    2.63840    0.03780    -999.25    0.04190    2.83980   77.22600  151.01940  122.72750  122.72750    2.83980    4.13440    4.13440    0.22040    -999.25    0.22040    2.63840    6.60500   31.49160  -30.53550    6.60500
 10800.00000   84.63300    9.68310    9.66780    9.68310  358.38440    0.26780    0.26780    2.56960    0.06280    -999.25    0.08210    2.79030   84.63300  161.82700  128.10880  128.10880    2.79030    3.73300    3.73300    0.25990    -999.25    0.25990    2.56960    5.81200   -5.31630  -68.15950    5.81200
 10850.00000   78.03430    8.79290    8.77420    8.79290   52.09040    0.03600    0.03600    2.51560    0.11200    -999.25    0.11370   19.19740   78.03430  188.41510  134.54130  134.54130   19.19740   27.45720   27.45720    0.18040    -999.25    0.18040    2.51560   30.67010  -12.99420  -76.65890   30.67010
 10900.00000   82.11510    8.57910    8.66380    8.57910   40.39730    0.02600    0.02600    2.47750    0.13770    -999.25    0.13600   24.75410   82.11510  189.65900  151.91080  151.91080   24.75410   34.92470   34.92470    0.19530    -999.25    0.19530    2.47750  105.82540  -29.88950  -94.37030  105.82540
 10950.00000   55.11490    8.79860    8.64500    8.79860   22.24120    0.01430    0.01430    2.63860    0.04030    -999.25    0.04180   44.96310   55.11490   60.18970   49.60770   49.60770   44.96310   77.14540   77.14540    0.05380    -999.25    0.05380    2.63860  118.18660  -19.92640  -85.22860  118.18660
 11000.00000   85.94480    9.18120   10.18990    9.18120  228.33660    0.24470    0.24470    2.37030    0.19370    -999.25    0.19870    4.37950   85.94480  174.71990  127.31340  127.31340    4.37950    5.92490    5.92490    0.15840    -999.25    0.15840    2.37030   13.87850  -28.75650  -94.87480   13.87850
 11050.00000   60.65480    9.23180    8.62210    9.23180   25.39710    0.04050    0.04050    2.63690    0.04170    -999.25    0.04270   39.37460   60.65480   91.46110   66.89570   66.89570   39.37460   64.86460   64.86460    0.07550    -999.25    0.07550    2.63690   75.01590  -35.37850 -102.31290   75.01590
 11100.00000   54.11720    9.06170    8.66200    9.06170    9.79650    0.03550    0.03550    2.62130    0.05070    -999.25    0.05190  102.07680   54.11720   64.35070   41.65030   41.65030  102.07680  222.42830  222.42830    0.01140    -999.25    0.01140    2.62130  351.07360  -50.84100 -118.59690  351.07360
 11150.00000   58.22130    9.19780    8.60690    9.19780   38.29100    0.02900    0.02900    2.64460    0.03790    -999.25    0.03820   26.11580   58.22130   78.44840   56.03120   56.03120   26.11580   37.46800   37.46800    0.04750    -999.25    0.04750    2.64460   95.39000  -58.35930 -126.93130   95.39000
 11200.00000   55.77310    9.20250    8.57520    9.20250   15.81450    0.00420    0.00420    2.62230    0.04950    -999.25    0.05130   63.25440   55.77310   74.17480   51.71640   51.71640   63.25440  115.16720  115.16720    0.02840    -999.25    0.02840    2.62230  207.60670  -61.33130 -130.72470  207.60670
 11250.00000   51.49180    8.96010    8.56460    8.96010    4.11570    0.08420    0.08420    2.61100    0.05720    -999.25    0.05790  242.97450   51.49180   40.07310   24.87240   24.87240  242.97450 2802.88720 2802.88720   -0.01250    -999.25   -0.01250    2.61100 2324.67160 -169.52700 -239.73650 2324.67160
 11300.00000   55.95420    8.78980   10.14800    8.78980    2.89780    0.03950    0.03950    2.60470    0.06170    -999.25    0.06160  345.09420   55.95420   69.61360   49.54030   49.54030  345.09420 2755.08500 2755.08500    0.03160    -999.25    0.03160    2.60470 2327.83110  -58.67130 -129.69690 2327.83110
 11350.00000   63.43180    8.48960    8.61480    8.48960   71.19310    0.14120    0.14120    2.48970    0.11080    -999.25    0.12880   14.04630   63.43180  217.31950  174.11350  217.31950   14.04630   19.87890   19.87890    0.09970    -999.25    0.09970    2.48970   40.80980 -119.89010 -191.73710   40.80980
