~Version ---------------------------------------------------
VERS. 2.0 : CWLS log ASCII Standard -VERSION 2.0
WRAP.  NO : ONE LINE PER DEPTH STEP
~Well ------------------------------------------------------
STRT.F                             1100.0 : START DEPTH
STOP.F                            10550.0 : STOP DEPTH
STEP.F                           50.00000 : STEP LENGTH
NULL.                             -999.25 : NULL VALUE
COMP.                CHEVRON STANDARD LTD : COMPANY
WELL. CHEVRON GULF SHININGBANK 3-13-56-15 : WELL
FLD .                                     : FIELD
LOC .                                     : LOCATION
CTRY.                              CANADA : COUNTRY
SRVC.              Schlumberger of Canada : SERVICE COMPANY
DATE.                         25-Oct-1976 : LOGDATE
PROV.                             Alberta : PROVINCE
UWI .                    100031305615W500 : UNIQUE WELL ID
SLAT.WGS84                       53.83559 : SURFACE LATITUDE
SLON.WGS84                      -116.0977 : SURFACE LONGITUDE
~Curve Information -----------------------------------------
DEPT   .F    0   1   0  0 : 1 MEASURED DEPTH
GRS    .GAPI 60 310 01 00 : GAMMA RAY FROM SONIC LOG
DT     .US/F 60 500 00 00 : DELTA-T (INTERVAL TRANSIT TIME)
CALS   .IN   60 280 50 00 : CALIPER FROM SONIC LOG
TENS   .LB   60 635 00 00 : TENSION FROM SONIC LOG
SPR    .MV   07 010 01 00 : SPONTANEOUS POTENTIAL FROM RESISTIVITY LOG
ILD    .OHMM 07 120 46 00 : INDUCTION DEEP RESISTIVITY
ILM    .OHMM 07 120 44 00 : INDUCTION MEDIUM RESISTIVITY
LL8    .OHMM 07 220 08 00 : LATEROLOG 8
TEND   .LB   45 635 00 00 : TENSION FROM DENSITY LOG
RHOB   .G/C3 45 350 01 00 : BULK DENSITY
DCOR   .G/C3 45 356 01 00 : DENSITY CORRECTION
GRD    .GAPI 45 310 01 00 : GAMMA RAY FROM DENSITY LOG
NPHI_SS.DEC  42 890 03 00 : NEUTRON POROSITY SANDSTONE
CALD   .IN   45 280 60 00 : CALIPER FROM DENSITY LOG
DPHI_SS.DEC  45 890 12 00 : DENSITY POROSITY SANDSTONE
NPHI_LS.DEC  42 890 01 00 : NEUTRON POROSITY LIMESTONE
DPHI_LS.DEC  45 890 10 00 : DENSITY POROSITY LIMESTONE
~Params ----------------------------------------------------
EKB .FT               2889.7 : KELLY BUSHING
EGL .FT               2873.6 : GROUND LEVEL
DATE.               10/25/76 : RUN DATE
RUN .                      1 : RUN NUMBER
DD  .FT                10595 : DEPTH DRILLER
DL  .FT                10593 : DEPTH LOGGER
BLI .FT                10592 : BOTTOM LOG INTERVAL
TLI .FT                 1094 : TOP LOG INTERVAL
CBD .FT               1094.6 : CASING BOTTOM DRILLER
CBL .FT                 1094 : CASING BOTTOM LOGGER
BS  .IN                 8.75 : BIT SIZE
BSD .FT                10595 : BIT SIZE AT DEPTH
DFT .               GEL CHEM : DRILLING FLUID TYPE
DFD .                    9.5 : DRILLING FLUID DENSITY
DFV .                    124 : DRILLING FLUID VISCOSITY
DFPH.                   10.5 : DRILLING FLUID PH
DFL .                     10 : DRILLING FLUID LOSS
RMC .OHMM               2.04 : RESISTIVITY MUD CAKE
MCST.DEGF                 56 : MUD CAKE SAMPLE TEMPERATURE
RMB .OHMM               0.41 : RESISTIVITY MUD AT BHT
TCS .HRS                   5 : TIME CIRCULATED STOPPED
LUN .                   7691 : LOGGING UNIT NUMBER
LUL .                    WCT : LOGGING UNIT LOCATION
ENGI.              CROCKFORD : RECORDING ENGINEER
WITN.        WONG RICHARDSON : WITNESSED BY
CLNT.                A2DTECH : CLIENT CODE
ORIG.            2" 5" PRINT : ORIGIN OF DATA
UWI .       100031305615W500 : UNIQUE WELL ID
DICO. A2D Technologies, Inc. : DIGITIZING COMPANY
~Other -----------------------------------------------------
~ASCII -----------------------------------------------------
# ...
 5200.00000  114.83410   89.91130    9.85360 1634.90120  -27.01870    9.46410    9.04550   11.37360 1868.36600    2.23670    0.17520  114.34610    0.33960   11.02740    0.27800    -999.25    -999.25
 5250.00000  103.91520   89.85390   10.08340 1499.15170  -26.85170    7.91700    7.60070    9.64210 1747.71910    2.19590    0.18560  109.74280    0.34990   12.00010    0.30000    -999.25    -999.25
 5300.00000  119.34300   85.89570    9.64770 1795.71630  -28.90880   10.16430    9.69030   16.33050 1357.06920    2.31580    0.23860  122.36020    0.31720   10.47320    0.14320    -999.25    -999.25
 5350.00000  113.05550   91.03580    9.86880 1774.79640  -27.96610   11.13600   10.65230   14.14670 1106.44710    2.43910    0.06350  121.86520    0.37290   10.49840    0.14020    -999.25    -999.25
 5400.00000   78.10990   66.77910    9.72840 1234.22190  -28.85560   18.42970   16.56070   38.84690 1430.81900    2.56980    0.16540   80.47710    0.20440    9.97500    0.03800    -999.25    -999.25
 5450.00000  136.32710   94.59030   10.21170 1465.32370  -24.55640    9.89000    9.28880   13.93490 1652.59580    2.41540    0.23000  143.27720    0.36450   10.93950    0.16570    -999.25    -999.25
 5500.00000   96.92790   82.72800   10.89290 1431.26940  -25.28010    8.14760    7.65260   10.29680 1567.67350    2.45320    0.23440  100.59530    0.27500   11.95130    0.12910    -999.25    -999.25
 5550.00000   96.08050   81.43420   10.90490 1620.73750  -26.69560    8.42030    7.56470    9.86660  204.73680    2.36300    0.14710  102.05800    0.27150   12.44860    0.12250    -999.25    -999.25
 5600.00000  104.34480   83.43550   10.56100 1395.38050  -25.91470    6.46300    6.22490    7.17010  411.24020    2.45060    0.17240  106.61120    0.26910   14.44050    0.15180    -999.25    -999.25
 5650.00000  109.59860   87.44230   11.24450 1358.68980  -33.61040    5.66600    5.16370    6.43710  454.00960    2.41650    0.18690  118.74570    0.28380   15.49670    0.14140    -999.25    -999.25
 5700.00000  103.03920   81.43150    9.40560 1618.34940  -22.09360    6.81570    6.34940    7.90530  797.47580    2.45310    0.14410  108.89440    0.23890    -999.25    0.11830    -999.25    -999.25
 5750.00000   98.78280   81.55790    9.59120 1855.89720  -22.51670    6.37890    5.96810    7.45840  882.10630    2.34530    0.24090  103.50550    0.26820    -999.25    0.14980    -999.25    -999.25
 5800.00000  127.50090   95.78470   10.23490 1910.91020  -20.61870    4.85990    4.64560    5.81210  794.57180    2.46510    0.10680  125.59410    0.31450   15.52020    0.11850    -999.25    -999.25
 5850.00000   97.55510   91.80580   11.30720 1748.73490  -20.40760    3.27700    2.68340    3.57780  981.56590    2.28460    0.08930  105.64130    0.39990    -999.25    0.21100    -999.25    -999.25
 5900.00000  103.68340   92.11460   12.13920 1734.30260  -20.95290    4.16490    3.86250    4.77030 1232.79600    2.30480    0.10030  103.80640    0.39100   12.78900    0.21040    -999.25    -999.25
 5950.00000   83.73130   77.36740    9.77610 2057.90380  -39.88420   12.78780   11.66870   16.20450 1361.05850    2.52560    0.04770   82.66160    0.21730    9.90050    0.08060    -999.25    -999.25
 6000.00000   27.92110   69.57930    8.75980 1907.80530  -61.02220   24.28710   23.15310   28.84130 1568.60360    2.50970    0.09740   30.01470    0.13380    9.33230    0.08390    -999.25    -999.25
 6050.00000   79.89750  159.35460   12.31330 1194.74490  -25.19850    1.60040    1.27500    2.27610 1430.42470    1.55410    0.06210   78.65480    0.50550   15.02110    0.52410    -999.25    -999.25
 6100.00000   47.87870   66.00690   10.48220 1016.43490  -39.13870   20.48130   20.29610   27.70830 1770.21890    2.60290    0.03030   40.14600    0.12230   11.06870    0.05460    -999.25    -999.25
 6150.00000   61.26150   68.92570   11.00440 1318.30510  -53.53930   13.65980   12.97910   15.87820 1780.75200    2.54810    0.03200   63.51440    0.19650   11.43770    0.05200    -999.25    -999.25
 6200.00000   64.66340   67.24920   11.04210 1704.53000  -46.29670   16.26390   14.19210   19.27890 2016.46400    2.56740    0.03090   71.25140    0.16780   11.52860    0.05520    -999.25    -999.25
 6250.00000   52.95210   74.75580   10.93960 1540.88130  -24.10460   15.64000   17.08600   19.81910 2003.27870    2.39870    0.00560   58.24150    0.26990   11.43420    0.12090    -999.25    -999.25
 6300.00000   61.93900   71.07800   10.39770 1721.18910  -28.18210   12.08510   11.67030   13.97920 1928.81850    2.62250    0.01060   56.56810    0.19550   10.57030    0.03840    -999.25    -999.25
 6350.00000   47.49050   69.55730    9.03730 1392.69210  -53.85080   14.65880   15.11640   17.84450  718.99870    2.48740    0.16820   48.24320    0.21640    9.67470    0.10370    -999.25    -999.25
 6400.00000   63.72900   70.45740   10.87230 1571.70720  -18.48800   10.43620   10.73090   15.37500  937.99550    2.59070    0.03090   66.78000    0.20570   10.75570    0.04190    -999.25    -999.25
 6450.00000   36.62990   69.45300    8.63370 1250.57390  -77.22790   13.86670   17.99540   24.96660 1080.88260    2.47470    0.10520   37.67250    0.17340    9.67440    0.08900    -999.25    -999.25
 6500.00000   55.34860   70.28470   10.93460 1821.11320  -37.26460    8.41200    8.92030   13.74290 1733.30040    2.55150   -0.00080   56.54370    0.17930   11.23140    0.07390    -999.25    -999.25
 6550.00000   43.14960   69.50610   11.04890 1903.57070  -30.85200   10.55100   10.69730   13.96970 1271.46240    2.55960    0.05520   45.40230    0.19550   11.67200    0.05440    -999.25    -999.25
 6600.00000   45.21670   55.22030   10.26680 2253.61870  -10.35030   29.02760   36.50200  135.92600 1917.87240    2.60110    0.19830   56.41180    0.12180   10.48300   -0.00110    -999.25    -999.25
 6650.00000   80.58780   71.78950   11.06770 2285.13110  -11.55180   13.21830   12.65740   14.74790 1594.42150    2.65760    0.00280   75.82830    0.21670   10.98690    0.00880    -999.25    -999.25
 6700.00000   53.12820   61.58590   10.93350 2312.23540  -12.01630   28.96400   30.57180   90.98360 1629.80940    2.62160    0.06560   70.78070    0.17550   11.22700    0.01410    -999.25    -999.25
 6750.00000   86.32620   68.08320   10.85830 2200.54200  -13.72610   14.77410   12.99740   16.11070 1306.47080    2.59740    0.06100   91.98930    0.25000   11.53870    0.00940    -999.25    -999.25
 6800.00000   37.76280   74.71520   10.70130 2236.66940  -27.04510   27.32450   24.43600   31.59980 1201.86100    2.36690    0.20850   32.12330    0.09470   14.17100    0.21100    -999.25    -999.25
 6850.00000   84.64470   76.59960   11.07860 2273.04440  -13.39330   17.08430   15.29490   24.73640 1119.62720    2.41820    0.17070   96.57070    0.24690   13.13120    0.19190    -999.25    -999.25
 6900.00000   54.11310   49.90590    9.77050 2317.56080  -14.95460   25.05090   21.80250   34.62970 1486.38920    2.42760    0.25150   66.73930    0.13530   11.63460    0.11800    -999.25    -999.25
 6950.00000   62.23050   54.83500   10.62870 1658.91700  -24.01570   10.73890   10.15800   16.30410 1447.40110    2.33970    0.23370   63.16710    0.22340   11.35400    0.14090    -999.25    -999.25
 7000.00000   16.94150   47.55840    9.13800 1409.86630  -62.93680   76.39090   62.98270  115.33310 1320.34270    2.51560    0.01450   12.45230    0.08420    9.47810    0.06020    -999.25    -999.25
 7050.00000   16.56760   45.57290    9.07040 1507.71940  -48.88960  555.98860  789.17000 1068.23840 1535.54320    2.62660    0.05040   15.48420    0.03460    9.54080    0.00780    -999.25    -999.25
 7100.00000   20.47290   55.04740    9.44230 1588.53940  -42.39080 1378.71770 1437.56600 1492.17260 1554.05790    2.64480    0.02590   20.02940    0.04230    9.69860    0.00450    0.01200    0.04530
 7150.00000   82.29930   53.79590   10.45190 1575.07810  -45.75670   93.55570   70.17400  148.44380 1324.32750    2.67930    0.21730   57.69930    -999.25   11.20210    -999.25    0.00160   -0.02420
 7200.00000   71.13980   57.58440    9.83790 1767.04540  -27.30490   16.08640   16.34180   23.55790 1560.66500    2.52230    0.10400   74.43360    -999.25    9.87220    -999.25    0.14960    0.09000
