~Version ---------------------------------------------------
VERS.      2.0 : CWLS log ASCII Standard -VERSION 2.0
WRAP.       NO : One line per depth step
CREA. 08/31/17 : LAS Creation Date
~Well ------------------------------------------------------
STRT.FT                        1000.0 : START DEPTH
STOP.FT                       11500.0 : STOP DEPTH
STEP.FT                      50.00000 : STEP LENGTH
NULL.                         -999.25 : NULL VALUE
COMP.       ATLANTIC REFINING COMPANY : COMPANY
WELL. ATLANTIC ANTE CREEK 10-29-64-23 : WELL
FLD .                                 : FIELD
LOC .                                 : LOCATION
CTRY.                          CANADA : COUNTRY
SRVC.                    Schlumberger : SERVICE COMPANY
DATE.                     16-Jul-1964 : LOGDATE
PROV.                         Alberta : PROVINCE
UWI .                100102906423W500 : UNIQUE WELL ID
SLAT.WGS84                    54.5688 : SURFACE LATITUDE
SLON.WGS84                   -117.438 : SURFACE LONGITUDE
~Curve Information -----------------------------------------
DEPT  .FT    : Depth Curve
CALSED.IN    : CALIPER FROM BCS LOG
CALWS .IN    : CALIPER [CALSED]
CILDED.MMHO  : DEEP INDUCTION CONDUCTIVITY LOG FROM IEL LOG
CONDWS.MMHO  : CONDUCTIVITY [CILDED]
DRESWS.OHMM  : DEEP RESISTIVITY [1000/CONDWS IF ILDED <= 4, ILDED]
DT1ED .US/F  : ACOUSTIC TRANSIT TIME SLOWNESS, DELTA T FROM BCS LOG
DTED  .US/F  : ACOUSTIC TRANSIT TIME SLOWNESS, DELTA T FROM BCS LOG
DTWS  .US/F  : COMPRESSIONAL SONIC [DTED]
GRSED .GAPI  : GAMMA RAY FROM BCS LOG
GRWS  .GAPI  : GAMMA RAY [GRSED]
ILDED .OHMM  : DEEP INDUCTION FROM IEL LOG
SNED  .OHMM  : SHORT NORMAL FROM IEL LOG
SPRED .MV    : SPONTANEOUS POTENTIAL FROM IEL LOG
SPWS  .MV    : SPONTANEOUS POTENTIAL [BASELINE 0 MV, SPRED]
SRESWS.OHMM  : SHALLOW RESISTIVITY [SNED]
~Params ----------------------------------------------------
PD  .                     GL : PERMANENT DATUM
LMF .                     KB : LOG MEASURED FROM
EKB .FT               2850.5 : KELLY BUSHING
DATE.               07/16/64 : RUN DATE
RUN .                      1 : RUN NUMBER
DD  .FT                11510 : DEPTH DRILLER
DL  .FT                11517 : DEPTH LOGGER
BLI .FT                11516 : BOTTOM LOG INTERVAL
TLI .FT                 1173 : TOP LOG INTERVAL
CBD .FT                 1175 : CASING BOTTOM DRILLER
CBL .FT                 1173 : CASING BOTTOM LOGGER
BS  .IN                7.875 : BIT SIZE
BSD .FT                11510 : BIT SIZE AT DEPTH
DFT .                    GEL : DRILLING FLUID TYPE
DFD .                    9.4 : DRILLING FLUID DENSITY
DFV .                    110 : DRILLING FLUID VISCOSITY
DFPH.                      9 : DRILLING FLUID PH
DFL .                    8.7 : DRILLING FLUID LOSS
RMS .OHMM               3.06 : RESISTIVITY MUD SAMPLE
MST .DEGF                 62 : MUD SAMPLE TEMPERATURE
RMF .OHMM               2.13 : RESISTIVITY MUD FILTRATE SAMPLE
MFST.DEGF                 62 : MUD FILTRATE SAMPLE TEMPERATURE
RMC .OHMM               2.09 : RESISTIVITY MUD CAKE
MCST.DEGF                 62 : MUD CAKE SAMPLE TEMPERATURE
RMB .OHMM               0.99 : RESISTIVITY MUD AT BHT
TCS .HRS                   3 : TIME CIRCULATED STOPPED
LUN .                   3532 : LOGGING UNIT NUMBER
ENGI.               CROCKETT : RECORDING ENGINEER
WITN.                 RUSSIN : WITNESSED BY
CLNT.                A2DTECH : CLIENT CODE
ORIG.            2" 5" PRINT : ORIGIN OF DATA
UWI .       100102906423W500 : UNIQUE WELL ID
DICO. A2D Technologies, Inc. : DIGITIZING COMPANY
~Other -----------------------------------------------------
~ASCII -----------------------------------------------------
# ...
 5600.00000    7.88840    7.88840   33.12010   32.55390   30.71830   51.79390   74.72010   74.72010   50.33070   50.33070   30.71830   38.97500 -113.40620  -62.59260   38.97500
 5650.00000    7.99450    7.99450   47.18600   48.87750   20.45930   51.23420   85.43050   85.43050   44.41180   44.41180   20.45930   29.80360  -82.16850  -31.76200   29.80360
 5700.00000    8.22410    8.22410   55.25520   56.80080   17.60540   55.32900   75.73950   75.73950   65.08720   65.08720   17.60540   23.55830 -103.43180  -53.43520   23.55830
 5750.00000    9.32860    9.32860   60.03910   61.02660   16.38630   53.34500   75.41960   75.41960   57.29770   57.29770   16.38630   24.35410 -100.44040  -50.85090   24.35410
 5800.00000   10.56170   10.56170  147.57560  143.43090    6.97200    -999.25   80.72230   80.72230   65.46870   65.46870    6.97200    8.77780  -71.52140  -22.33910    8.77780
 5850.00000    9.63020    9.63020   30.41140   32.62090   30.65520    -999.25   81.13780   81.13780   63.62990   63.62990   30.65520   38.26890  -71.61090  -22.83840   38.26890
 5900.00000   14.47870   14.47870  139.78990  134.78720    7.41910    -999.25  105.05850  105.05850   80.48430   80.48430    7.41910   13.80570  -68.58130  -20.21600   13.80570
 5950.00000    7.72210    7.72210   53.69490   55.73670   17.94150    -999.25   76.26660   76.26660   39.38710   39.38710   17.94150   33.71230 -112.00880  -64.05330   33.71230
 6000.00000    9.99260    9.99260   70.55810   67.72960   14.76460    -999.25   69.18050   69.18050   74.51850   74.51850   14.76460   18.97590  -61.48860  -13.94030   18.97590
 6050.00000    9.68070    9.68070  113.16800  113.04290    8.84620    -999.25   74.08410   74.08410   55.65520   55.65520    8.84620   12.03970  -63.83040  -16.68920   12.03970
 6100.00000    9.90180    9.90180  100.16750  100.77900    9.92270    -999.25   67.62590   67.62590   53.77560   53.77560    9.92270   11.90190  -63.06820  -16.33680   11.90190
 6150.00000    9.82510    9.82510   62.54310   61.89420   16.15660   79.02470   77.09660   77.09660   64.84290   64.84290   16.15660   20.65310  -54.53580   -8.21160   20.65310
 6200.00000    8.28560    8.28560   82.82310   83.62110   11.95870   51.03690   68.76750   68.76750   53.47730   53.47730   11.95870   24.02510  -89.51170  -43.59730   24.02510
 6250.00000    9.40800    9.40800   72.85770   72.96020   13.70610   52.14300   70.82060   70.82060   50.04540   50.04540   13.70610   22.81410  -72.97210  -27.46490   22.81410
 6300.00000    9.82890    9.82890   78.72620   77.21410   12.95100   47.13410   82.09250   82.09250   -0.72230   -0.72230   12.95100   16.44920  -53.28990   -8.18980   16.44920
 6350.00000    9.50310    9.50310   97.77000   99.02850   10.09810    -999.25   72.72740   72.72740   62.22410   62.22410   10.09810   15.12350  -61.81240  -17.12220   15.12350
 6400.00000    9.46120    9.46120   70.17180   70.74490   14.13530    -999.25   73.06510   73.06510   78.40240   78.40240   14.13530   17.37520  -48.05840   -3.77530   17.37520
 6450.00000    9.84730    9.84730   61.96880   62.47420   16.00660    -999.25   72.69060   72.69060   80.02260   80.02260   16.00660   18.61790  -48.03630   -4.16310   18.61790
 6500.00000    9.09480    9.09480   94.13430   93.99030   10.63940   56.63580   84.67100   84.67100   86.11120   86.11120   10.63940   13.63870  -49.04420   -5.57810   13.63870
 6550.00000    8.88920    8.88920   34.15170   34.07450   29.34750   49.81230   64.17110   64.17110   65.48340   65.48340   29.34750   35.00580  -53.39160  -10.33270   35.00580
 6600.00000    8.93020    8.93020   27.05180   27.69780   36.10400   54.09250   71.60830   71.60830   82.58290   82.58290   36.10400   48.55570  -48.75240   -6.10330   48.55570
 6650.00000    9.51390    9.51390   49.82590   50.34180   19.86420   51.47870   79.46500   79.46500   93.92920   93.92920   19.86420   26.63090  -44.37860   -2.13670   26.63090
 6700.00000    8.94740    8.94740   45.26840   42.73690   23.39900   49.43300   66.41740   66.41740   91.18700   91.18700   23.39900   30.07770  -46.65040   -4.81830   30.07770
 6750.00000   10.07260   10.07260   95.08490   99.49560   10.05070   74.42870  125.83030  125.83030   83.52420   83.52420   10.05070   15.09770  -49.44670   -5.72520   15.09770
 6800.00000    9.58550    9.58550   86.15380   83.32780   12.00080   40.05950   55.99310   55.99310   96.73710   96.73710   12.00080   13.13910  -52.07330   -6.13430   13.13910
 6850.00000   11.66880   11.66880  102.57030  100.42480    9.95770   69.58310   97.49830   97.49830  155.62360  155.62360    9.95770   12.68670  -53.48100   -5.31000   12.68670
 6900.00000   10.08650   10.08650   90.36390   93.32280   10.71550   65.52250   75.14570   75.14570   98.27060   98.27060   10.71550   10.92830  -51.76620   -1.37770   10.92830
 6950.00000    7.42430    7.42430  135.01380  129.40630    7.72760   53.93600   74.07440   74.07440   28.84880   28.84880    7.72760   27.11040 -139.28840  -86.66790   27.11040
 7000.00000   13.53100   13.53100  168.27400  160.21530    6.24160   50.46990   61.38770   61.38770   71.77590   71.77590    6.24160    7.12710  -56.29420   -2.84210    7.12710
 7050.00000    8.21910    8.21910    7.48600    6.97730  143.32260   55.26460   72.48510   72.48510  142.57940  142.57940  143.32260  205.37130  -70.51640  -17.61000  205.37130
 7100.00000    8.56680    8.56680   57.07460   57.19610   17.48370   50.34640   60.88840   60.88840  116.49510  116.49510   17.48370   33.82140  -84.48360  -32.67590   33.82140
 7150.00000    8.62570    8.62570   62.31800   64.93000   15.40120   49.73470   63.72270   63.72270   79.16730   79.16730   15.40120   21.22220  -79.02900  -28.31270   21.22220
 7200.00000    8.67240    8.67240   49.84970   48.68340   20.54090   49.15370   62.72640   62.72640   94.57620   94.57620   20.54090   24.88290  -61.95650  -12.33890   24.88290
 7250.00000    8.49070    8.49070   40.55610   41.98890   23.81580   46.56610   59.83760   59.83760   61.77190   61.77190   23.81580   32.53480  -85.14960  -36.62340   32.53480
 7300.00000    8.55520    8.55520   27.90390   27.97470   35.74660   47.15510   58.67220   58.67220   65.02360   65.02360   35.74660   44.28190  -72.00120  -24.56650   44.28190
 7350.00000    8.49630    8.49630   20.97480   20.30200   49.25630   46.95760   57.55920   57.55920   72.55090   72.55090   49.25630   50.83760  -63.94290  -17.60680   50.83760
 7400.00000    8.64190    8.64190   22.49590   23.31460   42.89160   47.67350   60.18530   60.18530   79.09090   79.09090   42.89160   47.65650  -52.37080   -7.12620   47.65650
 7450.00000    8.85890    8.85890   22.42100   22.51840   44.40820   48.72190   60.71510   60.71510   93.28760   93.28760   44.40820   50.70490  -55.92190  -11.41260   50.70490
 7500.00000    7.35380    7.35380  105.78720  106.75890    9.36690   49.12540   63.35330   63.35330   23.38800   23.38800    9.36690   51.90730 -180.36650 -136.23150   51.90730
 7550.00000    7.50080    7.50080   26.95310   26.76370   37.36400   45.99230   52.84950   52.84950   23.20650   23.20650   37.36400   52.65210 -116.04860  -72.28790   52.65210
 7600.00000    7.90710    7.90710   10.43850    8.82200  113.35250   43.15910   50.58160   50.58160   60.42470   60.42470  113.35250   82.75440 -106.59140  -63.20750   82.75440
 7650.00000    8.59260    8.59260    0.12920    2.00000  500.00000    -999.25   45.05810   45.05810   31.31440   31.31440  500.00000  361.89520 -133.75070  -90.74110  361.89520
 7700.00000    8.47980    8.47980    8.25600    8.91850  112.12680    -999.25   45.84390   45.84390   26.87180   26.87180  112.12680  110.29520  -88.93910  -46.30630  110.29520
 7750.00000    8.37990    8.37990   25.69010   26.23430   38.11800    -999.25   46.86110   46.86110   24.24570   24.24570   38.11800  115.55780 -133.47330  -91.21480  115.55780
 7800.00000    9.14540    9.14540   54.54700   59.33730   16.85280    -999.25   57.58930   57.58930   37.37860   37.37860   16.85280   28.97100 -122.98750  -81.10330   28.97100
 7850.00000    9.02950    9.02950   26.05680   26.15070   38.23990    -999.25   50.86090   50.86090   26.40910   26.40910   38.23990   88.91360 -141.69120 -100.18370   88.91360
