~Version ---------------------------------------------------
VERS. 2.0 : CWLS log ASCII Standard -VERSION 2.0
WRAP.  NO : One line per depth step
~Well ------------------------------------------------------
STRT.M                       450.0 : START DEPTH
STOP.M                      3150.0 : STOP DEPTH
STEP.M                    50.00000 : STEP LENGTH
NULL.                      -999.25 : NULL VALUE
COMP.       CHEVRON CANADA LIMITED : COMPANY
WELL. CHEVRON ET AL GILBY 7-1-41-3 : WELL
FLD .                              : FIELD
LOC .                              : LOCATION
CTRY.                       CANADA : COUNTRY
SRVC.                      Unknown : SERVICE COMPANY
DATE.                  29-Dec-1986 : LOGDATE
PROV.                      Alberta : PROVINCE
UWI .             100070104103W500 : UNIQUE WELL ID
SLAT.WGS84                52.50131 : SURFACE LATITUDE
SLON.WGS84               -114.2957 : SURFACE LONGITUDE
~Curve Information -----------------------------------------
DEPT    .M      : 
C1ED    .MM     : CALIPER1 FROM DENSITY LOG [ADJ. TO RESISTIVITY LOG]
C2ED    .MM     : CALIPER2 FROM DENSITY LOG [ADJ. TO RESISTIVITY LOG]
CALSED  .MM     : CALIPER FROM SONIC LOG [ADJ. TO RESISTIVITY LOG]
CALWS   .MM     : CALIPER [CALSED]
CONDWS  .MMHO   : CONDUCTIVITY [1000/DRESWS]
DCORWS  .KG/M3  : DENSITY CORRECTION [DRHOED]
DENWS   .KG/M3  : FORMATION BULK DENSITY [RHOBED]
DPHILSED.V/V    : DENSITY POROSITY LIMESTONE [M=2710,F=1000, ADJ. TO RESISTIVITY LOG] FROM DENSITY LOG
DPHISSED.V/V    : DENSITY POROSITY SANDSTONE [M=2650,F=1000, ADJ. TO RESISTIVITY LOG] FROM DENSITY LOG
DPOLSWS .V/V    : DENSITY POROSITY LIMESTONE [CALC FROM DENWS, M=2710,F=1000]
DRESWS  .OHMM   : DEEP RESISTIVITY [ILDED]
DRHOED  .KG/M3  : DENSITY CORRECTION FROM DENSITY LOG [ADJ. TO RESISTIVITY LOG]
DTED    .US/M   : DELTA TIME FROM SONIC LOG [ADJ. TO RESISTIVITY LOG]
DTWS    .US/M   : COMPRESSIONAL  SONIC [DTED]
GRDED   .GAPI   : GAMMA RAY FROM DENSITY LOG [ADJ. TO RESISTIVITY LOG]
GRSED   .GAPI   : GAMMA RAY FROM SONIC LOG [ADJ. TO RESISTIVITY LOG]
GRWS    .GAPI   : GAMMA RAY [GRSED SPL. TO GRDED @ 2082.4-2092.4M & 2037.4-2044.3M]
ILDED   .OHMM   : DEEP INDUCTION FROM RESISTIVITY LOG
ILMED   .OHMM   : MEDIUM INDUCTION FROM RESISTIVITY LOG
MRESWS  .OHMM   : MEDIUM RESISTIVITY [ILMED]
NPHILSED.V/V    : NEUTRON POROSITY LIMESTONE FROM DENSITY LOG [ADJ. TO RESISTIVITY LOG]
NPHISSED.V/V    : NEUTRON POROSITY SANDSTONE FROM DENSITY LOG [ADJ. TO RESISTIVITY LOG]
NPOLSWS .V/V    : NEUTRON POROSITY LIMESTONE [NPHISSED MATRIX CONVERSION FOR LIMESTONE, SPL. TO NPHILSED @2060M]
PEFED   .B/E    : PHOTOELECTRIC FACTOR FROM DENSITY LOG [ADJ. TO RESISTIVITY LOG]
PEFWS   .B/E    : PHOTOELECTRIC FACTOR [PEFED]
RHOBED  .KG/M3  : BULK DENSITY FROM DENSITY LOG [ADJ. TO RESISTIVITY LOG]
SFLUED  .OHMM   : SPHERICALLY FOCUSED RESISTIVITY FROM RESISTIVITY LOG
SPRED   .MV     : SPONTANEOUS POTENTIAL FROM RESISTIVITY LOG
SRESWS  .OHMM   : SHALLOW RESISTIVITY [SFLUED]
TENDED  .N      : TENSION FROM DENSITY LOG [ADJ. TO RESISTIVITY LOG]
TENRED  .N      : TENSION FROM RESISTIVITY LOG
SPWS    .MV     : SPONTANEOUS POTENTIAL [BASELINE 0 MV, SPRED]
~Params ----------------------------------------------------
PD  .                         GL : PERMANENT DATUM
EPD .M                     978.7 : ELEVATION PERMANENT DATUM
LMF .                         KB : LOG MEASURED FROM
DAPD.M                       3.5 : FEET ABOVE PERMANENT DATUM
DMF .                         KB : DRILLING MEASURED FROM
EKB .M                     982.2 : KELLY BUSHING
EGL .M                     978.7 : GROUND LEVEL
DATE.                   12/29/86 : RUN DATE
RUN .                          1 : RUN NUMBER
DD  .M                      3170 : DEPTH DRILLER
DL  .M                    3165.4 : DEPTH LOGGER
BLI .M                    3164.7 : BOTTOM LOG INTERVAL
TLI .M                     451.5 : TOP LOG INTERVAL
CS  .MM                    244.5 : CASING SIZE
CBD .M                     451.7 : CASING BOTTOM DRILLER
CBL .M                     451.5 : CASING BOTTOM LOGGER
BS  .MM                    215.9 : BIT SIZE
BSD .M                      3170 : BIT SIZE AT DEPTH
DFT .                   GEL CHEM : DRILLING FLUID TYPE
DFD .                       1080 : DRILLING FLUID DENSITY
DFV .                         82 : DRILLING FLUID VISCOSITY
DFPH.                       10.5 : DRILLING FLUID PH
DFL .                          7 : DRILLING FLUID LOSS
MSS .                   FLOWLINE : MUD SAMPLE SOURCE
RMS .OHMM                   1.18 : RESISTIVITY MUD SAMPLE
MST .DEGC                   26.7 : MUD SAMPLE TEMPERATURE
RMF .OHMM                   1.28 : RESISTIVITY MUD FILTRATE SAMPLE
MFST.DEGC                     20 : MUD FILTRATE SAMPLE TEMPERATURE
RMC .OHMM                  0.535 : RESISTIVITY MUD CAKE
MCST.DEGC                     78 : MUD CAKE SAMPLE TEMPERATURE
MFSS.                      PRESS : MUD FILTRATE SAMPLE SOURCE
MCSS.                    FILT CK : MUD CAKE SAMPLE SOURCE
RMB .OHMM                  0.573 : RESISTIVITY MUD AT BHT
TCS .HRS                    1800 : TIME CIRCULATED STOPPED
TLAB.HRS                    2332 : TIME LOGGER AT BOTTOM
LUN .                       8123 : LOGGING UNIT NUMBER
LUL .                         RD : LOGGING UNIT LOCATION
ENGI.                      POWER : RECORDING ENGINEER
WITN.                     SANDHU : WITNESSED BY
CLNT.                    A2DTECH : CLIENT CODE
ORIG. 6.5"/100" 16.5"/100M PRINT : ORIGIN OF DATA
UWI .           100070104103W500 : UNIQUE WELL ID
DICO.     A2D Technologies, Inc. : DIGITIZING COMPANY
~Other -----------------------------------------------------
~ASCII -----------------------------------------------------
  450.00000    -999.25    -999.25    -999.25    -999.25    -999.25    -999.25    -999.25    -999.25    -999.25    -999.25    -999.25    -999.25    -999.25    -999.25   37.51990   35.09920   35.09920    -999.25    -999.25    -999.25    -999.25    0.73700    0.71330    -999.25    -999.25    -999.25    -999.25    -999.25    -999.25    -999.25    -999.25    -999.25
  500.00000  228.07080  288.33320  245.27630  245.27630  126.37750   22.74090 2392.97880    -999.25    0.15630    0.18540    7.91280   22.74090  311.07280  311.07280   79.01160   77.10660   77.10660    7.91280    6.43420    6.43420    -999.25    0.34640    0.30270    2.88800    2.88800 2392.97880    6.14930  -18.14910    6.14930 7226.41750 6097.16890   -0.73450
  550.00000  221.44180  308.74960  236.82410  236.82410  148.68780    9.94370 2433.97580    -999.25    0.12390    0.16140    6.72550    9.94370  306.29600  306.29600   91.37630   92.72350   92.72350    6.72550    5.52410    5.52410    -999.25    0.37790    0.33460    3.34210    3.34210 2433.97580    5.72670  -24.09030    5.72670 7274.69380 6319.74170   -4.82920
  600.00000  220.90310  271.30030  233.12540  233.12540  109.06080   -7.53860 2387.80270    -999.25    0.15840    0.18840    9.16920   -7.53860  296.38150  296.38150   85.08680   78.35640   78.35640    9.16920    8.05740    8.05740    -999.25    0.33530    0.29150    3.10850    3.10850 2387.80270    7.07380  -26.02690    7.07380 7477.51220 6575.46970   -2.37210
  650.00000  209.30940  225.36120  213.95730  213.95730   49.72650    4.31440 2247.28690    -999.25    0.24660    0.27060   20.11000    4.31440  314.69500  314.69500   47.69240   50.13380   50.13380   20.11000   16.60960   16.60960    -999.25    0.33300    0.28920    2.98570    2.98570 2247.28690   13.97530  -41.44170   13.97530 7605.53220 6774.24460  -21.64720
  700.00000  219.29790  245.27450  227.46280  227.46280  261.41740   53.87720 1766.78150    -999.25    0.51300    0.55160    3.82530   53.87720  424.18240  424.18240   79.22360   85.83760   85.83760    3.82530    3.01520    3.01520    -999.25    0.63620    0.60470    2.88650    2.88650 1766.78150    4.12660  -17.97810    4.12660 8268.79000 6962.14550    0.42220
  750.00000  219.92730  247.57940  228.70780  228.70780   88.98780    6.10760 2422.30030    -999.25    0.13820    0.16820   11.23750    6.10760  273.86410  273.86410   69.93270   67.45440   67.45440   11.23750    9.78890    9.78890    -999.25    0.27630    0.23230    2.84040    2.84040 2422.30030   10.53260  -22.50740   10.53260 8424.87790 7278.14400   -6.31620
  800.00000  222.17140  237.08260  218.08100  218.08100  173.73180    0.10780 2341.87230    -999.25    0.18250    0.21530    5.75600    0.10780  297.98930  297.98930   74.10020   81.92190   81.92190    5.75600    5.51960    5.51960    -999.25    0.36330    0.31980    2.79060    2.79060 2341.87230    5.00050  -20.01660    5.00050 8445.24710 7405.47660   -1.69070
  850.00000  232.92990  261.15510  234.15910  234.15910  220.10920    6.88420 2440.69360    -999.25    0.12590    0.15750    4.54320    6.88420  302.18370  302.18370   87.94070   85.25340   85.25340    4.54320    4.23370    4.23370    -999.25    0.38920    0.34610    2.85750    2.85750 2440.69360    4.22140  -21.58050    4.22140 8666.41500 7484.20210   -1.68550
  900.00000  265.99630  232.34860  227.49390  227.49390  209.44160  126.61480 1960.32010    -999.25    0.41970    0.43840    4.77460  126.61480  333.42770  333.42770   93.93110   81.85970   81.85970    4.77460    4.38100    4.38100    -999.25    0.41410    0.37150    3.18620    3.18620 1960.32010    4.55100  -21.77750    4.55100 9111.16990 7826.22510   -3.26820
  950.00000  287.36680  226.54120  233.37280  233.37280  154.05950  172.56350 2157.03150    -999.25    0.30500    0.32340    6.49100  172.56350  278.59570  278.59570   87.22120   79.97860   79.97860    6.49100    7.26140    7.26140    -999.25    0.33220    0.28840    4.14580    4.14580 2157.03150    6.75230  -19.55490    6.75230 9467.45800 8192.16020   -2.70850
 1000.00000  323.51180  231.82110  237.29530  237.29530  205.41900  201.77570 2190.50440    -999.25    0.28140    0.30380    4.86810  201.77570  286.94910  286.94910   67.35530   65.67130   65.67130    4.86810    4.73540    4.73540    -999.25    0.08430    0.04440    3.14430    3.14430 2190.50440    4.62160  -17.90610    4.62160 9215.85060 8364.74020   -1.00730
 1050.00000  205.46490  216.49210  204.53690  204.53690   52.51330   45.03340 2313.94820    -999.25    0.20700    0.23160   19.04280   45.03340  247.01690  247.01690   32.44090   31.41710   31.41710   19.04280   17.93850   17.93850    -999.25    0.29010    0.24610    2.46280    2.46280 2313.94820   18.95510  -52.17450   18.95510 9195.93750 8676.11820  -37.01680
 1100.00000  240.73410  218.24820  228.46170  228.46170  111.00260    5.42660 2332.30420    -999.25    0.20300    0.22090    9.00880    5.42660  256.15410  256.15410   58.62390   50.12420   50.12420    9.00880    7.99430    7.99430    -999.25    0.27280    0.22880    2.91770    2.91770 2332.30420    7.76910  -17.63320    7.76910 10225.90330 8838.99320   -3.89600
 1150.00000  216.01510  214.20730  209.52910  209.52910  123.19820   -1.51260 2513.67040    -999.25    0.08160    0.11480    8.11700   -1.51260  243.21540  243.21540   58.47060   54.15020   54.15020    8.11700    8.72850    8.72850    -999.25    0.29190    0.24790    3.51080    3.51080 2513.67040   10.39090  -15.69960   10.39090 10136.62110 9081.63180   -3.03660
 1200.00000  234.91630  267.89090  228.31900  228.31900  170.05070   59.41100 2126.72290    -999.25    0.31930    0.34110    5.88060   59.41100  303.58780  303.58780   66.02390   65.85960   65.85960    5.88060    4.72020    4.72020    -999.25    0.38900    0.34590    2.92850    2.92850 2126.72290    5.19800  -11.87180    5.19800 10594.71090 9099.57910   -0.42700
 1250.00000  204.04060  208.25880  208.48190  208.48190  109.93360    8.36230 2332.30490    -999.25    0.19450    0.22090    9.09640    8.36230  259.83770  259.83770   37.46320   32.36250   32.36250    9.09640   11.45170   11.45170    -999.25    0.28240    0.23840    2.37800    2.37800 2332.30490   15.41280  -66.59660   15.41280 10250.07620 9515.92870  -56.37010
 1300.00000  246.86770  343.84880  259.20360  259.20360  219.93010  140.76940 2294.31840    -999.25    0.22080    0.24310    4.54690  140.76940  317.73660  317.73660   73.36700   68.51490   68.51490    4.54690    4.45410    4.45410    -999.25    0.45900    0.41760    3.30280    3.30280 2294.31840    4.67320   -9.58110    4.67320 11714.50780 9647.35640    0.08400
 1350.00000  281.06350  264.18310  250.16220  250.16220  110.21110    3.89020 2554.64990    -999.25    0.05460    0.09080    9.07350    3.89020  270.65180  270.65180   98.93500   91.94370   91.94370    9.07350    8.68690    8.68690    -999.25    0.33310    0.28930    3.18600    3.18600 2554.64990    8.34490  -14.16630    8.34490 11005.44140 9842.71680    0.21790
 1400.00000  321.45160  232.48340  244.54350  244.54350  120.51530  188.04610 2194.42800    -999.25    0.27750    0.30150    8.29770  188.04610  286.64160  286.64160  108.34790  110.79650  110.79650    8.29770    8.59610    8.59610    -999.25    0.33580    0.29200    3.28710    3.28710 2194.42800    8.95600  -10.97080    8.95600 11342.56050 10076.73240    0.87560
 1450.00000  296.51030  224.24970  231.59390  231.59390  105.07840  250.10840 2466.27950    -999.25    0.10920    0.14250    9.51670  250.10840  284.41600  284.41600  122.44840  112.82280  112.82280    9.51670   10.02150   10.02150    -999.25    0.33290    0.28910    3.34690    3.34690 2466.27950   10.43380   -7.27040   10.43380 11755.18360 10365.05470    0.50720
 1500.00000  307.45670  235.91670  245.70940  245.70940  136.85130  112.73580 2129.68460    -999.25    0.31980    0.33940    7.30720  112.73580  279.25400  279.25400  100.36190   94.34430   94.34430    7.30720    7.50510    7.50510    -999.25    0.34370    0.30000    3.09380    3.09380 2129.68460    7.70200   -9.93390    7.70200 11966.17480 10568.17290   -2.02410
