~Version ---------------------------------------------------
VERS.      2.0 : CWLS log ASCII Standard -VERSION 2.0
WRAP.       NO : ONE LINE PER DEPTH STEP
CREA. 08/16/13 : LAS CREATION DATE
~Well ------------------------------------------------------
STRT.M                         400.0 : START DEPTH
STOP.M                        3750.0 : STOP DEPTH
STEP.M                      50.00000 : STEP LENGTH
NULL.                        -999.25 : NULL VALUE
COMP.         BERKLEY PETROLEUM CORP : COMPANY
WELL. BPC CHEVRON WASKAHIGAN 11-36-6 : WELL
FLD .                                : FIELD
LOC .                                : LOCATION
CTRY.                         CANADA : COUNTRY
SRVC.                   Schlumberger : SERVICE COMPANY
DATE.                    04-Dec-1997 : LOGDATE
PROV.                        Alberta : PROVINCE
UWI .               100113606225W500 : UNIQUE WELL ID
SLAT.WGS84                  54.40909 : SURFACE LATITUDE
SLON.WGS84                 -117.6177 : SURFACE LONGITUDE
~Curve Information -----------------------------------------
DEPT    .M      : DEPTH METERS
AT10ED  .OHMM   : 10 INCH RESISTIVITY TWO FOOT RESOLUTION FROM AIT LOG
AT20ED  .OHMM   : 20 INCH RESISTIVITY TWO FOOT RESOLUTION FROM AIT LOG
AT30ED  .OHMM   : 30 INCH RESISTIVITY TWO FOOT RESOLUTION FROM AIT LOG
AT60ED  .OHMM   : 60 INCH RESISTIVITY TWO FOOT RESOLUTION FROM AIT LOG
AT90ED  .OHMM   : 90 INCH RESISTIVITY TWO FOOT RESOLUTION FROM AIT LOG
CALD2ED .MM     : CALIPER 2 FROM CND LOG
CALWS   .MM     : CALIPER [HCALDED]
CONDWS  .MMHO   : CONDUCTIVITY [1000/DRESWS]
DCORWS  .KG/M3  : DENSITY CORRECTION [HDRAED]
DENWS   .KG/M3  : BULK DENSITY [M=2710 F=1000] [RHOZED]
DPHZLSED.V/V    : HRDD STANDARD RESOLUTION DENSITY POROSITY LIMESTONE FROM CND LOG
DPHZSSED.V/V    : HRDD STANDARD RESOLUTION DENSITY POROSITY SANDSTONE FROM CND LOG
DPOLSWS .V/V    : DENSITY POROSITY [M=2710 F=1000] [CALCULATED FROM DENWS]
DRESWS  .OHMM   : DEEP RESISTIVITY [AT90ED]
DTED    .US/M   : DELTA TIME FROM SONIC LOG
DTWS    .US/M   : DELTA TIME [DTED]
GRSED   .GAPI   : GAMMA RAY FROM SONIC LOG [IN CASING<417M]
GRWS    .GAPI   : GAMMA RAY [GRSED]
HCALDED .MM     : HILT CALIPER FROM CND LOG
HDED    .MM     : HOLE DIAMETER FROM CND LOG
HDRAED  .KG/M3  : DENSITY CORRECTION FROM CND LOG
MRESWS  .OHMM   : MEDIUM RESISTIVITY [AT30ED]
NPOLSWS .V/V    : NEUTRON POROSITY LIMESTONE [SPLICED NPORSSED [CONVERTED TO LIME] TO NPORLSED @2451M]
NPORLSED.V/V    : NEUTRON POROSITY LIMESTONE FROM CND LOG
NPORSSED.V/V    : NEUTRON POROSITY SANDSTONE FROM CND LOG [IN CASING<417M]
PEFWS   .B/E    : PHOTOELECTRIC FACTOR [PEFZED]
PEFZED  .B/E    : PHOTOELECTRIC FACTOR STANDARD RESOLUTION FROM CND LOG
RHOZED  .KG/M3  : BULK DENSITY HRDD STANDARD RESOLUTION FROM CND LOG
RXOZED  .OHMM   : STANDARD RESOLUTION INVADED ZONE RESISTIVITY FROM AIT LOG
SPRED   .MV     : SPONTANEOUS POTENTIAL FROM AIT LOG
SPWS    .MV     : SPONTANEOUS POTENTIAL [BASELINE 0 MV] [SPRED]
SRESWS  .OHMM   : SHALLOW RESISTIVITY [AT10ED]
TENDED  .N      : TENSION FROM CND LOG
~Params ----------------------------------------------------
PD  .                                  GL : PERMANENT DATUM
EPD .M                             897.86 : ELEVATION PERMANENT DATUM
LMF .                                  KB : LOG MEASURED FROM
DAPD.M                                7.2 : FEET ABOVE PERMANENT DATUM
DMF .                                  KB : DRILLING MEASURED FROM
EKB .M                             905.09 : KELLY BUSHING
EDF .M                              804.6 : DRILLING FLOOR
EGL .M                             897.88 : GROUND LEVEL
DATE.                            12/04/97 : RUN DATE
RUN .                                   1 : RUN NUMBER
DD  .M                               3795 : DEPTH DRILLER
DL  .M                               3792 : DEPTH LOGGER
BLI .M                             3787.5 : BOTTOM LOG INTERVAL
TLI .M                               2452 : TOP LOG INTERVAL
CS  .MM                             177.8 : CASING SIZE
CBD .M                               2450 : CASING BOTTOM DRILLER
CBL .M                               2452 : CASING BOTTOM LOGGER
BS  .MM                               156 : BIT SIZE
BSD .M                               3795 : BIT SIZE AT DEPTH
DFT .                            GEL CHEM : DRILLING FLUID TYPE
DFD .                                1090 : DRILLING FLUID DENSITY
DFV .                                  80 : DRILLING FLUID VISCOSITY
DFPH.                                  10 : DRILLING FLUID PH
DFL .                                 8.5 : DRILLING FLUID LOSS
MSS .                            MEASURED : MUD SAMPLE SOURCE
RMS .OHMM                            1.43 : RESISTIVITY MUD SAMPLE
MST .DEGC                              14 : MUD SAMPLE TEMPERATURE
RMF .OHMM                             1.2 : RESISTIVITY MUD FILTRATE SAMPLE
MFST.DEGC                              14 : MUD FILTRATE SAMPLE TEMPERATURE
RMC .OHMM                            1.65 : RESISTIVITY MUD CAKE
MCST.DEGC                              14 : MUD CAKE SAMPLE TEMPERATURE
MFSS.                            MEASURED : MUD FILTRATE SAMPLE SOURCE
MCSS.                          CALCULATED : MUD CAKE SAMPLE SOURCE
RMB .OHMM                           0.452 : RESISTIVITY MUD AT BHT
TCS .HRS                             2200 : TIME CIRCULATED STOPPED
TLAB.HRS                              500 : TIME LOGGER AT BOTTOM
LUN .                                2005 : LOGGING UNIT NUMBER
LUL .                               NISKU : LOGGING UNIT LOCATION
ENGI.                                 DIP : RECORDING ENGINEER
WITN.                              COOPER : WITNESSED BY
CLNT.                             A2DTECH : CLIENT CODE
ORIG. 6.5"/100M 16.5"/100M 33"/100M PRINT : ORIGIN OF DATA
UWI .                    100113606225W500 : UNIQUE WELL ID
DICO.              A2D Technologies, Inc. : DIGITIZING COMPANY
~Other -----------------------------------------------------
1. ALL CURVES APPEAR ON DEPTH
~ASCII -----------------------------------------------------
# ...
 2600.00000   53.41150   55.33680   43.22390   40.63910   39.27970  156.96410  166.66780   25.45840  104.92450 2779.17940   -0.01880    -999.25   -0.04050   39.27970  155.70560  155.70560   14.04620   14.04620  166.66780    -999.25  104.92450   43.22390    0.04580    0.04580    -999.25    3.21820    3.21820 2779.17940  103.90450 -125.87640 -152.06440   53.41150 19851.88480
 2650.00000   33.62110   83.95960   61.65220  172.52290  121.99390  165.09820  238.42340    8.19710  504.22270 2471.39870    0.10210    -999.25    0.13950  121.99390  174.34120  174.34120   35.19520   35.19520  238.42340    -999.25  504.22270   61.65220    0.08860    0.08860    -999.25    2.82300    2.82300 2471.39870    5.96760 -130.08960 -156.27760   33.62110 20120.91410
 2700.00000   36.27000   54.57240   54.89230   50.25760   46.38710  156.46420  182.57380   21.55770  580.53800 2878.53300   -0.10130    -999.25   -0.09860   46.38710  194.39450  194.39450   40.57210   40.57210  182.57380    -999.25  580.53800   54.89230    0.09660    0.09660    -999.25    3.13440    3.13440 2878.53300   29.29390 -124.38880 -150.57680   36.27000 20164.66410
 2750.00000 1031.77140 1663.33060 1668.37180  565.80680  518.22330  154.66620  214.74560    1.92970  480.70000 2662.11550    0.03540    -999.25    0.02800  518.22330  168.23240  168.23240   28.43330   28.43330  214.74560    -999.25  480.70000 1668.37180    0.03560    0.03560    -999.25    4.42920    4.42920 2662.11550   13.70690 -123.81720 -150.00520 1031.77140 20584.44340
 2800.00000   16.97960   19.07560   14.17330    8.74510    8.13060  161.16520  184.52480  122.99220  150.19420 2726.10450   -0.00320    -999.25   -0.00940    8.13060  174.43630  174.43630   21.03030   21.03030  184.52480    -999.25  150.19420   14.17330    0.07930    0.07930    -999.25    3.78950    3.78950 2726.10450   34.42420 -150.37380 -176.56180   16.97960 20835.89650
 2850.00000   94.87910   82.92040   82.17120   76.51430   73.00490  167.82080  167.59050   13.69770  -10.39560 2733.12870   -0.01340    -999.25   -0.01350   73.00490  177.13820  177.13820   62.10940   62.10940  167.59050    -999.25  -10.39560   82.17120    0.04470    0.04470    -999.25    4.20050    4.20050 2733.12870  128.07100  -62.82780  -89.01580   94.87910 21123.27540
 2900.00000   20.74250   43.16280   26.24910   23.86710   22.53200  159.92070  205.52880   44.38130  485.17930 2755.41140   -0.02220    -999.25   -0.02660   22.53200  196.99660  196.99660   68.97670   68.97670  205.52880    -999.25  485.17930   26.24910    0.05780    0.05780    -999.25    4.07850    4.07850 2755.41140    9.35230  -53.02650  -79.21450   20.74250 21450.47070
 2950.00000  299.78720  419.62110  318.72000  116.43910  108.43640  154.96570  187.38760    9.22200  270.91100 2796.33010   -0.04580    -999.25   -0.05050  108.43640  166.15340  166.15340   21.57080   21.57080  187.38760    -999.25  270.91100  318.72000    0.01690    0.01690    -999.25    4.74160    4.74160 2796.33010   86.45440 -121.93350 -148.12150  299.78720 21614.72460
 3000.00000  399.51740  377.47110  346.77760  319.22070  315.10990  155.96440  156.23600    3.17350   13.10470 2700.91550    0.00730    -999.25    0.00530  315.10990  181.72500  181.72500   51.68260   51.68260  156.23600    -999.25   13.10470  346.77760    0.03680    0.03680    -999.25    4.20530    4.20530 2700.91550  393.38190  -94.99210 -121.18010  399.51740 21951.43160
 3050.00000 1865.53480    -999.25    -999.25  961.79640  898.35750  155.79140  170.05980    1.11310  315.59470 2828.93360   -0.07500    -999.25   -0.06960  898.35750  159.80570  159.80570    8.61210    8.61210  170.05980    -999.25  315.59470    -999.25   -0.00440   -0.00440    -999.25    5.36610    5.36610 2828.93360  639.98810 -214.82670 -241.01470 1865.53480 22173.00780
 3100.00000 1307.01320    -999.25    -999.25  525.80020  493.36450  153.99820  179.07480    2.02690  621.30530 2861.73970   -0.09030    -999.25   -0.08870  493.36450  158.60860  158.60860   11.20090   11.20090  179.07480    -999.25  621.30530    -999.25   -0.00570   -0.00570    -999.25    5.05160    5.05160 2861.73970  160.67840 -224.55000 -250.73800 1307.01320 22550.10740
 3150.00000 1284.47750    -999.25    -999.25  652.00420  616.33980  153.92950  186.20590    1.62250  630.29460 2860.46120   -0.08400    -999.25   -0.08800  616.33980  158.44760  158.44760   11.78680   11.78680  186.20590    -999.25  630.29460    -999.25   -0.00040   -0.00040    -999.25    4.69720    4.69720 2860.46120   46.43880 -208.65710 -234.84510 1284.47750 22668.19140
 3200.00000 1244.09520    -999.25    -999.25  988.68550  957.63390  153.84000  182.59310    1.04420  553.63560 2824.21750   -0.06630    -999.25   -0.06680  957.63390  158.87150  158.87150    8.76020    8.76020  182.59310    -999.25  553.63560    -999.25   -0.00180   -0.00180    -999.25    5.28390    5.28390 2824.21750  213.05200 -226.07840 -252.26640 1244.09520 22939.04690
 3250.00000  165.61400  117.24440  170.17300  111.46780   99.94490  152.82560  189.74130   10.00550  638.75110 2626.56960    0.04250    -999.25    0.04880   99.94490  165.55900  165.55900   23.09020   23.09020  189.74130    -999.25  638.75110  170.17300    0.04370    0.04370    -999.25    2.74350    2.74350 2626.56960    4.50750 -130.67720 -156.86520  165.61400 23208.78520
 3300.00000  229.38830  393.88230  678.65250  760.98280 1052.50440  152.72820  219.90790    0.95010  562.40030 2702.32300   -0.04030    -999.25    0.00450 1052.50440  162.97990  162.97990   19.54470   19.54470  219.90790    -999.25  562.40030  678.65250    0.06020    0.06020    -999.25    3.01030    3.01030 2702.32300    7.02020 -144.17470 -170.36270  229.38830 23213.41410
 3350.00000  117.47920  107.52710   96.01110   86.79140   81.69980  153.26640  160.69940   12.23990   -3.45240 2744.31270   -0.01390    -999.25   -0.02010   81.69980  169.64870  169.64870   29.53800   29.53800  160.69940    -999.25   -3.45240   96.01110    0.02270    0.02270    -999.25    4.90740    4.90740 2744.31270  129.22550 -108.40670 -134.59470  117.47920 23669.90230
 3400.00000 1120.63060 1954.13840 1989.19130  329.65260  296.03270  155.35750  190.45760    3.37800  603.45940 2834.03610   -0.07060    -999.25   -0.07250  296.03270  165.85870  165.85870   19.15080   19.15080  190.45760    -999.25  603.45940 1989.19130    0.01530    0.01530    -999.25    5.12720    5.12720 2834.03610  100.26100 -116.29570 -142.48370 1120.63060 23964.99610
 3450.00000  110.42460  152.28810   98.18700   97.25820   87.05190  160.82300  158.43320   11.48740   10.86410 2715.84450   -0.00850    -999.25   -0.00340   87.05190  191.53820  191.53820   46.64470   46.64470  158.43320    -999.25   10.86410   98.18700    0.06850    0.06850    -999.25    4.79820    4.79820 2715.84450  220.50660  -84.62860 -110.81660  110.42460 24317.35550
 3500.00000    4.04410    3.97670    3.65210    3.44950    3.30040  212.89580  294.09550  302.99360  462.22340 2596.65580    0.06860    -999.25    0.06630    3.30040  251.11100  251.11100   99.60680   99.60680  294.09550    -999.25  462.22340    3.65210    0.21110    0.21110    -999.25    3.70120    3.70120 2596.65580    2.74630  -59.68640  -85.87440    4.04410 24866.26170
 3550.00000    9.15180    9.36420    8.81630    8.60510    8.16130  189.53230  193.64320  122.52950   18.80090 2738.95850   -0.02040    -999.25   -0.01690    8.16130  216.80540  216.80540  100.88420  100.88420  193.64320    -999.25   18.80090    8.81630    0.14040    0.14040    -999.25    4.26640    4.26640 2738.95850   12.29450  -47.24920  -73.43720    9.15180 24609.06640
 3600.00000    5.71860    5.63000    5.52740    5.30180    5.10650  197.12290  238.39460  195.82880  181.26170 2679.38160    0.00720    -999.25    0.01790    5.10650  245.68490  245.68490  120.54970  120.54970  238.39460    -999.25  181.26170    5.52740    0.19530    0.19530    -999.25    4.12670    4.12670 2679.38160    6.58980  -57.99700  -84.18500    5.71860 25045.77150
 3650.00000 1213.23780    -999.25 1050.03200 1093.89970 1015.62260  155.71350  163.51940    0.98460    6.92080 2576.06710    0.07640    -999.25    0.07830 1015.62260  214.93540  214.93540  164.36800  164.36800  163.51940    -999.25    6.92080 1050.03200    0.08600    0.08600    -999.25    3.31960    3.31960 2576.06710 1999.27660 -144.58110 -170.76910 1213.23780 25106.25200
