~Version ---------------------------------------------------
VERS.      2.0 : CWLS log ASCII Standard -VERSION 2.0
WRAP.       NO : One line per depth step
CREA. 01/03/18 : LAS Creation Date
~Well ------------------------------------------------------
STRT.FT                        800.0 : START DEPTH
STOP.FT                       8500.0 : STOP DEPTH
STEP.FT                     50.00000 : STEP LENGTH
NULL.                        -999.25 : NULL VALUE
COMP.        PETROMARK MINERALS LTD. : COMPANY
WELL. PETROMK IOE KINAKIN 4-12-64-10 : WELL
FLD .                                : FIELD
LOC .                                : LOCATION
CTRY.                         CANADA : COUNTRY
SRVC.                   Schlumberger : SERVICE COMPANY
DATE.                    02-Jan-1976 : LOGDATE
PROV.                        Alberta : PROVINCE
UWI .               100041206410W500 : UNIQUE WELL ID
SLAT.WGS84                  54.51845 : SURFACE LATITUDE
SLON.WGS84                 -115.3807 : SURFACE LONGITUDE
~Curve Information -----------------------------------------
DEPT  .FT    : Depth Curve
CALSED.IN    : CALIPER FROM SONIC LOG
CALWS .IN    : CALIPER [CALSED]
CILDED.MMHO  : CONDUCTIVITY FROM RESISTIVITY LOG
CONDWS.MMHO  : CONDUCTIVITY [866' CILDED 7400' 1000/ILDED]
DRESWS.OHMM  : DEEP RESISTIVITY [1000/CONDWS]
DTED  .US/F  : DELTA TIME FROM SONIC LOG
DTWS  .US/F  : DELTA TIME [DTED]
GRSED .GAPI  : GAMMA RAY FROM SONIC LOG
GRWS  .GAPI  : GAMMA RAY [GRSED]
ILDED .OHMM  : INDUCTION LOG DEEP RESISTIVITY
ILMED .OHMM  : INDUCTION LOG MEDIUM RESISTIVITY
LL8ED .OHMM  : 8 INCH LATEROLOG RESISTIVITY [FILLED GAPS]
MRESWS.OHMM  : MEDIUM RESISTIVITY [ILMED]
SPRED .MV    : SPONTANEOUS POTENTIAL FROM RESISTIVITY LOG
SPWS  .MV    : SPONTANEOUS POTENTIAL [BASELINE 0 MV] [SPRED]
SRESWS.OHMM  : SHALLOW RESISTIVITY [LL8ED]
~Params ----------------------------------------------------
PD  .                     GL : PERMANENT DATUM
EPD .FT               3170.9 : ELEVATION PERMANENT DATUM
LMF .                     KB : LOG MEASURED FROM
DAPD.FT                 14.4 : FEET ABOVE PERMANENT DATUM
EKB .FT               3185.3 : KELLY BUSHING
EGL .FT               3170.9 : GROUND LEVEL
DATE.               02/01/76 : RUN DATE
RUN .                      1 : RUN NUMBER
DD  .FT                 8507 : DEPTH DRILLER
DL  .FT                 8510 : DEPTH LOGGER
BLI .FT                 8504 : BOTTOM LOG INTERVAL
TLI .FT                  861 : TOP LOG INTERVAL
CBD .FT                  861 : CASING BOTTOM DRILLER
CBL .FT                  861 : CASING BOTTOM LOGGER
BS  .IN                7.875 : BIT SIZE
BSD .FT                 8507 : BIT SIZE AT DEPTH
DFT .               GEL CHEM : DRILLING FLUID TYPE
DFD .                    9.4 : DRILLING FLUID DENSITY
DFV .                    106 : DRILLING FLUID VISCOSITY
DFPH.                    9.5 : DRILLING FLUID PH
DFL .                      6 : DRILLING FLUID LOSS
MSS .            CIRCULATION : MUD SAMPLE SOURCE
RMS .OHMM               1.97 : RESISTIVITY MUD SAMPLE
MST .DEGF                 58 : MUD SAMPLE TEMPERATURE
RMF .OHMM                1.5 : RESISTIVITY MUD FILTRATE SAMPLE
MFST.DEGF                 58 : MUD FILTRATE SAMPLE TEMPERATURE
RMC .OHMM                2.3 : RESISTIVITY MUD CAKE
MCST.DEGF                 58 : MUD CAKE SAMPLE TEMPERATURE
TCS .HRS                   4 : TIME CIRCULATED STOPPED
LUN .                   7691 : LOGGING UNIT NUMBER
LUL .                    EDM : LOGGING UNIT LOCATION
ENGI.                  BORLE : RECORDING ENGINEER
WITN.                 SAVAGE : WITNESSED BY
CLNT.                A2DTECH : CLIENT CODE
ORIG.        2" 5" 10" PRINT : ORIGIN OF DATA
UWI .       100041206410W500 : UNIQUE WELL ID
DICO. A2D Technologies, Inc. : DIGITIZING COMPANY
~Other -----------------------------------------------------
~ASCII -----------------------------------------------------
# ...
 2950.00000   11.39840   11.39840  177.51000  177.51000    5.63350   97.53870   97.53870   83.42550   83.42550    6.18970    -999.25    5.06980    -999.25  -28.25760  -14.47320    5.06980
 3000.00000   12.89850   12.89850  185.95580  185.95580    5.37760   99.54550   99.54550   81.82050   81.82050    5.79800    -999.25    4.68420    -999.25  -27.37190  -13.87290    4.68420
 3050.00000   10.71230   10.71230  193.63610  193.63610    5.16430   97.46830   97.46830   89.84380   89.84380    5.87670    -999.25    4.87340    -999.25  -29.24200  -16.02980    4.87340
 3100.00000   10.94980   10.94980  176.09380  176.09380    5.67880   96.70550   96.70550   86.29490   86.29490    6.38000    -999.25    5.16510    -999.25  -27.39600  -14.47200    5.16510
 3150.00000   10.27220   10.27220  157.93570  157.93570    6.33170   95.84490   95.84490   84.36670   84.36670    6.95230    -999.25    5.27020    -999.25  -28.51410  -15.87550    5.27020
 3200.00000   12.51260   12.51260  173.20280  173.20280    5.77360   95.44640   95.44640   84.55310   84.55310    6.34510    -999.25    4.70160    -999.25  -28.69650  -16.34620    4.70160
 3250.00000   13.52300   13.52300  204.23170  204.23170    4.89640  104.58060  104.58060   79.44800   79.44800    5.29650    -999.25    4.04540    -999.25  -27.34920  -15.28420    4.04540
 3300.00000   11.14640   11.14640  130.71710  130.71710    7.65010   91.86140   91.86140   81.66300   81.66300    8.37220    -999.25    6.12320    -999.25  -28.15510  -16.37700    6.12320
 3350.00000   11.12840   11.12840  172.84260  172.84260    5.78660   94.20880   94.20880   88.20900   88.20900    6.67500    -999.25    5.33610    -999.25  -27.26210  -15.77220    5.33610
 3400.00000   10.78970   10.78970  173.97130  173.97130    5.74810   97.63870   97.63870   88.34560   88.34560    6.45240    -999.25    5.46430    -999.25  -25.68180  -14.47730    5.46430
 3450.00000   10.64290   10.64290  217.52730  217.52730    4.59710  103.54670  103.54670  102.18800  102.18800    4.35480    -999.25    4.94830    -999.25  -23.00400  -12.08770    4.94830
 3500.00000    9.15980    9.15980  188.10350  188.10350    5.31620  105.63750  105.63750  116.93490  116.93490    5.61960    -999.25    6.25910    -999.25  -22.39580  -11.76490    6.25910
 3550.00000    8.91130    8.91130  178.73050  178.73050    5.59500  102.69030  102.69030  115.00190  115.00190    6.25740    -999.25    6.71930    -999.25  -22.86710  -12.52300    6.71930
 3600.00000    8.60950    8.60950  151.31350  151.31350    6.60880  102.94050  102.94050  143.40290  143.40290    7.46800    -999.25    9.18750    -999.25  -21.36410  -11.30830    9.18750
 3650.00000    9.11380    9.11380  214.86130  214.86130    4.65420   95.18430   95.18430   85.46440   85.46440    4.70920    -999.25    5.13630    -999.25  -22.05540  -12.28500    5.13630
 3700.00000    9.45610    9.45610  228.61130  228.61130    4.37470   97.25990   97.25990   94.10230   94.10230    4.60270    -999.25    5.19920    -999.25  -20.74580  -11.26360    5.19920
 3750.00000    9.45580    9.45580  231.23840  231.23840    4.32450   95.24680   95.24680   94.58400   94.58400    3.99360    -999.25    4.72330    -999.25  -21.26600  -12.06920    4.72330
 3800.00000    9.34060    9.34060  199.41460  199.41460    5.01470   93.01170   93.01170   98.50990   98.50990    5.10360    -999.25    5.66430    -999.25  -19.23550  -10.32550    5.66430
 3850.00000    9.67540    9.67540  196.83520  196.83520    5.08040   93.57730   93.57730   97.11910   97.11910    5.25870    -999.25    5.70470    -999.25  -18.73230  -10.11050    5.70470
 3900.00000    9.52670    9.52670  262.37900  262.37900    3.81130   96.69560   96.69560  105.41820  105.41820    3.85540    -999.25    4.42790    -999.25  -17.50660   -9.17020    4.42790
 3950.00000    9.43900    9.43900  225.87540  225.87540    4.42730   96.64930   96.64930  112.63300  112.63300    5.00180    -999.25    5.32610    -999.25  -17.91860   -9.87050    5.32610
 4000.00000    9.27130    9.27130  426.88420  426.88420    2.34260  112.44190  112.44190  210.80800  210.80800    2.67650    -999.25    3.09410    -999.25  -13.60100   -5.83820    3.09410
 4050.00000   10.46630   10.46630  528.70350  528.70350    1.89140  112.78370  112.78370   78.07740   78.07740    1.80590    -999.25    2.36940    -999.25  -13.14040   -5.66450    2.36940
 4100.00000    9.76470    9.76470  295.75760  295.75760    3.38120   95.31100   95.31100   85.65820   85.65820    3.19420    -999.25    3.69520    -999.25  -15.51200   -8.32430    3.69520
 4150.00000    9.18720    9.18720  234.71400  234.71400    4.26050   90.76690   90.76690  112.32810  112.32810    5.03250    -999.25    5.27480    -999.25  -16.57650   -9.67420    5.27480
 4200.00000    9.13450    9.13450  192.19420  192.19420    5.20310   80.44850   80.44850   53.96300   53.96300    5.60760    -999.25    6.08780    -999.25  -24.09790  -17.54770    6.08780
 4250.00000   10.88520   10.88520  560.74930  560.74930    1.78330  113.16780  113.16780   80.36460   80.36460    1.47650    -999.25    1.71990    -999.25  -13.56990   -7.58710    1.71990
 4300.00000    9.00660    9.00660  182.41210  182.41210    5.48210   86.37050   86.37050   62.08400   62.08400    5.12490    -999.25    5.58300    -999.25  -22.59390  -17.18140    5.58300
 4350.00000   10.51420   10.51420  135.55150  135.55150    7.37730  123.98120  123.98120   47.66250   47.66250    7.98240    -999.25   12.18240    -999.25  -22.63390  -17.79460   12.18240
 4400.00000    9.31560    9.31560  196.74120  196.74120    5.08280   82.66410   82.66410   66.72590   66.72590    5.25190    -999.25    5.55860    -999.25  -16.98100  -12.70910    5.55860
 4450.00000    9.45200    9.45200  181.62680  181.62680    5.50580   81.57580   81.57580   68.97670   68.97670    5.73180    -999.25    6.12830    -999.25  -28.20640  -24.50770    6.12830
 4500.00000    9.39720    9.39720  145.24170  145.24170    6.88510   82.75960   82.75960   79.80710   79.80710    7.66290    -999.25    8.66490    -999.25  -17.00590  -13.87470    8.66490
 4550.00000    9.44880    9.44880  195.72450  195.72450    5.10920   82.81110   82.81110   82.04300   82.04300    5.64130    -999.25    6.64170    -999.25  -23.79180  -21.23090    6.64170
 4600.00000    9.74900    9.74900  342.13400  342.13400    2.92410   85.63300   85.63300   59.45170   59.45170    3.31270    -999.25    2.96040    -999.25  -26.40800  -24.42030    2.96040
 4650.00000    9.20520    9.20520  213.28200  213.28200    4.68860   82.48980   82.48980   73.27640   73.27640    5.09590    -999.25    6.99620    -999.25  -40.25530  -38.83500    6.99620
 4700.00000    9.26500    9.26500  210.80430  210.80430    4.74420   82.21710   82.21710   73.95450   73.95450    5.02920    -999.25    5.41810    -999.25  -18.32020  -17.47310    5.41810
 4750.00000    9.47860    9.47860  229.52090  229.52090    4.35690   85.32660   85.32660   85.23900   85.23900    4.63200    -999.25    5.20560    -999.25  -15.29470  -15.01510    5.20560
 4800.00000    9.41250    9.41250  157.01550  157.01550    6.36880   77.22190   77.22190   75.16050   75.16050    7.15760    -999.25    7.48720    -999.25  -11.91590  -12.20660    7.48720
 4850.00000    9.40970    9.40970  153.40820  153.40820    6.54300   78.61810   78.61810   80.90920   80.90920    7.47880    -999.25    8.40470    -999.25  -16.82050  -17.68440    8.40470
 4900.00000    9.49410    9.49410  207.99160  207.99160    4.80790   85.90860   85.90860   92.17960   92.17960    5.42610    -999.25    6.26820    -999.25  -11.53570  -13.20840    6.26820
 4950.00000    8.43630    8.43630   46.63090   46.63090   21.44560   60.60850   60.60850   22.09330   22.09330   26.86300    -999.25   38.44990    -999.25  -40.80160  -43.37970   38.44990
 5000.00000    8.70720    8.70720   20.15620   20.15620   49.61250   57.23960   57.23960   12.78530   12.78530   83.86990    -999.25  333.74790    -999.25  -74.83370  -78.30830  333.74790
 5050.00000    9.23450    9.23450   18.84010   18.84010   53.07830   53.14440   53.14440   10.73930   10.73930   84.38270    -999.25   31.24900    -999.25  -86.86110  -91.23660   31.24900
