~Version ---------------------------------------------------
VERS.      2.0 : CWLS log ASCII Standard -VERSION 2.0
WRAP.       NO : One line per depth step
CREA. 08/01/17 : LAS Creation Date
~Well ------------------------------------------------------
STRT.FT                           1050.0 : START DEPTH
STOP.FT                           9900.0 : STOP DEPTH
STEP.FT                         50.00000 : STEP LENGTH
NULL.                            -999.25 : NULL VALUE
COMP.                 SKELLY OIL COMPANY : COMPANY
WELL. SKELLY BERTA J1 KAYBOB 12-18-64-17 : WELL
FLD .                                    : FIELD
LOC .                                    : LOCATION
CTRY.                             CANADA : COUNTRY
SRVC.                       Schlumberger : SERVICE COMPANY
DATE.                        11-Feb-1962 : LOGDATE
PROV.                            Alberta : PROVINCE
UWI .                   100121806417W500 : UNIQUE WELL ID
SLAT.WGS84                      54.53987 : SURFACE LATITUDE
SLON.WGS84                     -116.5677 : SURFACE LONGITUDE
~Curve Information -----------------------------------------
DEPT  .FT    : Depth Curve
CALWS .IN    : CALIPER [MCALED]
CILDED.MMHO  : CONDUCTIVITY FROM IEL LOG
CONDWS.MMHO  : CONDUCTIVITY [CILDED]
DRESWS.OHMM  : DEEP RESISTIVITY [1000/CONDWS, IF ILDED <=4 THEN ILDED]
DTED  .US/F  : DELTA-T FROM BCS-GR LOG [ADJ.TO ILDED]
DTWS  .US/F  : COMPRESSIONAL SONIC [DTED]
GRSED .GAPI  : GAMMA RAY FROM BCS-GR LOG [ADJ.TO ILDED]
GRWS  .GAPI  : GAMMA RAY [GRSED]
ILDED .OHMM  : DEEP INDUCTION FROM IEL LOG
MCALED.IN    : MICROLOG CALIPER FROM MICRO-CAL LOG
SNED  .OHMM  : SHORT NORMAL FROM IEL LOG
SPRED .MV    : SPONTANEOUS POTENTIAL FROM IEL LOG
SPWS  .MV    : SPONTANEOUS POTENTIAL [BASELINE 0 MV, SPRED]
SRESWS.OHMM  : SHALLOW RESISTIVITY [SNED]
~Params ----------------------------------------------------
PD  .                     GL : PERMANENT DATUM
EPD .FT                 2627 : ELEVATION PERMANENT DATUM
LMF .                     KB : LOG MEASURED FROM
DAPD.FT                   15 : FEET ABOVE PERMANENT DATUM
EKB .FT                 2643 : KELLY BUSHING
EGL .FT                 2627 : GROUND LEVEL
DATE.               02/11/62 : RUN DATE
RUN .                      1 : RUN NUMBER
DD  .FT                 9931 : DEPTH DRILLER
DL  .FT                 9911 : DEPTH LOGGER
BLI .FT                 9910 : BOTTOM LOG INTERVAL
TLI .FT                 1017 : TOP LOG INTERVAL
CBD .FT                 1018 : CASING BOTTOM DRILLER
CBL .FT                 1017 : CASING BOTTOM LOGGER
BS  .IN                 8.75 : BIT SIZE
BSD .FT                 9931 : BIT SIZE AT DEPTH
DFT .          GEL OIL EMULS : DRILLING FLUID TYPE
DFD .                     10 : DRILLING FLUID DENSITY
DFV .                     92 : DRILLING FLUID VISCOSITY
DFPH.                      9 : DRILLING FLUID PH
DFL .                    5.8 : DRILLING FLUID LOSS
MSS .                   CIRC : MUD SAMPLE SOURCE
RMS .OHMM               2.58 : RESISTIVITY MUD SAMPLE
MST .DEGF                 64 : MUD SAMPLE TEMPERATURE
RMF .OHMM               1.42 : RESISTIVITY MUD FILTRATE SAMPLE
MFST.DEGF                 58 : MUD FILTRATE SAMPLE TEMPERATURE
RMC .OHMM                2.7 : RESISTIVITY MUD CAKE
MCST.DEGF                 55 : MUD CAKE SAMPLE TEMPERATURE
RMB .OHMM                0.9 : RESISTIVITY MUD AT BHT
TCS .HRS                   5 : TIME CIRCULATED STOPPED
LUN .                   1534 : LOGGING UNIT NUMBER
LUL .                    WCT : LOGGING UNIT LOCATION
ENGI.               HATLELID : RECORDING ENGINEER
WITN.                  PIPER : WITNESSED BY
CLNT.                A2DTECH : CLIENT CODE
ORIG.          1" 2.5" PRINT : ORIGIN OF DATA
UWI .       100121806417W500 : UNIQUE WELL ID
DICO. A2D Technologies, Inc. : DIGITIZING COMPANY
~Other -----------------------------------------------------
~ASCII -----------------------------------------------------
# ...
 8400.00000   11.29730  113.39700  113.39700    8.82290   78.73120   78.73120   62.89650   62.89650    8.82290   11.29730   13.99280  -86.19630  -19.91780   13.99280
 8450.00000    9.66810  101.36130  101.36130    9.89360   66.02230   66.02230   67.88710   67.88710    9.89360    9.66810   14.99950  -78.43000  -12.84720   14.99950
 8500.00000   14.40050  131.35390  131.35390    7.38180   70.52700   70.52700   65.19800   65.19800    7.38180   14.40050    8.20790  -83.75140  -18.85970    8.20790
 8550.00000   13.74350  138.09060  138.09060    7.05890   77.49070   77.49070   80.46390   80.46390    7.05890   13.74350    9.78150  -86.84170  -22.64110    9.78150
 8600.00000   14.45840  151.39870  151.39870    6.74070   65.01250   65.01250   73.62440   73.62440    6.74070   14.45840    7.85660  -79.36260  -15.85760    7.85660
 8650.00000   14.44840  170.84620  170.84620    5.74480   89.05170   89.05170   73.93620   73.93620    5.74480   14.44840    7.72460  -88.14590  -25.33200    7.72460
 8700.00000   14.47840  188.68080  188.68080    5.30350   82.11060   82.11060   82.99610   82.99610    5.30350   14.47840    6.44370  -81.76660  -19.64840    6.44370
 8750.00000   10.22330   69.18310   69.18310   15.27470   63.63900   63.63900   65.66170   65.66170   15.27470   10.22330   21.75510  -74.16730  -12.74020   21.75510
 8800.00000   10.51280   91.87300   91.87300   11.18990   70.74070   70.74070   80.50500   80.50500   11.18990   10.51280   16.12490  -70.72610   -9.99010   16.12490
 8850.00000   10.91320   79.84940   79.84940   12.98320   66.48350   66.48350   78.40670   78.40670   12.98320   10.91320   17.74240  -64.57620   -4.53580   17.74240
 8900.00000   10.32390   68.20020   68.20020   15.83260   64.28910   64.28910   74.45040   74.45040   15.83260   10.32390   20.22490  -63.35590   -4.00660   20.22490
 8950.00000   14.45000  108.28510  108.28510    9.44010   77.38700   77.38700   91.53400   91.53400    9.44010   14.45000   12.30440  -66.25240   -6.80340   12.30440
 9000.00000   11.94730   95.78730   95.78730   10.65330   71.13430   71.13430   82.13140   82.13140   10.65330   11.94730   14.27850  -66.55460   -6.98540   14.27850
 9050.00000   14.44910  106.33780  106.33780    9.63100   70.86970   70.86970   84.14280   84.14280    9.63100   14.44910   11.59410  -76.05300  -16.36360   11.59410
 9100.00000    9.20290    9.79730    9.79730  389.88760   62.73770   62.73770  122.92810  122.92810  389.88760    9.20290   75.14170  -79.29220  -19.48170   75.14170
 9150.00000    9.30480    8.27630    8.27630  359.60530   70.70070   70.70070   98.85530   98.85530  359.60530    9.30480  160.43770  -91.58030  -31.64960  160.43770
 9200.00000   10.26340   11.97950   11.97950  179.20020   77.45290   77.45290  154.93080  154.93080  179.20020   10.26340  101.10750  -88.90950  -28.85780  101.10750
 9250.00000   11.40320   25.14140   25.14140   45.22290   77.01990   77.01990   98.33760   98.33760   45.22290   11.40320   48.60070  -91.54830  -31.37630   48.60070
 9300.00000   11.20420   18.91670   18.91670   57.42530   61.45070   61.45070   51.27230   51.27230   57.42530   11.20420   62.20090  -91.56700  -31.27480   62.20090
 9350.00000   10.41450   23.07070   23.07070   49.03340   57.29680   57.29680   47.98040   47.98040   49.03340   10.41450   49.97910  -85.57730  -25.16400   49.97910
 9400.00000   11.09160   73.16250   73.16250   14.85390   63.64650   63.64650   71.75110   71.75110   14.85390   11.09160   19.75920  -82.13380  -21.60030   19.75920
 9450.00000    9.78660   12.50940   12.50940  141.78720   54.53720   54.53720   38.28480   38.28480  141.78720    9.78660  109.19460  -79.63020  -18.97570  109.19460
 9500.00000   10.76320   20.51370   20.51370   48.72280   50.51860   50.51860   30.75650   30.75650   48.72280   10.76320   58.35900  -77.09880  -16.32400   58.35900
 9550.00000   10.15320   14.92560   14.92560   94.09670   55.76120   55.76120   48.34390   48.34390   94.09670   10.15320   90.05100  -73.06270  -12.16770   90.05100
 9600.00000   10.49230   10.96210   10.96210  120.65300   48.82970   48.82970   21.46070   21.46070  120.65300   10.49230  108.67460 -141.59450  -80.57850  108.67460
 9650.00000   12.54560    4.59590    4.59590  515.55990   49.06160   49.06160   24.50330   24.50330  515.55990   12.54560  192.60160 -179.26790 -118.13160  192.60160
 9700.00000    9.55570   36.74990   36.74990   29.61880   58.25760   58.25760   77.19500   77.19500   29.61880    9.55570   59.99340  -64.21660   -2.96800   59.99340
 9750.00000    9.13950   65.20020   65.20020   17.28520   67.21070   67.21070  116.63660  116.63660   17.28520    9.13950   35.95120  -88.39150  -27.14290   35.95120
 9800.00000    9.33080   89.13440   89.13440   12.18850   60.99790   60.99790  105.56670  105.56670   12.18850    9.33080   16.73220  -98.76330  -37.51470   16.73220
 9850.00000    9.54360   79.44100   79.44100   13.61800   67.02500   67.02500  179.08830  179.08830   13.61800    9.54360   30.32090 -135.52180  -74.27320   30.32090
 9900.00000    8.78450   49.09030   49.09030   22.14640    -999.25    -999.25    -999.25    -999.25   22.14640    8.78450   53.38880 -157.86350  -96.61490   53.38880
