~Version ---------------------------------------------------
VERS.      2.0 : CWLS log ASCII Standard -VERSION 2.0
WRAP.       NO : One line per depth step
CREA. 08/27/14 : LAS Creation Date
~Well ------------------------------------------------------
STRT.FT                         950.0 : START DEPTH
STOP.FT                        9900.0 : STOP DEPTH
STEP.FT                      50.00000 : STEP LENGTH
NULL.                         -999.25 : NULL VALUE
COMP. GENERAL CRUDE OIL, NORTHERN LTD : COMPANY
WELL.   GCON HB PUSKWASKAU 11-6-73-24 : WELL
FLD .                                 : FIELD
LOC .                                 : LOCATION
CTRY.                          CANADA : COUNTRY
SRVC.          Schlumberger of Canada : SERVICE COMPANY
DATE.                     29-Jan-1973 : LOGDATE
PROV.                         Alberta : PROVINCE
UWI .                100110607324W500 : UNIQUE WELL ID
SLAT.WGS84                   55.29715 : SURFACE LATITUDE
SLON.WGS84                  -117.6848 : SURFACE LONGITUDE
~Curve Information -----------------------------------------
DEPT.FT    : DEPTH FEET
CALS.IN    : CALIPER FROM SONIC LOG
CILD.MMHO  : CONDUCTIVITY FROM RESISTIVITY LOG
DT  .US/F  : DELTA TIME FROM SONIC LOG
GRS .GAPI  : GAMMA RAY FROM SONIC LOG
ILD .OHMM  : INDUCTION LOG DEEP RESISTIVITY
ILM .OHMM  : INDUCTION LOG MEDIUM RESISTIVITY
LL8 .OHMM  : 8 INCH LATEROLOG RESISTIVITY
SPR .MV    : SPONTANEOUS POTENTIAL FROM RESISTIVITY LOG
~Params ----------------------------------------------------
PD  .                     GL : PERMANENT DATUM
EPD .FT                 2352 : ELEVATION PERMANENT DATUM
LMF .                     KB : LOG MEASURED FROM
DAPD.FT                   14 : FEET ABOVE PERMANENT DATUM
EKB .FT                 2366 : KELLY BUSHING
EGL .FT                 2352 : GROUND LEVEL
DATE.               01/73/29 : RUN DATE
RUN .                      1 : RUN NUMBER
DD  .FT                 9931 : DEPTH DRILLER
DL  .FT                 9919 : DEPTH LOGGER
BLI .FT                 9913 : BOTTOM LOG INTERVAL
TLI .FT                 1011 : TOP LOG INTERVAL
CBD .FT                 1011 : CASING BOTTOM DRILLER
CBL .FT                 1011 : CASING BOTTOM LOGGER
BS  .IN                 8.75 : BIT SIZE
BSD .FT                 9931 : BIT SIZE AT DEPTH
DFT .                    GEL : DRILLING FLUID TYPE
DFD .                    9.5 : DRILLING FLUID DENSITY
DFV .                     95 : DRILLING FLUID VISCOSITY
DFPH.                    7.5 : DRILLING FLUID PH
DFL .                    8.2 : DRILLING FLUID LOSS
RMF .OHMM               1.35 : RESISTIVITY MUD FILTRATE SAMPLE
MFST.DEGF                 68 : MUD FILTRATE SAMPLE TEMPERATURE
RMB .OHMM               0.56 : RESISTIVITY MUD AT BHT
TCS .HRS                   4 : TIME CIRCULATED STOPPED
LUN .                   7635 : LOGGING UNIT NUMBER
LUL .                     DC : LOGGING UNIT LOCATION
ENGI.                  BAKER : RECORDING ENGINEER
WITN.                JOHNSON : WITNESSED BY
CLNT.                A2DTECH : CLIENT CODE
ORIG.            2" 5" PRINT : ORIGIN OF DATA
UWI .       100110607324W500 : UNIQUE WELL ID
DICO. A2D Technologies, Inc. : DIGITIZING COMPANY
~Other -----------------------------------------------------
~ASCII -----------------------------------------------------
  950.00000    -999.25    -999.25    -999.25   38.16790    -999.25    -999.25    -999.25    -999.25
 1000.00000    -999.25    -999.25    -999.25   35.06110    -999.25    -999.25    -999.25    -999.25
 1050.00000    8.49090  124.83290  121.77750   76.58120    8.20110    -999.25    6.28460  -60.51950
 1100.00000    8.42400  132.52090  114.77760   79.43590    7.41550    -999.25    5.54640  -61.46780
 1150.00000    8.63610  133.69150  121.66950   96.11830    7.64530    -999.25    6.32550  -60.05920
 1200.00000    8.49500  138.44160  127.86770  103.22880    7.38480    -999.25    6.47070  -56.23980
 1250.00000    8.55790  148.03210  110.72200   92.26580    6.85430    -999.25    6.13640  -54.87820
 1300.00000   10.37960  132.60110  121.64910   87.58010    7.75840    -999.25    6.21170  -59.11030
 1350.00000    8.30800   77.66880  116.76960   72.33060   12.65860    -999.25    9.22760  -61.36400
 1400.00000    8.67800  135.54680  120.71820   94.45840    7.58000    -999.25    6.07390  -57.60480
 1450.00000    7.51470  115.14060  109.56750  100.28520    8.86840    -999.25    6.36260  -58.12430
 1500.00000    8.38300  105.90730  109.39050   89.85840    9.55530    -999.25    6.77340  -60.20200
 1550.00000    7.96200   71.60900  100.17040   78.83970   13.91470    -999.25    8.46030  -62.64480
 1600.00000    8.36580  106.27540  109.17770   92.72670    9.62040    -999.25    6.90690  -56.60530
 1650.00000    8.31690  116.27830  114.02930   90.98410    8.75330    -999.25    6.17580  -56.49300
 1700.00000    8.39930   98.50400  107.95380   90.06010   10.31050    -999.25    6.74240  -57.03000
 1750.00000    7.69810  134.67700  113.49630  101.38310    7.52680    -999.25    5.73220  -57.22390
 1800.00000    8.11590  148.80510  121.64460  100.57050    6.94650    -999.25    5.81320  -53.24190
 1850.00000    8.08300  148.53400  118.54170  104.14260    6.82890    -999.25    5.82460  -56.67390
 1900.00000    8.11030  140.86190  115.88440  100.85330    7.21490    -999.25    6.03750  -55.78450
 1950.00000    8.47510  115.92720  108.75000   93.13720    8.80480    -999.25    7.68540  -55.98310
 2000.00000    9.00640  117.61430  115.15050  102.30120    8.54410    -999.25    7.98680  -53.29930
 2050.00000    9.24180  148.05820  115.64910  107.79220    6.71720    -999.25    6.28380  -52.18930
 2100.00000    8.91910  106.79870  115.22740   69.02790    9.64200    -999.25    6.80250  -57.42270
 2150.00000    8.47040  148.71000  101.64600   72.70010    6.96340    -999.25    5.82090  -63.45430
 2200.00000    7.33930  101.21180   99.04410   57.88000   10.06100    -999.25    9.65420  -84.86430
 2250.00000    7.04810  190.32330  113.64300   67.56360    5.16190    -999.25    4.66160  -61.42910
 2300.00000    8.79120  183.94320  105.03870   81.93770    5.75280    -999.25    4.74990  -57.01210
 2350.00000    8.86090  272.22590  105.22050   90.19270    3.90840    -999.25    3.25910  -48.09620
 2400.00000    8.81440  188.01650  100.25950   91.91080    5.34700    -999.25    4.72310  -50.25580
 2450.00000    8.97550  189.00110  102.92230   97.01120    5.42580    -999.25    4.38020  -50.76360
 2500.00000    7.72370  117.40070   97.92140   73.19340    8.29650    -999.25    7.53230  -62.41710
 2550.00000    7.14590  193.44310  100.37370   85.56380    5.39600    -999.25    4.45290  -49.39280
 2600.00000    9.06920  178.93420  100.12420  102.89880    5.78160    -999.25    4.88330  -49.98220
 2650.00000   10.27270  152.91920   96.65000  102.68860    6.76070    -999.25    5.65270  -49.34870
 2700.00000    9.25260  308.43410  114.02040  118.49820    3.55950    -999.25    3.28830  -44.81830
 2750.00000    9.12080  366.43520  116.04870   79.92690    2.80960    -999.25    2.57630  -43.44430
 2800.00000    8.62860  370.66410  130.76390   92.78600    2.80770    -999.25    2.40920  -28.73720
 2850.00000   10.55340  282.66740  103.49740   79.68300    3.77760    -999.25    3.24170  -25.56700
 2900.00000   11.41280    -999.25  101.16060   89.78370    4.21200    4.02610    4.27820  -26.64450
 2950.00000   11.20650    -999.25   99.35470   84.34460    4.99900    4.77970    4.64150  -29.14230
 3000.00000   10.97720    -999.25   95.95250   92.57840    6.55140    6.92430    6.29730  -29.57140
 3050.00000    8.32410    -999.25   87.23370   38.62780    7.13740    9.43570   12.04090  -79.87680
 3100.00000    8.54170    -999.25   93.90660   64.67780    5.96810    6.61250    7.55310  -46.77960
 3150.00000    9.67650    -999.25   93.34000   88.09480    6.21780    6.35630    7.15800  -25.69530
 3200.00000    9.33590    -999.25   92.31760   74.56900    5.19750    5.78260    5.73780  -38.96230
 3250.00000    9.42200    -999.25   88.73620   43.89270    5.97200    5.87440    5.40880  -30.89740
 3300.00000    9.99250    -999.25   89.28070   76.94460    5.61740    5.86990    7.06470  -32.74430
 3350.00000    9.50310    -999.25   62.58480   59.95280   21.61610   24.76260   19.52230  -40.32330
 3400.00000    9.77060    -999.25   89.80410   70.45940    6.32280    7.79410    7.34220  -44.52670
 3450.00000   10.29310    -999.25   83.18230   50.84250    8.88010   10.46960   10.82130  -57.90580
 3500.00000    9.53410    -999.25   87.50670   57.00960    8.12320   11.04000   13.62940  -69.12030
 3550.00000   11.05610    -999.25   89.56300   75.86510    6.21460    6.93400    6.38150  -54.24680
 3600.00000   13.43790    -999.25   90.30490   49.04320    6.30010    6.52440    5.56270  -58.88250
 3650.00000   10.04350    -999.25   92.63010   69.29950    6.31270    6.45950    6.17180  -48.62180
 3700.00000   11.57610    -999.25   87.81820   71.39080    7.00660    7.16450    6.71870  -51.07470
 3750.00000    9.35110    -999.25   83.22150   53.15130    8.38840   10.79380   13.58110  -87.83580
 3800.00000   10.58480    -999.25   86.63130   70.37850    7.14060    8.00130    7.90850  -66.65240
 3850.00000    9.61200    -999.25   87.27940   56.79820    7.03510    8.92050   10.95690  -88.28000
 3900.00000    9.75730    -999.25   84.56910   73.51580    7.74190    8.79140    9.69570  -56.16020
 3950.00000   10.68240    -999.25   82.48550   69.17350    8.59120    9.10990    9.48560  -53.94960
 4000.00000    9.49390    -999.25   74.77940   51.59890   11.14780   13.31020   15.69270  -71.00340
 4050.00000   10.01270    -999.25   94.50570   73.08480    5.31410    6.15590    6.11710  -46.96790
 4100.00000    9.85490    -999.25   83.95890   78.07220    8.36120    8.54670    7.79250  -49.19030
 4150.00000    9.27950    -999.25   64.95740   56.68650   20.39830   22.29570   30.82210  -47.77900
 4200.00000    9.42780    -999.25   81.08560   94.11240    7.73990    7.91140    9.55760  -49.54970
 4250.00000    9.96450    -999.25   89.33400   77.85100    8.19530    8.63580    7.33050  -49.10670
 4300.00000    9.51960    -999.25   79.62390   74.58070   18.79830   19.44410   20.31610  -49.85790
 4350.00000    9.12840    -999.25   75.54120   75.59870   19.70450   20.23990   22.88020  -47.95630
 4400.00000    8.56030    -999.25   72.91850   54.77740    5.40640    8.84000   18.29930 -106.81770
 4450.00000    9.67780    -999.25   62.10380   70.81320   11.51130   10.07070    8.64400  -40.81270
 4500.00000   11.09160    -999.25   93.29800   87.52770    3.90280    3.99030    4.23700  -40.29590
 4550.00000   11.89290    -999.25   98.82960   96.15400    2.79180    2.92460    3.42300  -39.62500
 4600.00000   12.37110    -999.25   97.73120   89.54020    3.17060    3.24050    3.54690  -40.21580
 4650.00000   14.12690    -999.25  116.95540   83.70320    2.67870    2.76250    3.28120  -37.02380
 4700.00000    8.92260    -999.25   97.88670  185.91040  324.48770  216.70300 1370.03260  -47.58780
 4750.00000    8.96650    -999.25   85.12330  280.92110  367.83650  255.59440 1372.26670  -56.70790
 4800.00000    9.65340    -999.25   73.74470   82.67090    2.82740    3.28340    3.86450  -59.19600
 4850.00000    9.30170    -999.25   72.96920   77.02420    3.22030    4.06960    7.56190  -81.00550
 4900.00000   10.22890    -999.25   67.03960   67.08620    5.09430    5.63690   10.78190  -58.47430
