~Version ---------------------------------------------------
VERS.      2.0 : CWLS log ASCII Standard -VERSION 2.0
WRAP.       NO : One line per depth step
CREA. 12/21/17 : LAS Creation Date
~Well ------------------------------------------------------
STRT.FT                 1500.0 : START DEPTH
STOP.FT                10050.0 : STOP DEPTH
STEP.FT               50.00000 : STEP LENGTH
NULL.                  -999.25 : NULL VALUE
COMP.     CHEVRON STANDARD LTD : COMPANY
WELL. CHEVRON PEMBINA 6-3-51-7 : WELL
FLD .                          : FIELD
LOC .                          : LOCATION
CTRY.                   CANADA : COUNTRY
SRVC.             Schlumberger : SERVICE COMPANY
DATE.              05-Jul-1978 : LOGDATE
PROV.                  Alberta : PROVINCE
UWI .         100060305107W500 : UNIQUE WELL ID
SLAT.WGS84            53.37366 : SURFACE LATITUDE
SLON.WGS84           -114.9508 : SURFACE LONGITUDE
~Curve Information -----------------------------------------
DEPT    .FT    : Depth Curve
CALDED  .IN    : CALIPER FROM DENSITY LOG [ADJ.TO RESISTIVITY LOG]
CALSED  .IN    : CALIPER FROM SONIC LOG [ADJ.TO RESISTIVITY LOG]
CALWS   .IN    : CALIPER [CALDED]
CONDWS  .MMHO  : CONDUCTIVITY [1000/DRESWS]
DCORED  .G/C3  : DENSITY CORRECTION FROM DENSITY LOG [ADJ.TO RESISTIVITY LOG]
DCORWS  .G/C3  : DENSITY CORRECTION [DCORED]
DENWS   .G/C3  : FORMATION BULK DENSITY [RHOBED]
DPHILSED.V/V   : DENSITY POROSITY LIMESTONE [M=2.71,F=1.0] FROM DENSITY LOG [RESISTIVITY LOG]
DPHISSED.V/V   : DENSITY POROSITY SANDSTONE [M=2.65,F=1.0] FROM DENSITY LOG [RESISTIVITY LOG]
DPOLSWS .V/V   : DENSITY POROSITY LIMESTONE [CALC FROM DENWS,M=2.71, F=1.00]]
DRESWS  .OHMM  : DEEP RESISTIVITY [ILDED]
DTED    .US/F  : DELTA TIME FROM SONIC LOG [ADJ.TO RESISTIVITY LOG]
DTWS    .US/F  : COMPRESSIONAL SONIC [DTED]
GRDED   .GAPI  : GAMMA RAY FROM DENSITY LOG [ADJ.TO RESISTIVITY LOG]
GRSED   .GAPI  : GAMMA RAY FROM SONIC LOG [ADJ.TO RESISTIVITY LOG]
GRWS    .GAPI  : GAMMA RAY [GRSED SPL.TO GRDED @ 1554.5']
ILDED   .OHMM  : DEEP INDUCTION FROM RESISTIVITY LOG
ILMED   .OHMM  : MEDIUM INDUCTION FROM RESISTIVITY LOG
MRESWS  .OHMM  : MEDIUM RESISTIVITY [ILMED]
NPHILSED.V/V   : NEUTRON POROSITY LIMESTONE FROM DENSITY LOG [RESISTIVITY LOG]
NPHISSED.V/V   : NEUTRON POROSITY SANDSTONE FROM DENSITY LOG [RESISTIVITY LOG]
NPOLSWS .V/V   : NEUTRON POROSITY LIMESTONE [NPHISSED MATRIX SLB CONVERSION FOR LIMESTONE, SPL.TO NPHILSED @ 6010']
RHOBED  .G/C3  : BULK DENSITY FROM DENSITY LOG [ADJ.TO RESISTIVITY LOG]
SFLED   .OHMM  : SPHERICALLY FOCUSED FROM RESISTIVITY LOG
SPRED   .MV    : SPONTANEOUS POTENTIAL FROM RESISTIVITY LOG
SPWS    .MV    : SPONTANEOUS POTENTIAL [BASELINE 0 MV, SPRED]
SRESWS  .OHMM  : SHALLOW RESISTIVITY [SFLED]
~Params ----------------------------------------------------
PD  .                     GL : PERMANENT DATUM
EPD .FT               2688.6 : ELEVATION PERMANENT DATUM
LMF .                     KB : LOG MEASURED FROM
DAPD.FT                 17.4 : FEET ABOVE PERMANENT DATUM
EKB .FT                 2706 : KELLY BUSHING
EGL .FT               2688.6 : GROUND LEVEL
DATE.                0705/78 : RUN DATE
RUN .                      1 : RUN NUMBER
DD  .FT              3066.28 : DEPTH DRILLER
DL  .FT              3065.67 : DEPTH LOGGER
BLI .FT              3064.76 : BOTTOM LOG INTERVAL
TLI .FT               473.96 : TOP LOG INTERVAL
CBD .FT               473.96 : CASING BOTTOM DRILLER
CBL .FT               472.44 : CASING BOTTOM LOGGER
BS  .IN                 8.75 : BIT SIZE
BSD .FT              3066.28 : BIT SIZE AT DEPTH
DFT .                    GEL : DRILLING FLUID TYPE
DFD .                    110 : DRILLING FLUID DENSITY
DFV .                     75 : DRILLING FLUID VISCOSITY
DFPH.                    9.5 : DRILLING FLUID PH
MSS .            CIRCULATION : MUD SAMPLE SOURCE
RMS .OHMM               0.33 : RESISTIVITY MUD SAMPLE
MST .DEGF                 58 : MUD SAMPLE TEMPERATURE
RMF .OHMM               0.14 : RESISTIVITY MUD FILTRATE SAMPLE
MFST.DEGF                 68 : MUD FILTRATE SAMPLE TEMPERATURE
RMC .OHMM               0.15 : RESISTIVITY MUD CAKE
MCST.DEGF                 68 : MUD CAKE SAMPLE TEMPERATURE
TCS .HRS                   8 : TIME CIRCULATED STOPPED
LUN .                   7738 : LOGGING UNIT NUMBER
LUL .                    EDM : LOGGING UNIT LOCATION
ENGI.                ALVAREZ : RECORDING ENGINEER
WITN.                SPRAGUE : WITNESSED BY
CLNT.                A2DTECH : CLIENT CODE
ORIG.            2" 5" PRINT : ORIGIN OF DATA
UWI .       100060305107W500 : UNIQUE WELL ID
DICO. A2D Technologies, Inc. : DIGITIZING COMPANY
~Other -----------------------------------------------------
~ASCII -----------------------------------------------------
# ...
 5400.00000   13.30780    9.28420   13.30780  121.68410   -0.09100   -0.09100    2.30380    -999.25    0.20700    0.23760    8.21800   80.35550   80.35550   60.28480   70.52310   60.28480    8.21800    7.66830    7.66830    -999.25    0.29230    0.24830    2.30380    7.87420  -32.02940   -9.79700    7.87420
 5450.00000   11.31920    9.16710   11.31920   89.83520   -0.04100   -0.04100    2.53190    -999.25    0.07640    0.10420   11.13150   73.24770   73.24770   84.22240   97.93320   84.22240   11.13150    9.84290    9.84290    -999.25    0.25710    0.21320    2.53190   10.19610  -29.09060   -7.17910   10.19610
 5500.00000   11.49280    9.95510   11.49280   67.28210    0.02210    0.02210    1.85170    -999.25    0.33510    0.50190   14.86280  106.57780  106.57780   81.80280   84.78210   81.80280   14.86280   16.39460   16.39460    -999.25    0.38810    0.34500    1.85170   17.05080  -32.19520  -10.60260   17.05080
 5550.00000   10.27870    8.89860   10.27870   73.45760   -0.03250   -0.03250    2.49060    -999.25    0.09900    0.12830   13.61330   70.15440   70.15440   60.59520   61.58250   60.59520   13.61330   15.70980   15.70980    -999.25    0.26010    0.21610    2.49060   15.97660  -53.45270  -32.17880   15.97660
 5600.00000   10.97460    9.30770   10.97460   98.02580   -0.01400   -0.01400    2.19730    -999.25    0.32090    0.29980   10.20140   86.06530   86.06530   81.46630   97.42900   81.46630   10.20140   11.50490   11.50490    -999.25    0.42540    0.38310    2.19730   13.32940  -25.54270   -4.69460   13.32940
 5650.00000   10.57560    9.06940   10.57560  106.57350    0.04690    0.04690    2.23670    -999.25    0.25800    0.27680    9.38320   83.06480   83.06480   99.11240  111.30310   99.11240    9.38320   10.07650   10.07650    -999.25    0.34360    0.29990    2.23670   13.00300  -25.43530   -5.16750   13.00300
 5700.00000   13.73090   10.41960   13.73090  144.34600    0.01730    0.01730    2.09440    -999.25    0.34160    0.36000    6.92780   80.43380   80.43380   95.17010  101.72310   95.17010    6.92780    7.43270    7.43270    -999.25    0.39820    0.35530    2.09440    7.51870  -24.97150   -5.28780    7.51870
 5750.00000   10.69890    9.29880   10.69890   79.04010   -0.03700   -0.03700    2.58810    -999.25    0.03590    0.07130   12.65180   72.66290   72.66290   90.41190   96.55080   90.41190   12.65180   14.72420   14.72420    -999.25    0.26100    0.21700    2.58810   14.76780  -22.84690   -2.05760   14.76780
 5800.00000    8.51270    7.88550    8.51270  105.02660    0.03800    0.03800    2.36160    -999.25    0.17440    0.20370    9.52140   70.60650   70.60650   41.97290   44.38270   41.97290    9.52140   15.21080   15.21080    -999.25    0.22530    0.18150    2.36160   22.09150  -73.09390  -52.93720   22.09150
 5850.00000   13.00880   10.39880   13.00880  109.31590    0.07040    0.07040    1.93190    -999.25    0.44550    0.45500    9.14780   81.71330   81.71330   79.83060   90.14100   79.83060    9.14780   10.85060   10.85060    -999.25    0.34750    0.30380    1.93190    9.25620  -19.67430   -1.41640    9.25620
 5900.00000   10.40420    9.21310   10.40420   80.69920   -0.01450   -0.01450    2.49210    -999.25    0.10950    0.12740   12.39170   69.32750   69.32750   53.68490   55.82410   53.68490   12.39170   14.09280   14.09280    -999.25    0.18820    0.14490    2.49210   15.67660  -39.33030  -21.40570   15.67660
 5950.00000   13.30200   11.42930   13.30200  220.79930    0.01190    0.01190    1.84270    -999.25    0.44710    0.50720    4.52900   84.18050   84.18050   85.58370   88.11180   85.58370    4.52900    4.83580    4.83580    -999.25    0.44750    0.40570    1.84270    7.33930  -25.31220   -6.67240    7.33930
 6000.00000    9.13190    8.23470    9.13190   13.30500   -0.03760   -0.03760    2.56990    -999.25    0.04400    0.08190   75.15970   54.53730   54.53730   24.50040   22.11690   24.50040   75.15970   79.91130   79.91130    -999.25    0.06670    0.02930    2.56990  103.59070  -55.79580  -34.85010  103.59070
 6050.00000   10.35740    8.96740   10.35740   55.69290   -0.04430   -0.04430    2.64770    0.03570    -999.25    0.03640   17.95560   57.73890   57.73890   31.65810   37.17570   31.65810   17.95560   18.85050   18.85050    0.05550    -999.25    0.05550    2.64770   21.35560  -56.49810  -33.20810   21.35560
 6100.00000   10.59200    9.23650   10.59200   53.51370   -0.03840   -0.03840    2.62730    0.04640    -999.25    0.04840   18.68680   57.19150   57.19150   66.90020   72.13510   66.90020   18.68680   22.01320   22.01320    0.07450    -999.25    0.07450    2.62730   29.55730  -36.19120  -10.54150   29.55730
 6150.00000   10.06300    9.13240   10.06300    1.32230   -0.04430   -0.04430    2.64710    0.03390    -999.25    0.03680  756.25710   51.34410   51.34410   20.30780   22.17220   20.30780  756.25710  190.38690  190.38690    0.00750    -999.25    0.00750    2.64710  622.73960  -69.12130  -41.12740  622.73960
 6200.00000    9.97280    8.78670    9.97280    6.48070   -0.04150   -0.04150    2.66890    0.02100    -999.25    0.02400  154.30330   50.80220   50.80220   33.28250   33.55780   33.28250  154.30330  128.97870  128.97870    0.00610    -999.25    0.00610    2.66890  181.08240  -38.34750   -7.99400  181.08240
 6250.00000    9.58280    8.58670    9.58280   18.91560   -0.06270   -0.06270    2.64450    0.03890    -999.25    0.03830   52.86640   53.06990   53.06990   42.92530   49.40520   42.92530   52.86640   57.34200   57.34200    0.02250    -999.25    0.02250    2.64450   59.26260  -36.84640   -5.29600   59.26260
 6300.00000    9.43500    8.52720    9.43500   16.88740   -0.06130   -0.06130    2.63340    0.04450    -999.25    0.04480   59.21590   54.23470   54.23470   30.21070   36.10090   30.21070   59.21590   63.81650   63.81650    0.02380    -999.25    0.02380    2.63340   71.35320  -37.12720   -5.79760   71.35320
 6350.00000    9.58160    8.52710    9.58160   16.11070   -0.04810   -0.04810    2.68110    0.01140    -999.25    0.01690   62.07050   54.91830   54.91830   36.39070   39.18280   36.39070   62.07050   68.24990   68.24990    0.02680    -999.25    0.02680    2.68110   72.18780  -34.54440   -3.43690   72.18780
 6400.00000    9.52370    8.51260    9.52370   11.38310   -0.04370   -0.04370    2.68370    0.01090    -999.25    0.01540   87.84940   54.11780   54.11780   34.81250   35.63540   34.81250   87.84940   97.07440   97.07440    0.01910    -999.25    0.01910    2.68370  114.62630  -32.60910   -1.72230  114.62630
 6450.00000    9.25100    8.32620    9.25100    7.44640   -0.03030   -0.03030    2.68470    0.00770    -999.25    0.01480  134.29360   53.21370   53.21370   29.65610   33.81840   29.65610  134.29360  125.64780  125.64780    0.02330    -999.25    0.02330    2.68470  153.87240  -35.18120   -4.51660  153.87240
 6500.00000    9.17420    8.30800    9.17420    6.62330   -0.04210   -0.04210    2.71140   -0.00890    -999.25   -0.00080  150.98120   53.00990   53.00990   35.12160   37.09880   35.12160  150.98120  147.66500  147.66500    0.02270    -999.25    0.02270    2.71140  163.70400  -33.16210   -2.71820  163.70400
 6550.00000    9.23740    8.30640    9.23740    1.91130   -0.04530   -0.04530    2.63160    0.04500    -999.25    0.04580  523.20780   55.38470   55.38470   52.25820   56.31830   52.25820  523.20780  388.02190  388.02190    0.04250    -999.25    0.04250    2.63160  416.72330  -36.35740   -6.13420  416.72330
 6600.00000   13.19240    9.18380   13.19240    0.66180    0.05200    0.05200    2.29290    0.24870    -999.25    0.24390 1510.99950   51.06440   51.06440   17.59950   19.14870   17.59950 1510.99950  192.70000  192.70000    0.01110    -999.25    0.01110    2.29290 1118.91560  -72.87000  -42.97170 1118.91560
 6650.00000   10.80530    8.51660   10.80530   21.12420    0.10790    0.10790    2.47450    0.13220    -999.25    0.13770   47.33910   50.29980   50.29980   19.04930   17.76340   19.04930   47.33910   49.45530   49.45530    0.06450    -999.25    0.06450    2.47450   83.05660 -117.27210  -87.94140   83.05660
