~Version ---------------------------------------------------
VERS.      2.0 : CWLS log ASCII Standard -VERSION 2.0
WRAP.       NO : One line per depth step
CREA. 12/18/17 : LAS Creation Date
~Well ------------------------------------------------------
STRT.FT                             1350.0 : START DEPTH
STOP.FT                            11950.0 : STOP DEPTH
STEP.FT                           50.00000 : STEP LENGTH
NULL.                              -999.25 : NULL VALUE
COMP.                 CHEVRON STANDARD LTD : COMPANY
WELL. CHEVRON AMOCO WASKAHIGAN 10-17-64-24 : WELL
FLD .                                      : FIELD
LOC .                                      : LOCATION
CTRY.                               CANADA : COUNTRY
SRVC.                         Schlumberger : SERVICE COMPANY
DATE.                          17-Sep-1977 : LOGDATE
PROV.                              Alberta : PROVINCE
UWI .                     100101706424W500 : UNIQUE WELL ID
SLAT.WGS84                        54.54045 : SURFACE LATITUDE
SLON.WGS84                       -117.5875 : SURFACE LONGITUDE
~Curve Information -----------------------------------------
DEPT    .FT    : Depth Curve
CALDED  .IN    : CALIPER FROM DENSITY LOG [ADJ. TO RESISTIVITY LOG]
CALSED  .IN    : CALIPER FROM SONIC LOG  [ADJ. TO RESISTIVITY LOG]
CALWS   .IN    : CALIPER [CALSED]
CONDWS  .MMHO  : CONDUCTIVITY [1000/DRESWS]
DCORWS  .G/C3  : DENSITY CORRECTION [DRHOED]
DENWS   .G/C3  : FORMATION BULK DENSITY [RHOBED SPL. TO CALC, FROM DPHILSED M=2.71, F=1.00 FROM 11478'-11488']
DPHILSED.V/V   : DENSITY POROSITY LIMESTONE [M=2.71, F=1.00] FROM DENSITY LOG  [ADJ. TO RESISTIVITY LOG]
DPHISSED.V/V   : DENSITY POROSITY SANDSTONE [M=2.65, F=1.00] FROM DENSITY LOG  [ADJ. TO RESISTIVITY LOG]
DPOLSWS .V/V   : DENSITY POROSITY SANDSTONE [CALC. FROM DENWS  [M=2.71, F=1.00]
DRESWS  .OHMM  : DEEP RESISTIVITY [ILDED]
DRHOED  .G/C3  : DENSITY CORRECTION FROM DENSITY LOG [ [ADJ. TO RESISTIVITY / DPHISSED & DPHILSED]
DTED    .US/F  : DELTA TIME FROM SONIC LOG  [ADJ. TO RESISTIVITY LOG]
DTWS    .US/F  : COMPRSSIONAL SONIC[ DTED]
GRDED   .GAPI  : GAMMA RAY FROM DENSITY LOG  [ADJ. TO RESISTIVITY LOG]
GRSED   .GAPI  : GAMMA RAY FROM SONIC LOG  [ADJ. TO RESISTIVITY LOG]
GRWS    .GAPI  : GAMMA RAY [GRSED SPL. TO GRDED @ 11900']
ILDED   .OHMM  : DEEP INDUCTION LOG RESISTIVITY FROM RESISTIVITY LOG
ILMED   .OHMM  : MEDIUM INDUCTION LOG RESISTIVITY FROM RESISTIVITY LOG
LL8ED   .OHMM  : LATEROLOG FROM RESISTIVITY LOG
MRESWS  .OHMM  : MEDIUM RESISTIVITY [ILMED]
NPHILSED.V/V   : NEUTRON POROSITY LIMESTONE FROM DENSITY LOG  [ADJ. TO RESISTIVITY LOG]
NPHISSED.V/V   : NEUTRON POROSITY SANDSTONE FROM DENSITY LOG  [ADJ. TO RESISTIVITY LOG]
NPOLSWS .V/V   : NEUTRON POROSITY LIMESTONE[NPHISSED MATRIX CONVERSION FOR LIMESTONE SPL. TO NPHILSED @ 9050'
RHOBED  .G/C3  : BULK DENSITY FROM DENSITY LOG [ [ADJ. TO RESISTIVITY/ DPHISSED & DPHILSED]
SPRED   .MV    : SPONTANEOUS POTENTIAL FROM RESISTIVITY LOG
SPWS    .MV    : SPONTANEOUS POTENTIAL [BASELINE 0 MV,SPRED]
SRESWS  .OHMM  : SHALLOW RESISTIVITY [LL8ED]
TENDED  .LBF   : TENSION FROM DENSITY LOG  [ADJ. TO RESISTIVITY LOG]
TENSED  .LBF   : TENSION FROM SONIC LOG  [ADJ. TO RESISTIVITY LOG]
~Params ----------------------------------------------------
PD  .                     GL : PERMANENT DATUM
EPD .FT               2874.1 : ELEVATION PERMANENT DATUM
LMF .                     KB : LOG MEASURED FROM
DAPD.FT                 18.5 : FEET ABOVE PERMANENT DATUM
EKB .FT               2892.6 : KELLY BUSHING
EGL .FT               2874.1 : GROUND LEVEL
DATE.               09/17/77 : RUN DATE
RUN .                      1 : RUN NUMBER
DD  .FT                11989 : DEPTH DRILLER
DL  .FT                11985 : DEPTH LOGGER
BLI .FT                11979 : BOTTOM LOG INTERVAL
TLI .FT                 1516 : TOP LOG INTERVAL
CBD .FT              1516.87 : CASING BOTTOM DRILLER
CBL .FT                 1516 : CASING BOTTOM LOGGER
BS  .IN                 8.75 : BIT SIZE
BSD .FT                11989 : BIT SIZE AT DEPTH
DFT .                    GEL : DRILLING FLUID TYPE
DFD .                      9 : DRILLING FLUID DENSITY
DFV .                     90 : DRILLING FLUID VISCOSITY
DFPH.                    9.5 : DRILLING FLUID PH
DFL .                    8.4 : DRILLING FLUID LOSS
MSS .               FLOWLINE : MUD SAMPLE SOURCE
RMS .OHMM               1.53 : RESISTIVITY MUD SAMPLE
MST .DEGF                 68 : MUD SAMPLE TEMPERATURE
RMF .OHMM               1.36 : RESISTIVITY MUD FILTRATE SAMPLE
MFST.DEGF                 62 : MUD FILTRATE SAMPLE TEMPERATURE
RMC .OHMM               1.37 : RESISTIVITY MUD CAKE
MCST.DEGF                 62 : MUD CAKE SAMPLE TEMPERATURE
TCS .HRS                   5 : TIME CIRCULATED STOPPED
LUN .                   7772 : LOGGING UNIT NUMBER
LUL .                    EDM : LOGGING UNIT LOCATION
ENGI.         BERNISKY TRACY : RECORDING ENGINEER
WITN.             RICHARDSON : WITNESSED BY
CLNT.                A2DTECH : CLIENT CODE
ORIG.            2" 5" PRINT : ORIGIN OF DATA
UWI .       100101706424W500 : UNIQUE WELL ID
DICO. A2D Technologies, Inc. : DIGITIZING COMPANY
~Other -----------------------------------------------------
DIL-CNFD-SONIC LOG RUN
SONIC 2' DEEP TO DIL. GAP IN GRDED FROM 6074'-6090'& 6110' -6132' & GAP IN NPHISSED FROM 6087'-6102' & 6124'-6138' DUE TO REMOVE INVALID VALUE
~ASCII -----------------------------------------------------
# ...
 3850.00000    -999.25   10.20550   10.20550  112.55810    -999.25    -999.25    -999.25    -999.25    -999.25    8.88430    -999.25   89.29580   89.29580    -999.25  114.38620  114.38620    8.88430    9.48420   10.03160    9.48420    -999.25    -999.25    -999.25    -999.25  -46.24830   -1.90270   10.03160    -999.25 3954.84300
 3900.00000    -999.25    9.89900    9.89900  172.60130    -999.25    -999.25    -999.25    -999.25    -999.25    5.79370    -999.25   90.53000   90.53000    -999.25  108.86400  108.86400    5.79370    5.97680    6.54730    5.97680    -999.25    -999.25    -999.25    -999.25  -46.58330   -2.16450    6.54730    -999.25 3994.08500
 3950.00000    -999.25    9.07610    9.07610  127.06960    -999.25    -999.25    -999.25    -999.25    -999.25    7.86970    -999.25   91.14800   91.14800    -999.25  111.26010  111.26010    7.86970    7.47070    7.08520    7.47070    -999.25    -999.25    -999.25    -999.25  -47.33860   -2.84670    7.08520    -999.25 3831.24220
 4000.00000    -999.25    8.96250    8.96250  110.77390    -999.25    -999.25    -999.25    -999.25    -999.25    9.02740    -999.25   84.70480   84.70480    -999.25   99.70490   99.70490    9.02740    8.78680    8.18370    8.78680    -999.25    -999.25    -999.25    -999.25  -47.53670   -2.97160    8.18370    -999.25 3754.64360
 4050.00000    -999.25    8.57210    8.57210  119.14320    -999.25    -999.25    -999.25    -999.25    -999.25    8.39330    -999.25   86.43200   86.43200    -999.25  110.33900  110.33900    8.39330    7.55220    7.30830    7.55220    -999.25    -999.25    -999.25    -999.25  -47.16170   -2.52380    7.30830    -999.25 3708.71620
 4100.00000    -999.25    9.61490    9.61490  133.76850    -999.25    -999.25    -999.25    -999.25    -999.25    7.47560    -999.25   87.23160   87.23160    -999.25  112.87240  112.87240    7.47560    7.23940    7.04080    7.23940    -999.25    -999.25    -999.25    -999.25  -47.23540   -2.52400    7.04080    -999.25 3603.95130
 4150.00000    -999.25   10.63000   10.63000  105.68370    -999.25    -999.25    -999.25    -999.25    -999.25    9.46220    -999.25   88.57720   88.57720    -999.25  115.41010  115.41010    9.46220    9.18660    8.45230    9.18660    -999.25    -999.25    -999.25    -999.25  -46.00930   -1.22480    8.45230    -999.25 3510.54630
 4200.00000    -999.25    9.91140    9.91140  121.92300    -999.25    -999.25    -999.25    -999.25    -999.25    8.20190    -999.25   84.74540   84.74540    -999.25  111.05160  111.05160    8.20190    7.39100    7.07960    7.39100    -999.25    -999.25    -999.25    -999.25  -46.47310   -1.61540    7.07960    -999.25 3503.88320
 4250.00000    -999.25   10.29980   10.29980  100.00800    -999.25    -999.25    -999.25    -999.25    -999.25    9.99920    -999.25   86.44260   86.44260    -999.25  107.84460  107.84460    9.99920    9.15730    8.89950    9.15730    -999.25    -999.25    -999.25    -999.25  -46.60660   -1.67570    8.89950    -999.25 3555.04220
 4300.00000    -999.25    9.51300    9.51300   65.40650    -999.25    -999.25    -999.25    -999.25    -999.25   15.28900    -999.25   77.57870   77.57870    -999.25   92.07460   92.07460   15.28900   14.88840   13.88330   14.88840    -999.25    -999.25    -999.25    -999.25  -49.34200   -4.67830   13.88330    -999.25 3361.08140
 4350.00000    -999.25    9.25440    9.25440  105.37850    -999.25    -999.25    -999.25    -999.25    -999.25    9.48960    -999.25   87.47250   87.47250    -999.25  112.50980  112.50980    9.48960    8.96360    8.69070    8.96360    -999.25    -999.25    -999.25    -999.25  -46.16270   -1.97110    8.69070    -999.25 3363.96330
 4400.00000    -999.25    9.34090    9.34090   92.37880    -999.25    -999.25    -999.25    -999.25    -999.25   10.82500    -999.25   83.50810   83.50810    -999.25  109.10560  109.10560   10.82500   10.48450   10.04570   10.48450    -999.25    -999.25    -999.25    -999.25  -45.26910   -1.54730   10.04570    -999.25 3283.66930
 4450.00000    -999.25    9.44330    9.44330   94.85150    -999.25    -999.25    -999.25    -999.25    -999.25   10.54280    -999.25   80.96590   80.96590    -999.25  101.62180  101.62180   10.54280    9.85580    9.20310    9.85580    -999.25    -999.25    -999.25    -999.25  -45.11390   -1.86190    9.20310    -999.25 4387.54940
 4500.00000    -999.25    9.63290    9.63290  102.33420    -999.25    -999.25    -999.25    -999.25    -999.25    9.77190    -999.25   82.93220   82.93220    -999.25  104.90180  104.90180    9.77190    9.51520    8.93700    9.51520    -999.25    -999.25    -999.25    -999.25  -44.69990   -1.91770    8.93700    -999.25 4480.87370
 4550.00000    -999.25    9.44500    9.44500  120.92930    -999.25    -999.25    -999.25    -999.25    -999.25    8.26990    -999.25   87.13350   87.13350    -999.25  112.71940  112.71940    8.26990    8.06660    7.51800    8.06660    -999.25    -999.25    -999.25    -999.25  -43.59250   -1.27780    7.51800    -999.25 4355.07510
 4600.00000    -999.25    9.35590    9.35590  136.12110    -999.25    -999.25    -999.25    -999.25    -999.25    7.34640    -999.25   88.09260   88.09260    -999.25  115.90190  115.90190    7.34640    7.88460    8.32740    7.88460    -999.25    -999.25    -999.25    -999.25  -43.08580   -1.24320    8.32740    -999.25 4245.13980
 4650.00000    -999.25    9.75540    9.75540  133.94230    -999.25    -999.25    -999.25    -999.25    -999.25    7.46590    -999.25   91.75630   91.75630    -999.25  118.70720  118.70720    7.46590    8.04900    8.68380    8.04900    -999.25    -999.25    -999.25    -999.25  -43.11050   -1.73770    8.68380    -999.25 4219.86340
 4700.00000    -999.25    9.69460    9.69460  112.57580    -999.25    -999.25    -999.25    -999.25    -999.25    8.88290    -999.25   89.62460   89.62460    -999.25  125.02290  125.02290    8.88290    9.31440   10.17160    9.31440    -999.25    -999.25    -999.25    -999.25  -42.48330   -1.58030   10.17160    -999.25 4069.18140
 4750.00000    -999.25    9.51500    9.51500  113.41470    -999.25    -999.25    -999.25    -999.25    -999.25    8.81720    -999.25   88.97210   88.97210    -999.25  116.99370  116.99370    8.81720    9.25070   10.00030    9.25070    -999.25    -999.25    -999.25    -999.25  -42.66530   -2.23210   10.00030    -999.25 4069.21880
 4800.00000    -999.25    9.52750    9.52750  101.04020    -999.25    -999.25    -999.25    -999.25    -999.25    9.89740    -999.25   86.79450   86.79450    -999.25  111.71450  111.71450    9.89740   10.20530   11.15250   10.20530    -999.25    -999.25    -999.25    -999.25  -43.02380   -3.05800   11.15250    -999.25 3984.30290
 4850.00000    -999.25   10.13730   10.13730  113.19390    -999.25    -999.25    -999.25    -999.25    -999.25    8.83440    -999.25   86.66180   86.66180    -999.25  114.00890  114.00890    8.83440    9.54750   10.83430    9.54750    -999.25    -999.25    -999.25    -999.25  -42.59380   -2.90420   10.83430    -999.25 3893.74030
 4900.00000    -999.25   10.33780   10.33780  106.09400    -999.25    -999.25    -999.25    -999.25    -999.25    9.42560    -999.25   89.25060   89.25060    -999.25  116.15680  116.15680    9.42560   10.01360   10.71650   10.01360    -999.25    -999.25    -999.25    -999.25  -42.35530   -3.88040   10.71650    -999.25 3984.12750
 4950.00000    -999.25    9.25720    9.25720   88.52460    -999.25    -999.25    -999.25    -999.25    -999.25   11.29630    -999.25   97.24300   97.24300    -999.25  148.11070  148.11070   11.29630   11.64470   14.83230   11.64470    -999.25    -999.25    -999.25    -999.25  -41.62270   -4.53370   14.83230    -999.25 3789.09740
 5000.00000    -999.25    9.51880    9.51880  125.63760    -999.25    -999.25    -999.25    -999.25    -999.25    7.95940    -999.25   90.35950   90.35950    -999.25  116.54050  116.54050    7.95940    8.20390    9.46990    8.20390    -999.25    -999.25    -999.25    -999.25  -40.78270   -4.93540    9.46990    -999.25 3528.69060
 5050.00000    -999.25    9.37660    9.37660   93.64590    -999.25    -999.25    -999.25    -999.25    -999.25   10.67880    -999.25  102.95380  102.95380    -999.25  149.05270  149.05270   10.67880   11.00990   15.17830   11.00990    -999.25    -999.25    -999.25    -999.25  -40.11330   -5.50140   15.17830    -999.25 3658.21880
