~Version ---------------------------------------------------
VERS. 2.0 : CWLS log ASCII Standard -VERSION 2.0
WRAP.  NO : One line per depth step
~Well ------------------------------------------------------
STRT.M                        300.0 : START DEPTH
STOP.M                       1700.0 : STOP DEPTH
STEP.M                     50.00000 : STEP LENGTH
NULL.                       -999.25 : NULL VALUE
COMP.      VERMILION RESOURCES LTD. : COMPANY
WELL. VERMILION RES NIPISI 1-6-81-9 : WELL
FLD .                        NIPISI : FIELD
LOC .                               : LOCATION
CTRY.                        CANADA : COUNTRY
SRVC.        Schlumberger of Canada : SERVICE COMPANY
DATE.                   12-Feb-1992 : LOGDATE
PROV.                       Alberta : PROVINCE
UWI .              100010608109W500 : UNIQUE WELL ID
SLAT.WGS84            55.9875111466 : SURFACE LATITUDE
SLON.WGS84          -115.3905485331 : SURFACE LONGITUDE
~Curve Information -----------------------------------------
DEPT   .M      : DEPTH METERS
CALD   .MM     : CALIPER FROM DENSITY LOG (ADJ TO RES.)
DPHI_SS.DEC    : DENSITY POROSITY  [M=2650 F=1000] FROM DENSITY
DRHO   .KG/M3  : DENSITY CORRECTION FROM DENSITY LOG
GRR    .GAPI   : GAMMA RAY FROM RESISTIVITY LOG
IDPH   .OHMM   : INDUCTION DEEP PHASE RESISTIVITY
IMPH   .OHMM   : INDUCTION MEDIUM PHASE RESISTIVITY
NPOR_SS.DEC    : NEUTRON POROSITY SANDSTONE FROM DENSITY LOG
PEF    .B/E    : PHOTOELECTRIC FACTOR FROM DENSITY LOG
RHOB   .KG/M3  : BULK DENSITY FROM DENSITY LOG
SFLU   .OHMM   : SPHERICALLY FOCUSED LOG RESISTIVITY
SPR    .MV     : SPONTANEOUS POTENTIAL FROM RESISTIVITY LOG
~Params ----------------------------------------------------
PD  .                         GL : PERMANENT DATUM
EPD .M                     642.3 : ELEVATION PERMANENT DATUM
LMF .                         KB : LOG MEASURED FROM
DAPD.M                       4.5 : FEET ABOVE PERMANENT DATUM
DMF .                         KB : DRILLING MEASURED FROM
EKB .M                     646.8 : KELLY BUSHING
EDF .M                     646.5 : DRILLING FLOOR
EGL .M                     642.3 : GROUND LEVEL
DATE.                   02/12/92 : RUN DATE
RUN .                          1 : RUN NUMBER
DD  .M                      1745 : DEPTH DRILLER
DL  .M                    1744.3 : DEPTH LOGGER
BLI .M                      1743 : BOTTOM LOG INTERVAL
TLI .M                     209.6 : TOP LOG INTERVAL
CS  .MM                      219 : CASING SIZE
CBD .M                       209 : CASING BOTTOM DRILLER
CBL .M                     209.6 : CASING BOTTOM LOGGER
BS  .MM                      200 : BIT SIZE
BSD .M                      1745 : BIT SIZE AT DEPTH
DFT .                   GEL CHEM : DRILLING FLUID TYPE
DFD .                       1130 : DRILLING FLUID DENSITY
DFV .                        115 : DRILLING FLUID VISCOSITY
DFPH.                       10.5 : DRILLING FLUID PH
DFL .                        8.5 : DRILLING FLUID LOSS
MSS .                   FLOWLINE : MUD SAMPLE SOURCE
RMS .OHMM                   0.76 : RESISTIVITY MUD SAMPLE
MST .DEGC                     20 : MUD SAMPLE TEMPERATURE
RMF .OHMM                    0.6 : RESISTIVITY MUD FILTRATE SAMPLE
MFST.DEGC                     19 : MUD FILTRATE SAMPLE TEMPERATURE
MFSS.                   MEASURED : MUD FILTRATE SAMPLE SOURCE
RMB .OHMM                  0.505 : RESISTIVITY MUD AT BHT
TCS .HRS                     800 : TIME CIRCULATED STOPPED
TLAB.HRS                    1400 : TIME LOGGER AT BOTTOM
LUN .                       2031 : LOGGING UNIT NUMBER
LUL .                       5202 : LOGGING UNIT LOCATION
ENGI.                  WEINHEBER : RECORDING ENGINEER
WITN.                   GOODYEAR : WITNESSED BY
CLNT.                    A2DTECH : CLIENT CODE
ORIG. 6.5"/100M 16.5"/100M PRINT : ORIGIN OF DATA
UWI .           100010608109W500 : UNIQUE WELL ID
DICO.     A2D Technologies, Inc. : DIGITIZING COMPANY
~Other -----------------------------------------------------
~ASCII -----------------------------------------------------
  300.00000  260.62340    -999.25    -999.25   81.41800    4.08640    3.51640    -999.25    -999.25    -999.25    3.80010   -8.65770
  350.00000  216.09120    -999.25    -999.25   65.41150    4.95040    5.06920    -999.25    -999.25    -999.25    5.19430  -24.09790
  400.00000  213.21220    -999.25    -999.25   77.30450    5.05120    5.21630    -999.25    -999.25    -999.25    5.25010  -16.31310
  450.00000  239.42920    -999.25    -999.25   76.14620    4.81770    4.72590    -999.25    -999.25    -999.25    4.51720  -15.39740
  500.00000  265.86360    -999.25    -999.25   67.44950    6.50230    6.21200    -999.25    -999.25    -999.25    5.85410   32.06990
  550.00000  226.81040    -999.25    -999.25   23.78160   27.22180   26.93200    -999.25    -999.25    -999.25   37.06350   30.92700
  600.00000  252.04440    -999.25    -999.25   48.65530    6.90350    6.76690    -999.25    -999.25    -999.25    8.55940   30.09720
  650.00000  268.35500    -999.25    -999.25   37.95530    7.11110    6.63800    -999.25    -999.25    -999.25    7.80290  -29.63260
  700.00000  225.88010    -999.25    -999.25   10.25610   39.66010   75.83900    -999.25    -999.25    -999.25  134.04940  -44.58660
  750.00000  226.11180    -999.25    -999.25   22.69740   27.13510   27.40520    -999.25    -999.25    -999.25   23.38770  -31.57660
  800.00000  271.39840    -999.25    -999.25   44.92460    4.77540    4.58930    -999.25    -999.25    -999.25    4.66980  -24.68110
  850.00000  265.33980    -999.25    -999.25  147.13260    2.75790    2.74890    -999.25    -999.25    -999.25    2.84120  -30.41300
  900.00000  224.51730    -999.25    -999.25   10.27610   43.06130   48.32110    -999.25    -999.25    -999.25   72.73440  -78.95410
  950.00000  221.59830    -999.25    -999.25    9.50390   29.26890   40.40570    -999.25    -999.25    -999.25   83.30610  -94.77950
 1000.00000  224.88760    -999.25    -999.25   15.27270   23.22780   28.69850    -999.25    -999.25    -999.25   68.07040  -85.05640
 1050.00000  223.16100    -999.25    -999.25   15.03290   38.30780   53.50540    -999.25    -999.25    -999.25   94.84290  -83.47810
 1100.00000  221.50390    -999.25    -999.25    8.61910   22.01140   22.29300    -999.25    -999.25    -999.25   41.57470  -78.24950
 1150.00000  218.24940    -999.25    -999.25   33.99780   12.25510   11.57830    -999.25    -999.25    -999.25   15.13810  -68.66860
 1200.00000  206.40930    -999.25    -999.25   40.32060    9.25550   11.28420    -999.25    -999.25    -999.25   26.03350  -71.92810
 1250.00000  200.22330    -999.25    -999.25   24.88930    8.40660   11.89940    -999.25    -999.25    -999.25   17.76330  -57.57710
 1300.00000  238.18440    -999.25    -999.25   77.04500    3.17300    3.37790    -999.25    -999.25    -999.25    3.19570  -42.13200
 1350.00000  256.07670    -999.25    -999.25   69.65730    2.88140    2.78340    -999.25    -999.25    -999.25    2.92250  -41.26350
 1400.00000  275.05890    0.47810   81.26940   76.68910    2.31140    2.12100    0.50960    3.07970 1839.13990    2.29300  -39.19630
 1450.00000  223.19130    0.01970    7.10190   37.17460    9.87730   10.44630    0.17270    4.74990 2617.15260   11.58560  -22.62280
 1500.00000  364.04050    0.52690  109.01210   92.30670    2.18020    2.01140    0.48310    2.51690 1805.74340    2.30590  -33.93790
 1550.00000  257.42210    0.27970   89.74820   65.66960    3.62660    3.46990    0.38070    3.26810 2178.27000    4.14120  -35.75190
 1600.00000  250.00460    0.01640   -1.25010   75.94420    5.66990    5.96050    0.24670    4.01080 2622.63280    6.60320  -18.31700
 1650.00000  228.98240   -0.00660    0.69650   51.93680    7.81790    8.27690    0.19620    4.37950 2659.54350    8.99320  -23.17370
 1700.00000  206.78750   -0.13820   -0.54290   21.87750   27.88690   29.07710    0.08250    4.15900 2873.40110   38.06830  -50.68690
