~Version ---------------------------------------------------
VERS.      2.0 : CWLS log ASCII Standard -VERSION 2.0
WRAP.       NO : One line per depth step
CREA. 08/13/13 : LAS Creation Date
~Well ------------------------------------------------------
STRT.M                 300.0 : START DEPTH
STOP.M                2750.0 : STOP DEPTH
STEP.M              50.00000 : STEP LENGTH
NULL.                -999.25 : NULL VALUE
COMP.   MOBIL OIL CANADA LTD : COMPANY
WELL. MOBIL JUDYS 2-35-62-12 : WELL
FLD .                        : FIELD
LOC .                        : LOCATION
CTRY.                 CANADA : COUNTRY
SRVC.                Unknown : SERVICE COMPANY
DATE.            30-Jun-1982 : LOGDATE
PROV.                Alberta : PROVINCE
UWI .       100023506212W500 : UNIQUE WELL ID
SLAT.WGS84          54.40089 : SURFACE LATITUDE
SLON.WGS84         -115.6841 : SURFACE LONGITUDE
~Curve Information -----------------------------------------
DEPT   .M      : DEPTH METER
AC     .US/M   : ACOUSTIC FROM SONIC LOG
CALD   .MM     : CALIPER FROM DENSITY LOG
CALS   .MM     : CALIPER FROM SONIC LOG
CILD   .MMHO   : DEEP INDUCTION CONDUCTIVITY FROM RESISTIVITY LOG
CORR   .KG/M3  : DENSITY CORRECTION FROM DENSITY LOG
DPHI_LS.DEC    : DENSITY POROSITY LIMESTONE [M=2710,F=1000] FROM DENSITY LOG
DPHI_SS.DEC    : DENSITY POROSITY SANDSTONE [M-2650,F=1000] FROM DENSITY LOG
GRD    .GAPI   : GAMMA RAY FROM DENSITY LOG
GRR    .GAPI   : GAMMA RAY FROM RESISTIVITY LOG
ILD    .OHMM   : DEEP INDUCTION FROM RESISTIVITY LOG
ILM    .OHMM   : MEDIUM INDUCTION FROM RESISTIVITY LOG
NPHI_LS.DEC    : NEUTRON POROSITY LIMESTONE FROM DENSITY LOG
NPHI_SS.DEC    : NEUTRON POROSITY SANDSTONE FROM DENSITY LOG
RHOB   .KG/M3  : BULK DENSITY FROM DENSITY LOG
SFL    .OHMM   : SHALLOW FOCUSED FROM RESISTIVITY LOG
SPR    .MV     : SPONTANEOUS POTENTIAL FROM RESISTIVITY LOG
TEND   .lbs    : TENSION FROM DENSITY LOG
TENS   .lbs    : TENSION FROM SONIC LOG
~Params ----------------------------------------------------
PD  .                         GL : PERMANENT DATUM
EPD .M                   1033.93 : ELEVATION PERMANENT DATUM
LMF .                         KB : LOG MEASURED FROM
DAPD.M                      5.49 : FEET ABOVE PERMANENT DATUM
DMF .                         KB : DRILLING MEASURED FROM
EKB .M                   1039.42 : KELLY BUSHING
EGL .M                   1033.93 : GROUND LEVEL
DATE.                   01/30/82 : RUN DATE
RUN .                          1 : RUN NUMBER
DD  .M                      2755 : DEPTH DRILLER
DL  .M                    2753.6 : DEPTH LOGGER
BLI .M                      2753 : BOTTOM LOG INTERVAL
TLI .M                       175 : TOP LOG INTERVAL
CS  .MM                      244 : CASING SIZE
CBD .M                       183 : CASING BOTTOM DRILLER
CBL .M                     183.3 : CASING BOTTOM LOGGER
BS  .MM                      222 : BIT SIZE
BSD .M                      2755 : BIT SIZE AT DEPTH
DFT .               GEL CHEM MUD : DRILLING FLUID TYPE
DFD .                       1150 : DRILLING FLUID DENSITY
DFV .                         76 : DRILLING FLUID VISCOSITY
DFPH.                       10.5 : DRILLING FLUID PH
DFL .                         25 : DRILLING FLUID LOSS
MSS .                   FLOWLINE : MUD SAMPLE SOURCE
RMS .OHMM                    2.6 : RESISTIVITY MUD SAMPLE
MST .DEGC                     19 : MUD SAMPLE TEMPERATURE
RMF .OHMM                    2.4 : RESISTIVITY MUD FILTRATE SAMPLE
MFST.DEGC                     19 : MUD FILTRATE SAMPLE TEMPERATURE
RMC .OHMM                    2.7 : RESISTIVITY MUD CAKE
MCST.DEGC                     18 : MUD CAKE SAMPLE TEMPERATURE
MFSS.                       MEAS : MUD FILTRATE SAMPLE SOURCE
MCSS.                       MEAS : MUD CAKE SAMPLE SOURCE
RMB .OHMM                    1.2 : RESISTIVITY MUD AT BHT
TCS .HRS                    5.75 : TIME CIRCULATED STOPPED
LUN .                    HL 6253 : LOGGING UNIT NUMBER
LUL .                        EDM : LOGGING UNIT LOCATION
ENGI.                     WERNER : RECORDING ENGINEER
WITN.                    STEWART : WITNESSED BY
CLNT.                    A2DTECH : CLIENT CODE
ORIG. 6.5"/100M 16.5"/100M PRINT : ORIGIN OF DATA
UWI .           100023506212W500 : UNIQUE WELL ID
DICO.     A2D Technologies, Inc. : DIGITIZING COMPANY
~Other -----------------------------------------------------
~ASCII -----------------------------------------------------
  300.00000  350.66650  221.88950  234.51170   97.91380  172.11180    -999.25    0.21860   89.80040   69.65500   10.61650    -999.25    -999.25    0.27790 2288.15530    8.68200  -72.64690   -8.64650   -4.38460
  350.00000  379.96860  265.14230  267.93990  166.80030  132.45710    -999.25    0.31210   88.15550   68.94920    6.01180    -999.25    -999.25    0.36890 2148.43410    5.41070  -62.12840    1.66210    2.21230
  400.00000  331.93880  258.93550  255.29470  253.43480  135.77580    -999.25    0.29410  117.61820   87.12240    3.96550    -999.25    -999.25    0.37400 2163.92580    5.76230  -57.76790    4.40550   -7.05890
  450.00000  325.67400  259.69270  257.21310  195.94200  120.59220    -999.25    0.18350   98.74260   66.92400    5.14630    -999.25    -999.25    0.26690 2345.81930    7.25280  -57.79750   10.64450   -1.25960
  500.00000    -999.25  297.41560  287.03730  204.61420  120.68370    -999.25    0.16480  112.46280   79.67030    4.94390    -999.25    -999.25    0.29890 2373.45240    6.16620  -59.00870    8.28460    8.43100
  550.00000  398.11180  290.52020  263.13950  228.13020  113.46210    -999.25    0.27890  130.67470   81.00130    4.41790    -999.25    -999.25    0.28710 2205.74610    6.73340  -54.16230  -27.90840    9.99140
  600.00000  343.52750  266.67350  258.35170  159.13990  205.87850    -999.25    0.33960   91.83700   68.31610    6.53980    -999.25    -999.25    0.28970 2094.85450    6.27010  -53.90170   -6.36550   12.31230
  650.00000  339.49780  228.16610  225.99930  117.02170  135.13150    -999.25    0.19630   73.03340   58.48330    9.01990    -999.25    -999.25    0.27860 2324.72120    8.32860  -66.01480    4.98330   22.61070
  700.00000  336.53510  233.30470  231.63110   96.81750  184.01740    -999.25    0.19790   87.32290   65.51440   10.44770    -999.25    -999.25    0.28560 2321.52640    8.98780  -69.11160   -5.15290   14.30230
  750.00000  342.36770  245.83080  258.42960  182.46490  240.40890    -999.25    0.31050   83.61400   59.53500    5.52650    -999.25    -999.25    0.30220 2137.37960    5.75140  -51.39600    3.39580    4.63420
  800.00000  348.19640  254.07750  242.74970  175.21450  242.68590    -999.25    0.36140   71.68410   53.94850    5.72070    -999.25    -999.25    0.33270 2048.83300    5.13060  -53.44310   -8.16050   12.33100
  850.00000  335.69830  262.92700  251.35740  180.66730  127.87790    -999.25    0.11330   79.82720   64.73510    5.59670    -999.25    -999.25    0.33270 2464.35790    5.60390  -51.44280  -10.07540   16.33800
  900.00000  324.16890  217.94400  222.98070  223.17380  118.84690    -999.25    0.19490   78.94790   56.30780    4.53040    -999.25    -999.25    0.30550 2325.99460    5.99940  -47.39710    7.42090   18.04240
  950.00000  350.53970  286.99670  233.05580  255.49220  295.74110    -999.25    0.27360   90.74420   61.34760    3.93760    -999.25    -999.25    0.33670 2199.33130    4.69490  -43.14350   -1.42890    8.97620
 1000.00000    -999.25  332.19850  267.73810  122.52860  225.87560    -999.25    0.39320  101.54790   70.31320    8.56310    -999.25    -999.25    0.34230 2006.50090    7.42710  -43.92500    6.38220    7.95860
 1050.00000  320.71020  272.55300  244.89590  113.52390  189.20240    -999.25    0.05290  130.85830  103.37390    8.98580    -999.25    -999.25    0.26030 2564.27860    8.77200  -39.99040    5.02320   11.54080
 1100.00000  201.42850  347.70020  327.81530  145.63580  242.12620    -999.25    0.24800  103.49320   74.87730    7.21420    -999.25    -999.25    0.35200 2328.13960    7.09950  -48.33880   -0.16350    1.62870
 1150.00000  270.84950  354.96880  275.35710  115.75930  188.17610    -999.25    0.51160  106.88570   83.98070    8.86150    -999.25    -999.25    0.33440 1812.51220    8.18820  -52.63220   -0.06670   -0.35760
 1200.00000  226.79360  328.06530  266.90290  126.91750  236.44510    -999.25    0.36810  117.08370   91.21840    8.02000    -999.25    -999.25    0.35210 2038.03440    8.06640  -51.03940    0.47470   -0.88880
 1250.00000  297.56190  280.69850  261.12290  157.80990  141.89770    -999.25    0.18560  126.30140   97.69730    6.41740    -999.25    -999.25    0.32150 2345.54270    7.17860  -46.25930    5.99100  -11.49390
 1300.00000  337.75630  259.09680  236.16670  126.76940  172.38200    -999.25    0.07480  162.17370  129.84310    8.24930    -999.25    -999.25    0.30510 2530.83760    9.93320  -46.24750   -1.42290   -6.42600
 1350.00000  299.08350  266.16900  251.74270  160.97860  170.02180    -999.25    0.04610  148.46390  100.74070    6.38220    -999.25    -999.25    0.30430 2575.20170    7.18400  -50.76170    1.81790   14.81650
 1400.00000  279.15380  321.92320  304.76790  197.01210  153.72810    -999.25    0.04780  149.08360   97.00840    5.13180    -999.25    -999.25    0.30260 2573.24950    6.02310  -49.56460    0.10250   -5.98050
 1450.00000  313.73180  276.92540  272.68150  302.15410  244.86990    -999.25    0.22030  121.23820   91.95460    3.33520    -999.25    -999.25    0.30960 2286.72240    4.37460  -45.98290    4.22200    2.98480
 1500.00000  331.56600  314.67550  281.49600  355.22850  223.55380    -999.25    0.30270  110.06790   82.51090    2.82980    -999.25    -999.25    0.34370 2129.62300    4.85470  -46.21280   -2.43650  -26.10610
 1550.00000  256.08960  285.13720  266.87010  107.55000   86.82970    -999.25    0.06360   95.82640   61.73990    9.49680    -999.25    -999.25    0.22450 2546.08110   11.66870  -66.01900    0.23680    3.53770
 1600.00000  266.51140  270.94750  274.39910  166.60840   67.92750    -999.25    0.08300   90.49360   63.90710    6.20570    -999.25    -999.25    0.24370 2515.42700    6.87180  -43.09550    9.02540   -0.09760
 1650.00000  262.06810  281.69710  263.50350  168.51330  110.44760    -999.25    0.08270   99.57890   68.62230    6.11340    -999.25    -999.25    0.26460 2514.60500    7.91060  -55.20980    5.25420    4.79340
 1700.00000  209.46250  274.79750  252.16160   23.64790   49.03590    -999.25    0.03590   59.20470   48.38380   45.27730    -999.25    -999.25    0.13020 2591.74930   74.16290  -50.58380   -5.87670   -8.15210
 1750.00000  245.66530  269.85290  264.20500  155.65500   55.96170    0.13130    0.06970  104.65270   92.27690    6.54500    -999.25    0.15680    0.19620 2536.65450    9.98590  -58.94820  -15.08510    4.69730
 1800.00000  177.13820  263.53000  247.09020   18.36930  179.35940    0.05910    0.00960   27.66330   17.42630   63.45920    -999.25    0.09610    0.10780 2636.45430    -999.25 -166.29780    0.09110   -0.81600
 1850.00000  162.37370  271.74080  261.83920   29.70940  306.98510   -0.01780    -999.25   28.14230   18.51630   35.75520    -999.25    0.01320    -999.25 2743.66920  202.50390  -71.50310    2.29500    1.80400
 1900.00000  186.31190  258.28320  240.20050   44.16470   29.13200    0.01800    -999.25   39.04770   27.07450   24.60880    -999.25    0.04170    -999.25 2681.50610   30.92920  -61.99520  -23.48350   -0.04840
 1950.00000  188.51250  261.50160  243.60760   45.23340   26.55460    0.01210    -999.25   48.24860   30.40750   24.83030    -999.25    0.06090    -999.25 2691.54960   41.39740  -43.25200  -16.41490    6.99890
 2000.00000  208.88300  268.06350  266.71860   81.50140   29.17350    0.03810    -999.25  106.43640   80.66240   13.03380    -999.25    0.11030    -999.25 2649.45240   12.04780  -40.75080  -10.17840   -8.34720
 2050.00000  158.96530  256.56050  247.62320    4.23640   43.18160   -0.01510    -999.25   20.27750   13.90160    -999.25    -999.25    0.00560    -999.25 2740.79570    -999.25 -117.66550   20.20330   -7.06290
 2100.00000  162.93820  253.11890  249.79830    5.09260   61.41100    0.00430    -999.25   14.46780   12.51250  253.21910    -999.25    0.01320    -999.25 2704.26440  426.33280 -133.49770   -5.62470   14.40800
 2150.00000  158.39500  243.99430  246.39280    1.79290   48.75970    0.01430    -999.25   19.15270   15.67180    -999.25    -999.25    0.01110    -999.25 2690.61550    -999.25 -138.09680    0.37450    0.00520
 2200.00000  156.72800  231.12750  247.87340    2.62320   63.67870    0.00590    -999.25   11.99870   12.71130    -999.25    -999.25    0.01190    -999.25 2702.71510    -999.25 -158.45980   11.54970    2.62380
