~Version ---------------------------------------------------
VERS.      2.0 : CWLS log ASCII Standard -VERSION 2.0
WRAP.       NO : One line per depth step
CREA. 09/29/17 : LAS Creation Date
~Well ------------------------------------------------------
STRT.FT                      2600.0 : START DEPTH
STOP.FT                     12600.0 : STOP DEPTH
STEP.FT                    50.00000 : STEP LENGTH
NULL.                       -999.25 : NULL VALUE
COMP. AMOCO CANADA COMPANY LIMITED. : COMPANY
WELL.        AMOCO NIPAC 6-20-50-15 : WELL
FLD .                               : FIELD
LOC .                               : LOCATION
CTRY.                        CANADA : COUNTRY
SRVC.                  Schlumberger : SERVICE COMPANY
DATE.                   07-Aug-1978 : LOGDATE
PROV.                       Alberta : PROVINCE
UWI .              100062005015W500 : UNIQUE WELL ID
SLAT.WGS84                 53.32816 : SURFACE LATITUDE
SLON.WGS84                -116.1619 : SURFACE LONGITUDE
~Curve Information -----------------------------------------
DEPT    .FT    : Depth Curve
CALDED  .IN    : CALIPER FROM DENSITY LOG [ADJ. TO RESISTIVITY LOG]
CALSED  .IN    : CALIPER FROM SONIC LOG [ADJ. TO RESISTIVITY LOG]
CALWS   .IN    : CALIPER [CALSED]
CONDWS  .MMHO  : CONDUCTIVITY [1000/DRESWS]
DCORED  .G/C3  : DENSITY CORRECTION FROM DENSITY LOG [ADJ. TO RESISTIVITY LOG]
DCORWS  .G/C3  : DENSITY CORRECTION [DCORED]
DENWS   .G/C3  : BULK DENSITY [RHOBED]
DPHILSED.V/V   : DENSITY POROSITY LIMESTONE [M=2.71, F=1.00] FROM DENSITY LOG [ADJ. TO RESISTIVITY LOG]
DPHISSED.V/V   : DENSITY POROSITY SANDSTONE [M=2.65, F=1.00] FROM DENSITY LOG [ADJ. TO RESISTIVITY LOG]
DPOLSWS .V/V   : DENSITY POROSITY LIMESTONE [CALC FROM DENWS,M=2.71, F=1.00]
DRESWS  .OHMM  : DEEP RESISTIVITY [ILDED]
DTED    .US/F  : DELTA-T FROM SONIC LOG [ADJ. TO RESISTIVITY LOG]
DTWS    .US/F  : COMPRESSIONAL SONIC [DTED]
GRDED   .GAPI  : GAMMA RAY FROM DENSITY LOG [ADJ. TO RESISTIVITY LOG]
GRSED   .GAPI  : GAMMA RAY  FRPM SONIC LOG [ADJ. TO RESISTIVITY LOG]
GRWS    .GAPI  : GAMMA RAY [GRDED]
ILDED   .OHMM  : DEEP INDUCTION RESISTIVITY FROM RESISTIVITY LOG
ILMED   .OHMM  : MEDIUM INDUCTION RESISTIVITY FROM RESISTIVITY LOG
LL8ED   .OHMM  : LATEROLOG 8 RESISTIVITY FROM RESISTIVITY LOG
MRESWS  .OHMM  : MEDIUM RESISTIVITY [ILMED]
NPHILSED.V/V   : NEUTRON POROSITY LIMESTONE FROM DENSITY LOG [ADJ. TO RESISTIVITY LOG]
NPHISSED.V/V   : NEUTRON POROSITY SANDSTONE FROM DENSITY LOG [ADJ. TO RESISTIVITY LOG]
NPOLSWS .V/V   : NEUTRON POROSITY LIMESTONE [NPHISSED CONVERTED TO LIMESTONE MATRIX, SPL. TO NPHILSED @ 8990' ]
RHOBED  .G/C3  : BULK DENSITY  FROM DENSITY LOG [ADJ. TO RESISTIVITY LOG]
SFLED   .OHMM  : SPHERICALLY FOCUSED RESISTIVITY FROM RESISTIVITY LOG
SPRED   .MV    : SPONTANEOUS POTENTIAL FROM RESISTIVITY LOG
SPWS    .MV    : SPONTANEOUS POTENTIAL [BASELINE 0 MV,SPRED]
SRESWS  .OHMM  : SHALLOW RESISTIVITY [LL8ED SPL. TO SFLED @ 8997']
~Params ----------------------------------------------------
PD  .                     GL : PERMANENT DATUM
EPD .FT               101.84 : ELEVATION PERMANENT DATUM
LMF .                     KB : LOG MEASURED FROM
DAPD.FT                 6.22 : FEET ABOVE PERMANENT DATUM
DMF .                     KB : DRILLING MEASURED FROM
EKB .FT              1017.06 : KELLY BUSHING
EGL .FT              1010.84 : GROUND LEVEL
DATE.               08/07/78 : RUN DATE
RUN .                      3 : RUN NUMBER
DD  .FT               3846.6 : DEPTH DRILLER
DL  .FT                 3846 : DEPTH LOGGER
BLI .FT                 3845 : BOTTOM LOG INTERVAL
TLI .FT                 3290 : TOP LOG INTERVAL
CBD .FT                 2742 : CASING BOTTOM DRILLER
CBL .FT                 2741 : CASING BOTTOM LOGGER
BS  .MM                  216 : BIT SIZE
BSD .FT               3846.6 : BIT SIZE AT DEPTH
RMF .OHMM               1.36 : RESISTIVITY MUD FILTRATE SAMPLE
MFST.DEGF               22.2 : MUD FILTRATE SAMPLE TEMPERATURE
RMC .OHMM               0.94 : RESISTIVITY MUD CAKE
MCST.DEGF               24.4 : MUD CAKE SAMPLE TEMPERATURE
LUN .                   7809 : LOGGING UNIT NUMBER
LUL .                    EDM : LOGGING UNIT LOCATION
ENGI.            GUNN DRONEN : RECORDING ENGINEER
WITN.                CULSHAW : WITNESSED BY
CLNT.                A2DTECH : CLIENT CODE
ORIG.            2" 5" PRINT : ORIGIN OF DATA
UWI .       100062005015W500 : UNIQUE WELL ID
DICO. A2D Technologies, Inc. : DIGITIZING COMPANY
~Other -----------------------------------------------------
DIL-SFL/CNFD/BCS LOG RAN
SPRED HAS GAPS AT MANY INTERVAL DUE TO NOT VISIBILITY OF SP IN PRINT
GR RAN RAN THROUGH CASING FROM 8980'-9000' SO GRWS ADDED +10 API.
NEUTRON MATRIX CONVERSION FOR LIMESTONE USING SCHLUMBERGER CHART
MUD CONTAIN BARITE
~ASCII -----------------------------------------------------
# ...
 11350.00000   10.67410    9.72410    9.72410  112.82860   -0.00740   -0.00740    2.72340   -0.01790    -999.25   -0.00790    8.86300   46.87750   46.87750   96.62460   95.25630   96.62460    8.86300    9.94730    -999.25    9.94730    0.18250    -999.25    0.18250    2.72340   12.04570    -999.25    -999.25   12.16210
 11400.00000   13.41240   10.82080   10.82080  153.53440    0.09280    0.09280    2.61160    0.04710    -999.25    0.05760    6.51320   46.73340   46.73340   80.53380   75.46690   80.53380    6.51320    7.31300    -999.25    7.31300    0.17550    -999.25    0.17550    2.61160    9.10580    -999.25    -999.25    9.64710
 11450.00000   13.36660   10.40840   10.40840  144.13580    0.14400    0.14400    2.58000    0.07980    -999.25    0.07600    6.93790   49.40630   49.40630   96.01460   92.80690   96.01460    6.93790    7.74000    -999.25    7.74000    0.21850    -999.25    0.21850    2.58000    9.46830    -999.25    -999.25    9.48610
 11500.00000   12.84740   10.04310   10.04310  184.85660    0.16660    0.16660    2.58120    0.07530    -999.25    0.07530    5.40960   51.01590   51.01590  113.40610  117.28430  113.40610    5.40960    5.85380    -999.25    5.85380    0.21400    -999.25    0.21400    2.58120    7.61070    -999.25    -999.25    7.56470
 11550.00000    9.98050    9.15260    9.15260  152.45540    0.03330    0.03330    2.64090    0.04210    -999.25    0.04040    6.56030   48.68190   48.68190   92.88640   92.47700   92.88640    6.56030    7.45420    -999.25    7.45420    0.18930    -999.25    0.18930    2.64090    9.15370    -999.25    -999.25    9.04040
 11600.00000   11.50290    9.49340    9.49340  159.08620    0.14550    0.14550    2.60160    0.06750    -999.25    0.06340    6.28590   50.18780   50.18780  102.32700  104.92380  102.32700    6.28590    7.04280    -999.25    7.04280    0.21280    -999.25    0.21280    2.60160    8.72760   52.09000  -11.77220    8.92580
 11650.00000    9.63460    9.05590    9.05590  139.96190    0.04520    0.04520    2.66390    0.01890    -999.25    0.02690    7.14480   49.09230   49.09230  102.96740  107.01450  102.96740    7.14480    8.15010    -999.25    8.15010    0.19110    -999.25    0.19110    2.66390   10.63570    -999.25    -999.25   10.38250
 11700.00000    9.37570    8.87890    8.87890  162.94080    0.03290    0.03290    2.70760   -0.00830    -999.25    0.00140    6.13720   49.58040   49.58040   95.80750  102.78770   95.80750    6.13720    6.95880    -999.25    6.95880    0.19800    -999.25    0.19800    2.70760    8.83300    -999.25    -999.25    8.88600
 11750.00000    9.29560    8.68780    8.68780   89.27380   -0.00380   -0.00380    2.73470   -0.02100    -999.25   -0.01450   11.20150   45.05260   45.05260   80.74980   79.62220   80.74980   11.20150   13.41630    -999.25   13.41630    0.15010    -999.25    0.15010    2.73470   17.94750   53.64250  -10.05660   17.71660
 11800.00000    9.14940    8.69360    8.69360   80.33620    0.00200    0.00200    2.65130    0.03690    -999.25    0.03430   12.44780   48.05390   48.05390  101.23560  101.40230  101.23560   12.44780   16.69910    -999.25   16.69910    0.21670    -999.25    0.21670    2.65130   15.83030   53.67900  -11.57100   15.48490
 11850.00000    9.25970    8.69530    8.69530  119.25490    0.04300    0.04300    2.68410    0.01310    -999.25    0.01510    8.38540   53.81980   53.81980  126.05400  134.06060  126.05400    8.38540    8.74610    -999.25    8.74610    0.24040    -999.25    0.24040    2.68410   13.24870    -999.25    -999.25   13.76020
 11900.00000    9.09430    8.69000    8.69000   17.71760   -0.01480   -0.01480    2.60290    0.06510    -999.25    0.06260   56.44090   44.57180   44.57180   77.11770   77.89940   77.11770   56.44090   64.14910    -999.25   64.14910    0.08600    -999.25    0.08600    2.60290   76.58470    -999.25    -999.25   81.78860
 11950.00000    9.15890    8.75440    8.75440   36.80180   -0.00620   -0.00620    2.52960    0.11170    -999.25    0.10550   27.17260   57.69100   57.69100  143.97060  140.94570  143.97060   27.17260   33.46810    -999.25   33.46810    0.20840    -999.25    0.20840    2.52960   52.20940    -999.25    -999.25   50.88640
 12000.00000    9.23120    8.89910    8.89910  135.57670   -0.00510   -0.00510    2.72740   -0.01300    -999.25   -0.01020    7.37590   48.53550   48.53550   82.45130   85.67930   82.45130    7.37590    8.62590    -999.25    8.62590    0.18770    -999.25    0.18770    2.72740   11.55730    -999.25    -999.25   11.55110
 12050.00000    9.09940    8.68750    8.68750   20.59840   -0.01500   -0.01500    2.71670   -0.01100    -999.25   -0.00390   48.55490   39.72090   39.72090   44.53140   45.38420   44.53140   48.55490   56.57390    -999.25   56.57390    0.07440    -999.25    0.07440    2.71670   78.58540    -999.25    -999.25   77.57670
 12100.00000    9.15650    8.68120    8.68120   45.43880   -0.00310   -0.00310    2.74710   -0.02900    -999.25   -0.02170   22.00760   40.29050   40.29050   56.21780   57.10220   56.21780   22.00760   29.00640    -999.25   29.00640    0.09060    -999.25    0.09060    2.74710   38.84110    -999.25    -999.25   37.57870
 12150.00000    9.18320    8.66120    8.66120   51.56690   -0.00840   -0.00840    2.72220   -0.01120    -999.25   -0.00710   19.39230   41.60700   41.60700   61.67340   65.14650   61.67340   19.39230   22.19460    -999.25   22.19460    0.10690    -999.25    0.10690    2.72220   26.68750   70.40540   -5.74750   32.62380
 12200.00000    9.18160    8.74370    8.74370   25.05420    0.00080    0.00080    2.76750   -0.04120    -999.25   -0.03360   39.91340   39.23570   39.23570   40.34460   43.39050   40.34460   39.91340   44.59310    -999.25   44.59310    0.06870    -999.25    0.06870    2.76750   60.22730   71.70670   -6.00950   58.49760
 12250.00000    9.20580    8.74210    8.74210   19.63610   -0.00600   -0.00600    2.75000   -0.02300    -999.25   -0.02340   50.92670   38.90120   38.90120   37.98620   37.00630   37.98620   50.92670   61.06410    -999.25   61.06410    0.05720    -999.25    0.05720    2.75000   85.17580   76.90400   -2.36620   82.86940
 12300.00000    9.18840    8.72940    8.72940    3.93440    0.00180    0.00180    2.72400   -0.00750    -999.25   -0.00820  254.25580   37.12620   37.12620   19.84210   22.87470   19.84210  254.25580  245.70020    -999.25  245.70020    0.01730    -999.25    0.01730    2.72400 1395.39900    -999.25    -999.25 1329.05300
 12350.00000    9.23570    8.82370    8.82370    3.63590   -0.00510   -0.00510    2.74190   -0.02860    -999.25   -0.01870  275.03870   37.55750   37.55750   33.75900   29.42440   33.75900  275.03870  698.20610    -999.25  698.20610    0.02730    -999.25    0.02730    2.74190  292.14330   69.03980  -13.34460  283.37900
 12400.00000    9.21180    8.75310    8.75310   14.12530    0.00430    0.00430    2.76390   -0.03060    -999.25   -0.03150   70.79480   40.89320   40.89320   53.34930   51.65660   53.34930   70.79480   80.88810    -999.25   80.88810    0.09740    -999.25    0.09740    2.76390  128.72200    -999.25    -999.25  119.89090
 12450.00000    9.24470    8.80270    8.80270    0.98290   -0.01230   -0.01230    2.74630   -0.02450    -999.25   -0.02130 1017.43870   36.20810   36.20810   23.69540   25.69420   23.69540 1017.43870 1516.97890    -999.25 1516.97890    0.03280    -999.25    0.03280    2.74630 1460.34740   31.49450  -27.53590 1458.32740
 12500.00000    9.03370    8.66220    8.66220    7.10860   -0.00410   -0.00410    2.73560   -0.02100    -999.25   -0.01500  140.67410   43.21390   43.21390  100.02470  121.36670  100.02470  140.67410  149.49340    -999.25  149.49340    0.14880    -999.25    0.14880    2.73560  303.53680   21.89110  -24.47450  375.52960
 12550.00000    9.02870    8.65990    8.65990   27.99630    0.07700    0.07700    2.53250    0.10900    -999.25    0.10380   35.76260   34.35400   34.35400   17.85220   16.65430   17.85220   35.76260   79.39630    -999.25   79.39630    0.10730    -999.25    0.10730    2.53250  102.14110  -57.35800  -33.47450  110.29440
