~Version ---------------------------------------------------
VERS.      2.0 : CWLS log ASCII Standard -VERSION 2.0
WRAP.       NO : One line per depth step
CREA. 09/29/17 : LAS Creation Date
~Well ------------------------------------------------------
STRT.FT                      2600.0 : START DEPTH
STOP.FT                     12600.0 : STOP DEPTH
STEP.FT                    50.00000 : STEP LENGTH
NULL.                       -999.25 : NULL VALUE
COMP. AMOCO CANADA COMPANY LIMITED. : COMPANY
WELL.        AMOCO NIPAC 6-20-50-15 : WELL
FLD .                               : FIELD
LOC .                               : LOCATION
CTRY.                        CANADA : COUNTRY
SRVC.                  Schlumberger : SERVICE COMPANY
DATE.                   07-Aug-1978 : LOGDATE
PROV.                       Alberta : PROVINCE
UWI .              100062005015W500 : UNIQUE WELL ID
SLAT.WGS84                 53.32816 : SURFACE LATITUDE
SLON.WGS84                -116.1619 : SURFACE LONGITUDE
~Curve Information -----------------------------------------
DEPT    .FT    : Depth Curve
CALDED  .IN    : CALIPER FROM DENSITY LOG [ADJ. TO RESISTIVITY LOG]
CALSED  .IN    : CALIPER FROM SONIC LOG [ADJ. TO RESISTIVITY LOG]
CALWS   .IN    : CALIPER [CALSED]
CONDWS  .MMHO  : CONDUCTIVITY [1000/DRESWS]
DCORED  .G/C3  : DENSITY CORRECTION FROM DENSITY LOG [ADJ. TO RESISTIVITY LOG]
DCORWS  .G/C3  : DENSITY CORRECTION [DCORED]
DENWS   .G/C3  : BULK DENSITY [RHOBED]
DPHILSED.V/V   : DENSITY POROSITY LIMESTONE [M=2.71, F=1.00] FROM DENSITY LOG [ADJ. TO RESISTIVITY LOG]
DPHISSED.V/V   : DENSITY POROSITY SANDSTONE [M=2.65, F=1.00] FROM DENSITY LOG [ADJ. TO RESISTIVITY LOG]
DPOLSWS .V/V   : DENSITY POROSITY LIMESTONE [CALC FROM DENWS,M=2.71, F=1.00]
DRESWS  .OHMM  : DEEP RESISTIVITY [ILDED]
DTED    .US/F  : DELTA-T FROM SONIC LOG [ADJ. TO RESISTIVITY LOG]
DTWS    .US/F  : COMPRESSIONAL SONIC [DTED]
GRDED   .GAPI  : GAMMA RAY FROM DENSITY LOG [ADJ. TO RESISTIVITY LOG]
GRSED   .GAPI  : GAMMA RAY  FRPM SONIC LOG [ADJ. TO RESISTIVITY LOG]
GRWS    .GAPI  : GAMMA RAY [GRDED]
ILDED   .OHMM  : DEEP INDUCTION RESISTIVITY FROM RESISTIVITY LOG
ILMED   .OHMM  : MEDIUM INDUCTION RESISTIVITY FROM RESISTIVITY LOG
LL8ED   .OHMM  : LATEROLOG 8 RESISTIVITY FROM RESISTIVITY LOG
MRESWS  .OHMM  : MEDIUM RESISTIVITY [ILMED]
NPHILSED.V/V   : NEUTRON POROSITY LIMESTONE FROM DENSITY LOG [ADJ. TO RESISTIVITY LOG]
NPHISSED.V/V   : NEUTRON POROSITY SANDSTONE FROM DENSITY LOG [ADJ. TO RESISTIVITY LOG]
NPOLSWS .V/V   : NEUTRON POROSITY LIMESTONE [NPHISSED CONVERTED TO LIMESTONE MATRIX, SPL. TO NPHILSED @ 8990' ]
RHOBED  .G/C3  : BULK DENSITY  FROM DENSITY LOG [ADJ. TO RESISTIVITY LOG]
SFLED   .OHMM  : SPHERICALLY FOCUSED RESISTIVITY FROM RESISTIVITY LOG
SPRED   .MV    : SPONTANEOUS POTENTIAL FROM RESISTIVITY LOG
SPWS    .MV    : SPONTANEOUS POTENTIAL [BASELINE 0 MV,SPRED]
SRESWS  .OHMM  : SHALLOW RESISTIVITY [LL8ED SPL. TO SFLED @ 8997']
~Params ----------------------------------------------------
PD  .                     GL : PERMANENT DATUM
EPD .FT               101.84 : ELEVATION PERMANENT DATUM
LMF .                     KB : LOG MEASURED FROM
DAPD.FT                 6.22 : FEET ABOVE PERMANENT DATUM
DMF .                     KB : DRILLING MEASURED FROM
EKB .FT              1017.06 : KELLY BUSHING
EGL .FT              1010.84 : GROUND LEVEL
DATE.               08/07/78 : RUN DATE
RUN .                      3 : RUN NUMBER
DD  .FT               3846.6 : DEPTH DRILLER
DL  .FT                 3846 : DEPTH LOGGER
BLI .FT                 3845 : BOTTOM LOG INTERVAL
TLI .FT                 3290 : TOP LOG INTERVAL
CBD .FT                 2742 : CASING BOTTOM DRILLER
CBL .FT                 2741 : CASING BOTTOM LOGGER
BS  .MM                  216 : BIT SIZE
BSD .FT               3846.6 : BIT SIZE AT DEPTH
RMF .OHMM               1.36 : RESISTIVITY MUD FILTRATE SAMPLE
MFST.DEGF               22.2 : MUD FILTRATE SAMPLE TEMPERATURE
RMC .OHMM               0.94 : RESISTIVITY MUD CAKE
MCST.DEGF               24.4 : MUD CAKE SAMPLE TEMPERATURE
LUN .                   7809 : LOGGING UNIT NUMBER
LUL .                    EDM : LOGGING UNIT LOCATION
ENGI.            GUNN DRONEN : RECORDING ENGINEER
WITN.                CULSHAW : WITNESSED BY
CLNT.                A2DTECH : CLIENT CODE
ORIG.            2" 5" PRINT : ORIGIN OF DATA
UWI .       100062005015W500 : UNIQUE WELL ID
DICO. A2D Technologies, Inc. : DIGITIZING COMPANY
~Other -----------------------------------------------------
DIL-SFL/CNFD/BCS LOG RAN
SPRED HAS GAPS AT MANY INTERVAL DUE TO NOT VISIBILITY OF SP IN PRINT
GR RAN RAN THROUGH CASING FROM 8980'-9000' SO GRWS ADDED +10 API.
NEUTRON MATRIX CONVERSION FOR LIMESTONE USING SCHLUMBERGER CHART
MUD CONTAIN BARITE
~ASCII -----------------------------------------------------
# ...
 8850.00000   13.84370   12.35950   12.35950    9.71840    0.09700    0.09700    2.40310    -999.25    0.15270    0.17950  102.89760   67.58090   67.58090   21.13730   21.25170   21.13730  102.89760   88.69820  113.01050   88.69820    -999.25    0.02900    0.00040    2.40310    -999.25  -65.98550  -30.28670  113.01050
 8900.00000   11.03840   11.55260   11.55260   11.64320   -0.05540   -0.05540    2.53010    -999.25    0.08200    0.10520   85.88720   64.76780   64.76780   23.41070   21.74920   23.41070   85.88720   66.55090  106.34550   66.55090    -999.25    0.09270    0.05190    2.53010    -999.25 -120.27900  -83.91090  106.34550
 8950.00000   12.93240   12.99820   12.99820  264.94980    0.03490    0.03490    2.64770    -999.25    0.00390    0.03650    3.77430   84.36250   84.36250   86.60330   71.35430   86.60330    3.77430    4.34890    9.27260    4.34890    -999.25    0.36030    0.31680    2.64770    -999.25  -41.05630   -4.26700    9.27260
 9000.00000   11.96440   12.48260   12.48260    1.03460    0.06810    0.06810    2.65550    -999.25   -0.00760    0.03190  966.57370   54.14620   54.14620   20.27950   16.83390   30.27950  966.57370    -999.25    -999.25    -999.25    0.04290    -999.25    0.04290    2.65550 1362.64360  -94.74850  -57.95920    -999.25
 9050.00000    8.73340    8.68340    8.68340    0.97480   -0.00040   -0.00040    2.57680    0.07970    -999.25    0.07790 1036.09050   56.74860   56.74860   18.25970   12.77850   18.25970 1036.09050 1410.86340    -999.25 1410.86340    0.01670    -999.25    0.01670    2.57680  677.87230  -92.98130  -56.19200  731.58010
 9100.00000    8.75000    8.59030    8.59030    3.06420    0.06460    0.06460    2.61290    0.05730    -999.25    0.05680  326.34850   56.03700   56.03700   26.68970   20.49290   26.68970  326.34850 1446.55700    -999.25 1446.55700    0.03340    -999.25    0.03340    2.61290  810.24220  -57.99610  -21.89110  804.35810
 9150.00000    8.75690    8.56280    8.56280    0.97760   -0.01720   -0.01720    2.60460    0.06230    -999.25    0.06160 1022.95820   56.84380   56.84380  242.82960    -999.25  242.82960 1022.95820 1330.90250    -999.25 1330.90250    0.08710    -999.25    0.08710    2.60460 1019.56240  -86.17650  -52.61970  972.06210
 9200.00000    9.63050    8.70530    8.70530   13.61780    0.17920    0.17920    2.54990    0.09400    -999.25    0.09360   73.43350   52.69240   52.69240   44.92200   36.51560   44.92200   73.43350  505.20160    -999.25  505.20160    0.05180    -999.25    0.05180    2.54990  118.15520  -72.70900  -41.71580  119.15130
 9250.00000    8.80530    8.80640    8.80640   27.73050   -0.01060   -0.01060    2.89470   -0.11020    -999.25   -0.10800   36.06140   52.92000   52.92000   15.38120   14.38290   15.38120   36.06140   43.52240    -999.25   43.52240    0.02920    -999.25    0.02920    2.89470   56.66350  -89.21580  -60.77080   42.32940
 9300.00000    9.49700    9.26700    9.26700   25.72240    0.01360    0.01360    2.84200   -0.08140    -999.25   -0.07720   38.91680   53.50600   53.50600   37.84370   37.47850   37.84370   38.91680   31.94410    -999.25   31.94410    0.03500    -999.25    0.03500    2.84200   92.76080  -53.32060  -27.41870  109.94280
 9350.00000   11.22120    9.60870    9.60870    0.90640    0.01040    0.01040    2.96960   -0.16130    -999.25   -0.15180 1103.26250   51.49830   51.49830    8.21490    4.11010    8.21490 1103.26250  354.48020    -999.25  354.48020   -0.00880    -999.25   -0.00880    2.96960 1438.77250  -70.34630  -47.00800 1442.35190
 9400.00000    8.87390    8.92260    8.92260    1.07120    0.04370    0.04370    2.83830   -0.08760    -999.25   -0.07500  933.52550   49.43160   49.43160   15.93540   13.23740   15.93540  933.52550 1443.54240    -999.25 1443.54240    0.01920    -999.25    0.01920    2.83830 1440.17910  -93.90940  -73.11930 1440.44870
 9450.00000    8.81700    8.97840    8.97840    5.84910   -0.02260   -0.02260    2.67480    0.02230    -999.25    0.02060  170.96780   49.80960   49.80960    7.77630    5.30100    7.77630  170.96780  303.45280    -999.25  303.45280    0.00860    -999.25    0.00860    2.67480  322.25630  -74.64240  -56.41590  321.81660
 9500.00000    8.93320    8.81300    8.81300   32.96100   -0.00020   -0.00020    2.77520   -0.04600    -999.25   -0.03810   30.33890   54.17420   54.17420   89.77920   86.84230   89.77920   30.33890   36.95860    -999.25   36.95860    0.11890    -999.25    0.11890    2.77520   49.47090    -999.25    -999.25   47.21600
 9550.00000    8.96010    8.99720    8.99720   11.73860   -0.00140   -0.00140    2.78760   -0.04940    -999.25   -0.04540   85.19810   50.83990   50.83990   33.05690   30.04560   33.05690   85.19810   86.45630    -999.25   86.45630    0.04230    -999.25    0.04230    2.78760   90.74690  -51.84400  -40.05810   88.59390
 9600.00000    9.06550    8.72790    8.72790   42.28870    0.01480    0.01480    2.74110   -0.01970    -999.25   -0.01820   23.64700   57.96900   57.96900   78.90240   72.99940   78.90240   23.64700   26.60030    -999.25   26.60030    0.10020    -999.25    0.10020    2.74110   29.93670  -11.45890   -3.57510   29.98900
 9650.00000    9.02630    8.97920    8.97920   84.49440    0.00340    0.00340    2.68050    0.01640    -999.25    0.01730   11.83510   57.32490   57.32490   34.34760   31.94810   34.34760   11.83510   12.94120    -999.25   12.94120    0.08770    -999.25    0.08770    2.68050   16.90680    -999.25    -999.25   14.70750
 9700.00000    8.91160    8.78060    8.78060   20.94750   -0.00230   -0.00230    2.74730   -0.02580    -999.25   -0.02180   47.73840   51.47830   51.47830   20.35990   19.18930   20.35990   47.73840   86.52700    -999.25   86.52700    0.02670    -999.25    0.02670    2.74730  214.48980   -6.11300   -6.01010  244.70460
 9750.00000    8.94590    8.60830    8.60830   21.42090   -0.00280   -0.00280    2.70250    0.00090    -999.25    0.00440   46.68340   56.13140   56.13140   42.37760   42.94040   42.37760   46.68340   60.17270    -999.25   60.17270    0.05400    -999.25    0.05400    2.70250   78.73520  -10.68570  -14.32400   76.11240
 9800.00000    8.87680    8.61000    8.61000   21.93020    0.00050    0.00050    2.71020   -0.00340    -999.25   -0.00010   45.59940   56.33450   56.33450   47.61380   47.19400   47.61380   45.59940   55.55460    -999.25   55.55460    0.05680    -999.25    0.05680    2.71020   66.72160   -8.21430  -15.57950   66.78480
 9850.00000    8.86440    8.69930    8.69930   28.62150   -0.00320   -0.00320    2.69850    0.00420    -999.25    0.00670   34.93880   55.64940   55.64940   51.25360   46.22440   51.25360   34.93880   43.90360    -999.25   43.90360    0.06620    -999.25    0.06620    2.69850   51.96280   -6.49590  -17.61790   50.72810
 9900.00000    8.95570    8.73600    8.73600   37.41660    0.00470    0.00470    2.71660   -0.00530    -999.25   -0.00390   26.72610   59.25520   59.25520   60.27670   60.81700   60.27670   26.72610   31.80480    -999.25   31.80480    0.09140    -999.25    0.09140    2.71660   40.01070   -0.33730  -14.23810   38.83230
 9950.00000    8.88940    8.58590    8.58590    9.71480   -0.00080   -0.00080    2.72980   -0.01660    -999.25   -0.01160  102.93590   53.78590   53.78590   40.68410   37.88810   40.68410  102.93590  195.16480    -999.25  195.16480    0.02840    -999.25    0.02840    2.72980  213.35770   -1.67660  -14.38960  222.65230
 10000.00000    8.92390    8.80910    8.80910   24.30900    0.12910    0.12910    2.61780    0.05170    -999.25    0.05390   41.13710   55.69770   55.69770  109.85870  120.69520  109.85870   41.13710   45.86910    -999.25   45.86910    0.06400    -999.25    0.06400    2.61780   39.92380    -999.25    -999.25   38.69730
 10050.00000    9.96690    8.96840    8.96840    0.72870    0.17220    0.17220    2.61430    0.06370    -999.25    0.05600 1374.13720   48.99400   48.99400   10.11540   10.18010   10.11540 1374.13720 1581.57210    -999.25 1581.57210    0.00530    -999.25    0.00530    2.61430 1443.56410  -50.06170  -60.41540 1441.77710
