~Version ---------------------------------------------------
VERS.      2.0 : CWLS log ASCII Standard -VERSION 2.0
WRAP.       NO : One line per depth step
CREA. 08/31/17 : LAS Creation Date
~Well ------------------------------------------------------
STRT.FT                     900.0 : START DEPTH
STOP.FT                   11750.0 : STOP DEPTH
STEP.FT                  50.00000 : STEP LENGTH
NULL.                     -999.25 : NULL VALUE
COMP.        MOBIL OIL CANADA LTD : COMPANY
WELL. MOBIL ET AL PINE CREEK 6-36 : WELL
FLD .                             : FIELD
LOC .                             : LOCATION
CTRY.                      CANADA : COUNTRY
SRVC.                Schlumberger : SERVICE COMPANY
DATE.                 21-Apr-1961 : LOGDATE
PROV.                     Alberta : PROVINCE
UWI .            100063605819W500 : UNIQUE WELL ID
SLAT.WGS84               54.05556 : SURFACE LATITUDE
SLON.WGS84              -116.6911 : SURFACE LONGITUDE
~Curve Information -----------------------------------------
DEPT  .FT         : Depth Curve
CALWS .IN         : CALIPER [MCALED]
CILDED.MMHO       : DEEP INDUCTION CONDUCTIVITY FROM IEL LOG
CONDWS.MMHO       : CONDUCTIVITY [CILDED]
DRESWS.OHMM       : DEEP RESISTIVITY [CALCULATED FROM 1000/CILDED, IF ILDED<1, ILDED]
DT1ED .US/F       : ACOUSTIC TRANSIT TIME SLOWNESS, DELTA T FROM SONIC LOG
DT2ED .US/F       : ACOUSTIC TRANSIT TIME SLOWNESS, DELTA T FROM SONIC LOG
DT3ED .US/F       : ACOUSTIC TRANSIT TIME SLOWNESS, DELTA T FROM SONIC LOG
DTED  .US/F       : ACOUSTIC TRANSIT TIME SLOWNESS, DELTA T FROM SONIC LOG
DTWS  .US/F       : COMPRESSIONAL SONIC [DTED]
GRSED .UgRa-Eq/T  : GAMMA RAY FROM SONIC LOG
GRWS  .GAPI       : GAMMA RAY [GRSED*16.5 FOR GAPI]
ILDED .OHMM       : DEEP INDUCTION FROM IEL LOG
MCALED.IN         : MLT [MICROLOG] CALIPER FROM MICRO LOG [ADJ. TO ILDED]
SNED  .OHMM       : SHORT NORMAL FROM IEL LOG
SPRED .MV         : SPONTANEOUS POTENTIAL FROM IEL LOG
SPWS  .MV         : SPONTANEOUS POTENTIAL [BASELINE 0 MV, SPRED]
SRESWS.OHMM       : SHALLOW RESISTIVITY [SNED]
~Params ----------------------------------------------------
PD  .                     GL : PERMANENT DATUM
LMF .                     KB : LOG MEASURED FROM
DAPD.FT                 13.6 : FEET ABOVE PERMANENT DATUM
DMF .                     KB : DRILLING MEASURED FROM
EKB .FT                 3433 : KELLY BUSHING
EGL .FT               3419.4 : GROUND LEVEL
DATE.               04/21/61 : RUN DATE
RUN .                      2 : RUN NUMBER
DD  .FT                11780 : DEPTH DRILLER
DL  .FT                11781 : DEPTH LOGGER
BLI .FT                11780 : BOTTOM LOG INTERVAL
TLI .FT                 8720 : TOP LOG INTERVAL
BS  .IN                    9 : BIT SIZE
BSD .FT                11780 : BIT SIZE AT DEPTH
DFT .              LIME BASE : DRILLING FLUID TYPE
DFV .                    120 : DRILLING FLUID VISCOSITY
DFPH.                     13 : DRILLING FLUID PH
DFL .                    8.8 : DRILLING FLUID LOSS
RMS .OHMM                1.0 : RESISTIVITY MUD SAMPLE
MST .DEGF                 55 : MUD SAMPLE TEMPERATURE
RMF .OHMM               0.22 : RESISTIVITY MUD FILTRATE SAMPLE
MFST.DEGF                203 : MUD FILTRATE SAMPLE TEMPERATURE
RMC .OHMM               0.39 : RESISTIVITY MUD CAKE
MCST.DEGF                203 : MUD CAKE SAMPLE TEMPERATURE
RMB .OHMM               0.28 : RESISTIVITY MUD AT BHT
TCS .HRS                   4 : TIME CIRCULATED STOPPED
LUN .                   2742 : LOGGING UNIT NUMBER
LUL .                    EDM : LOGGING UNIT LOCATION
ENGI.               MC CAMUS : RECORDING ENGINEER
WITN.           CURRIE MOORE : WITNESSED BY
CLNT.                A2DTECH : CLIENT CODE
ORIG.            2" 5" PRINT : ORIGIN OF DATA
UWI .       100063605819W500 : UNIQUE WELL ID
DICO. A2D Technologies, Inc. : DIGITIZING COMPANY
~Other -----------------------------------------------------
~ASCII -----------------------------------------------------
# ...
 5000.00000   13.91050   68.02150   68.02150   14.57210    -999.25    -999.25    -999.25   78.00960   78.00960    5.22060   86.13990   14.57210   13.91050   13.37420  -67.33570   -9.48850   13.37420
 5050.00000   13.36990   95.37960   95.37960   10.21290    -999.25    -999.25    -999.25   82.33050   82.33050    6.17130  101.82640   10.21290   13.36990    9.72040  -60.69840   -3.01020    9.72040
 5100.00000   13.51090  108.48750  108.48750    8.99000    -999.25    -999.25    -999.25   87.01400   87.01400    6.53340  107.80110    8.99000   13.51090    8.59450  -61.50700   -3.97890    8.59450
 5150.00000   13.64850  138.32250  138.32250    7.21290    -999.25    -999.25    -999.25   90.02350   90.02350    6.18140  101.99310    7.21290   13.64850    6.72180  -59.85710   -2.48800    6.72180
 5200.00000   13.79060  133.41980  133.41980    7.39320    -999.25    -999.25    -999.25   79.12450   79.12450    6.13420  101.21430    7.39320   13.79060    7.13130  -59.60280   -2.39380    7.13130
 5250.00000   13.69980  108.33110  108.33110    8.86270    -999.25    -999.25    -999.25   77.23040   77.23040    5.67880   93.70020    8.86270   13.69980    8.18390  -65.33560   -8.28560    8.18390
 5300.00000   13.94800  109.43420  109.43420    8.98320    -999.25    -999.25    -999.25   78.92950   78.92950    5.22460   86.20670    8.98320   13.94800    8.68760  -67.11470  -10.22370    8.68760
 5350.00000   13.20820  116.56500  116.56500    8.43670    -999.25    -999.25    -999.25   85.62240   85.62240    5.87370   96.91610    8.43670   13.20820    8.04220  -66.97420  -10.24320    8.04220
 5400.00000   12.95080  120.65560  120.65560    7.54080    -999.25    -999.25    -999.25   80.37010   80.37010    5.76890   95.18600    7.54080   12.95080    7.93420  -63.13330   -6.56130    7.93420
 5450.00000   12.24270  129.89600  129.89600    7.53240    -999.25    -999.25    -999.25   86.53310   86.53310    5.98470   98.74760    7.53240   12.24270    7.07230  -59.78620   -3.30290    7.07230
 5500.00000   12.56890  104.55560  104.55560    9.39780    -999.25    -999.25    -999.25   81.91250   81.91250    5.23920   86.44680    9.39780   12.56890    8.32800  -60.88880   -4.29970    8.32800
 5550.00000   10.74400   51.56590   51.56590   19.91230    -999.25    -999.25    -999.25   77.18960   77.18960    3.21120   52.98400   19.91230   10.74400   15.21720  -82.31730  -25.62250   15.21720
 5600.00000   11.43210   85.28320   85.28320   11.20660    -999.25    -999.25    -999.25   77.61350   77.61350    5.49110   90.60310   11.20660   11.43210    9.91910  -67.22130  -10.42000    9.91910
 5650.00000   12.13020   73.67200   73.67200   12.96970    -999.25    -999.25    -999.25   74.84240   74.84240    5.92490   97.76090   12.96970   12.13020   11.26030  -67.39130  -10.48420   11.26030
 5700.00000   11.30190  101.25530  101.25530    9.80150    -999.25    -999.25    -999.25   78.22810   78.22810    6.26800  103.42200    9.80150   11.30190    8.85240  -62.50630   -5.49280    8.85240
 5750.00000   11.94820   99.30850   99.30850   10.15710    -999.25    -999.25    -999.25   77.74830   77.74830    5.86100   96.70650   10.15710   11.94820    8.88190  -62.90260   -5.78330    8.88190
 5800.00000   11.50500  114.71040  114.71040    7.92590    -999.25    -999.25    -999.25   84.74020   84.74020    6.26460  103.36670    7.92590   11.50500    8.60700  -63.66690   -6.44190    8.60700
 5850.00000   11.61970   96.63520   96.63520    9.83420    -999.25    -999.25    -999.25   82.72710   82.72710    5.53790   91.37530    9.83420   11.61970   10.00690  -64.57490   -7.24340   10.00690
 5900.00000   10.29040   97.46460   97.46460    9.84340    -999.25    -999.25    -999.25   89.15530   89.15530    6.46570  106.68410    9.84340   10.29040   10.46240  -64.16920   -6.75560   10.46240
 5950.00000    9.58380   80.52700   80.52700   12.06680    -999.25    -999.25    -999.25   85.08230   85.08230    7.04780  116.28870   12.06680    9.58380   13.22670  -70.72910  -13.31550   13.22670
 6000.00000   10.36770   95.07670   95.07670   10.43660    -999.25    -999.25    -999.25   84.75400   84.75400    6.53330  107.79940   10.43660   10.36770   11.43240  -68.62110  -11.20750   11.43240
 6050.00000    9.55840   59.68390   59.68390   17.12160    -999.25    -999.25    -999.25   84.44600   84.44600    6.76660  111.64970   17.12160    9.55840   18.22680  -73.16120  -15.74760   18.22680
 6100.00000    9.78660   59.60350   59.60350   15.56580    -999.25    -999.25    -999.25   86.98590   86.98590    7.03780  116.12370   15.56580    9.78660   16.59680  -71.88830  -14.47470   16.59680
 6150.00000    9.73830   44.94310   44.94310   23.67230    -999.25    -999.25    -999.25   84.97620   84.97620    7.53840  124.38360   23.67230    9.73830   21.72860  -72.35460  -14.94100   21.72860
 6200.00000   11.25300  110.81990  110.81990    8.56680    -999.25    -999.25    -999.25   86.82120   86.82120    5.54810   91.54370    8.56680   11.25300    9.80250  -61.29970   -3.78210    9.80250
 6250.00000   11.57220   60.38160   60.38160   17.16100    -999.25    -999.25    -999.25   80.32220   80.32220    6.90500  113.93250   17.16100   11.57220   15.40300  -71.69460  -13.24680   15.40300
 6300.00000   12.41950  122.09140  122.09140    8.11020    -999.25    -999.25    -999.25   80.59050   80.59050    5.38260   88.81210    8.11020   12.41950    7.64330  -66.49440   -7.11630    7.64330
 6350.00000   12.05530  145.80110  145.80110    6.43060    -999.25    -999.25    -999.25   81.03160   81.03160    6.26100  103.30650    6.43060   12.05530    7.36320  -63.83380   -3.58420    7.36320
 6400.00000   12.18160   82.60330   82.60330   11.41590    -999.25    -999.25    -999.25   82.79290   82.79290    7.05650  116.43230   11.41590   12.18160   10.60560  -72.57140  -13.85350   10.60560
 6450.00000   11.96070  106.08610  106.08610    8.88810    -999.25    -999.25    -999.25   79.76900   79.76900    5.43370   89.65600    8.88810   11.96070    9.64530  -70.68480  -13.50870    9.64530
 6500.00000   12.53370  108.21600  108.21600    9.22120    -999.25    -999.25    -999.25   81.79310   81.79310    6.10070  100.66150    9.22120   12.53370    8.69580  -66.13630  -10.49190    8.69580
 6550.00000   12.52890  134.51540  134.51540    6.61670    -999.25    -999.25    -999.25   81.97600   81.97600    5.44230   89.79790    6.61670   12.52890    7.13400  -60.13300   -6.02030    7.13400
 6600.00000   13.31860  133.27930  133.27930    6.96960    -999.25    -999.25    -999.25   91.27740   91.27740    5.70610   94.15060    6.96960   13.31860    7.43990  -60.41150   -6.29530    7.43990
 6650.00000   11.44620  107.18430  107.18430    8.31560    -999.25    -999.25    -999.25   96.77900   96.77900    9.28430  153.19090    8.31560   11.44620    7.69130  -65.52580  -10.59240    7.69130
 6700.00000   13.66540  194.74110  194.74110    4.76540    -999.25    -999.25    -999.25   99.98190   99.98190    5.66060   93.39990    4.76540   13.66540    5.35890  -60.59130   -4.83540    5.35890
 6750.00000   12.49750  158.02150  158.02150    6.11960    -999.25    -999.25    -999.25   82.42630   82.42630    5.45720   90.04380    6.11960   12.49750    6.69090  -60.33330   -3.51200    6.69090
 6800.00000    8.31620   33.97710   33.97710   33.12060    -999.25    -999.25    -999.25   71.52490   71.52490    1.53020   25.24830   33.12060    8.31620   22.45590  -79.27820  -19.92490   22.45590
 6850.00000   11.28250   38.69020   38.69020   27.04310    -999.25    -999.25    -999.25   67.98370   67.98370    4.75470   78.45260   27.04310   11.28250   17.02890  -70.55560   -8.65370   17.02890
 6900.00000   10.67270   42.74110   42.74110   24.19150    -999.25    -999.25    -999.25   66.89420   66.89420    3.05080   50.33900   24.19150   10.67270   16.89580  -72.28050   -7.84660   16.89580
 6950.00000   11.92920   61.24720   61.24720   15.43840    -999.25    -999.25    -999.25   69.56570   69.56570    3.82740   63.15210   15.43840   11.92920   12.97780  -70.90380   -6.67300   12.97780
 7000.00000    9.95980   40.83780   40.83780   25.07730    -999.25    -999.25    -999.25   66.80530   66.80530    2.87720   47.47380   25.07730    9.95980   23.55870  -71.21200   -8.11820   23.55870
