~Version ---------------------------------------------------
VERS.      2.0 : CWLS log ASCII Standard -VERSION 2.0
WRAP.       NO : One line per depth step
CREA. 12/18/17 : LAS Creation Date
~Well ------------------------------------------------------
STRT.FT                  700.0 : START DEPTH
STOP.FT                 8200.0 : STOP DEPTH
STEP.FT               50.00000 : STEP LENGTH
NULL.                  -999.25 : NULL VALUE
COMP.         HOME OIL COMPANY : COMPANY
WELL. HOME BARRHEAD 10-35-59-3 : WELL
FLD .                          : FIELD
LOC .                          : LOCATION
CTRY.                   CANADA : COUNTRY
SRVC.             Schlumberger : SERVICE COMPANY
DATE.              05-Dec-1964 : LOGDATE
PROV.                  Alberta : PROVINCE
UWI .         100103505903W500 : UNIQUE WELL ID
SLAT.WGS84            54.14663 : SURFACE LATITUDE
SLON.WGS84           -114.3356 : SURFACE LONGITUDE
~Curve Information -----------------------------------------
DEPT  .FT    : Depth Curve
ASNED .OHMM  : AMPLIFIED SHORT NORMAL RESISTIVITY 16" FROM RESISTIVITY LOG
CALWS .IN    : CALIPER [MCALED]
CILDED.MMHO  : DEEP INDUCTION CONDUCTIVITY FROM RESISTIVITY LOG
CONDWS.MMHO  : CONDUCTIVITY [1000/DRESWS]
DRESWS.MMHO  : DEEP RESISTIVITY [1000/CILDED, IF ILDED<3, ILDED]
DT1ED .US/F  : DELTA TIME [SPAN 1'] FROM SONIC LOG
DTED  .US/F  : DELTA TIME [SPAN 3'] FROM SONIC LOG
DTWS  .US/F  : COMPRESSIONAL SONIC [DTED]
GRSED .GAPI  : GAMMA RAY FROM SONIC LOG
GRWS  .GAPI  : GAMMA RAY [GRSED]
ILDED .OHMM  : DEEP INDUCTION RESISTIVITY FROM RESISTIVITY LOG
MCALED.IN    : MICROCALIPER FROM MICROLOG
NEUTED.NAPI  : NEUTRON FROM NEUTRON LOG
NEUTWS.NAPI  : NEUTRON [NEUTED]
SPRED .MV    : SPONTANEOUS  POTENTIAL FROM RESISTIVITY LOG
SPWS  .MV    : SPONTANEOUS POTENTIAL [BASELINE 0 MV, SPRED]
SRESWS.OHMM  : SHALLOW RESISTIVITY [ASNED]
~Params ----------------------------------------------------
PD  .                     GL : PERMANENT DATUM
EPD .FT               2176.5 : ELEVATION PERMANENT DATUM
LMF .                     KB : LOG MEASURED FROM
DAPD.FT                 13.3 : FEET ABOVE PERMANENT DATUM
EKB .FT               2189.8 : KELLY BUSHING
EGL .FT               2176.5 : GROUND LEVEL
DATE.               12/05/64 : RUN DATE
RUN .                      2 : RUN NUMBER
DD  .FT                 8248 : DEPTH DRILLER
DL  .FT                 8245 : DEPTH LOGGER
BLI .FT                 8244 : BOTTOM LOG INTERVAL
TLI .FT                 3500 : TOP LOG INTERVAL
CBD .FT                  840 : CASING BOTTOM DRILLER
BS  .IN                7.875 : BIT SIZE
BSD .FT                 8248 : BIT SIZE AT DEPTH
DFT .                    GEL : DRILLING FLUID TYPE
DFD .                   10.4 : DRILLING FLUID DENSITY
DFV .                    107 : DRILLING FLUID VISCOSITY
DFPH.                      9 : DRILLING FLUID PH
DFL .                    7.6 : DRILLING FLUID LOSS
RMS .OHMM               0.79 : RESISTIVITY MUD SAMPLE
MST .DEGF                 58 : MUD SAMPLE TEMPERATURE
RMF .OHMM               0.47 : RESISTIVITY MUD FILTRATE SAMPLE
MFST.DEGF                 66 : MUD FILTRATE SAMPLE TEMPERATURE
RMC .OHMM               1.04 : RESISTIVITY MUD CAKE
MCST.DEGF                 64 : MUD CAKE SAMPLE TEMPERATURE
RMB .OHMM               0.32 : RESISTIVITY MUD AT BHT
TCS .HRS                   2 : TIME CIRCULATED STOPPED
LUN .                   3705 : LOGGING UNIT NUMBER
ENGI.                   SWAN : RECORDING ENGINEER
WITN.           DAWSON GROVE : WITNESSED BY
CLNT.                A2DTECH : CLIENT CODE
ORIG.            2" 5" PRINT : ORIGIN OF DATA
UWI .       100103505903W500 : UNIQUE WELL ID
DICO. A2D Technologies, Inc. : DIGITIZING COMPANY
~Other -----------------------------------------------------
IEL-BHC-NEUTRON-ML LOG RUN
ALL RESISTIVITY CURVES VERIFIED FROM 2" SCALE SECTION FROM TOP TO 3826'
~ASCII -----------------------------------------------------
# ...
 2750.00000    4.16360   10.72240  291.68160  291.68160    3.42840    -999.25   99.87440   99.87440   93.45910   93.45910    2.68170   10.72240  673.36280  673.36280  -27.74550   -4.39760    4.16360
 2800.00000    3.93170   10.65900  316.59350  276.98530    3.61030  103.15170  105.62510  105.62510  105.99240  105.99240    3.61030   10.65900  726.19210  726.19210  -27.12140   -2.80600    3.93170
 2850.00000    6.62750    9.59870  194.64040  196.68000    5.08440  101.15590  101.50000  101.50000  140.65410  140.65410    5.08440    9.59870  724.09340  724.09340  -30.04680   -5.38270    6.62750
 2900.00000    7.54580    7.70880  190.69870  190.09960    5.26040   85.62350   83.77720   83.77720   71.49610   71.49610    5.26040    7.70880 1022.48720 1022.48720  -44.21000  -20.18190    7.54580
 2950.00000    2.85000    8.44070  480.16490  480.16490    2.08260  114.17770  107.39340  107.39340   91.57350   91.57350    2.72600    8.44070  649.89360  649.89360  -24.45780   -1.06980    2.85000
 3000.00000    7.97180    8.64990  159.47450  164.19820    6.09020   77.84580   82.61050   82.61050   76.53720   76.53720    6.09020    8.64990 1026.37590 1026.37590  -31.13350   -8.38140    7.97180
 3050.00000    6.43610    8.68090  178.99640  180.51840    5.53960   92.04590   87.74290   87.74290   67.76250   67.76250    5.53960    8.68090  948.45240  948.45240  -28.54550   -6.42930    6.43610
 3100.00000   24.16150    7.77900  125.29850  132.34340    7.55610  116.61580  116.30760  116.30760   41.31620   41.31620    7.55610    7.77900  663.21700  663.21700  -56.91290  -35.43680   24.16150
 3150.00000    9.58510    7.60570  210.06350  189.44060    5.27870   92.75350   91.97380   91.97380   64.84980   64.84980    5.27870    7.60570 1011.73560 1011.73560  -61.34480  -40.28260    9.58510
 3200.00000    6.92650    7.24820  411.20520  294.28210    3.39810   94.01840   89.97670   89.97670   57.37970   57.37970    3.39810    7.24820 1088.39420 1088.39420  -81.50540  -60.66660    6.92650
 3250.00000    3.58310    7.24540  476.91470  307.35190    3.25360    -999.25   96.48510   96.48510   65.21940   65.21940    3.25360    7.24540  995.01480  995.01480  -56.04100  -35.42410    3.58310
 3300.00000    6.28030    7.17740  580.65970  580.65970    1.72220    -999.25   94.53360   94.53360   61.90360   61.90360    2.82110    7.17740  949.93340  949.93340  -72.47220  -52.07730    6.28030
 3350.00000    6.58290    7.42920  188.87480  185.65280    5.38640    -999.25   81.16610   81.16610   84.76770   84.76770    5.38640    7.42920 1001.83500 1001.83500  -33.91860  -13.82900    6.58290
 3400.00000    3.40660    7.24770  424.36240  326.76530    3.06030    -999.25  103.36560  103.36560   86.04550   86.04550    3.06030    7.24770  767.68800  767.68800  -24.41380   -4.81670    3.40660
 3450.00000    5.34740    8.15470  256.09360  227.47440    4.39610    -999.25   93.55100   93.55100   98.66900   98.66900    4.39610    8.15470  826.55350  826.55350  -27.04300   -7.94170    5.34740
 3500.00000    9.47360    7.51320  136.66760  135.82160    7.36260    -999.25   87.40770   87.40770  103.82340  103.82340    7.36260    7.51320  827.47360  827.47360  -19.55590   -0.94220    9.47360
 3550.00000   27.85710    7.07450   52.71540   59.45270   16.82010    -999.25   75.77900   75.77900   52.75250   52.75250   16.82010    7.07450 1207.78030 1207.78030  -38.94120  -20.57090   27.85710
 3600.00000   15.64660    7.39810   85.71730   91.48630   10.93060    -999.25   67.98350   67.98350   55.07680   55.07680   10.93060    7.39810 1585.01220 1585.01220  -29.26120  -11.13600   15.64660
 3650.00000   12.91120    8.67550  107.14770  110.55470    9.04530    -999.25   73.22480   73.22480   71.36270   71.36270    9.04530    8.67550 1381.46630 1381.46630  -23.16270   -5.28090   12.91120
 3700.00000   18.13020    8.97730   77.91540   81.77150   12.22920    -999.25   68.86070   68.86070   55.79790   55.79790   12.22920    8.97730 1577.34360 1577.34360  -24.17910   -6.54230   18.13020
 3750.00000   16.50880    8.92350   85.70530   89.89650   11.12390    -999.25   71.84310   71.84310   69.83450   69.83450   11.12390    8.92350 1283.25020 1283.25020  -21.42070   -4.02730   16.50880
 3800.00000   14.39270    8.44080  101.52270  103.15770    9.69390    -999.25   78.34380   78.34380   91.99490   91.99490    9.69390    8.44080 1143.47730 1143.47730  -19.49690   -2.34700   14.39270
 3850.00000   59.82590    7.92950   20.58180   26.51940   37.70820    -999.25   50.06500   50.06500   19.03630   19.03630   37.70820    7.92950    -999.25    -999.25  -71.63670  -54.15200   59.82590
 3900.00000    6.46470    7.37810  371.24440  371.24440    2.69360    -999.25   61.02150   61.02150   26.80910   26.80910    1.11000    7.37810    -999.25    -999.25  -82.85690  -64.76000    6.46470
 3950.00000   24.81750    7.72100  124.07740  145.55410    6.87030    -999.25   59.70150   59.70150   29.98330   29.98330    6.87030    7.72100    -999.25    -999.25  -78.00300  -59.28990   24.81750
 4000.00000    9.82060    7.37020  282.03420  282.03420    3.54570    -999.25   56.37850   56.37850   18.34290   18.34290    1.84020    7.37020    -999.25    -999.25  -82.70110  -63.37590    9.82060
 4050.00000   17.84150    7.43290  173.25390  284.28470    3.51760    -999.25   52.80070   52.80070   21.06220   21.06220    3.51760    7.43290    -999.25    -999.25  -84.69030  -64.75290   17.84150
 4100.00000    7.72310    7.45010  302.81010  302.81010    3.30240    -999.25   57.97950   57.97950   17.95140   17.95140    1.59450    7.45010    -999.25    -999.25  -85.70980  -65.15620    7.72310
 4150.00000    6.33130    7.47540  306.88150  306.88150    3.25860    -999.25   56.81770   56.81770   17.09550   17.09550    1.62880    7.47540    -999.25    -999.25  -85.31600  -64.15020    6.33130
 4200.00000    0.69150    7.40830  659.54180  659.54180    1.51620    -999.25   62.48580   62.48580   18.96360   18.96360    0.65520    7.40830    -999.25    -999.25  -85.97490  -64.19290    0.69150
 4250.00000   35.73050    7.60910   74.94930   99.80840   10.01920    -999.25   49.23980   49.23980   29.43670   29.43670   10.01920    7.60910    -999.25    -999.25  -84.48920  -62.09500   35.73050
 4300.00000    4.70100    7.53400  344.93440  344.93440    2.89910    -999.25   52.46600   52.46600   15.57910   15.57910    1.46010    7.53400    -999.25    -999.25  -82.83140  -59.82510    4.70100
 4350.00000    0.26780    7.32930 1268.01600 1268.01600    0.78860    -999.25   62.71600   62.71600   20.02260   20.02260    0.20920    7.32930    -999.25    -999.25  -86.40220  -62.77970    0.26780
 4400.00000    2.42000    7.40970  438.96150  438.96150    2.27810    -999.25   62.30800   62.30800   25.81480   25.81480    0.56560    7.40970    -999.25    -999.25  -84.51890  -60.28420    2.42000
 4450.00000    8.23420    7.25970  362.26890  362.26890    2.76040    -999.25   61.74400   61.74400   25.46040   25.46040    1.33050    7.25970    -999.25    -999.25  -79.67470  -54.82380    8.23420
 4500.00000    5.67630    7.27270  396.08220  396.08220    2.52470    -999.25   60.81900   60.81900   46.14430   46.14430    0.37180    7.27270    -999.25    -999.25  -88.46720  -63.00410    5.67630
 4550.00000   25.38960    7.57850  111.92330  151.65070    6.59410    -999.25   52.33880   52.33880   23.70130   23.70130    6.59410    7.57850    -999.25    -999.25  -92.63650  -66.56130   25.38960
 4600.00000   16.53950    7.34950  160.73850  242.20110    4.12880    -999.25   56.12680   56.12680   39.13240   39.13240    4.12880    7.34950    -999.25    -999.25  -86.79710  -60.10570   16.53950
 4650.00000   28.46440    7.52580   19.84980   24.42750   40.93740    -999.25   49.57730   49.57730   40.28860   40.28860   40.93740    7.52580    -999.25    -999.25  -38.36330  -11.23300   28.46440
 4700.00000   79.40420    7.35620   12.94200   17.27180   57.89780    -999.25   50.73050   50.73050   19.38520   19.38520   57.89780    7.35620    -999.25    -999.25  -82.91580  -55.97310   79.40420
 4750.00000   87.78440    7.72900    7.09950    9.92310  100.77450    -999.25   50.37400   50.37400   18.10280   18.10280  100.77450    7.72900    -999.25    -999.25  -66.34420  -39.58780   87.78440
