~Version ---------------------------------------------------
VERS.      2.0 : CWLS log ASCII Standard -VERSION 2.0
WRAP.       NO : One line per depth step
CREA. 09/28/17 : LAS Creation Date
~Well ------------------------------------------------------
STRT.FT                          850.0 : START DEPTH
STOP.FT                        10000.0 : STOP DEPTH
STEP.FT                       50.00000 : STEP LENGTH
NULL.                          -999.25 : NULL VALUE
COMP. SOCONY MOBIL OIL OF CANADA, LTD. : COMPANY
WELL.         MOBIL MCLEOD 12-33-55-13 : WELL
FLD .                               WC : FIELD
LOC .                                  : LOCATION
CTRY.                           CANADA : COUNTRY
SRVC.                     Schlumberger : SERVICE COMPANY
DATE.                      15-Feb-1963 : LOGDATE
PROV.                          Alberta : PROVINCE
UWI .                 100123305513W500 : UNIQUE WELL ID
SLAT.WGS84                    53.79757 : SURFACE LATITUDE
SLON.WGS84                   -115.8798 : SURFACE LONGITUDE
~Curve Information -----------------------------------------
DEPT  .FT    : Depth Curve
CALWS .IN    : CALIPER [MCALED]
CILDED.MMHO  : CONDUCTIVITY FROM RESISTIVITY LOG
CONDWS.MMHO  : CONDUCTIVITY [1000/DRESWS]
DRESWS.OHMM  : DEEP RESISTIVITY [1000/CILDED IF ILDED <=5, ILDED]
DT2ED .us/m  : DELTA TIME FROM SONIC LOG
DTED  .US/F  : DELTA TIME FROM SONIC LOG
DTWS  .US/F  : COMPRESSIONAL SONIC [DTED]
GRSED .GAPI  : GAMMA RAY FROM SONIC LOG
GRWS  .GAPI  : GAMMA RAY [GRSED]
ILDED .OHMM  : DEEP INDUCTION RESISTIVITY FROM RESISTIVITY LOG
MCALED.IN    : CALIPER FROM MICROLOG
SNED  .OHMM  : 16 INCH SHORT NORMAL RESISTIVITY FROM RESISTIVITY LOG
SPRED .MV    : SPONTANEOUS POTENTIAL FROM RESISTIVITY LOG
SPWS  .MV    : SPONTANEOUS POTENTIAL [BASELINE 0 MV, SPRED]
SRESWS.OHMM  : SHALLOW RESISTIVITY [SNED]
~Params ----------------------------------------------------
LMF .                     KB : LOG MEASURED FROM
EKB .FT                 2772 : KELLY BUSHING
DATE.               02/15/63 : RUN DATE
RUN .                      3 : RUN NUMBER
DD  .FT                10056 : DEPTH DRILLER
DL  .FT                10051 : DEPTH LOGGER
BLI .FT                10050 : BOTTOM LOG INTERVAL
TLI .FT                 9500 : TOP LOG INTERVAL
CBD .FT                 1020 : CASING BOTTOM DRILLER
BS  .IN                    9 : BIT SIZE
BSD .FT                10056 : BIT SIZE AT DEPTH
DFT .       CAUSTIC Q BROXIN : DRILLING FLUID TYPE
DFD .                    9.5 : DRILLING FLUID DENSITY
DFV .                    123 : DRILLING FLUID VISCOSITY
DFPH.                   10.5 : DRILLING FLUID PH
DFL .                    5.6 : DRILLING FLUID LOSS
RMF .OHMM               1.23 : RESISTIVITY MUD FILTRATE SAMPLE
MFST.DEGF                 64 : MUD FILTRATE SAMPLE TEMPERATURE
RMC .OHMM                1.9 : RESISTIVITY MUD CAKE
MCST.DEGF                 59 : MUD CAKE SAMPLE TEMPERATURE
TCS .HRS                 300 : TIME CIRCULATED STOPPED
LUN .                   3534 : LOGGING UNIT NUMBER
LUL .                     WC : LOGGING UNIT LOCATION
ENGI.               HATLELID : RECORDING ENGINEER
WITN.                MCMANUS : WITNESSED BY
CLNT.                A2DTECH : CLIENT CODE
ORIG.            2" 5" PRINT : ORIGIN OF DATA
UWI .       100123305513W500 : UNIQUE WELL ID
DICO. A2D Technologies, Inc. : DIGITIZING COMPANY
~Other -----------------------------------------------------
IEL-SONIC LOG RUN
SP SLIGHTLY AFFECTED BY TELLURIC CURRENTS
~ASCII -----------------------------------------------------
# ...
 3150.00000   11.07870   71.32450   64.95570   15.39510    -999.25   85.67680   85.67680   48.16970   48.16970   15.39510   11.07870   15.73980  -43.63920   -4.82130   15.73980
 3200.00000   11.44980  166.40800  162.90090    6.13870    -999.25   93.39120   93.39120   67.48330   67.48330    6.13870   11.44980    6.39380  -41.61880   -3.02560    6.39380
 3250.00000   11.11560  160.33570  158.52890    6.30800    -999.25   97.48130   97.48130   57.23840   57.23840    6.30800   11.11560    6.59840  -41.17070   -2.80210    6.59840
 3300.00000   10.46980   47.13720   45.06190   22.19170    -999.25   76.21750   76.21750   37.09430   37.09430   22.19170   10.46980   19.93860  -44.75160   -6.46840   19.93860
 3350.00000   11.69420  104.19630  102.01170    9.80280    -999.25   88.30900   88.30900   47.43620   47.43620    9.80280   11.69420   10.04330  -43.05180   -4.76860   10.04330
 3400.00000   12.02750  142.10030  147.08910    6.79860    -999.25   89.88800   89.88800   54.23340   54.23340    6.79860   12.02750    7.44120  -41.72950   -3.44630    7.44120
 3450.00000   10.91600   97.06550   98.87480   10.11380    -999.25   79.33650   79.33650   47.53970   47.53970   10.11380   10.91600   10.68970  -41.66450   -3.61850   10.68970
 3500.00000   10.36370  126.21460  131.82180    7.58600    -999.25   90.57200   90.57200   51.77050   51.77050    7.58600   10.36370   13.51940  -57.79480  -20.15770   13.51940
 3550.00000   10.53330  123.34230  127.80700    7.82430    -999.25   91.22050   91.22050   46.72220   46.72220    7.82430   10.53330    9.70370  -41.55380   -4.32550    9.70370
 3600.00000   10.37660   91.57020   87.88270   11.37880    -999.25   82.16500   82.16500   43.41500   43.41500   11.37880   10.37660   13.43510  -51.58580  -14.05290   13.43510
 3650.00000   10.25570  112.51710  109.67200    9.11810    -999.25   85.39020   85.39020   43.47370   43.47370    9.11810   10.25570    9.56500  -44.66310   -6.50490    9.56500
 3700.00000   10.34960   96.88300   94.52780   10.57890    -999.25   84.14530   84.14530   61.40310   61.40310   10.57890   10.34960   12.24500  -42.15440   -4.56630   12.24500
 3750.00000    9.83440  149.05020  151.16020    6.61550    -999.25   88.80200   88.80200   61.55260   61.55260    6.61550    9.83440    7.81870  -39.58090   -2.86180    7.81870
 3800.00000   10.61880  129.09590  125.75290    7.95210    -999.25   96.09050   96.09050   66.27180   66.27180    7.95210   10.61880    8.61170  -39.41920   -3.49950    8.61170
 3850.00000   11.26140  117.82680  115.65370    8.64650    -999.25   91.42050   91.42050   75.66910   75.66910    8.64650   11.26140    8.86490  -42.81000   -6.89030    8.86490
 3900.00000   11.64530  109.14730  106.55070    9.38520    -999.25   89.45450   89.45450   75.93960   75.93960    9.38520   11.64530    9.70130  -43.62810   -7.70840    9.70130
 3950.00000   11.26520  101.98700   98.74300   10.12730    -999.25   86.67380   86.67380   76.67050   76.67050   10.12730   11.26520   11.08250  -41.70930   -5.78960   11.08250
 4000.00000   10.46220   97.20070   91.47290   10.93220    -999.25   95.05470   95.05470   86.83190   86.83190   10.93220   10.46220   12.52420  -43.08850   -7.16880   12.52420
 4050.00000    9.91010   97.22590   91.85690   10.88650    -999.25   96.10350   96.10350   86.21510   86.21510   10.88650    9.91010   12.84930  -40.83850   -4.91880   12.84930
 4100.00000   10.48180   85.93330   83.26810   12.00940    -999.25   93.90050   93.90050   91.20540   91.20540   12.00940   10.48180   15.71610  -40.51580   -4.59610   15.71610
 4150.00000   11.50590  108.19510  105.37190    9.49020    -999.25   93.28200   93.28200   82.43380   82.43380    9.49020   11.50590   11.38950  -40.26150   -4.30640   11.38950
 4200.00000   10.64260   79.77890   77.24930   12.94510    -999.25   84.43120   84.43120   81.20050   81.20050   12.94510   10.64260   13.59520  -40.97040   -4.96160   13.59520
 4250.00000   11.98190  112.22350  108.68970    9.20050    -999.25   86.45850   86.45850   78.17580   78.17580    9.20050   11.98190    9.49090  -42.78570   -6.72320    9.49090
 4300.00000   10.56180   91.21980   86.32600   11.58400    -999.25   83.95330   83.95330   78.96860   78.96860   11.58400   10.56180   12.03030  -41.62030   -5.50420   12.03030
 4350.00000   11.59260  109.24550  107.77490    9.27860    -999.25   88.71250   88.71250   75.92770   75.92770    9.27860   11.59260   10.14240  -42.06820   -5.89840   10.14240
 4400.00000   11.42420  118.99550  116.14540    8.60990    -999.25   85.29750   85.29750   77.41200   77.41200    8.60990   11.42420    9.36900  -40.95870   -4.73520    9.36900
 4450.00000   11.71160  107.99380  104.35470    9.58270    -999.25   91.00080   91.00080   92.39100   92.39100    9.58270   11.71160   10.53230  -38.90080   -2.62370   10.53230
 4500.00000   12.04110  131.70740  129.74710    7.70730    -999.25   89.39520   89.39520   87.59230   87.59230    7.70730   12.04110    8.21040  -40.88050   -4.54970    8.21040
 4550.00000   12.12320  109.96920  108.03220    9.25650    -999.25   86.08300   86.08300   76.58590   76.58590    9.25650   12.12320   10.05500  -41.35590   -4.97140   10.05500
 4600.00000   12.10140  108.64220  104.79320    9.54260    -999.25   89.07120   89.07120   81.28230   81.28230    9.54260   12.10140   10.28130  -41.50430   -5.06620   10.28130
 4650.00000    9.75620   59.93070   55.50780   18.01550    -999.25   78.22270   78.22270   69.67420   69.67420   18.01550    9.75620   21.11100  -42.33030   -5.83850   21.11100
 4700.00000   11.79000   94.95030   92.37620   10.82530    -999.25   81.93430   81.93430   81.77110   81.77110   10.82530   11.79000   11.48600  -40.89940   -4.35390   11.48600
 4750.00000   12.05640  102.54380   96.19730   10.39530    -999.25   84.23300   84.23300   90.13150   90.13150   10.39530   12.05640   11.18020  -40.64670   -4.04760   11.18020
 4800.00000   12.67730   97.87620   95.78450   10.44010    -999.25   86.42150   86.42150   85.50100   85.50100   10.44010   12.67730   11.84300  -42.51260   -5.85980   11.84300
 4850.00000   11.97440  123.41970  121.41670    8.23610    -999.25   88.22830   88.22830   95.86230   95.86230    8.23610   11.97440    9.87670  -42.68290   -5.97640    9.87670
 4900.00000   11.87740  143.94530  146.25870    6.83720    -999.25   96.72950   96.72950   92.36340   92.36340    6.83720   11.87740    8.91130  -41.68810   -4.92800    8.91130
 4950.00000   10.04370   99.09840   96.32980   10.38100    -999.25   93.29550   93.29550   98.09710   98.09710   10.38100   10.04370   13.25720  -41.41670   -4.60290   13.25720
 5000.00000   11.42380  112.61070  109.24780    9.15350    -999.25   94.04480   94.04480   89.79040   89.79040    9.15350   11.42380   11.87870  -41.99770   -5.13020   11.87870
 5050.00000    9.75650   79.05180   75.62120   13.22380    -999.25   86.04450   86.04450   87.14290   87.14290   13.22380    9.75650   18.76160  -42.34630   -5.42520   18.76160
 5100.00000    9.67940   80.04370   76.58490   13.05740    -999.25   94.98310   94.98310  104.29320  104.29320   13.05740    9.67940   19.04780  -40.82860   -3.85380   19.04780
 5150.00000   10.12940   94.97560   93.03800   10.74830    -999.25   92.59400   92.59400   93.88750   93.88750   10.74830   10.12940   16.01650  -40.81380   -3.78540   16.01650
 5200.00000   10.31070  102.34080   98.72840   10.12880    -999.25   99.94950   99.94950  101.87760  101.87760   10.12880   10.31070   14.49730  -39.22250   -2.14040   14.49730
 5250.00000   11.69830  143.01380  139.55180    7.16580    -999.25   94.66990   94.66990   84.77370   84.77370    7.16580   11.69830    9.05280  -42.49210   -6.71290    9.05280
 5300.00000   11.55980  133.72290  131.73490    7.59100    -999.25   93.56740   93.56740   89.51670   89.51670    7.59100   11.55980    9.22240  -40.16910   -6.45580    9.22240
 5350.00000   11.79480   98.91270   92.94460   10.75910    -999.25   78.86300   78.86300   75.23050   75.23050   10.75910   11.79480   11.82180  -36.98400   -5.33670   11.82180
 5400.00000   12.86520  176.92350  180.89070    5.52820    -999.25   94.23570   94.23570   85.39400   85.39400    5.52820   12.86520    7.45910  -32.84780   -1.94610    7.45910
