~Version ---------------------------------------------------
VERS.      2.0 : CWLS log ASCII Standard -VERSION 2.0
WRAP.       NO : One line per depth step
CREA. 11/10/17 : LAS Creation Date
~Well ------------------------------------------------------
STRT.FT                        1050.0 : START DEPTH
STOP.FT                       11950.0 : STOP DEPTH
STEP.FT                      50.00000 : STEP LENGTH
NULL.                         -999.25 : NULL VALUE
COMP.        CHEVRON STANDARD LIMITED : COMPANY
WELL. SOBC AMERADA N SIMON 11-6-67-26 : WELL
FLD .                                 : FIELD
LOC .                                 : LOCATION
CTRY.                          CANADA : COUNTRY
SRVC.          Schlumberger of Canada : SERVICE COMPANY
DATE.                     28-Mar-1967 : LOGDATE
PROV.                         Alberta : PROVINCE
UWI .                100110606726W500 : UNIQUE WELL ID
SLAT.WGS84                   54.77215 : SURFACE LATITUDE
SLON.WGS84                  -117.9555 : SURFACE LONGITUDE
~Curve Information -----------------------------------------
DEPT  .FT    : Depth Curve
CALSED.IN    : CALIPER FROM BHC LOG [DEPTH ADJ. TO LL8ED]
CALWS .IN    : CALIPER [TOP MCALED 8838' CALSED TD]
CONDWS.MMHO  : CONDUCTIVITY [1000/DRESWS]
DRESWS.OHMM  : DEEP RESISTIVITY [ILDED]
DTED  .US/F  : DELTA TIME FROM BHC LOG  [DEPTH ADJ. TO LL8ED]
DTWS  .US/F  : DELTA TIME [DTED]
GRSED .GAPI  : GAMMA RAY FROM BHC LOG [DEPTH ADJ. TO LL8ED]
GRWS  .GAPI  : GAMMA RAY [GRSED]
ILDED .OHMM  : INDUCTION LOG DEEP RESISTIVITY FROM DIL LOG
ILMED .OHMM  : INDUCTION LOG MEDIUM RESISTIVITY FROM DIL LOG
LL8ED .OHMM  : LATEROLOG 8 RESISTIVITY FROM DIL LOG
MCALED.IN    : CALIPER MICROLOG FROM MLC LOG [DEPTH ADJ. TO CALSED]
MRESWS.OHMM  : MEDIUM RESISTIVITY [ILMED]
SPRED .MV    : SPONTANEOUS POTENTIAL FROM DIL LOG
SRESWS.OHMM  : SHALLOW RESISTIVITY [LL8ED]
~Params ----------------------------------------------------
PD  .                     GL : PERMANENT DATUM
EPD .FT               2588.1 : ELEVATION PERMANENT DATUM
LMF .                     KB : LOG MEASURED FROM
DAPD.FT                 15.9 : FEET ABOVE PERMANENT DATUM
DMF .                     KB : DRILLING MEASURED FROM
EKB .FT               2604.0 : KELLY BUSHING
EGL .FT               2588.1 : GROUND LEVEL
DATE.               03/28/67 : RUN DATE
RUN .                      2 : RUN NUMBER
DD  .FT                11983 : DEPTH DRILLER
DL  .FT                11980 : DEPTH LOGGER
BLI .FT                11976 : BOTTOM LOG INTERVAL
TLI .FT                 8850 : TOP LOG INTERVAL
CBD .FT                 8849 : CASING BOTTOM DRILLER
CBL .FT                 8850 : CASING BOTTOM LOGGER
BS  .IN                  8.5 : BIT SIZE
BSD .FT                11983 : BIT SIZE AT DEPTH
DFT .               GEL CHEM : DRILLING FLUID TYPE
DFD .                   11.6 : DRILLING FLUID DENSITY
DFV .                     70 : DRILLING FLUID VISCOSITY
DFPH.                   11.0 : DRILLING FLUID PH
MSS .                   CIRC : MUD SAMPLE SOURCE
RMS .OHMM               0.78 : RESISTIVITY MUD SAMPLE
MST .DEGF                 58 : MUD SAMPLE TEMPERATURE
RMF .OHMM               0.47 : RESISTIVITY MUD FILTRATE SAMPLE
MFST.DEGF                 66 : MUD FILTRATE SAMPLE TEMPERATURE
RMC .OHMM               0.63 : RESISTIVITY MUD CAKE
MCST.DEGF                 62 : MUD CAKE SAMPLE TEMPERATURE
RMB .OHMM               0.25 : RESISTIVITY MUD AT BHT
TCS .HRS                 2.5 : TIME CIRCULATED STOPPED
LUN .                   2547 : LOGGING UNIT NUMBER
LUL .                    EDM : LOGGING UNIT LOCATION
ENGI.                   BIGG : RECORDING ENGINEER
WITN.                HOVDEBO : WITNESSED BY
CLNT.                A2DTECH : CLIENT CODE
ORIG.            2" 5" PRINT : ORIGIN OF DATA
UWI .       100110606726W500 : UNIQUE WELL ID
DICO. A2D Technologies, Inc. : DIGITIZING COMPANY
~Other -----------------------------------------------------
~ASCII -----------------------------------------------------
# ...
 7950.00000    -999.25   12.24220   18.45530   54.18510   48.11510   48.11510   34.84220   34.84220   54.18510   49.59140  188.07130   12.24220   49.59140  -49.63390  188.07130
 8000.00000    -999.25   15.16230   27.28390   36.65170   62.52940   62.52940   17.77660   17.77660   36.65170   40.67040   93.52960   15.16230   40.67040 -100.82560   93.52960
 8050.00000    -999.25   13.66420   62.23240   16.06880   50.56300   50.56300   19.62770   19.62770   16.06880   22.76100   92.81590   13.66420   22.76100 -121.05300   92.81590
 8100.00000    -999.25   11.99390  765.93140    1.30560   67.81260   67.81260   36.43140   36.43140    1.30560    1.73550    4.11480   11.99390    1.73550 -122.54390    4.11480
 8150.00000    -999.25   14.64030  211.03720    4.73850   61.60660   61.60660   23.68350   23.68350    4.73850    6.17400    7.23260   14.64030    6.17400 -115.35370    7.23260
 8200.00000    -999.25   13.32690   39.57210   25.27040   56.77950   56.77950   46.66720   46.66720   25.27040   27.06530   73.37470   13.32690   27.06530  -71.60520   73.37470
 8250.00000    -999.25   14.89210   16.89950   59.17340   53.06360   53.06360   24.00890   24.00890   59.17340   46.04180  106.42350   14.89210   46.04180 -103.19790  106.42350
 8300.00000    -999.25   13.03440   12.67230   78.91200   50.63560   50.63560   16.96870   16.96870   78.91200   57.12140  239.86140   13.03440   57.12140  -60.21990  239.86140
 8350.00000    -999.25   14.63470  116.97690    8.54870   67.50050   67.50050   49.50980   49.50980    8.54870   10.15210   12.14140   14.63470   10.15210  -25.82470   12.14140
 8400.00000    -999.25   15.01840   18.23330   54.84470   57.48770   57.48770   14.23370   14.23370   54.84470   34.09670   69.58570   15.01840   34.09670  -79.50480   69.58570
 8450.00000    -999.25   12.41160   63.64560   15.71200   63.71060   63.71060   56.90550   56.90550   15.71200   13.78740   31.47670   12.41160   13.78740  -53.72500   31.47670
 8500.00000    -999.25   14.01760   96.52790   10.35970   55.75880   55.75880   24.62210   24.62210   10.35970    8.81650   27.89150   14.01760    8.81650 -100.16820   27.89150
 8550.00000    -999.25   12.26360   13.72650   72.85190   50.93290   50.93290   20.20460   20.20460   72.85190   87.31210  176.89340   12.26360   87.31210  -68.18390  176.89340
 8600.00000    -999.25   15.97540   14.37430   69.56840   52.41920   52.41920   23.25780   23.25780   69.56840   64.47990  137.43690   15.97540   64.47990  -86.13640  137.43690
 8650.00000    -999.25   12.73740    7.87550  126.97630   50.92310   50.92310   13.02370   13.02370  126.97630   95.49210  129.72680   12.73740   95.49210 -106.45850  129.72680
 8700.00000    -999.25   12.50360   10.93040   91.48770   50.56400   50.56400   19.86150   19.86150   91.48770   48.58040  171.91050   12.50360   48.58040 -126.04880  171.91050
 8750.00000    -999.25   13.71520    8.72800  114.57370   50.47920   50.47920   12.22200   12.22200  114.57370   74.58070  213.76730   13.71520   74.58070 -108.19160  213.76730
 8800.00000    -999.25   12.55950  155.78510    6.41910   70.81850   70.81850   86.90920   86.90920    6.41910    7.08760   11.09710   12.55950    7.08760  -51.81370   11.09710
 8850.00000   10.08860   10.08860    -999.25    -999.25   54.78980   54.78980   20.60520   20.60520    -999.25    -999.25    -999.25    9.54650    -999.25    -999.25    -999.25
 8900.00000   10.24320   10.24320  117.06720    8.54210   67.68450   67.68450   45.25960   45.25960    8.54210    7.07180   11.55020    9.98990    7.07180 -134.72350   11.55020
 8950.00000   10.47720   10.47720   45.10670   22.16970   58.22370   58.22370   36.16420   36.16420   22.16970   19.96960   48.94960   10.43710   19.96960 -108.23810   48.94960
 9000.00000    9.43140    9.43140   13.95310   71.66850   53.68560   53.68560   29.06630   29.06630   71.66850   91.06420  235.83850    9.42870   91.06420 -111.48620  235.83850
 9050.00000    9.16300    9.16300   11.31190   88.40240   52.56980   52.56980   23.13120   23.13120   88.40240  169.86000  293.47170    9.34660  169.86000  -88.27670  293.47170
 9100.00000    9.47700    9.47700   18.37950   54.40840   51.50830   51.50830    8.90230    8.90230   54.40840   65.43140  206.75510    9.69490   65.43140  -93.12820  206.75510
 9150.00000    9.23790    9.23790   33.04340   30.26320   57.19270   57.19270   26.86730   26.86730   30.26320   32.33810   61.11870    9.31160   32.33810  -90.99340   61.11870
 9200.00000    9.20830    9.20830   25.55470   39.13180   55.83960   55.83960   25.52410   25.52410   39.13180   45.66260   84.02260    9.27050   45.66260 -119.82870   84.02260
 9250.00000    9.61320    9.61320   46.41470   21.54490   60.84780   60.84780   50.51760   50.51760   21.54490   23.59340   28.17850    9.58810   23.59340 -119.26900   28.17850
 9300.00000    9.38210    9.38210   23.28450   42.94700   58.92370   58.92370   36.35410   36.35410   42.94700   50.64320   72.66800    9.43890   50.64320 -127.32600   72.66800
 9350.00000    9.69780    9.69780   47.01320   21.27060   60.19980   60.19980   46.70410   46.70410   21.27060   28.43550   36.81570    9.58380   28.43550 -103.48880   36.81570
 9400.00000   10.37800   10.37800   47.07770   21.24150   64.59150   64.59150   56.74340   56.74340   21.24150   22.58550   25.47780    9.74000   22.58550  -84.77170   25.47780
 9450.00000    9.41910    9.41910   12.09310   82.69180   50.86120   50.86120   13.62020   13.62020   82.69180  187.04070  292.43430    9.79060  187.04070  -91.89400  292.43430
 9500.00000    9.78940    9.78940    8.01750  124.72760   49.61460   49.61460   12.36620   12.36620  124.72760  145.36520  500.58230   10.01040  145.36520 -112.13760  500.58230
 9550.00000    9.49510    9.49510    6.61050  151.27440   49.63780   49.63780   11.91000   11.91000  151.27440  130.23970  376.11590    9.90560  130.23970 -137.42400  376.11590
 9600.00000    9.66200    9.66200    6.37300  156.91090   49.48780   49.48780    8.33430    8.33430  156.91090  191.35090  620.00900   10.23080  191.35090 -159.36090  620.00900
 9650.00000    9.54040    9.54040    4.39080  227.75140   48.40090   48.40090    9.83020    9.83020  227.75140  132.10920  555.16490   10.40910  132.10920 -175.57830  555.16490
 9700.00000    9.83630    9.83630    6.92940  144.31350   49.95260   49.95260    8.92620    8.92620  144.31350  104.80940  288.25390   11.44470  104.80940 -157.55560  288.25390
 9750.00000    9.76970    9.76970    4.22400  236.74320   49.35690   49.35690   11.60020   11.60020  236.74320  182.23290  588.46200   10.65350  182.23290 -162.31400  588.46200
 9800.00000    9.86870    9.86870    4.87220  205.24480   49.09470   49.09470    5.23800    5.23800  205.24480  122.40790  566.84140   10.09440  122.40790 -173.21020  566.84140
 9850.00000   10.45100   10.45100    2.73040  366.25000   50.21240   50.21240    5.58450    5.58450  366.25000  175.12150  456.43380   11.44040  175.12150 -165.76880  456.43380
 9900.00000   10.43520   10.43520    7.38150  135.47390   50.52150   50.52150    9.32770    9.32770  135.47390  117.25220  617.92190   12.01030  117.25220 -137.94410  617.92190
 9950.00000   10.26020   10.26020    5.21430  191.78170   50.96120   50.96120   12.22570   12.22570  191.78170  133.59220  431.22390   10.85360  133.59220 -114.94970  431.22390
 10000.00000   10.13020   10.13020    5.63840  177.35480   49.77350   49.77350    9.17590    9.17590  177.35480  119.48620 1159.68520   11.36780  119.48620 -135.45630 1159.68520
 10050.00000    9.84120    9.84120    9.98140  100.18620   51.64020   51.64020    8.06370    8.06370  100.18620   60.34690  404.73820   10.80270   60.34690 -146.43790  404.73820
 10100.00000   10.19950   10.19950   12.81800   78.01540   51.14450   51.14450    9.16500    9.16500   78.01540   76.61730  499.75340   11.62200   76.61730 -160.65230  499.75340
 10150.00000    9.88050    9.88050   16.22240   61.64300   51.09610   51.09610    7.20080    7.20080   61.64300   81.76050  145.57950   10.03650   81.76050 -176.68890  145.57950
 10200.00000    9.85140    9.85140   32.87470   30.41850   51.93740   51.93740    5.19890    5.19890   30.41850   39.97220   94.19670    9.64280   39.97220 -196.50500   94.19670
