~Version ---------------------------------------------------
VERS.      2.0 : CWLS log ASCII Standard -VERSION 2.0
WRAP.       NO : One line per depth step
CREA. 07/23/13 : LAS Creation Date
~Well ------------------------------------------------------
STRT.FT                    300.0 : START DEPTH
STOP.FT                  13950.0 : STOP DEPTH
STEP.FT                 50.00000 : STEP LENGTH
NULL.                    -999.25 : NULL VALUE
COMP.   PENN WEST PETROLEUM LTD. : COMPANY
WELL. CONOCO WEB PECO 6-26-47-15 : WELL
FLD .                       PECO : FIELD
LOC .                            : LOCATION
CTRY.                     CANADA : COUNTRY
SRVC.     Schlumberger of Canada : SERVICE COMPANY
DATE.                03-May-1960 : LOGDATE
PROV.                    Alberta : PROVINCE
UWI .           100062604715W500 : UNIQUE WELL ID
SLAT.WGS84         53.0817985535 : SURFACE LATITUDE
SLON.WGS84       -116.0888900757 : SURFACE LONGITUDE
~Curve Information -----------------------------------------
DEPT .FT            : DEPTH FEET
CALM .IN            : CALIPER FROM MICRO LOG
CILD .MMHO          : CONDUCTIVITY FROM IL LOG
DT   .US/F          : DELTA-T 3 FEET SPACING FROM SONIC LOG
DT_1 .US/F          : DELTA-T 1 FEET SPACING FROM SONIC LOG
GRS  .UG_RA-EQ/TON  : GAMMA RAY FROM SONIC LOG
ILD  .OHMM          : DEEP INDUCTION FROM IL LOG
LN   .OHMM          : LONG NORMAL FROM EL LOG
LT18 .OHMM          : LATERAL 18 FROM EL LOG
MCAL .IN            : CALIPER FROM MICRO LOG
MLL  .OHMM          : MICRO LATEROLOG FROM MICRO LOG
SN   .OHMM          : SHORT NORMAL FROM EL LOG
SPR  .MV            : SPONTANEOUS POTENTIAL FROM EL LOG
SPR_1.MV            : SPONTANEOUS POTENTIAL FROM IL LOG
~Params ----------------------------------------------------
PD  .                    GND : PERMANENT DATUM
LMF .                    GND : LOG MEASURED FROM
DMF .                    GND : DRILLING MEASURED FROM
EGL .FT                 3857 : GROUND LEVEL
DATE.               05/03/60 : RUN DATE
RUN .                      2 : RUN NUMBER
DD  .FT                13975 : DEPTH DRILLER
DL  .FT                13965 : DEPTH LOGGER
BLI .FT                13960 : BOTTOM LOG INTERVAL
TLI .FT                 9389 : TOP LOG INTERVAL
CBD .FT                 9386 : CASING BOTTOM DRILLER
CBL .FT                 9389 : CASING BOTTOM LOGGER
BS  .IN                8.875 : BIT SIZE
BSD .FT                13975 : BIT SIZE AT DEPTH
DFT .                   LIME : DRILLING FLUID TYPE
DFD .                     10 : DRILLING FLUID DENSITY
DFV .                     96 : DRILLING FLUID VISCOSITY
DFPH.                     13 : DRILLING FLUID PH
RMS .OHMM               0.69 : RESISTIVITY MUD SAMPLE
MST .DEGF                 58 : MUD SAMPLE TEMPERATURE
RMF .OHMM                0.4 : RESISTIVITY MUD FILTRATE SAMPLE
MFST.DEGF                 70 : MUD FILTRATE SAMPLE TEMPERATURE
RMC .OHMM                0.7 : RESISTIVITY MUD CAKE
MCST.DEGF                 70 : MUD CAKE SAMPLE TEMPERATURE
RMB .OHMM               0.16 : RESISTIVITY MUD AT BHT
TCS .HRS                   5 : TIME CIRCULATED STOPPED
LUN .               DSU C 72 : LOGGING UNIT NUMBER
ENGI.                  JAMES : RECORDING ENGINEER
WITN.               SHERRIFF : WITNESSED BY
CLNT.                A2DTECH : CLIENT CODE
ORIG.            2" 5" PRINT : ORIGIN OF DATA
UWI .       100062604715W500 : UNIQUE WELL ID
DICO. A2D Technologies, Inc. : DIGITIZING COMPANY
~Other -----------------------------------------------------
~ASCII -----------------------------------------------------
# ...
 2900.00000    -999.25    -999.25   83.78290    -999.25    5.05730    -999.25   23.62570   20.12190   16.59740    -999.25   11.33280  -49.63760    -999.25
 2950.00000    -999.25    -999.25  108.28080    -999.25    4.20990    -999.25   16.00920   30.61000   16.59390    -999.25    7.61840  -46.15050    -999.25
 3000.00000    -999.25    -999.25   85.03790    -999.25    4.19250    -999.25   16.55000   66.40230   16.61650    -999.25    8.02810  -45.59850    -999.25
 3050.00000    -999.25    -999.25   71.33090    -999.25    3.26000    -999.25   40.36230   70.64300   15.01870    -999.25   16.98900  -54.16570    -999.25
 3100.00000    -999.25    -999.25   76.65670    -999.25    2.98140    -999.25   26.53340   47.62170   12.99120    -999.25   14.49630  -56.95100    -999.25
 3150.00000    -999.25    -999.25   78.62630    -999.25    3.71230    -999.25   22.51460   22.02050   14.42030    -999.25   13.78450  -52.65690    -999.25
 3200.00000    -999.25    -999.25   84.27780    -999.25    4.59120    -999.25   12.27160    8.39720   15.24100    -999.25    7.80320  -45.11930    -999.25
 3250.00000    -999.25    -999.25   90.76340    -999.25    5.05560    -999.25   13.29200   10.62840   14.70750    -999.25    8.23540  -46.99930    -999.25
 3300.00000    -999.25    -999.25   90.02830    -999.25    4.55490    -999.25   12.72050   15.46650   15.45210    -999.25    6.93130  -44.35680    -999.25
 3350.00000    -999.25    -999.25   96.72790    -999.25    4.83680    -999.25   10.87710   13.85860   14.52000    -999.25    6.03090  -42.83230    -999.25
 3400.00000    -999.25    -999.25   90.72060    -999.25    4.94280    -999.25   12.88190   14.72150   15.11760    -999.25    6.93280  -43.51180    -999.25
 3450.00000    -999.25    -999.25  104.95030    -999.25    4.74700    -999.25    5.49240    4.10610   13.36940    -999.25    3.09630  -43.73670    -999.25
 3500.00000    -999.25    -999.25   70.99020    -999.25    2.79690    -999.25   34.00180  158.01650   13.88170    -999.25   15.44110  -49.95350    -999.25
 3550.00000    -999.25    -999.25   68.09740    -999.25    3.28020    -999.25   24.48910   17.79280   14.68370    -999.25   12.51000  -53.11120    -999.25
 3600.00000    -999.25    -999.25   86.15190    -999.25    4.24680    -999.25   13.25920   21.43680   13.34740    -999.25    6.91870  -45.37350    -999.25
 3650.00000    -999.25    -999.25   84.47200    -999.25    4.52530    -999.25   13.23610   17.46440   14.20530    -999.25    6.02500  -43.91530    -999.25
 3700.00000    -999.25    -999.25   78.99140    -999.25    3.89380    -999.25   16.75260   13.81990   14.68380    -999.25    8.34020  -47.56940    -999.25
 3750.00000    -999.25    -999.25  108.67500    -999.25    4.85400    -999.25   18.76110   35.51620   14.41840    -999.25   10.34220  -46.04160    -999.25
 3800.00000    -999.25    -999.25   86.96280    -999.25    4.71860    -999.25   14.76120    7.22490   14.73550    -999.25    7.93360  -46.38560    -999.25
 3850.00000    -999.25    -999.25   83.54410    -999.25    5.52270    -999.25   13.58580   11.41190   14.98340    -999.25    7.41480  -44.90690    -999.25
 3900.00000    -999.25    -999.25   65.23290    -999.25    5.09200    -999.25    7.74270    8.95380   14.10490    -999.25    6.66340  -42.99170    -999.25
 3950.00000    -999.25    -999.25   72.41030    -999.25    3.07480    -999.25   15.63700   22.33670   15.16210    -999.25    9.09440  -49.32150    -999.25
 4000.00000    -999.25    -999.25   79.06690    -999.25    4.06600    -999.25   15.60700   19.22400   13.81810    -999.25    8.70320  -52.72050    -999.25
 4050.00000    -999.25    -999.25   84.42530    -999.25    5.25080    -999.25   10.23750   13.35110   16.16120    -999.25    6.30380  -44.07820    -999.25
 4100.00000    -999.25    -999.25   83.25490    -999.25    4.23420    -999.25   11.13150   20.24650   15.50140    -999.25    6.36510  -45.72090    -999.25
 4150.00000    -999.25    -999.25   98.74070    -999.25    4.86090    -999.25    7.65230    8.18000   16.29070    -999.25    3.86710  -42.73940    -999.25
 4200.00000    -999.25    -999.25   73.84110    -999.25    4.45360    -999.25   25.31460   26.63390   13.82520    -999.25   12.94030  -51.18140    -999.25
 4250.00000    -999.25    -999.25   73.19220    -999.25    3.77390    -999.25   24.81170   31.31780   14.91210    -999.25   11.62140  -53.32040    -999.25
 4300.00000    -999.25    -999.25   83.51620    -999.25    4.17310    -999.25    9.68040    9.89230   16.31690    -999.25    6.94400  -42.41170    -999.25
 4350.00000    -999.25    -999.25   96.79490    -999.25    4.97110    -999.25   10.06870   27.65460   15.99860    -999.25    7.78980  -44.82110    -999.25
 4400.00000    -999.25    -999.25   77.31910    -999.25    3.63300    -999.25   17.16220   20.62800   15.91340    -999.25   11.20950  -49.66500    -999.25
 4450.00000    -999.25    -999.25   90.05390    -999.25    5.10630    -999.25   10.75500    6.39070   16.57070    -999.25    6.19530  -45.04980    -999.25
 4500.00000    -999.25    -999.25   92.35650    -999.25    5.76220    -999.25    6.76150    6.38130   16.62670    -999.25    4.63580  -48.29690    -999.25
 4550.00000    -999.25    -999.25   91.52930    -999.25    4.55110    -999.25   11.58570   16.53670   16.45810    -999.25    6.45380  -47.62220    -999.25
 4600.00000    -999.25    -999.25   76.02260    -999.25    4.40010    -999.25    9.78210    9.56780   15.11510    -999.25    6.00590  -48.80020    -999.25
 4650.00000    -999.25    -999.25   64.18330    -999.25    3.45030    -999.25   28.50150   20.15730   13.24920    -999.25   15.21290  -59.81580    -999.25
 4700.00000    -999.25    -999.25   73.44400    -999.25    3.15540    -999.25   28.61400   31.82210   14.32500    -999.25   14.77530  -61.79310    -999.25
 4750.00000    -999.25    -999.25  103.10740    -999.25    4.63940    -999.25    8.42640    6.85170   16.53000    -999.25    3.77430  -45.97140    -999.25
 4800.00000    -999.25    -999.25   73.54170    -999.25    5.21390    -999.25   14.05550   13.59840   16.63730    -999.25    8.46940  -48.81490    -999.25
 4850.00000    -999.25    -999.25   68.85080    -999.25    3.15420    -999.25   24.89540   25.52210   15.83130    -999.25   12.11890  -55.79940    -999.25
 4900.00000    -999.25    -999.25   76.19540    -999.25    2.97090    -999.25   13.65330   15.44680   16.24040    -999.25    6.73710  -48.54220    -999.25
 4950.00000    -999.25  154.40760  101.72640    -999.25    5.94990    6.41080    7.78870    7.54060   16.17830    -999.25    5.67510  -47.34690  -26.73790
 5000.00000    -999.25  179.63940   85.22340    -999.25    4.00120    5.54350   10.86050   10.64040   16.10910    -999.25    6.04360  -48.65220  -26.60290
 5050.00000    -999.25  125.14560   73.04320   69.05300    4.27830    8.24420   14.92170    6.84030   16.64130    -999.25    8.33840  -46.53120  -29.13870
 5100.00000    -999.25   94.04230   77.58240   74.99320    5.31770   11.34770   21.14520   16.44650   16.70570    -999.25    9.78980  -50.80500  -33.71340
 5150.00000    -999.25  159.05610   75.42240   76.85110    3.63460    6.36520   14.67470   29.99140   16.81240    -999.25    6.86050  -50.48900  -30.95380
 5200.00000    -999.25  157.36290   89.32040   82.69480    4.87180    6.42360    9.36460   11.60140   16.61150    -999.25    5.88390  -44.84570  -26.98890
 5250.00000    -999.25  196.85550   84.30590    -999.25    5.62990    5.08200    7.74930    8.26150   16.63470    -999.25    5.28040  -44.11120  -27.14600
 5300.00000    -999.25  138.30610   82.05890    -999.25    5.11170    7.45660   13.14490    9.32950   15.16660    -999.25    7.26670  -44.55530  -26.52990
 5350.00000    -999.25  272.15890   88.28530    -999.25    4.89350    3.25730    6.30920   10.29210   16.74720    -999.25    3.88500  -39.78850  -23.56910
 5400.00000    -999.25   75.49710   79.32950    -999.25    4.49710   15.44660   23.38910   30.00660   16.70020    -999.25   10.62920  -41.10580  -24.34280
 5450.00000    -999.25  126.59440   76.27700    -999.25    4.01960    8.23120   10.46110   13.86800   16.63030    -999.25    6.98580  -42.50190  -23.02820
