~Version ---------------------------------------------------
VERS. 2.0 : CWLS log ASCII Standard -VERSION 2.0
WRAP.  NO : ONE LINE PER DEPTH STEP
~Well ------------------------------------------------------
STRT.M                  300.0 : START DEPTH
STOP.M                 2650.0 : STOP DEPTH
STEP.M               50.00000 : STEP LENGTH
NULL.                 -999.25 : NULL VALUE
COMP.    MOBIL OIL CANADA LTD : COMPANY
WELL. MOBIL CARSON 2-13-61-13 : WELL
FLD .                         : FIELD
LOC .                         : LOCATION
CTRY.                  CANADA : COUNTRY
SRVC.                 Unknown : SERVICE COMPANY
DATE.             20-May-1980 : LOGDATE
PROV.                 Alberta : PROVINCE
UWI .        100021306113W500 : UNIQUE WELL ID
SLAT.WGS84           54.27195 : SURFACE LATITUDE
SLON.WGS84          -115.8074 : SURFACE LONGITUDE
~Curve Information -----------------------------------------
DEPT   .M     0   1   0  0 : 1 MEASURED DEPTH
SPR    .MV    05 010 01 00 : SPONTANEOUS POTENTIAL FROM RESISTIVITY LOG
SN     .OHMM  05 040 00 00 : SHORT NORMAL RESISTIVITY
ILD    .OHMM  05 120 46 00 : INDUCTION DEEP RESISTIVITY
CILD   .MMHO  05 110 46 00 : INDUCTION DEEP CONDUCTIVITY
CALS   .MM    60 280 50 00 : CALIPER FROM SONIC LOG
GRS    .GAPI  60 310 01 00 : GAMMA RAY FROM SONIC LOG
AC     .US/M  60 500 00 00 : ACOUSTIC
TENS   .LB    60 635 00 00 : TENSION FROM SONIC LOG
TEND   .LB    45 635 00 00 : TENSION FROM DENSITY LOG
RHOB   .KG/M3 45 350 01 00 : BULK DENSITY
CALD   .MM    45 280 60 00 : CALIPER FROM DENSITY LOG
CORR   .KG/M3 45 356 01 00 : DENSITY CORRECTION
GRD    .GAPI  45 310 01 00 : GAMMA RAY FROM DENSITY LOG
NPHI_LS.DEC   42 890 01 00 : NEUTRON POROSITY LIMESTONE
DPHI_LS.DEC   45 890 10 00 : DENSITY POROSITY LIMESTONE
~Params ----------------------------------------------------
PD  .                         GL : PERMANENT DATUM
EPD .M                     806.3 : ELEVATION PERMANENT DATUM
LMF .                         KB : LOG MEASURED FROM
DAPD.M                       5.7 : FEET ABOVE PERMANENT DATUM
DMF .                         KB : DRILLING MEASURED FROM
EKB .M                       812 : KELLY BUSHING
EGL .M                     806.3 : GROUND LEVEL
DATE.                   05/20/80 : RUN DATE
RUN .                          1 : RUN NUMBER
DD  .M                      2670 : DEPTH DRILLER
DL  .M                      2670 : DEPTH LOGGER
BLI .M                      2669 : BOTTOM LOG INTERVAL
TLI .M                       308 : TOP LOG INTERVAL
CS  .MM                      244 : CASING SIZE
CBD .M                       307 : CASING BOTTOM DRILLER
CBL .M                       308 : CASING BOTTOM LOGGER
BS  .MM                      222 : BIT SIZE
BSD .M                      2670 : BIT SIZE AT DEPTH
DFT .                   GEL CHEM : DRILLING FLUID TYPE
DFD .                       1165 : DRILLING FLUID DENSITY
DFV .                         76 : DRILLING FLUID VISCOSITY
DFPH.                          9 : DRILLING FLUID PH
MSS .                   FLOWLINE : MUD SAMPLE SOURCE
RMS .OHMM                    2.2 : RESISTIVITY MUD SAMPLE
MST .DEGC                     20 : MUD SAMPLE TEMPERATURE
RMF .OHMM                    2.7 : RESISTIVITY MUD FILTRATE SAMPLE
MFST.DEGC                     20 : MUD FILTRATE SAMPLE TEMPERATURE
MFSS.                       MEAS : MUD FILTRATE SAMPLE SOURCE
MCSS.                       MEAS : MUD CAKE SAMPLE SOURCE
RMB .OHMM                    0.8 : RESISTIVITY MUD AT BHT
TCS .HRS                       7 : TIME CIRCULATED STOPPED
LUN .                    HL 6163 : LOGGING UNIT NUMBER
LUL .                        EDM : LOGGING UNIT LOCATION
ENGI.                       STEC : RECORDING ENGINEER
WITN.           FRASER NICHOLSON : WITNESSED BY
CLNT.                    A2DTECH : CLIENT CODE
ORIG. 6.5"/100M 16.5"/100M PRINT : ORIGIN OF DATA
UWI .           100021306113W500 : UNIQUE WELL ID
DICO.     A2D Technologies, Inc. : DIGITIZING COMPANY
~Other -----------------------------------------------------
~ASCII -----------------------------------------------------
  300.00000    -999.25    -999.25    -999.25    -999.25    -999.25   74.26150    -999.25    -999.25    -999.25    -999.25    -999.25    -999.25    -999.25    -999.25    -999.25
  350.00000  -50.26410    5.14480    4.19230  217.46000  302.06850   83.35020  353.96020 9021.83690    -999.25    -999.25    -999.25    -999.25    -999.25    -999.25    -999.25
  400.00000  -48.20060    4.59430    3.12380  279.33460  266.10420   93.89280  390.38960 9041.58790    -999.25    -999.25    -999.25    -999.25    -999.25    -999.25    -999.25
  450.00000  -44.78210    7.14060    6.01550  169.09290  264.08640   78.67480  321.27500 9007.62790    -999.25    -999.25    -999.25    -999.25    -999.25    -999.25    -999.25
  500.00000  -46.37750    2.57870    1.63700  461.84420  316.06200  119.97300  386.19810 9036.18260    -999.25    -999.25    -999.25    -999.25    -999.25    -999.25    -999.25
  550.00000  -47.40550    3.91220    2.81720  301.77090  255.52260   95.13930  341.04910 8997.55470    -999.25    -999.25    -999.25    -999.25    -999.25    -999.25    -999.25
  600.00000  -48.06250    6.54500    7.14820  156.54660  230.36660   78.35190  306.52540 9035.27540    -999.25    -999.25    -999.25    -999.25    -999.25    -999.25    -999.25
  650.00000  -59.24150   15.50750   11.22200   89.09250  223.29650   58.35370  287.45950 8965.33400    -999.25    -999.25    -999.25    -999.25    -999.25    -999.25    -999.25
  700.00000  -61.43130    7.53670    6.41950  154.06580  226.16860   79.36430  301.65890 9046.10550    -999.25    -999.25    -999.25    -999.25    -999.25    -999.25    -999.25
  750.00000  -64.75970    4.85440    3.97420  225.73630  239.31750   71.19740  319.28090 8999.79390    -999.25    -999.25    -999.25    -999.25    -999.25    -999.25    -999.25
  800.00000  -72.68650    9.92890    8.59490  129.43230  239.08140   78.31960  304.36360 9005.08790    -999.25    -999.25    -999.25    -999.25    -999.25    -999.25    -999.25
  850.00000  -38.45430    4.45180    3.18050  269.34050  241.83060   88.03790  326.52000 9003.15230    -999.25    -999.25    -999.25    -999.25    -999.25    -999.25    -999.25
  900.00000  -49.61330    6.44800    4.91710  187.69850  226.26280  114.11270  329.54770 9005.71970    -999.25    -999.25    -999.25    -999.25    -999.25    -999.25    -999.25
  950.00000  -54.88980    8.97280    7.90970  118.42400  242.41320  106.40590  297.88880 9013.67380    -999.25    -999.25    -999.25    -999.25    -999.25    -999.25    -999.25
 1000.00000  -54.09610    8.05870    5.33330  168.15220  266.33210  114.38690  308.23690 9002.72850    -999.25    -999.25    -999.25    -999.25    -999.25    -999.25    -999.25
 1050.00000  -52.88320    8.16970    7.05100  133.44050  233.35380  124.80010  284.24880 8991.78420    -999.25    -999.25    -999.25    -999.25    -999.25    -999.25    -999.25
 1100.00000  -50.31820    7.46470    6.43470  142.52990  235.74750  137.29150  292.90630 8969.72360    -999.25    -999.25    -999.25    -999.25    -999.25    -999.25    -999.25
 1150.00000  -50.52860    8.88170    7.97840  120.14870  233.91430  139.26730  334.66130 9073.87990    -999.25    -999.25    -999.25    -999.25    -999.25    -999.25    -999.25
 1200.00000  -36.82650    8.18780    6.65430  144.06740  234.40230  136.85910  315.62390 8955.98340    -999.25    -999.25    -999.25    -999.25    -999.25    -999.25    -999.25
 1250.00000  -38.93880    6.52290    5.56320  164.98680  237.84530  115.94460  289.83670 8928.74610    -999.25    -999.25    -999.25    -999.25    -999.25    -999.25    -999.25
 1300.00000  -45.01470    5.66230    4.44350  199.89940  288.43260  127.58170  311.65820 9031.26370    -999.25    -999.25    -999.25    -999.25    -999.25    -999.25    -999.25
 1350.00000  -47.61140    4.50910    3.12690  256.66800  259.88880  114.11680  314.60840 8983.95700    -999.25    -999.25    -999.25    -999.25    -999.25    -999.25    -999.25
 1400.00000  -53.20590    7.44730    6.80360  132.29440  264.06120   78.01490  276.64670 8991.07810    -999.25    -999.25    -999.25    -999.25    -999.25    -999.25    -999.25
 1450.00000  -57.10020   20.06020   12.59660   86.66740  321.44740  100.19950  312.64840 8982.09670    -999.25    -999.25    -999.25    -999.25    -999.25    -999.25    -999.25
 1500.00000 -117.07820   18.90030   10.35410   94.98500  237.07760   64.59330  237.08130 9002.36040    -999.25    -999.25    -999.25    -999.25    -999.25    -999.25    -999.25
 1550.00000  -50.10110   12.17950    9.70450  101.55100  256.69550   88.80340  246.25690 8977.48930    -999.25    -999.25    -999.25    -999.25    -999.25    -999.25    -999.25
 1600.00000  -55.11120   41.48400   38.60600   27.36190  266.95900   67.99320  203.32630 8979.36820    -999.25    -999.25    -999.25    -999.25    -999.25    -999.25    -999.25
 1650.00000  -50.72760    9.73860    8.63010  111.72060  287.72020  107.73970  252.36740 8980.88180    -999.25    -999.25    -999.25    -999.25    -999.25    -999.25    -999.25
 1700.00000 -209.76570   85.77680   28.20450   38.20970  216.79850   23.76570  167.50930 8982.39550    -999.25    -999.25    -999.25    -999.25    -999.25    -999.25    -999.25
 1750.00000  -66.41290   24.52230   17.70290   60.15810  253.09540   75.42410  190.37960 8980.91310    -999.25    -999.25    -999.25    -999.25    -999.25    -999.25    -999.25
 1800.00000  -49.65000   19.95270   16.06250   62.54930  265.76230   48.32440  187.80110 8983.34960    -999.25    -999.25    -999.25    -999.25    -999.25    -999.25    -999.25
 1850.00000  -67.10680   62.41100   47.00800   23.58060  239.27670   40.08330  168.10490 8986.57910    -999.25    -999.25    -999.25    -999.25    -999.25    -999.25    -999.25
 1900.00000  -77.42150   14.18220   12.78470   79.43590  259.05050   99.38030  195.88260 8989.80760    -999.25    -999.25    -999.25    -999.25    -999.25    -999.25    -999.25
 1950.00000 -146.71840   98.07840  224.39910    5.44120  267.17580   18.46390  161.58290 8994.21000    -999.25    -999.25    -999.25    -999.25    -999.25    -999.25    -999.25
 2000.00000 -207.69090   91.45820   75.30950   14.89160  254.49450   18.85710  162.05980 9001.90920    -999.25    -999.25    -999.25    -999.25    -999.25    -999.25    -999.25
 2050.00000 -132.03280  146.76030  119.21430    8.77060  249.67310   22.28550  160.31480 9008.95900    -999.25    -999.25    -999.25    -999.25    -999.25    -999.25    -999.25
 2100.00000 -203.13080   85.52240   22.47830   44.95850  221.27820   16.92560  168.37260 8978.48540    -999.25    -999.25    -999.25    -999.25    -999.25    -999.25    -999.25
 2150.00000 -115.36570   46.72540   22.61480   51.48900  232.22690   37.52430  161.09220 9099.54300    -999.25    -999.25    -999.25    -999.25    -999.25    -999.25    -999.25
 2200.00000  -31.51810   96.60890   72.32770   14.10830  248.64600   39.54200  167.49610 8986.46780    -999.25    -999.25    -999.25    -999.25    -999.25    -999.25    -999.25
 2250.00000  -29.53130   21.06970   13.73970   73.25810  267.45290   60.15530  192.91280 8982.66110    -999.25    -999.25    -999.25    -999.25    -999.25    -999.25    -999.25
 2300.00000  -42.83110    5.07630    4.03520  223.61970  399.92810   95.70730  270.14290 9019.49900    -999.25    -999.25    -999.25    -999.25    -999.25    -999.25    -999.25
 2350.00000  -43.12880    6.05710    4.66340  209.36700  377.31130  110.44980  265.51350 8986.35740    -999.25    -999.25    -999.25    -999.25    -999.25    -999.25    -999.25
 2400.00000  -36.00740   15.43640    9.23760  109.89090  253.64740  102.32180  219.10680 8981.89550 9087.03220 2706.70610  250.07730   -4.99910  100.89420    0.18160   -0.01130
 2450.00000  -37.89130   14.23350    8.36000  119.02590  253.74140  126.24810  234.78570 8961.61130 8862.90230 2540.25510  272.05430  123.28560  104.46620    0.20290    0.06250
 2500.00000  -47.77440   10.30400    6.54580  154.65920  259.62800  110.75650  261.03060 9120.37210 9105.66800 2348.11910  295.29310  114.99650  114.42260    0.25020    0.12780
 2550.00000  -22.87470   35.48260   20.94130   51.44730  247.41910  127.21510  271.79520 9116.12790 9203.71290 2553.61960  253.92460   15.99920  141.25590    0.21620    0.05660
