~Version ---------------------------------------------------
VERS. 2.0 : CWLS log ASCII Standard -VERSION 2.0
WRAP.  NO : ONE LINE PER DEPTH STEP
~Well ------------------------------------------------------
STRT.M                         300.0 : START DEPTH
STOP.M                        2400.0 : STOP DEPTH
STEP.M                      50.00000 : STEP LENGTH
NULL.                        -999.25 : NULL VALUE
COMP.   HUSKY OIL OPERATIONS LIMITED : COMPANY
WELL. CANTERRA GHOST PINE 8-33-31-22 : WELL
FLD .                                : FIELD
LOC .                                : LOCATION
CTRY.                         CANADA : COUNTRY
SRVC.                   Schlumberger : SERVICE COMPANY
DATE.                    02-Sep-1989 : LOGDATE
PROV.                        Alberta : PROVINCE
UWI .               100083303122W400 : UNIQUE WELL ID
SLAT.WGS84                  51.69754 : SURFACE LATITUDE
SLON.WGS84                 -113.0561 : SURFACE LONGITUDE
~Curve Information -----------------------------------------
DEPT   .M                  : 
C1     .MM                 : CALIPER 1
C2     .MM                 : CALIPER 2
PEF    .B/E   45 358 01 00 : PHOTOELECTRIC FACTOR
RHOB   .KG/M3 45 350 01 00 : BULK DENSITY
DRHO   .KG/M3 45 356 01 00 : BULK DENSITY CORRECTION
GRD    .GAPI               : GAMMA RAY FROM DENSITY LOG
NPHI_LS.DEC                : NEUTRON POROSITY LIMESTONE
DPHI_LS.DEC   45 890 10 00 : DENSITY POROSITY LIMESTONE
TEND   .LB                 : TENSION FROM DENSITY LOG
IDPH   .OHMM  07 120 46 00 : INDUCTION DEEP PHASOR RES
IMPH   .OHMM  07 120 44 00 : INDUCTION MEDIUM PHASOR RES.
SFLU   .OHMM               : SHALLOW FOCUS LOG
TENR   .LB                 : TOTAL TENSION FROM RESISTIVITY
SPR    .MV                 : SPONTANEOUS POTENTIAL FROM RESISTIVITY
GRR    .GAPI  07 310 01 00 : GAMMA RAY FROM RESISTIVITY
GRS    .GAPI               : GAMMA RAY FROM SONIC LOG
DT     .US/M  60 520 00 00 : ACOUSTIC TRANSIT TIME SLOWNESS, DELTA T
HD     .MM                 : HORIZONTAL HOLE DIAMETER
TENS   .LB    35 635 01 00 : TENSION FROM GRN LOG
~Params ----------------------------------------------------
PD  .                         GL : PERMANENT DATUM
EPD .M                     834.8 : ELEVATION PERMANENT DATUM
LMF .                         KB : LOG MEASURED FROM
DAPD.M                       5.4 : FEET ABOVE PERMANENT DATUM
DMF .                         KB : DRILLING MEASURED FROM
EKB .M                      84.2 : KELLY BUSHING
EDF .M                     839.9 : DRILLING FLOOR
EGL .M                     834.8 : GROUND LEVEL
DATE.                   09/02/89 : RUN DATE
RUN .                          2 : RUN NUMBER
DD  .M                      2398 : DEPTH DRILLER
DL  .M                    2397.5 : DEPTH LOGGER
BLI .M                    2394.5 : BOTTOM LOG INTERVAL
TLI .M                      2270 : TOP LOG INTERVAL
CS  .MM                      244 : CASING SIZE
CBD .M                       387 : CASING BOTTOM DRILLER
CBL .M                       387 : CASING BOTTOM LOGGER
BSD .M                      2398 : BIT SIZE AT DEPTH
DFT .                   GEL CHEM : DRILLING FLUID TYPE
DFD .                       1070 : DRILLING FLUID DENSITY
DFV .                         58 : DRILLING FLUID VISCOSITY
DFPH.                         10 : DRILLING FLUID PH
DFL .                         15 : DRILLING FLUID LOSS
MSS .                   FLOWLINE : MUD SAMPLE SOURCE
RMS .OHMM                  0.838 : RESISTIVITY MUD SAMPLE
MST .DEGC                   21.1 : MUD SAMPLE TEMPERATURE
RMF .OHMM                  0.838 : RESISTIVITY MUD FILTRATE SAMPLE
MFST.DEGC                   21.1 : MUD FILTRATE SAMPLE TEMPERATURE
RMC .OHMM                  0.353 : RESISTIVITY MUD CAKE
MCST.DEGC                   61.7 : MUD CAKE SAMPLE TEMPERATURE
MFSS.                       MEAS : MUD FILTRATE SAMPLE SOURCE
MCSS.                       CALC : MUD CAKE SAMPLE SOURCE
RMB .OHMM                   0.43 : RESISTIVITY MUD AT BHT
TCS .HRS                    2400 : TIME CIRCULATED STOPPED
TLAB.HRS                     430 : TIME LOGGER AT BOTTOM
LUN .                       8398 : LOGGING UNIT NUMBER
LUL .                       BRKS : LOGGING UNIT LOCATION
ENGI.                   REA KUHN : RECORDING ENGINEER
WITN.                    MCGRATH : WITNESSED BY
CLNT.                    A2DTECH : CLIENT CODE
ORIG. 6.5"/100M 16.5"/100M PRINT : ORIGIN OF DATA
UWI .           100083303122W400 : UNIQUE WELL ID
DICO.     A2D Technologies, Inc. : DIGITIZING COMPANY
~Other -----------------------------------------------------
~ASCII -----------------------------------------------------
  300.00000    -999.25    -999.25    -999.25    -999.25    -999.25    -999.25    -999.25    -999.25    -999.25    -999.25    -999.25    -999.25    -999.25    -999.25    -999.25    -999.25    -999.25    -999.25    -999.25
  350.00000    -999.25    -999.25    -999.25    -999.25    -999.25    -999.25    -999.25    -999.25    -999.25    -999.25    -999.25    -999.25    -999.25    -999.25    -999.25    -999.25    -999.25    -999.25    -999.25
  400.00000  268.61910  262.93280    -999.25    -999.25    -999.25    -999.25    -999.25    -999.25    -999.25    4.71870    4.12520    4.40020  813.24270  -66.53840    -999.25   95.86640  352.77480  268.58690 1041.39380
  450.00000  309.29420  239.85780    -999.25    -999.25    -999.25    -999.25    -999.25    -999.25    -999.25    4.76730    3.88260    3.90110  836.28180  -58.13950    -999.25   92.71650  330.32470  270.35540 1092.85610
  500.00000  233.43800  231.88920    -999.25    -999.25    -999.25    -999.25    -999.25    -999.25    -999.25    4.86400    4.45910    4.35220  938.04920  -58.11150    -999.25   84.08340  330.14110  247.09260 1156.51830
  550.00000  253.85760  271.20990    -999.25    -999.25    -999.25    -999.25    -999.25    -999.25    -999.25    6.56400    6.28310    5.90190  941.31970  -57.64550    -999.25   61.24630  342.50820  292.10440 1212.04140
  600.00000  262.37250  290.67450    -999.25    -999.25    -999.25    -999.25    -999.25    -999.25    -999.25    5.15800    4.01050    3.73420  990.32460  -55.27440    -999.25   74.75600  334.19900  275.87760 1234.70980
  650.00000  316.88120  263.37810    -999.25    -999.25    -999.25    -999.25    -999.25    -999.25    -999.25    4.48650    4.27760    3.85440 1042.52320  -54.76430    -999.25   61.93580  335.61170  262.50720 1254.83560
  700.00000  244.93160  253.97690    -999.25    -999.25    -999.25    -999.25    -999.25    -999.25    -999.25    4.91940    4.63810    5.00430 1057.82650  -52.98930    -999.25   64.73900  313.52820  245.05700 1350.91090
  750.00000  279.86020  230.87170    -999.25    -999.25    -999.25    -999.25    -999.25    -999.25    -999.25    5.12420    4.22000    3.91040 1120.29220  -51.59690    -999.25   68.31150  312.68390  255.07840 1391.88710
  800.00000  302.74360  242.80270    -999.25    -999.25    -999.25    -999.25    -999.25    -999.25    -999.25    7.82490    6.88840    6.78490 1209.13310  -52.08390    -999.25   96.09490  298.56220  304.95360 1440.62980
  850.00000  261.27150  241.81180    -999.25    -999.25    -999.25    -999.25    -999.25    -999.25    -999.25    9.68710    8.61620    8.02720 1205.77670  -54.01890    -999.25   89.87050  290.62420  264.41670 1463.51980
  900.00000  238.93820  222.53770    -999.25    -999.25    -999.25    -999.25    -999.25    -999.25    -999.25   19.19080   22.55860   24.49710 1247.48320  -53.12610    -999.25   84.29810  258.75170  235.24180 1523.08200
  950.00000  259.77450  288.60730    -999.25    -999.25    -999.25    -999.25    -999.25    -999.25    -999.25    7.23700    6.17260    6.22550 1308.95060  -51.38280    -999.25   96.55800  287.27580  268.58180 1551.25390
 1000.00000  273.50970  242.78740    -999.25    -999.25    -999.25    -999.25    -999.25    -999.25    -999.25    7.44670    7.03910    7.01350 1345.57750  -47.60330    -999.25  104.64580  293.93080  264.01810 1648.43260
 1050.00000  233.81820  257.32570    -999.25    -999.25    -999.25    -999.25    -999.25    -999.25    -999.25   10.37800    9.44900    9.95610 1386.75850 -126.28730    -999.25  104.95790  271.35400  244.40230 1655.63350
 1100.00000  297.99860  254.60790    -999.25    -999.25    -999.25    -999.25    -999.25    -999.25    -999.25    7.80910    6.79050    7.16670 1453.26270 -124.09070    -999.25  103.27350  287.34970  294.42200 1707.96880
 1150.00000  238.39460  266.00750    -999.25    -999.25    -999.25    -999.25    -999.25    -999.25    -999.25    6.62500    6.54270    7.19000 1499.26150 -115.65330    -999.25  125.03130  316.62200  251.14390 1737.63480
 1200.00000  249.09760  245.48310    -999.25    -999.25    -999.25    -999.25    -999.25    -999.25    -999.25    8.19550    9.38110   11.47870 1540.83040 -113.30590    -999.25  134.52370  290.04770  266.92790 1796.07640
 1250.00000  301.11300  270.06560    -999.25    -999.25    -999.25    -999.25    -999.25    -999.25    -999.25    2.52280    2.45530    2.81180 1573.86600 -113.22040    -999.25  104.96860  330.32810  292.29040 1826.13600
 1300.00000  246.45720  242.48650    -999.25    -999.25    -999.25    -999.25    -999.25    -999.25    -999.25   13.47790   13.97540   14.36150 1636.95450 -114.76820    -999.25   54.02640  242.83290  248.96140 1871.21560
 1350.00000  314.07660  251.95540    -999.25    -999.25    -999.25    -999.25    -999.25    -999.25    -999.25    1.44600    1.29700    1.59320 1646.71750 -108.25400    -999.25   85.51850  359.79960  302.08530 1905.09220
 1400.00000  266.25560  260.83770    -999.25    -999.25    -999.25    -999.25    -999.25    -999.25    -999.25   19.72980   24.18010   62.83300 1714.32320 -112.78520    -999.25   44.14750  204.14230  271.33400 1987.64660
 1450.00000  271.21980  305.07910    -999.25    -999.25    -999.25    -999.25    -999.25    -999.25    -999.25   11.59370   10.87340   11.87040 1743.37870  -97.31660    -999.25   63.47230  236.94660  291.08900 2020.49430
 1500.00000  279.17320  334.94120    3.86420 2715.24800    3.99030   56.43400    0.22330   -0.00610 2834.35640   13.44970   13.96400   14.69200 1839.33450  -86.02530    -999.25   52.88720  220.64810  310.31430 2040.84220
 1550.00000  265.60810  267.36260    5.02400 2685.64550    5.35830   93.94420    0.02600    0.01550 2924.62670   76.67630   58.57610   93.39200 1874.43320  -87.38340    -999.25   77.66020  178.09630  268.40450 2153.75850
 1600.00000  256.84620  256.82640    4.34250 2674.27730    1.98760   55.98100    0.10770    0.02080 2912.23850   13.34120   13.17590   16.04340 1892.83800  -99.66640    -999.25   58.58620  221.72810  262.41720 2205.84670
 1650.00000  262.58460  260.15850    4.00650 2660.16240   11.37770   72.39670    0.14450    0.03010 2944.30930   10.27880   10.66410   12.71430 1942.55920  -95.97040    -999.25   73.36790  233.77670  271.17060 2202.04420
 1700.00000  234.05200  232.66220    4.97000 2907.45920    7.68230    7.33690    0.01050   -0.11590 3014.92870   81.80360   85.68100  180.24940 1988.19340  -59.80020    -999.25   10.14800  173.84220  236.77710 2249.30620
 1750.00000  229.83430  228.61890    4.77800 2942.34740    6.15380    6.00910    0.01840   -0.13370 3046.93920   33.68200   42.14430   90.96910 2040.43460  -18.53220    -999.25    5.90060  173.77090  236.44390 2284.73140
 1800.00000  249.45830  241.88820    4.91620 2885.44340    3.18420   14.46280    0.01330   -0.10180 3085.61180  151.81850  104.58430  171.42390 2051.54540  324.24950    -999.25   13.60650  174.67630  248.88800 2336.61550
 1850.00000  231.81720  237.07230    4.27360 2892.97730   -0.34250   18.98710    0.00730   -0.10610 3147.05030 1904.21200    -999.25 1018.45470 2111.69850  452.86440    -999.25   21.52980  159.87790  245.69150 2418.73050
 1900.00000  233.51070  235.51110    3.05870 2795.91280    5.90100   57.73790    0.10900   -0.05060 3174.36280   42.04710   44.72880   45.40380 2137.78690 -173.39970    -999.25   56.88740  176.54180  248.15280 2435.14230
 1950.00000  231.44360  235.10060    3.59230 2690.63130    6.72910   81.85010    0.07720    0.01130 3234.67800   39.96280   43.85560   44.57310 2199.02270 -120.12360    -999.25   85.42590  190.46370  246.07850 2491.83300
 2000.00000  225.98160  232.06330    3.99210 2721.68360   -1.02510   88.63850    0.12580   -0.00620 3302.76200   34.74640   38.96190   45.10240 2250.41940 1005.18770    -999.25   85.61980  199.05260  240.96280 2518.62670
 2050.00000  226.09840  235.18260    4.72500 2695.82760   -1.75710   32.30990    0.02790    0.00930 3398.51270  113.14980  156.60090  123.57160 2257.64280 1456.32680    -999.25   30.46960  175.10970  241.12880 2594.77710
 2100.00000  220.10260  357.57530    3.75640 2614.18090   42.20350   11.55580    0.02800    0.05070 3403.71460  180.15290 1354.96910 2008.76400 2279.81100 1456.39670    -999.25    9.02450  169.11430  256.82770 2657.98220
