~Version ---------------------------------------------------
VERS.      2.0 : CWLS log ASCII Standard -VERSION 2.0
WRAP.       NO : One line per depth step
CREA. 08/31/17 : LAS Creation Date
~Well ------------------------------------------------------
STRT.FT                          1500.0 : START DEPTH
STOP.FT                         11900.0 : STOP DEPTH
STEP.FT                        50.00000 : STEP LENGTH
NULL.                           -999.25 : NULL VALUE
COMP.  AMOCO CANADA PETROLEUM CO., LTD. : COMPANY
WELL. AMOCO HB FINA FIR S-I  7-26-59-20 : WELL
FLD .                                   : FIELD
LOC .                                   : LOCATION
CTRY.                            CANADA : COUNTRY
SRVC.            Schlumberger of Canada : SERVICE COMPANY
DATE.                       07-Jan-1978 : LOGDATE
PROV.                           Alberta : PROVINCE
UWI .                  100072605920W500 : UNIQUE WELL ID
SLAT.WGS84                     54.12779 : SURFACE LATITUDE
SLON.WGS84                    -116.8825 : SURFACE LONGITUDE
~Curve Information -----------------------------------------
DEPT    .FT    : Depth Curve
CALDED  .IN    : CALIPER FROM CNFD LOG
CALSED  .IN    : CALIPER FROM BCS LOG [ADJ. TO GRDED]
CALWS   .IN    : CALIPER [CALSED]
CONDWS  .MMHO  : CONDUCTIVITY [1000/DRESWS]
DCORED  .G/C3  : DENSITY CORRECTION FROM CNFD LOG
DCORWS  .G/C3  : DENSITY CORRECTION [DCORED]
DENWS   .G/C3  : FORMATION BULK DENSITY [RHOBED]
DPHILSED.V/V   : DENSITY POROSITY LIMESTONE [M=2.71, F=1.0] FROM CNFD LOG [ADJ. TO RHOBED]
DPHISSED.V/V   : DENSITY POROSITY SANDSTONE [M=2.65, F=1.0] FROM CNFD LOG [ADJ. TO RHOBED]
DPOLSWS .V/V   : DENSITY POROSITY LIMESTONE [CALCULATED FROM DENWS, M=2.71, F=1.0]
DRESWS  .OHMM  : DEEP RESISTIVITY [ILDED]
DTED    .US/F  : ACOUSTIC TRANSIT TIME SLOWNESS, DELTA T FROM BCS LOG [ADJ. TO GRDED]
DTWS    .US/F  : COMPRESSIONAL SONIC [DTED]
GRDED   .GAPI  : GAMMA RAY FROM CNFD LOG
GRSED   .GAPI  : GAMMA RAY FROM BCS LOG [ADJ. TO GRDED]
GRWS    .GAPI  : GAMMA RAY [GRSED]
ILDED   .OHMM  : DEEP INDUCTION FROM DILL LOG
ILMED   .OHMM  : MEDIUM INDUCTION FROM DILL LOG
LL8ED   .OHMM  : LATEROLOG RESISTIVITY FROM DILL LOG
MRESWS  .OHMM  : MEDIUM RESISTIVITY [ILMED]
NPHILSED.V/V   : NEUTRON POROSITY LIMESTONE FROM CNFD LOG [ADJ. TO RHOBED]
NPHISSED.V/V   : NEUTRON POROSITY SANDSTONE FROM CNFD LOG [ADJ. TO RHOBED]
NPOLSWS .V/V   : NEUTRON POROSITY LIMESTONE [NPHISSED CONVERTED TO LIMESTONE MATRIX, SPL. TO NPHILSED @ 2468.27M]
RHOBED  .G/C3  : HRDD HIGH RESOLUTION FORMATION DENSITY FROM CNFD LOG
SPRED   .MV    : SPONTANEOUS POTENTIAL FROM DILL LOG
SRESWS  .OHMM  : SHALLOW RESISTIVITY [LL8ED]
~Params ----------------------------------------------------
PD  .                     GL : PERMANENT DATUM
EPD .FT              3289.04 : ELEVATION PERMANENT DATUM
LMF .                     KB : LOG MEASURED FROM
DAPD.FT                 21.2 : FEET ABOVE PERMANENT DATUM
EKB .FT              3310.24 : KELLY BUSHING
EGL .FT              3289.04 : GROUND LEVEL
DATE.               01/07/78 : RUN DATE
RUN .                      1 : RUN NUMBER
DD  .FT                11910 : DEPTH DRILLER
DL  .FT                11919 : DEPTH LOGGER
BLI .FT                11913 : BOTTOM LOG INTERVAL
TLI .FT                 1534 : TOP LOG INTERVAL
CBD .FT                 1534 : CASING BOTTOM DRILLER
CBL .FT                 1534 : CASING BOTTOM LOGGER
BS  .IN                 8.75 : BIT SIZE
BSD .FT                11910 : BIT SIZE AT DEPTH
DFT .                    GEL : DRILLING FLUID TYPE
DFD .                    9.5 : DRILLING FLUID DENSITY
DFV .                    105 : DRILLING FLUID VISCOSITY
DFPH.                    9.5 : DRILLING FLUID PH
DFL .                    9.0 : DRILLING FLUID LOSS
MSS .               FLOWLINE : MUD SAMPLE SOURCE
RMS .OHMM               1.78 : RESISTIVITY MUD SAMPLE
MST .DEGF                 85 : MUD SAMPLE TEMPERATURE
RMF .OHMM               1.74 : RESISTIVITY MUD FILTRATE SAMPLE
MFST.DEGF                 54 : MUD FILTRATE SAMPLE TEMPERATURE
TCS .HRS                   5 : TIME CIRCULATED STOPPED
LUN .                   7730 : LOGGING UNIT NUMBER
LUL .                    EDM : LOGGING UNIT LOCATION
ENGI.   ACKERMAN STEENBERGEN : RECORDING ENGINEER
CLNT.                A2DTECH : CLIENT CODE
ORIG.            2" 5" PRINT : ORIGIN OF DATA
UWI .       100072605920W500 : UNIQUE WELL ID
DICO. A2D Technologies, Inc. : DIGITIZING COMPANY
~Other -----------------------------------------------------
~ASCII -----------------------------------------------------
# ...
 4200.00000    9.28360    9.68030    9.68030  163.92640    0.07010    0.07010    2.44530    -999.25    0.11970    0.15480    6.10030   84.89640   84.89640   70.33190   88.67380   88.67380    6.39280    6.39280    6.95330    6.39280    -999.25    0.34960    0.30600    2.44530 -117.04730    6.95330
 4250.00000    8.76270    9.54740    9.54740   29.30020    0.06240    0.06240    2.44370    -999.25    0.13590    0.15570   34.12950   76.23480   76.23480   41.56070   55.49260   55.49260   36.50190   36.50190   34.37270   36.50190    -999.25    0.28130    0.23730    2.44370 -127.66570   34.37270
 4300.00000   10.27260    9.75650    9.75650  124.80740    0.21450    0.21450    2.41140    -999.25    0.15820    0.17460    8.02540   91.84300   91.84300   71.82050   94.28850   94.28850    8.71440    8.71440    9.13060    8.71440    -999.25    0.29070    0.24670    2.41140 -117.13060    9.13060
 4350.00000    8.92720   10.16090   10.16090  132.98760    0.21430    0.21430    2.46220    -999.25    0.09140    0.14490    7.51950   78.36690   78.36690   72.78120   90.83730   90.83730    7.96990    7.96990    7.53250    7.96990    -999.25    0.40750    0.36480    2.46220 -115.99630    7.53250
 4400.00000    8.68800    9.31450    9.31450   71.00840    0.04410    0.04410    2.51770    -999.25    0.09670    0.11240   14.16350   75.68110   75.68110   47.45630   72.80320   72.80320   17.10100   17.10100   24.76530   17.10100    -999.25    0.24240    0.19850    2.51770 -118.22710   24.76530
 4450.00000    8.46730    8.88820    8.88820   51.51610    0.06110    0.06110    2.44220    -999.25    0.11890    0.15660   19.41140   72.68010   72.68010   27.62000   31.87510   31.87510   22.97550   22.97550   25.94750   22.97550    -999.25    0.23500    0.19120    2.44220 -150.25000   25.94750
 4500.00000    9.83120    9.89990    9.89990  124.27150    0.07960    0.07960    2.48070    -999.25    0.10390    0.13410    8.04690   82.51210   82.51210   80.11070   92.28330   92.28330    8.47080    8.47080    8.86560    8.47080    -999.25    0.35770    0.31420    2.48070 -114.27210    8.86560
 4550.00000    9.91050   10.06180   10.06180   53.70200    0.06420    0.06420    2.56210    -999.25    0.06550    0.08650   18.62200   76.02110   76.02110   53.74240   65.94200   65.94200   20.26860   20.26860   24.38820   20.26860    -999.25    0.27940    0.23540    2.56210 -120.06610   24.38820
 4600.00000   11.33500   10.59850   10.59850  137.39850    0.03600    0.03600    2.52020    -999.25    0.06770    0.11100    7.27810   81.69390   81.69390   84.52030  103.81110  103.81110    7.72450    7.72450    9.18340    7.72450    -999.25    0.33060    0.28680    2.52020 -114.98100    9.18340
 4650.00000   11.27730   10.96220   10.96220  123.31480    0.07520    0.07520    2.56070    -999.25    0.05910    0.08730    8.11010   82.55740   82.55740   98.94830  120.74000  120.74000    8.47500    8.47500    9.34760    8.47500    -999.25    0.32960    0.28570    2.56070 -116.67390    9.34760
 4700.00000   11.32210   11.05870   11.05870  108.06020    0.05830    0.05830    2.58870    -999.25    0.03020    0.07090    9.25410   80.83360   80.83360   96.71650  126.16230  126.16230    9.55630    9.55630   10.20020    9.55630    -999.25    0.27090    0.22690    2.58870 -116.21470   10.20020
 4750.00000   11.69940   10.99180   10.99180  105.81560    0.08920    0.08920    2.62670    -999.25    0.00760    0.04870    9.45040   81.40280   81.40280  103.41480  128.63060  128.63060    9.88260    9.88260   10.68660    9.88260    -999.25    0.30880    0.26490    2.62670 -115.74640   10.68660
 4800.00000   11.02280   10.35780   10.35780  122.46580    0.10620    0.10620    2.63570    -999.25    0.03490    0.04350    8.16550   85.96750   85.96750  116.18790  143.85040  143.85040    8.80030    8.80030    9.88420    8.80030    -999.25    0.32900    0.28520    2.63570 -114.39020    9.88420
 4850.00000   10.35010   10.31000   10.31000   64.53490    0.10210    0.10210    2.62430    -999.25    0.01410    0.05010   15.49550   77.52580   77.52580   99.47970  122.84110  122.84110   16.24000   16.24000   18.90140   16.24000    -999.25    0.23510    0.19130    2.62430 -111.99310   18.90140
 4900.00000   10.38680   10.56560   10.56560   85.32890    0.08750    0.08750    2.60170    -999.25    0.03120    0.06340   11.71940   79.24390   79.24390   96.71640  125.11290  125.11290   12.26770   12.26770   14.71400   12.26770    -999.25    0.27850    0.23450    2.60170 -110.68600   14.71400
 4950.00000   10.32490   10.23380   10.23380  110.07880    0.03570    0.03570    2.55240    -999.25    0.05360    0.09220    9.08440   83.03410   83.03410  109.32730  143.34850  143.34850    9.48950    9.48950   10.88760    9.48950    -999.25    0.31970    0.27580    2.55240 -111.22500   10.88760
 5000.00000   10.25560   10.72590   10.72590  145.82570    0.07160    0.07160    2.50220    -999.25    0.05680    0.12150    6.85750   86.21110   86.21110  108.05190  149.00460  149.00460    7.23920    7.23920    8.43450    7.23920    -999.25    0.35440    0.31080    2.50220 -109.75740    8.43450
 5050.00000    9.57040   10.34090   10.34090  129.02720    0.05780    0.05780    2.54320    -999.25    0.06030    0.09760    7.75040   83.29710   83.29710  106.58070  142.48550  142.48550    8.22670    8.22670    8.85060    8.22670    -999.25    0.35150    0.30790    2.54320 -110.79810    8.85060
 5100.00000    9.05650    9.91470    9.91470  110.77260    0.07430    0.07430    2.59900    -999.25    0.05490    0.06490    9.02750   79.13700   79.13700   94.86340  127.80900  127.80900    9.37390    9.37390    9.99340    9.37390    -999.25    0.30690    0.26290    2.59900 -114.38700    9.99340
 5150.00000    9.06030    9.92450    9.92450   96.61310    0.06310    0.06310    2.59260    -999.25    0.02230    0.06870   10.35090   79.22860   79.22860   99.42310  122.88030  122.88030   10.75030   10.75030   11.33970   10.75030    -999.25    0.27070    0.22670    2.59260 -113.57140   11.33970
 5200.00000    9.63270   10.33290   10.33290  117.50330    0.05470    0.05470    2.58870    -999.25    0.04470    0.07090    8.51040   78.82510   78.82510   96.61440  134.40910  134.40910    8.94640    8.94640    9.56300    8.94640    -999.25    0.28790    0.24390    2.58870 -109.36050    9.56300
 5250.00000    9.68090   10.39610   10.39610  111.26940    0.04920    0.04920    2.54360    -999.25    0.05590    0.09730    8.98720   81.90910   81.90910  120.21620  144.67930  144.67930    9.45230    9.45230   10.69940    9.45230    -999.25    0.36550    0.32210    2.54360 -108.75650   10.69940
 5300.00000   10.00010   11.07870   11.07870  162.73820    0.09300    0.09300    2.56340    -999.25    0.04880    0.08570    6.14490   85.20820   85.20820  110.46320  141.14010  141.14010    6.49330    6.49330    7.22090    6.49330    -999.25    0.34380    0.30010    2.56340 -108.89180    7.22090
 5350.00000   10.27470   10.80490   10.80490  109.16200    0.07020    0.07020    2.62390    -999.25    0.02980    0.05040    9.16070   77.64270   77.64270  104.96760  132.42440  132.42440    9.70360    9.70360   10.72040    9.70360    -999.25    0.29510    0.25110    2.62390 -109.38610   10.72040
 5400.00000    9.45820   10.57640   10.57640  112.23010    0.08880    0.08880    2.57370    -999.25    0.04550    0.07970    8.91270   80.61260   80.61260  105.84970  139.51990  139.51990    9.64890    9.64890   10.48580    9.64890    -999.25    0.25560    0.21170    2.57370 -117.31360   10.48580
 5450.00000    9.35050   10.20420   10.20420   65.30440    0.02440    0.02440    2.64190    -999.25    0.02700    0.03980   15.31290   72.28290   72.28290   90.07160  110.63750  110.63750   16.32750   16.32750   17.36340   16.32750    -999.25    0.22390    0.18020    2.64190 -114.64470   17.36340
 5500.00000    9.69770   10.58730   10.58730  101.41880    0.13120    0.13120    2.59840    -999.25    0.03440    0.06530    9.86010   79.16280   79.16280  109.89290  147.97660  147.97660   10.44430   10.44430   11.22710   10.44430    -999.25    0.28390    0.23990    2.59840 -113.64790   11.22710
