~Version ---------------------------------------------------
VERS.      2.0 : CWLS log ASCII Standard -VERSION 2.0
WRAP.       NO : One line per depth step
CREA. 08/31/17 : LAS Creation Date
~Well ------------------------------------------------------
STRT.FT                             1100.0 : START DEPTH
STOP.FT                            11500.0 : STOP DEPTH
STEP.FT                           50.00000 : STEP LENGTH
NULL.                              -999.25 : NULL VALUE
COMP.              MURPHY OIL COMPANY LTD. : COMPANY
WELL. MURPHY ASHLAND WOLF CREEK 11-5-53-15 : WELL
FLD .                                      : FIELD
LOC .                                      : LOCATION
CTRY.                               CANADA : COUNTRY
SRVC.               Schlumberger of Canada : SERVICE COMPANY
DATE.                          08-Dec-1976 : LOGDATE
PROV.                              Alberta : PROVINCE
UWI .                     100110505315W500 : UNIQUE WELL ID
SLAT.WGS84                        53.55101 : SURFACE LATITUDE
SLON.WGS84                        -116.179 : SURFACE LONGITUDE
~Curve Information -----------------------------------------
DEPT    .FT    : Depth Curve
CALDED  .IN    : CALIPER FROM CNL-FDC LOG [ADJ. TO GRSED]
CALSED  .IN    : CALIPER FROM SONIC LOG
CALWS   .IN    : CALIPER [CALDED]
CILDED  .MMHO  : DEEP INDUCTION CONDUCTIVITY FROM RESISTIVITY LOG
CONDWS  .MMHO  : CONDUCTIVITY [1000/DRESWS]
DCORWS  .G/C3  : DENSITY CORRECTION [DRHOED]
DENWS   .G/C3  : FORMATION BULK DENSITY [RHOBED]
DPHILSED.V/V   : DENSITY POROSITY LIME [M=2.71, F=1.00] FROM CNL-FDC LOG [ADJ. TO GRSED]
DPHISSED.V/V   : DENSITY POROSITY SAND [M=2.65, F=1.00] FROM CNL-FDC LOG [ADJ. TO GRSED]
DPOLSWS .V/V   : DENSITY POROSITY LIME [CALCULATED FROM DENWS, M=2.71, F=1.00]
DRESWS  .OHMM  : DEEP RESISTIVITY [ILDED]
DRHOED  .G/C3  : BULK DENSITY CORRECTION FROM DENSITY LOG [ADJ. TO DPHISSED/DPHILSED/GRSED]
DTED    .US/F  : DELTA-T (INTERVAL TRANSIT TIME) FROM SONIC LOG
DTWS    .US/F  : COMPRESSIONAL SONIC [DTED]
GRDED   .GAPI  : GAMMA RAY FROM DENSITY LOG [ADJ. TO GRSED]
GRSED   .GAPI  : GAMMA RAY FROM SONIC LOG
GRWS    .GAPI  : GAMMA RAY [GRSED]
ILDED   .OHMM  : DEEP INDUCTION FROM RESISTIVITY LOG
ILMED   .OHMM  : MEDIUM INDUCTION FROM RESISTIVITY LOG
LL8ED   .OHMM  : LATEROLOG 8 FROM RESISTIVITY LOG
MRESWS  .OHMM  : MEDIUM RESISTIVITY [ILMED]
NPHILSED.V/V   : NEUTRON POROSITY LIME FROM CNL-FDC LOG [ADJ. TO GRSED]
NPHISSED.V/V   : NEUTRON POROSITY SAND FROM CNL-FDC LOG [ADJ. TO GRSED]
NPOLSWS .V/V   : NEUTRON POROSITY LIME [NPHISSED MATRIX CONVERTED TO LIMESTONE & SPL. TO NPHILSED @ 8000']
RHOBED  .G/C3  : BULK DENSITY FROM DENSITY LOG [ADJ. TO DPHISSED/DPHILSED/GRSED]
SPRED   .MV    : SPONTANEOUS POTENTIAL FROM RESISTIVITY LOG
SPWS    .MV    : SPONTANEOUS POTENTIAL [BASELINE 0 MV, SPRED]
SRESWS  .OHMM  : SHALLOW RESISTIVITY [LL8ED]
~Params ----------------------------------------------------
PD  .                     GL : PERMANENT DATUM
EPD .FT               2966.3 : ELEVATION PERMANENT DATUM
LMF .                     KB : LOG MEASURED FROM
DAPD.FT                 15.4 : FEET ABOVE PERMANENT DATUM
EKB .FT               2981.7 : KELLY BUSHING
EGL .FT               2966.3 : GROUND LEVEL
DATE.               12/08/76 : RUN DATE
RUN .                      1 : RUN NUMBER
DD  .FT                11560 : DEPTH DRILLER
DL  .FT                11554 : DEPTH LOGGER
BLI .FT                11548 : BOTTOM LOG INTERVAL
TLI .FT                 1160 : TOP LOG INTERVAL
CBD .FT                 1160 : CASING BOTTOM DRILLER
CBL .FT                 1160 : CASING BOTTOM LOGGER
BS  .IN                 8.75 : BIT SIZE
BSD .FT                11560 : BIT SIZE AT DEPTH
DFT .               GEL CHEM : DRILLING FLUID TYPE
DFD .                    9.1 : DRILLING FLUID DENSITY
DFV .                    290 : DRILLING FLUID VISCOSITY
DFPH.                     11 : DRILLING FLUID PH
DFL .                    5.8 : DRILLING FLUID LOSS
MSS .               FLOWLINE : MUD SAMPLE SOURCE
RMS .OHMM               1.67 : RESISTIVITY MUD SAMPLE
MST .DEGF                 37 : MUD SAMPLE TEMPERATURE
RMF .OHMM                1.3 : RESISTIVITY MUD FILTRATE SAMPLE
MFST.DEGF                 55 : MUD FILTRATE SAMPLE TEMPERATURE
TCS .HRS                 2.5 : TIME CIRCULATED STOPPED
LUN .                   7730 : LOGGING UNIT NUMBER
LUL .                    EDM : LOGGING UNIT LOCATION
ENGI.        MCDONALD KARAKI : RECORDING ENGINEER
WITN.            ABEL WORKUM : WITNESSED BY
CLNT.                A2DTECH : CLIENT CODE
ORIG.            2" 5" PRINT : ORIGIN OF DATA
UWI .       100110505315W500 : UNIQUE WELL ID
DICO. A2D Technologies, Inc. : DIGITIZING COMPANY
~Other -----------------------------------------------------
~ASCII -----------------------------------------------------
# ...
 7350.00000    8.90120    8.75350    8.90120    -999.25   80.67960    0.04100    2.56980    -999.25    0.05310    0.08200   12.39470    0.04100   68.26140   68.26140   56.37400   63.98720   63.98720   12.39470   13.20610   14.60700   13.20610    -999.25    0.16030    0.11750    2.56980   -4.45930  -20.79110   14.60700
 7400.00000    8.78160    8.74560    8.78160    -999.25   84.55280    0.05170    2.57220    -999.25    0.04930    0.08060   11.82720    0.05170   68.64970   68.64970   70.46840   71.95450   71.95450   11.82720   12.61800   14.73800   12.61800    -999.25    0.18840    0.14510    2.57220    9.26080   -8.19630   14.73800
 7450.00000    8.66510    8.72420    8.66510    -999.25   70.77290    0.09880    2.61340    -999.25    0.02190    0.05650   14.12970    0.09880   66.71760   66.71760   53.92470   57.16810   57.16810   14.12970   15.53030   17.14700   15.53030    -999.25    0.16820    0.12530    2.61340   -2.87830  -21.47210   17.14700
 7500.00000    8.78190    8.78530    8.78190    -999.25   59.81400    0.09600    2.65460    -999.25   -0.00200    0.03240   16.71850    0.09600   64.51650   64.51650   54.78950   65.17200   65.17200   16.71850   17.96620   22.75760   17.96620    -999.25    0.17280    0.12980    2.65460    3.10950  -16.61530   22.75760
 7550.00000    9.64110    9.07010    9.64110    -999.25   57.58460    0.16210    2.48700    -999.25    0.08940    0.13040   17.36760    0.16210   72.25880   72.25880   82.47450   87.86280   87.86280   17.36760   18.48480   27.40940   18.48480    -999.25    0.23260    0.18880    2.48700   13.58540   -7.26480   27.40940
 7600.00000   14.99720   11.26250   14.99720    -999.25  212.35480    0.12280    1.58470    -999.25    0.45000    0.65810    4.70910    0.12280   93.27770   93.27770   75.31420   84.08190   84.08190    4.70910    6.07290    9.30320    6.07290    -999.25    0.59320    0.55150    1.58470    8.35420  -13.63270    9.30320
 7650.00000   10.63820    8.90230   10.63820    -999.25   47.96440    0.17200    2.03030    -999.25    0.36210    0.39750   20.89630    0.17200   76.69950   76.69950   96.40780  113.68790  113.68790   20.89630   24.35310   44.52960   24.35310    -999.25    0.35800    0.31460    2.03030   14.58540   -8.52690   44.52960
 7700.00000    9.15290    8.82480    9.15290    -999.25   30.86480    0.10230    2.65120    -999.25    0.00540    0.03440   32.39940    0.10230   67.86900   67.86900   93.89970   98.91560   98.91560   32.39940   35.87850   61.72550   35.87850    -999.25    0.18450    0.14130    2.65120   15.27380   -5.55560   61.72550
 7750.00000   12.70720    9.01440   12.70720    -999.25   25.81220    0.23120    2.21320    -999.25    0.27020    0.29050   38.74130    0.23120   81.44220   81.44220   59.43470   64.68200   64.68200   38.74130   42.38480   63.19840   42.38480    -999.25    0.16420    0.12130    2.21320    8.95420   -8.18990   63.19840
 7800.00000   12.76590    9.09010   12.76590    -999.25  215.31030    0.17290    2.33200    -999.25    0.20330    0.22110    4.65640    0.17290   66.70800   66.70800   61.33140   69.74980   69.74980    4.65640    5.06440    5.46120    5.06440    -999.25    0.33080    0.28720    2.33200    5.39330   -9.96050    5.46120
 7850.00000   11.80470    9.17010   11.80470    -999.25   71.80140    0.21940    2.14060    -999.25    0.34430    0.33300   13.92730    0.21940   71.30710   71.30710   89.58260   96.53550   96.53550   13.92730   14.76200   18.03930   14.76200    -999.25    0.18350    0.14030    2.14060    6.98890   -8.93350   18.03930
 7900.00000   14.78210   10.89540   14.78210    -999.25  139.79750    0.15590    1.64320    -999.25    0.44960    0.62390    7.15690    0.15590   97.21080   97.21080   98.31740  102.49840  102.49840    7.15690   12.64670   15.84240   12.64670    -999.25    0.49280    0.45110    1.64320   12.11630   -3.28540   15.84240
 7950.00000    8.59120    8.74750    8.59120    -999.25   35.82060    0.11460    2.45940    -999.25    0.11550    0.14650   27.91690    0.11460   63.38040   63.38040   31.54700   29.68040   29.68040   27.91690   39.63320  108.49480   39.63320    -999.25    0.13600    0.09360    2.45940  -55.20550  -63.94140  108.49480
 8000.00000    8.89040    8.85120    8.89040    -999.25    7.02760    0.07930    2.51370    0.10060    -999.25    0.11480  142.29620    0.07930   52.03920   52.03920   19.13350   17.15090   17.15090  142.29620  171.82020  762.59040  171.82020    0.00160    -999.25    0.00160    2.51370  -61.86440  -63.54530  762.59040
 8050.00000    8.79690    8.71880    8.79690    -999.25    6.30410    0.11170    2.57340    0.08190    -999.25    0.07990  158.67830    0.11170   61.16120   61.16120   46.06260   51.21520   51.21520  158.67830  248.77520  308.41340  248.77520    0.09060    -999.25    0.09060    2.57340   -6.13940   -0.80050  308.41340
 8100.00000    9.28960    8.76240    9.28960    -999.25   21.42150    0.13010    2.62110   -0.00390    -999.25    0.05200   46.68210    0.13010   54.03340   54.03340   26.49660   28.34210   28.34210   46.68210   51.14410   72.87880   51.14410    0.08410    -999.25    0.08410    2.62110  -21.95480  -23.35360   72.87880
 8150.00000   10.81630    9.13510   10.81630    -999.25   32.29270    0.18670    2.51830    0.14170    -999.25    0.11210   31.11780    0.18670   51.25590   51.25590   44.86420   53.83200   53.83200   31.11780   35.03930   53.33020   35.03930    0.07370    -999.25    0.07370    2.51830  -31.84990  -40.89980   53.33020
 8200.00000    9.11340    8.90180    9.11340    -999.25   16.23510    0.01900    2.82040   -0.07190    -999.25   -0.06460   61.59510    0.01900   56.63060   56.63060   44.87580   49.00070   49.00070   61.59510   78.50910  125.55130   78.50910    0.02790    -999.25    0.02790    2.82040   -4.15120  -20.92910  125.55130
 8250.00000    9.02800    8.75880    9.02800    -999.25    1.71900    0.01030    2.87620   -0.11710    -999.25   -0.09720  581.72420    0.01030   47.46780   47.46780   17.67840   16.47990   16.47990  581.72420 1552.06570 1385.48720 1552.06570    0.00380    -999.25    0.00380    2.87620  -50.50650  -74.97400 1385.48720
 8300.00000    9.64150    8.83320    9.64150    -999.25    3.48440    0.17620    2.76440   -0.03010    -999.25   -0.03180  289.89830    0.17620   46.33210   46.33210   15.59030   14.47190   14.47190  289.89830 1453.82480 1088.26490 1453.82480    0.01280    -999.25    0.01280    2.76440  -58.40960  -90.52830 1088.26490
 8350.00000    9.55000    8.80470    9.55000    -999.25   91.48130    0.22390    2.56240    0.08990    -999.25    0.08630   10.93120    0.22390   56.11390   56.11390   86.40120  102.67100  102.67100   10.93120   11.90580   21.52720   11.90580    0.16950    -999.25    0.16950    2.56240    1.96110  -37.88560   21.52720
 8400.00000    8.95510    8.76050    8.95510    -999.25   54.85320    0.01260    2.68990    0.01250    -999.25    0.01180   18.26640    0.01260   56.79450   56.79450   73.40260   80.42620   80.42620   18.26640   19.57570   22.88350   19.57570    0.07670    -999.25    0.07670    2.68990   26.87640   -5.51210   22.88350
 8450.00000    8.88310    8.76100    8.88310    -999.25  122.70240    0.01620    2.68570    0.01880    -999.25    0.01420    8.14980    0.01620   58.20110   58.20110   42.05480   45.83520   45.83520    8.14980    9.07470   16.67840    9.07470    0.08330    -999.25    0.08330    2.68570  -21.13300  -53.80920   16.67840
 8500.00000    8.90020    8.75630    8.90020    -999.25   56.58250    0.04930    2.71420    0.00230    -999.25   -0.00250   17.67330    0.04930   58.32590   58.32590   54.81600   56.69070   56.69070   17.67330   18.61430   21.62560   18.61430    0.08930    -999.25    0.08930    2.71420   15.76410  -17.19830   21.62560
 8550.00000    8.86710    8.79590    8.86710    -999.25   30.69570    0.03250    2.67880    0.01860    -999.25    0.01820   32.60780    0.03250   55.45530   55.45530   57.82220   59.92300   59.92300   32.60780   35.23700   68.29550   35.23700    0.07230    -999.25    0.07230    2.67880   19.90650  -13.34070   68.29550
