~Version ---------------------------------------------------
VERS. 2.0 : CWLS log ASCII Standard -VERSION 2.0
WRAP.  NO : ONE LINE PER DEPTH STEP
~Well ------------------------------------------------------
STRT.M                     400.0 : START DEPTH
STOP.M                    2450.0 : STOP DEPTH
STEP.M                  50.00000 : STEP LENGTH
NULL.                    -999.25 : NULL VALUE
COMP.       TALISMAN ENERGY INC. : COMPANY
WELL. KACEE ET AL PIPE 6-29-46-1 : WELL
FLD .                            : FIELD
LOC .                            : LOCATION
CTRY.                     CANADA : COUNTRY
SRVC.                    Unknown : SERVICE COMPANY
DATE.                09-Oct-1984 : LOGDATE
PROV.                    Alberta : PROVINCE
UWI .           100062904601W500 : UNIQUE WELL ID
SLAT.WGS84              52.99543 : SURFACE LATITUDE
SLON.WGS84             -114.1098 : SURFACE LONGITUDE
~Curve Information -----------------------------------------
DEPT    .M      : DEPTH METERS
BITED   .MM     : BIT SIZE FROM LOG HEADER
CALDED  .MM     : CALIPER FROM DENSITY LOG
CALSED  .MM     : CALIPER FROM SONIC LOG
CALWS   .MM     : CALIPER [395 CALDED 2448 CALSED]
CONDWS  .MMHO   : CONDUCTIVITY [1000/DRESWS]
DCORWS  .KG/M3  : DENSITY CORRECTION [DRHOED]
DENWS   .KG/M3  : BULK DENSITY [M=2710 F=1000] [CAL FR DPOLSWS]
DPHILSED.V/V    : DENSITY POROSITY [M=2710 F=1000] FROM DENSITY LOG
DPHISSED.V/V    : DENSITY POROSITY [M=2650 F=1000] FROM DENSITY LOG
DPOLSWS .V/V    : DENSITY POROSITY [M=2710 F=1000] [395 DPOLSCAL [COMPUTED FROM DPHISSED USING POWERLOG MODULE] 1700 DPHILSED]
DRESWS  .OHMM   : DEEP RESISTIVITY [ILDED]
DRHOED  .KG/M3  : DENSITY CORRECTION FROM DENSITY LOG
DTED    .US/M   : DELTA TIME FROM SONIC LOG
DTWS    .US/M   : DELTA TIME [DTED]
GRDED   .GAPI   : GAMMA RAY FROM DENSITY LOG
GRSED   .GAPI   : GAMMA RAY FROM SONIC LOG
GRWS    .GAPI   : GAMMA RAY [384 GRSED 439 GRDED 960 SGRDED]
ILDED   .OHMM   : INDUCTION LOG DEEP RESISTIVITY
ILMED   .OHMM   : INDUCTION LOG MEDIUM RESISTIVITY
LAED    .MM     : LONG AXIS CALIPER FROM DENSITY LOG
MRESWS  .OHMM   : MEDIUM RESISTIVITY [ILMED]
NPHILSED.V/V    : NEUTRON POROSITY LIMESTONE FROM DENSITY LOG
NPHISSED.V/V    : NEUTRON POROSITY SANDSTONE FROM DENSITY LOG
NPOLSWS .V/V    : NEUTRON POROSITY LIMESTONE [387 NPOLSCAL [COMPUTED FROM NPHISSED USING POWERLOG MODULE] 1698 NPHILSED]
PEFED   .B/E    : PHOTOELECTRIC FACTOR FROM DENSITY LOG
PEFWS   .B/E    : PHOTOELECTRIC FACTOR [PEFED]
RHOBED  .KG/M3  : BULK DENSITY FROM DENSITY LOG
SFLUED  .OHMM   : SPHERICALLY FOCUSED LOG RESISTIVITY
SGRDED  .GAPI   : GAMMA RAY FROM DENSITY LOG [DEP ADJ TO GRSED, V. MINOR]
SPRED   .MV     : SPONTANEOUS POTENTIAL FROM RESISTIVITY LOG [SHIFT IS REMOVED]
SPWS    .MV     : SPONTANEOUS POTENTIAL [BASELINE 0 MV] [SPRED]
SRESWS  .OHMM   : SHALLOW RESISTIVITY [SFLUED]
TENDED  .N      : TENSION FROM DENSITY LOG
TENRED  .N      : TENSION FROM RESISTIVITY LOG
TENSED  .N      : TENSION FROM SONIC LOG
~Params ----------------------------------------------------
PD  .                         GL : PERMANENT DATUM
EPD .M                    880.31 : ELEVATION PERMANENT DATUM
LMF .                         KB : LOG MEASURED FROM
DAPD.M                       4.5 : FEET ABOVE PERMANENT DATUM
DMF .                         KB : DRILLING MEASURED FROM
EKB .M                    884.81 : KELLY BUSHING
EGL .M                    880.31 : GROUND LEVEL
DATE.                   10/09/84 : RUN DATE
RUN .                          2 : RUN NUMBER
DD  .M                      2459 : DEPTH DRILLER
DL  .M                      2460 : DEPTH LOGGER
BLI .M                      2458 : BOTTOM LOG INTERVAL
TLI .M                       750 : TOP LOG INTERVAL
CS  .MM                      244 : CASING SIZE
CBD .M                       395 : CASING BOTTOM DRILLER
CBL .M                       395 : CASING BOTTOM LOGGER
BS  .MM                      222 : BIT SIZE
BSD .M                      2459 : BIT SIZE AT DEPTH
DFT .                   GEL CHEM : DRILLING FLUID TYPE
DFD .                       1095 : DRILLING FLUID DENSITY
DFV .                         85 : DRILLING FLUID VISCOSITY
DFPH.                       10.5 : DRILLING FLUID PH
DFL .                         11 : DRILLING FLUID LOSS
MSS .                   FLOWLINE : MUD SAMPLE SOURCE
RMS .OHMM                   0.94 : RESISTIVITY MUD SAMPLE
MST .DEGF                   21.1 : MUD SAMPLE TEMPERATURE
RMF .OHMM                    0.7 : RESISTIVITY MUD FILTRATE SAMPLE
MFST.DEGF                   24.4 : MUD FILTRATE SAMPLE TEMPERATURE
RMC .OHMM                 0.358/ : RESISTIVITY MUD CAKE
MCST.DEGF                   68.3 : MUD CAKE SAMPLE TEMPERATURE
MFSS.                       MEAS : MUD FILTRATE SAMPLE SOURCE
RMB .OHMM                  0.446 : RESISTIVITY MUD AT BHT
TCS .HRS                     700 : TIME CIRCULATED STOPPED
TLAB.HRS                    1315 : TIME LOGGER AT BOTTOM
LUN .                       8211 : LOGGING UNIT NUMBER
LUL .                        EDM : LOGGING UNIT LOCATION
ENGI.                      PENNY : RECORDING ENGINEER
WITN.                     HESTER : WITNESSED BY
CLNT.                    A2DTECH : CLIENT CODE
ORIG. 6.5"/100M 16.5"/100M PRINT : ORIGIN OF DATA
UWI .           100062904601W500 : UNIQUE WELL ID
DICO.     A2D Technologies, Inc. : DIGITIZING COMPANY
~Other -----------------------------------------------------
~ASCII -----------------------------------------------------
  400.00000  222.00000  278.49510  244.18610  278.49510  130.12530   -9.43690 2397.71500    -999.25    0.15290    0.18260    7.68490   -9.43690  311.90630  311.90630  109.38360  100.55520  100.55520    7.68490    7.31910  258.60010    7.31910    -999.25    0.33340    0.28960    -999.25    -999.25 2400.71140    9.60750    -999.25  -89.88970  -17.17660    9.60750    -999.25    -999.25    -999.25
  450.00000  222.00000  289.77890  263.22900  289.77890  237.42820   79.03540 1910.63500    -999.25    0.44810    0.46750    4.21180   79.03540  405.66800  405.66800   84.45580   74.97140   84.45580    4.21180    3.78670  328.93110    3.78670    -999.25    0.52110    0.47940    -999.25    -999.25 1888.73140    3.62160    -999.25  -80.13120   -7.41810    3.62160    -999.25    -999.25    -999.25
  500.00000  222.00000  282.31760  242.45660  282.31760  161.65270   -4.69420 2379.23500    -999.25    0.16410    0.19340    6.18610   -4.69420  340.01170  340.01170   90.76550   83.47670   90.76550    6.18610    5.80920  256.52300    5.80920    -999.25    0.35710    0.31350    -999.25    -999.25 2383.92680    5.97870    -999.25  -77.95820   -5.66100    5.97870    -999.25    -999.25    -999.25
  550.00000  222.00000  250.67340  221.24330  250.67340  133.26760    4.20870 2407.12000    -999.25    0.14720    0.17710    7.50370    4.20870  295.34230  295.34230   70.43070   74.44640   70.43070    7.50370    7.07970  232.76120    7.07970    -999.25    0.28280    0.23880    -999.25    -999.25 2405.53710    9.73180    -999.25  -74.92960   -5.48140    9.73180    -999.25    -999.25    -999.25
  600.00000  222.00000  243.31220  217.63420  243.31220  107.28460    3.24710 2475.10000    -999.25    0.10600    0.13740    9.32100    3.24710  267.05070  267.05070   66.18450   64.84390   66.18450    9.32100    9.89540  199.21270    9.89540    -999.25    0.24000    0.19620    -999.25    -999.25 2482.78930   11.34400    -999.25  -74.07710   -7.47790   11.34400    -999.25    -999.25    -999.25
  650.00000  222.00000  303.47740  221.32000  303.47740   99.23590   -9.99440 2367.68500    -999.25    0.17110    0.20020   10.07700   -9.99440  299.75130  299.75130   65.28900   59.98940   65.28900   10.07700    9.27000  155.39640    9.27000    -999.25    0.26520    0.22120    -999.25    -999.25 2364.64360   10.19880    -999.25  -74.84240  -11.09210   10.19880    -999.25    -999.25    -999.25
  700.00000  222.00000  241.84640  217.44870  241.84640   93.04140   13.15400 2359.60000    -999.25    0.17600    0.20490   10.74790   13.15400  302.64520  302.64520   50.73050   57.33240   50.73050   10.74790    9.57070  195.95370    9.57070    -999.25    0.32650    0.28260    -999.25    -999.25 2399.92580    7.39010    -999.25  -76.57490  -15.57900    7.39010    -999.25    -999.25    -999.25
  750.00000  222.00000  266.12550  217.83990  266.12550  520.58930  113.07420 2040.16000    -999.25    0.36960    0.39170    1.92090  113.07420  382.35320  382.35320  106.73250  110.46190  106.73250    1.92090    1.84050  199.01760    1.84050    -999.25    0.45730    0.41560    1.84380    1.84380 2007.97070    1.79510  101.81330  -62.66070   -4.07970    1.79510    -999.25    -999.25    -999.25
  800.00000  222.00000  264.96040  222.23830  264.96040  153.49670  217.28470 2220.01000    -999.25    0.26060    0.28650    6.51480  217.28470  298.82130  298.82130   68.88880   68.64690   68.88880    6.51480    6.02920  222.27640    6.02920    -999.25    0.35190    0.30830    2.67350    2.67350 2215.68990    6.07190   68.77530  -58.44670   -2.28070    6.07190    -999.25    -999.25    -999.25
  850.00000  222.00000  225.55210  210.61610  225.55210   43.46710    9.61870 2387.98000    -999.25    0.15880    0.18830   23.00590    9.61870  260.66530  260.66530   42.52570   42.13340   42.52570   23.00590   25.85240  217.76230   25.85240    -999.25    0.25920    0.21530    2.19040    2.19040 2381.07520   44.43850   40.96680  -97.77520  -44.38110   44.43850    -999.25    -999.25    -999.25
  900.00000  222.00000  219.83060  219.64200  219.83060  149.97680    8.95830 2490.94000    -999.25    0.09640    0.12810    6.66770    8.95830  304.64890  304.64890   65.71240   72.05680   65.71240    6.66770    6.99520  252.45390    6.99520    -999.25    0.34450    0.30080    3.03300    3.03300 2483.12260    8.12200   63.36360  -53.60150   -4.35490    8.12200    -999.25    -999.25    -999.25
  950.00000  222.00000  226.85760  210.63720  226.85760  110.16610    7.83640 2423.78500    -999.25    0.13710    0.16740    9.07720    7.83640  284.37660  284.37660   67.43550   54.42670   67.43550    9.07720   10.66800  196.62820   10.66800    -999.25    0.30060    0.25660    2.16180    2.16180 2419.73710   19.48590   53.19750  -65.05340  -19.95420   19.48590    -999.25 8582.35550    -999.25
 1000.00000  222.00000  256.18950  223.93090  256.18950  151.57260  172.04570 2217.04000    -999.25    0.26240    0.28830    6.59750  172.04570  288.85830  288.85830    -999.25   90.53760   76.68440    6.59750    6.19230  217.63770    6.19230    -999.25    0.36900    0.32560    2.48090    2.48090 2207.92460    5.79810   76.68440  -47.06840   -5.41300    5.79810    -999.25    -999.25    -999.25
 1050.00000  222.00000  218.14580  251.32700  218.14580  122.50100   10.99460 2348.05000    -999.25    0.18300    0.21170    8.16320   10.99460  281.53600  281.53600    -999.25   95.98720   92.75710    8.16320    7.44730  335.87690    7.44730    -999.25    0.36970    0.32630    2.68460    2.68460 2352.10720    7.16220   92.75710  -48.99170   -8.52710    7.16220    -999.25    -999.25    -999.25
 1100.00000  222.00000  294.28140  244.14530  294.28140  136.67740   13.05350 2445.56500    -999.25    0.12390    0.15460    7.31650   13.05350  306.92960  306.92960    -999.25  116.32750  114.67980    7.31650    7.01970  157.62340    7.01970    -999.25    0.33760    0.29380    3.23890    3.23890 2445.92970    7.93340  114.67980  -47.79380   -8.52000    7.93340    -999.25    -999.25    -999.25
 1150.00000  222.00000  262.52680  234.02850  262.52680  123.55590  118.48450 2372.96500    -999.25    0.16790    0.19710    8.09350  118.48450  288.07000  288.07000    -999.25  104.49030  107.88040    8.09350    7.68690  175.16560    7.68690    -999.25    0.31210    0.26820    2.42730    2.42730 2369.48830    8.50860  107.88040  -46.29500   -8.21200    8.50860    -999.25    -999.25    -999.25
 1200.00000  222.00000  296.98750  244.99200  296.98750  129.49340   92.74400 2506.45000    -999.25    0.08700    0.11900    7.72240   92.74400  301.18680  301.18680    -999.25  114.17730  110.40530    7.72240    7.09930  155.38050    7.09930    -999.25    0.27540    0.23140    2.81200    2.81200 2506.93770    8.18190  110.40530  -45.76260   -8.87040    8.18190    -999.25    -999.25    -999.25
 1250.00000  222.00000  289.72070  248.03740  289.72070  155.08680  189.74390 2165.56000    -999.25    0.29360    0.31840    6.44800  189.74390  285.93770  285.93770    -999.25  116.43460  101.38590    6.44800    6.85790  222.21760    6.85790    -999.25    0.32960    0.28580    2.28940    2.28940 2127.08570    7.12680  101.38590  -45.28050   -9.57920    7.12680    -999.25    -999.25    -999.25
 1300.00000  222.00000  280.26650  269.40570  280.26650  134.11480  127.70370 2215.22500    -999.25    0.26350    0.28930    7.45630  127.70370  274.97520  274.97520    -999.25  102.05200  101.87140    7.45630    6.64030  261.41650    6.64030    -999.25    0.32170    0.27780    2.34150    2.34150 2187.53540    6.25870  101.87140  -44.16660   -9.65610    6.25870    -999.25    -999.25    -999.25
 1350.00000  222.00000  265.47570  246.90350  265.47570  163.97470  132.66040 2268.68500    -999.25    0.23110    0.25810    6.09850  132.66040  317.34310  317.34310    -999.25  118.88880  109.79330    6.09850    6.47050  242.87980    6.47050    -999.25    0.35510    0.31150    2.47990    2.47990 2266.40010    6.96060  109.79330  -40.42990   -7.11020    6.96060    -999.25    -999.25    -999.25
 1400.00000  222.00000  231.97070  238.80770  231.97070   58.99530   -5.29570 2529.22000    -999.25    0.07320    0.10570   16.95050   -5.29570  281.03710  281.03710    -999.25  112.77630  113.26810   16.95050   17.32480  218.49640   17.32480    -999.25    0.31430    0.27040    3.33980    3.33980 2527.95480   22.48220  113.26810  -39.97590   -8.84220   22.48220    -999.25    -999.25    -999.25
