~Version ---------------------------------------------------
VERS.      2.0 : CWLS log ASCII Standard -VERSION 2.0
WRAP.       NO : One line per depth step
CREA. 10/19/17 : LAS Creation Date
~Well ------------------------------------------------------
STRT.FT                     1150.0 : START DEPTH
STOP.FT                    11800.0 : STOP DEPTH
STEP.FT                   50.00000 : STEP LENGTH
NULL.                      -999.25 : NULL VALUE
COMP.         PETROFINA CANADA LTD : COMPANY
WELL. PCI AMMIN ECONOMY 11-15-68-2 : WELL
FLD .                              : FIELD
LOC .                              : LOCATION
CTRY.                       CANADA : COUNTRY
SRVC.                      Unknown : SERVICE COMPANY
DATE.                  01-Jan-1900 : LOGDATE
PROV.                      Alberta : PROVINCE
UWI .             100111506802W600 : UNIQUE WELL ID
SLAT.WGS84                54.88852 : SURFACE LATITUDE
SLON.WGS84               -118.2198 : SURFACE LONGITUDE
~Curve Information -----------------------------------------
DEPT    .FT    : Depth Curve
CALDED  .IN    : CALIPER FROM DENSITY LOG [ADJ.TO RESISTIVITY LOG]
CALSED  .IN    : CALIPER FROM SONIC LOG [ADJ.TO RESISTIVITY LOG]
CALWS   .IN    : CALIPER [CALSED]
CONDWS  .MMHO  : CONDUCTIVITY [1000/DRESWS]
DCORWS  .G/C3  : DENSITY CORRECTION [DRHOED]
DENWS   .G/C3  : FORMATION BULK DENSITY [CALC. FROM DPOLSWS, M=2.71, F=1.00]
DPHILSED.V/V   : DENSITY POROSITY LIMESTONE [ASSUMED, M=2.71, F=1.00] FROM DENSITY LOG [ADJ.TO RESISTIVITY LOG]
DPHISSED.V/V   : DENSITY POROSITY SANDSTONE [ASSUMED, M=2.65, F=1.00] FROM DENSITY LOG [ADJ.TO RESISTIVITY LOG]
DPOLSWS .V/V   : DENSITY POROSITY LIMESTONE [DPHISSED CONVERTED TO LIMESTONE MATRIX, M=2.71, F=1.00 SPL.TO DPHILSED @ 6552']
DRESWS  .OHMM  : DEEP RESISTIVITY [ILDED]
DRHOED  .G/C3  : DENSITY CORRECTION FROM DENSITY LOG [ADJ.TO RESISTIVITY LOG]
DTED    .US/F  : DELTA TIME FROM SONIC LOG [ADJ.TO RESISTIVITY LOG]
DTWS    .US/F  : COMPRESSIONAL SONIC [DTED]
GRDED   .GAPI  : GAMMA RAY FROM DENSITY LOG [ADJ.TO RESISTIVITY LOG]
GRSED   .GAPI  : GAMMA RAY FROM SONIC LOG [ADJ.TO RESISTIVITY LOG]
GRWS    .GAPI  : GAMMA RAY [GRSED SPL.TO GRDED @ 11698']
ILDED   .OHMM  : DEEP INDUCTION FROM RESISTIVITY LOG
ILMED   .OHMM  : MEDIUM INDUCTION FROM RESISTIVITY LOG
LL8ED   .OHMM  : LATEROLOG-8 FROM RESISTIVITY LOG
MRESWS  .OHMM  : MEDIUM RESISTIVITY [ILMED]
NPHILSED.V/V   : NEUTRON POROSITY LIMESTONE FROM DENSITY LOG [ADJ.TO RESISTIVITY LOG]
NPHISSED.V/V   : NEUTRON POROSITY SANDSTONE FROM DENSITY LOG [ADJ.TO RESISTIVITY LOG]
NPOLSWS .V/V   : NEUTRON POROSITY LIMESTONE [NPHISSED MATRIX (SLB) CONVERSION FOR LIMESTONE, SPL.TO NPHILSED @ 6552']
RHOBED  .G/C3  : BULK DENSITY FROM DENSITY LOG [ADJ.TO RESISTIVITY LOG]
SPRED   .MV    : SPONTANEOUS POTENTIAL FROM RESISTIVITY LOG
SPWS    .MV    : SPONTANEOUS POTENTIAL [BASELINE 0 MV, SPRED]
SRESWS  .OHMM  : SHALLOW RESISTIVITY [LL8ED]
~Params ----------------------------------------------------
PD  .                     GL : PERMANENT DATUM
EPD .FT               2259.3 : ELEVATION PERMANENT DATUM
LMF .                     KB : LOG MEASURED FROM
DAPD.FT                 13.7 : FEET ABOVE PERMANENT DATUM
EKB .FT                 2273 : KELLY BUSHING
EGL .FT               2259.3 : GROUND LEVEL
DATE.               10/12/76 : RUN DATE
RUN .                      1 : RUN NUMBER
DD  .FT                11825 : DEPTH DRILLER
DL  .FT                11801 : DEPTH LOGGER
BLI .FT                11795 : BOTTOM LOG INTERVAL
TLI .FT                 1228 : TOP LOG INTERVAL
CBD .FT                 1232 : CASING BOTTOM DRILLER
CBL .FT                 1228 : CASING BOTTOM LOGGER
BS  .IN                 8.75 : BIT SIZE
BSD .FT                11825 : BIT SIZE AT DEPTH
DFT .                    GEL : DRILLING FLUID TYPE
DFD .                    8.9 : DRILLING FLUID DENSITY
DFV .                    150 : DRILLING FLUID VISCOSITY
DFPH.                   10.5 : DRILLING FLUID PH
DFL .                    5.8 : DRILLING FLUID LOSS
MSS .               FLOWLINE : MUD SAMPLE SOURCE
RMF .OHMM               0.71 : RESISTIVITY MUD FILTRATE SAMPLE
MFST.DEGF                 76 : MUD FILTRATE SAMPLE TEMPERATURE
RMB .OHMM               0.28 : RESISTIVITY MUD AT BHT
TCS .HRS                 4.5 : TIME CIRCULATED STOPPED
LUN .                   7803 : LOGGING UNIT NUMBER
LUL .                     OC : LOGGING UNIT LOCATION
ENGI.                STADNYK : RECORDING ENGINEER
WITN.                  CLARK : WITNESSED BY
CLNT.                A2DTECH : CLIENT CODE
ORIG.          1" 2.5" PRINT : ORIGIN OF DATA
UWI .       100111506802W600 : UNIQUE WELL ID
DICO. A2D Technologies, Inc. : DIGITIZING COMPANY
~Other -----------------------------------------------------
DI-LL-FDC-CNL-BHC LOG RUN.
~ASCII -----------------------------------------------------
# ...
 10250.00000    9.34440    9.95140    9.95140    1.79520    0.05110    2.75360   -0.02550    -999.25   -0.02550  557.04020    0.05110   47.92690   47.92690   21.49090   16.08840   16.08840  557.04020 1436.82450 1460.02980 1436.82450   -0.00070    -999.25   -0.00070    2.75120 -154.35420 -107.83090 1460.02980
 10300.00000    9.33080    9.65160    9.65160    0.91460    0.06340    2.73410   -0.01410    -999.25   -0.01410 1096.09580    0.06340   51.01720   51.01720   46.58940   41.87640   41.87640 1096.09580 1555.58540 1399.26170 1555.58540    0.00860    -999.25    0.00860    2.72600 -135.52630  -89.90320 1399.26170
 10350.00000   11.20470   11.82520   11.82520   78.61820    0.19290    2.45200    0.15090    -999.25    0.15090   12.71970    0.19290   82.99510   82.99510  174.48750  167.93770  167.93770   12.71970   13.08670   34.73550   13.08670    0.32820    -999.25    0.32820    2.46410 -140.23630  -95.51920   34.73550
 10400.00000    9.50450    9.40670    9.40670    1.92080    0.06060    2.89870   -0.11040    -999.25   -0.11040  520.61440    0.06060   51.43660   51.43660   21.71610   20.44230   20.44230  520.61440 1618.70820 1466.91780 1618.70820    0.01760    -999.25    0.01760    2.87710 -157.30320 -113.48620 1466.91780
 10450.00000    9.55010    9.50970    9.50970    1.30990    0.03290    2.74160   -0.01850    -999.25   -0.01850  763.41680    0.03290   49.43070   49.43070   30.45320   27.55850   27.55850  763.41680 1547.12230 1449.87230 1547.12230    0.00220    -999.25    0.00220    2.73370 -211.72380 -168.81290 1449.87230
 10500.00000    9.76580    9.66090    9.66090    0.64860    0.04020    2.90770   -0.11560    -999.25   -0.11560 1541.79520    0.04020   49.62090   49.62090   21.43820   19.53860   19.53860 1541.79520 1525.35300 1466.56880 1525.35300   -0.00330    -999.25   -0.00330    2.89450 -199.12700 -157.11620 1466.56880
 10550.00000    9.85040    9.69120    9.69120    1.10550    0.00980    2.88380   -0.10170    -999.25   -0.10170  905.07100    0.00980   50.21380   50.21380   13.11600   12.53370   12.53370  905.07100 1600.00000 1468.13880 1600.00000   -0.00850    -999.25   -0.00850    2.87200 -177.78610 -136.67540 1468.13880
 10600.00000   10.52320   10.02960   10.02960    0.70060    0.27250    2.73240   -0.01310    -999.25   -0.01310 1427.34070    0.27250   50.07090   50.07090   22.82430   21.65280   21.65280 1427.34070 1600.00000 1436.16360 1600.00000   -0.00030    -999.25   -0.00030    2.76990 -209.31670 -169.11210 1436.16360
 10650.00000   10.18780    9.83100    9.83100    0.63920    0.31010    2.75550   -0.02660    -999.25   -0.02660 1564.57390    0.31010   51.55900   51.55900   19.21030   17.68830   17.68830 1564.57390 1600.00000 1433.37540 1600.00000   -0.00230    -999.25   -0.00230    2.77730 -188.31570 -149.01120 1433.37540
 10700.00000   13.22630   10.69350   10.69350    7.62320    0.24210    2.46870    0.14110    -999.25    0.14110  131.17900    0.24210   53.20010   53.20010   50.29960   42.52430   42.52430  131.17900  222.57080  468.87460  222.57080    0.03260    -999.25    0.03260    2.48070 -198.15370 -159.75520  468.87460
 10750.00000   11.31930    9.94560    9.94560   10.21390    0.28650    2.55870    0.08850    -999.25    0.08850   97.90550    0.28650   54.66070   54.66070   60.63180   50.01470   50.01470   97.90550    -999.25  424.49860    -999.25    0.03540    -999.25    0.03540    2.54790 -152.67600 -115.17760  424.49860
 10800.00000   10.58490   11.70230   11.70230  161.95470    0.21020    2.53620    0.10160    -999.25    0.10160    6.19170    0.21020   79.89020   79.89020  112.82370  103.25050  103.25050    6.19170    6.80650   27.57310    6.80650    0.23170    -999.25    0.23170    2.52310  -77.22190  -40.62370   27.57310
 10850.00000   15.03650   13.60530   13.60530  330.29460    0.24190    2.08500    0.36550    -999.25    0.36550    3.02760    0.24190   79.08660   79.08660  123.26510  112.53630  112.53630    3.02760    3.16460    6.09730    3.16460    0.29820    -999.25    0.29820    2.11300 -116.22860  -80.53640    6.09730
 10900.00000   15.00000   13.84490   13.84490  304.14170    0.23110    2.34910    0.21110    -999.25    0.21110    3.28800    0.23110   81.48230   81.48230  119.56400   98.85620   98.85620    3.28800    3.34420    6.10000    3.34420    0.31730    -999.25    0.31730    2.35290 -129.68460  -94.89250    6.10000
 10950.00000   13.27170   11.86950   11.86950  190.81780    0.23150    2.33250    0.22080    -999.25    0.22080    5.24060    0.23150   77.64470   77.64470  128.29890  115.58250  115.58250    5.24060    4.02950   13.46720    4.02950    0.27540    -999.25    0.27540    2.34220 -120.79940  -86.91340   13.46720
 11000.00000   14.86810   12.34880   12.34880  221.19490    0.21840    2.41380    0.17320    -999.25    0.17320    4.52090    0.21840   80.25030   80.25030  137.81870  121.87660  121.87660    4.52090    4.79460    8.75230    4.79460    0.29240    -999.25    0.29240    2.41530  -89.74260  -56.75670    8.75230
 11050.00000    9.86590    9.50390    9.50390  106.35580    0.19860    2.72800   -0.01050    -999.25   -0.01050    9.40290    0.19860   62.73380   62.73380   96.68870   94.88760   94.88760    9.40290   10.25240   19.46960   10.25240    0.12610    -999.25    0.12610    2.72590  -76.72000  -44.63420   19.46960
 11100.00000   10.11140    9.59660    9.59660  139.68240    0.23790    2.62500    0.04970    -999.25    0.04970    7.15910    0.23790   63.47390   63.47390   90.35250   80.69000   80.69000    7.15910    7.87890   15.97650    7.87890    0.10820    -999.25    0.10820    2.63230  -84.05130  -52.87160   15.97650
 11150.00000    9.74880    9.46810    9.46810   94.93970    0.02790    2.68350    0.01550    -999.25    0.01550   10.53310    0.02790   60.64660   60.64660   86.28740   85.31970   85.31970   10.53310   12.03410   23.42200   12.03410    0.09600    -999.25    0.09600    2.67820  -79.21790  -48.93830   23.42200
 11200.00000    9.64260    9.48550    9.48550   95.77990    0.04820    2.73050   -0.01200    -999.25   -0.01200   10.44060    0.04820   62.27680   62.27680   88.98370   78.16380   78.16380   10.44060   11.14550   22.24000   11.14550    0.11320    -999.25    0.11320    2.72390  -86.10570  -56.73210   22.24000
 11250.00000    9.51230    9.36700    9.36700  112.28010    0.05820    2.72420   -0.00830    -999.25   -0.00830    8.90630    0.05820   64.50960   64.50960  106.83660   95.80100   95.80100    8.90630    9.62790   19.20680    9.62790    0.13000    -999.25    0.13000    2.72270  -32.48610   -4.01270   19.20680
 11300.00000   11.20740   10.25690   10.25690  199.02020    0.28680    2.59350    0.06810    -999.25    0.06810    5.02770    0.28680   72.84590   72.84590  131.90570  107.25470  107.25470    5.02770    5.27020   10.13690    5.27020    0.20410    -999.25    0.20410    2.60140  -54.40660  -23.03570   10.13690
 11350.00000    9.95930    9.66680    9.66680  155.12770    0.22590    2.45040    0.15180    -999.25    0.15180    6.44630    0.22590   71.98650   71.98650  127.23930  113.83630  113.83630    6.44630    7.23640   14.34490    7.23640    0.19320    -999.25    0.19320    2.44580  -98.46110  -64.10270   14.34490
 11400.00000   10.22750    9.58170    9.58170   53.77480    0.17920    2.49260    0.12710    -999.25    0.12710   18.66710    0.17920   80.84530   80.84530  226.71240  186.09270  186.09270   18.66710   17.87260   35.70530   17.87260    0.21270    -999.25    0.21270    2.49480  -89.47450  -52.14820   35.70530
 11450.00000   13.09970   11.37900   11.37900   39.97970    0.29900    2.35530    0.20740    -999.25    0.20740   25.01270    0.29900   77.88160   77.88160  147.44530  156.40160  156.40160   25.01270   27.00020   34.51230   27.00020    0.22970    -999.25    0.22970    2.38140 -102.06060  -61.74690   34.51230
 11500.00000   13.34560   10.01260   10.01260    9.74370    0.19100    2.47940    0.13490    -999.25    0.13490  102.63020    0.19100   52.10970   52.10970   40.40550   36.68640   36.68640  102.63020  170.28210  320.27790  170.28210    0.00740    -999.25    0.00740    2.48380  -60.35730  -17.07570  320.27790
