~Version ---------------------------------------------------
VERS.      2.0 : CWLS log ASCII Standard -VERSION 2.0
WRAP.       NO : One line per depth step
CREA. 08/02/17 : LAS Creation Date
~Well ------------------------------------------------------
STRT.FT                     950.0 : START DEPTH
STOP.FT                   10050.0 : STOP DEPTH
STEP.FT                  50.00000 : STEP LENGTH
NULL.                     -999.25 : NULL VALUE
COMP. SHELL CANADA RESOURCES LTD. : COMPANY
WELL.     ISH MAHASKA 11-32-56-13 : WELL
FLD .                             : FIELD
LOC .                             : LOCATION
CTRY.                      CANADA : COUNTRY
SRVC.                Schlumberger : SERVICE COMPANY
DATE.                 17-Nov-1977 : LOGDATE
PROV.                     Alberta : PROVINCE
UWI .            100113205613W500 : UNIQUE WELL ID
SLAT.WGS84               53.88366 : SURFACE LATITUDE
SLON.WGS84              -115.9002 : SURFACE LONGITUDE
~Curve Information -----------------------------------------
DEPT    .FT    : Depth Curve
CALDED  .IN    : CALIPER FROM DENSITY LOG [ADJ. TO GRRED]
CALSED  .IN    : CALIPER FROM SONIC LOG [ADJ. TO GRRED]
CALWS   .IN    : CALIPER [CALSED]
CONDWS  .MMHO  : CONDUCTIVITY [1000/DRESWS]
DCORWS  .G/C3  : DENSITY CORRECTION [DRHOED]
DENWS   .G/C3  : FORMATION BULK DENSITY [RHOBED]
DPHILSED.V/V   : DENSITY POROSITY LIME [M=2.71, F=1.00] FROM DENSITY LOG [ADJ. TO GRRED]
DPHISSED.V/V   : DENSITY POROSITY SAND [M=2.65, F=1.00] FROM DENSITY LOG [ADJ. TO GRRED]
DPOLSWS .V/V   : DENSITY POROSITY LIME [CALC FROM DENWS M=2.71, F=1.00]
DRESWS  .OHMM  : DEEP RESISTIVITY [LLDED]
DRHOED  .G/C3  : BULK DENSITY CORRECTION FROM DENSITY LOG [ADJ. TO GRRED]
DTED    .US/F  : DELTA-T FROM SONIC LOG [ADJ. TO GRRED]
DTWS    .US/F  : COMPRESSIONAL SONIC [DTED]
GRDED   .GAPI  : GAMMA RAY FROM DENSITY LOG [ADJ. TO GRRED]
GRRED   .GAPI  : GAMMA RAY FROM RESISTIVITY LOG
GRSED   .GAPI  : GAMMA RAY FROM SONIC LOG [ADJ. TO GRRED]
GRWS    .GAPI  : GAMMA RAY [GRSED]
LLDED   .OHMM  : LATEROLOG DEEP RESISTIVITY FROM RESISTIVITY LOG
LLSED   .OHMM  : LATEROLOG SHALLOW RESISTIVITY FROM RESISTIVITY LOG
MLLED   .OHMM  : MICRO FOCUSED LATERO RESISTIVITY FROM RESISTIVITY LOG
NPHILSED.V/V   : NEUTRON POROSITY LIME FROM DENSITY LOG [ADJ. TO GRRED]
NPHISSED.V/V   : NEUTRON POROSITY SAND FROM DENSITY LOG [ADJ. TO GRRED]
NPOLSWS .V/V   : NEUTRON POROSITY LIME [SS MATRIX CONVERTS TO LS SPL. TO LS @ 6450']
RHOBED  .G/C3  : BULK DENSITY FROM DENSITY LOG [ADJ. TO GRRED]
SRESWS  .OHMM  : SHALLOW RESISTIVITY [LLSED]
~Params ----------------------------------------------------
PD  .                     GL : PERMANENT DATUM
EPD .FT               2734.7 : ELEVATION PERMANENT DATUM
LMF .                     KB : LOG MEASURED FROM
DAPD.FT                   13 : FEET ABOVE PERMANENT DATUM
DMF .                     KB : DRILLING MEASURED FROM
EKB .FT               2747.7 : KELLY BUSHING
EGL .FT               2734.7 : GROUND LEVEL
DATE.               11/17/77 : RUN DATE
RUN .                      1 : RUN NUMBER
DD  .FT                10070 : DEPTH DRILLER
DL  .FT                10075 : DEPTH LOGGER
BLI .FT                10074 : BOTTOM LOG INTERVAL
TLI .FT                 4250 : TOP LOG INTERVAL
CBD .FT                 1066 : CASING BOTTOM DRILLER
BS  .IN                 8.75 : BIT SIZE
BSD .FT                10070 : BIT SIZE AT DEPTH
DFT .                    KCL : DRILLING FLUID TYPE
DFD .                    9.3 : DRILLING FLUID DENSITY
DFV .                     85 : DRILLING FLUID VISCOSITY
DFPH.                   10.5 : DRILLING FLUID PH
RMS .OHMM               0.33 : RESISTIVITY MUD SAMPLE
MST .DEGF                 64 : MUD SAMPLE TEMPERATURE
RMF .OHMM               0.47 : RESISTIVITY MUD FILTRATE SAMPLE
MFST.DEGF                 61 : MUD FILTRATE SAMPLE TEMPERATURE
TCS .HRS                 700 : TIME CIRCULATED STOPPED
LUN .                   7730 : LOGGING UNIT NUMBER
LUL .                    EDM : LOGGING UNIT LOCATION
ENGI.                PERKINS : RECORDING ENGINEER
WITN.                  FUCHS : WITNESSED BY
CLNT.                A2DTECH : CLIENT CODE
ORIG.               5" PRINT : ORIGIN OF DATA
UWI .       100113205613W500 : UNIQUE WELL ID
DICO. A2D Technologies, Inc. : DIGITIZING COMPANY
~Other -----------------------------------------------------
~ASCII -----------------------------------------------------
# ...
 7950.00000    9.35670    9.58360    9.58360    4.40980    0.02870    2.78940   -0.04130    -999.25   -0.04640  226.76700    0.02870   47.93660   47.93660   25.10950   30.78040   22.53650   22.53650  226.76700  224.77910  180.29910    0.02660    -999.25    0.02660    2.78940  224.77910
 8000.00000    9.50760    9.23390    9.23390   45.95120    0.01530    2.64710    0.05150    -999.25    0.03680   21.76220    0.01530   51.15150   51.15150   45.91940   46.73050   41.02340   41.02340   21.76220   29.24320  114.48790    0.10850    -999.25    0.10850    2.64710   29.24320
 8050.00000    9.67840    9.27560    9.27560   27.11720    0.08580    2.56390    0.07440    -999.25    0.08540   36.87700    0.08580   50.97370   50.97370   20.19630   20.73140   19.84570   19.84570   36.87700   48.47050    5.29610    0.14020    -999.25    0.14020    2.56390   48.47050
 8100.00000   11.26780    9.61960    9.61960   21.73030    0.18000    2.48870    0.15420    -999.25    0.12940   46.01870    0.18000   50.62980   50.62980   35.97930   36.49080   38.58170   38.58170   46.01870   52.30300    3.24560    0.10080    -999.25    0.10080    2.48870   52.30300
 8150.00000    9.13810    9.10900    9.10900    9.11360   -0.00290    2.69220    0.01540    -999.25    0.01040  109.72570   -0.00290   51.47590   51.47590   39.79540   42.70570   37.23830   37.23830  109.72570  132.62750  162.23570    0.04980    -999.25    0.04980    2.69220  132.62750
 8200.00000    9.23010    9.20960    9.20960   21.72480    0.00490    2.64020    0.04340    -999.25    0.04080   46.03040    0.00490   54.96210   54.96210   45.52450   45.64240   43.44390   43.44390   46.03040   55.14750   80.23460    0.06350    -999.25    0.06350    2.64020   55.14750
 8250.00000    9.25910    9.25830    9.25830   41.63020   -0.00610    2.63200    0.04390    -999.25    0.04560   24.02100   -0.00610   58.84210   58.84210   61.87760   61.55840   57.77020   57.77020   24.02100   28.22550   34.79500    0.10840    -999.25    0.10840    2.63200   28.22550
 8300.00000    9.35620    9.30130    9.30130   73.45160   -0.00120    2.63750    0.03770    -999.25    0.04240   13.61440   -0.00120   64.54810   64.54810   71.29020   73.26170   71.14070   71.14070   13.61440   14.45680   18.19990    0.15530    -999.25    0.15530    2.63750   14.45680
 8350.00000   12.94450   10.30680   10.30680  103.55720    0.12810    2.33050    0.22790    -999.25    0.22190    9.65650    0.12810   76.89060   76.89060   95.43330  101.49560   99.52920   99.52920    9.65650    8.41460    3.95000    0.25040    -999.25    0.25040    2.33050    8.41460
 8400.00000    -999.25   12.83310   12.83310  164.18740    0.09640    1.86390    0.29970    -999.25    0.49480    6.09060    0.09640   82.24560   82.24560   93.46440  103.69570   98.05220   98.05220    6.09060    6.48050    0.50520    0.42200    -999.25    0.42200    1.86390    6.48050
 8450.00000   13.47420    9.91370    9.91370  117.35710    0.22450    2.43550    0.17030    -999.25    0.16050    8.52100    0.22450   72.78300   72.78300   89.04450   94.29820   79.95750   79.95750    8.52100   10.05870    2.53720    0.25340    -999.25    0.25340    2.43550   10.05870
 8500.00000    9.36190    9.09610    9.09610   48.30030    0.00440    2.61620    0.06070    -999.25    0.05490   20.70380    0.00440   67.86830   67.86830   90.07050   93.75720   82.46600   82.46600   20.70380   23.96600   18.84880    0.19280    -999.25    0.19280    2.61620   23.96600
 8550.00000   12.81120    9.76150    9.76150  110.69660    0.12690    2.11580    0.29900    -999.25    0.34750    9.03370    0.12690   72.17170   72.17170   89.15040   96.15000   88.74080   88.74080    9.03370   10.87050    7.63940    0.30690    -999.25    0.30690    2.11580   10.87050
 8600.00000   14.64760   11.06300   11.06300  139.80930    0.19160    2.21530    0.29860    -999.25    0.28930    7.15260    0.19160   76.58450   76.58450   99.34740   88.83920   99.23590   99.23590    7.15260    8.14880    0.94900    0.34430    -999.25    0.34430    2.21530    8.14880
 8650.00000    9.14850    9.17250    9.17250   14.33010   -0.01090    2.66530    0.02690    -999.25    0.02610   69.78300   -0.01090   53.76230   53.76230   50.80270   54.55220   44.37440   44.37440   69.78300   74.71290   82.52140    0.07520    -999.25    0.07520    2.66530   74.71290
 8700.00000    9.36680    9.35450    9.35450   71.40310    0.00650    2.65750    0.02570    -999.25    0.03070   14.00500    0.00650   66.87500   66.87500   92.97210   96.15240   91.97240   91.97240   14.00500   15.82910   16.94420    0.19390    -999.25    0.19390    2.65750   15.82910
 8750.00000    9.47970    9.54430    9.54430   82.55390    0.00370    2.65910    0.02250    -999.25    0.02970   12.11330    0.00370   67.49440   67.49440   92.07070   93.11270   91.83150   91.83150   12.11330   14.99580   18.35520    0.18290    -999.25    0.18290    2.65910   14.99580
 8800.00000    9.57760    9.67390    9.67390   69.01360    0.00250    2.64340    0.04400    -999.25    0.03890   14.48990    0.00250   65.60480   65.60480   76.86930   76.62070   75.91920   75.91920   14.48990   16.34500   22.99970    0.17120    -999.25    0.17120    2.64340   16.34500
 8850.00000    9.37970    9.40420    9.40420   52.45980   -0.01180    2.66380    0.03030    -999.25    0.02700   19.06220   -0.01180   62.73280   62.73280   80.71450   77.88590   70.62850   70.62850   19.06220   21.56440   24.56760    0.13980    -999.25    0.13980    2.66380   21.56440
 8900.00000    9.80140    9.67530    9.67530   87.60400    0.08120    2.61420    0.04840    -999.25    0.05600   11.41500    0.08120   67.06500   67.06500   91.41060   98.90540   88.05060   88.05060   11.41500   13.65770   19.01670    0.19240    -999.25    0.19240    2.61420   13.65770
 8950.00000    9.40040    9.31030    9.31030   98.13160   -0.00390    2.63780    0.02910    -999.25    0.04220   10.19040   -0.00390   70.23470   70.23470   94.05650  103.95970   98.70980   98.70980   10.19040   12.70720   16.54220    0.20820    -999.25    0.20820    2.63780   12.70720
 9000.00000    9.11160    9.18700    9.18700   78.72960    0.00260    2.66130    0.03140    -999.25    0.02850   12.70170    0.00260   65.89710   65.89710   75.84730   76.33180   75.91330   75.91330   12.70170   15.78740   16.50190    0.15970    -999.25    0.15970    2.66130   15.78740
 9050.00000    9.33920    9.47640    9.47640   97.55720    0.01910    2.69110    0.01550    -999.25    0.01110   10.25040    0.01910   70.71650   70.71650  107.58870  109.43140  103.46490  103.46490   10.25040   12.73980   15.37460    0.22420    -999.25    0.22420    2.69110   12.73980
 9100.00000    9.32460    9.47730    9.47730   84.39530    0.06330    2.66560    0.04270    -999.25    0.02600   11.84900    0.06330   69.42800   69.42800   99.50400   98.92760   90.30220   90.30220   11.84900   14.05860   16.64140    0.19580    -999.25    0.19580    2.66560   14.05860
 9150.00000    9.26200    9.21810    9.21810   85.16290    0.02200    2.66840    0.01310    -999.25    0.02430   11.74220    0.02200   70.99820   70.99820  100.99100  105.79870  102.16780  102.16780   11.74220   14.15150   16.77410    0.19450    -999.25    0.19450    2.66840   14.15150
 9200.00000    9.13610    9.09840    9.09840   88.59120    0.00110    2.63880    0.02600    -999.25    0.04160   11.28780    0.00110   68.61800   68.61800   91.40340  102.61790   89.66570   89.66570   11.28780   13.00390   15.28010    0.19230    -999.25    0.19230    2.63880   13.00390
 9250.00000    8.88510    8.81960    8.81960    2.14240    0.00120    2.49430    0.12070    -999.25    0.12610  466.76720    0.00120   70.35520   70.35520   94.70130  102.02840   93.33780   93.33780  466.76720  361.06170  480.00900    0.15880    -999.25    0.15880    2.49430  361.06170
 9300.00000    9.07430    9.04430    9.04430   26.31870   -0.00450    2.62610    0.04030    -999.25    0.04910   37.99580   -0.00450   63.34390   63.34390   83.30030   80.31690   82.70860   82.70860   37.99580   35.97930   55.40680    0.12090    -999.25    0.12090    2.62610   35.97930
