~Version ---------------------------------------------------
VERS.      2.0 : CWLS log ASCII Standard -VERSION 2.0
WRAP.       NO : One line per depth step
CREA. 10/01/14 : LAS Creation Date
~Well ------------------------------------------------------
STRT.FT                        1500.0 : START DEPTH
STOP.FT                        9650.0 : STOP DEPTH
STEP.FT                      50.00000 : STEP LENGTH
NULL.                         -999.25 : NULL VALUE
COMP.           OCELOT INDUSTRIES LTD : COMPANY
WELL. OIL ET AL VIRGHILLS 11-15-63-13 : WELL
FLD .                                 : FIELD
LOC .                                 : LOCATION
CTRY.                          CANADA : COUNTRY
SRVC.                   Dresser Atlas : SERVICE COMPANY
DATE.                     19-Jun-1978 : LOGDATE
PROV.                         Alberta : PROVINCE
UWI .                100111506313W500 : UNIQUE WELL ID
SLAT.WGS84                   54.45302 : SURFACE LATITUDE
SLON.WGS84                  -115.8819 : SURFACE LONGITUDE
~Curve Information -----------------------------------------
DEPT    .FT    : DEPTH METER
CALD    .IN    : CALIPER FROM CDL-CNL LOG
CALD1   .IN    : CALIPER FROM CNFD LOG
CORR    .G/C3  : DENSITY CORRECTION FROM CDL-CNL LOG
DCOR1   .G/C3  : DENSITY CORRECTION FROM CNFD LOG
DPHI_LS .DEC   : DENSITY POROSITY LIMESTONE [M=2.71,F=1.0] FROM CDL-CNL LOG
DPHI_SS .DEC   : DENSITY POROSITY SANDSTONE [M=2.65,F=1.0] FROM CDL-CNL LOG
DPHI_SS1.DEC   : DENSITY POROSITY SANDSTONE [M=2.65,F=1.0] FROM CNFD LOG
GRD     .GAPI  : GAMMA RAY FROM CDL-CNL LOG
GRD1    .GAPI  : GAMMA RAY FROM CNFD LOG
ILD     .OHMM  : DEEP INDUCTION FROM RESISTIVITY LOG
ILM     .OHMM  : MEDIUM INDUCTION FROM RESISTIVITY LOG
NPHI_LS .DEC   : NEUTRON POROSITY LIMESTONE FROM CDL-CNL LOG
NPHI_SS .DEC   : NEUTRON POROSITY SANDSTONE FROM CDL-CNL LOG
NPHI_SS1.DEC   : NEUTRON POROSITY SANDSTONE FROM CNFD LOG
RHOB    .G/C3  : BULK DENSITY FROM CDL-CNL LOG
RHOB1   .G/C3  : BULK DENSITY FROM CNFD LOG
SFL     .OHMM  : SPHERICALLY FOCUSED FROM RESISTIVITY LOG
SPR     .MV    : SPONTANEOUS POTENTIAL FROM RESISTIVITY LOG
~Params ----------------------------------------------------
PD  .                     GL : PERMANENT DATUM
EPD .FT               3435.5 : ELEVATION PERMANENT DATUM
LMF .                     KB : LOG MEASURED FROM
DAPD.FT                 15.5 : FEET ABOVE PERMANENT DATUM
DMF .                     KB : DRILLING MEASURED FROM
EKB .FT                 3451 : KELLY BUSHING
EGL .FT               3435.5 : GROUND LEVEL
DATE.               06/19/78 : RUN DATE
RUN .                      1 : RUN NUMBER
DD  .FT                 9683 : DEPTH DRILLER
DL  .FT                 9684 : DEPTH LOGGER
BLI .FT                 9681 : BOTTOM LOG INTERVAL
TLI .FT                 1517 : TOP LOG INTERVAL
CS  .IN                8.625 : CASING SIZE
CBD .FT                 1517 : CASING BOTTOM DRILLER
CBL .FT                 1517 : CASING BOTTOM LOGGER
BS  .IN                7.875 : BIT SIZE
BSD .FT                 9683 : BIT SIZE AT DEPTH
DFT .               GEL CHEM : DRILLING FLUID TYPE
DFD .                    9.1 : DRILLING FLUID DENSITY
DFV .                     65 : DRILLING FLUID VISCOSITY
DFPH.                      9 : DRILLING FLUID PH
DFL .                     11 : DRILLING FLUID LOSS
MSS .                   CIRC : MUD SAMPLE SOURCE
RMS .OHMM                  3 : RESISTIVITY MUD SAMPLE
MST .DEGF                 76 : MUD SAMPLE TEMPERATURE
RMF .OHMM                2.8 : RESISTIVITY MUD FILTRATE SAMPLE
MFST.DEGF                 72 : MUD FILTRATE SAMPLE TEMPERATURE
RMC .OHMM                2.5 : RESISTIVITY MUD CAKE
MCST.DEGF                 72 : MUD CAKE SAMPLE TEMPERATURE
MFSS.                   MEAS : MUD FILTRATE SAMPLE SOURCE
MCSS.                   MEAS : MUD CAKE SAMPLE SOURCE
RMB .OHMM               1.23 : RESISTIVITY MUD AT BHT
TCS .HRS                   5 : TIME CIRCULATED STOPPED
LUN .                HL 6155 : LOGGING UNIT NUMBER
LUL .                     VV : LOGGING UNIT LOCATION
ENGI.                 GORDON : RECORDING ENGINEER
WITN.                  BROCK : WITNESSED BY
CLNT.                A2DTECH : CLIENT CODE
ORIG.            2" 5" PRINT : ORIGIN OF DATA
UWI .       100111506313W500 : UNIQUE WELL ID
DICO. A2D Technologies, Inc. : DIGITIZING COMPANY
~Other -----------------------------------------------------
~ASCII -----------------------------------------------------
 1500.00000    -999.25    -999.25    -999.25    -999.25    -999.25    -999.25    -999.25    -999.25   50.72700    -999.25    -999.25    -999.25    -999.25    0.50140    -999.25    -999.25    -999.25    -999.25
 1550.00000    -999.25   12.09570    -999.25    0.11220    -999.25    -999.25    0.51230    -999.25   77.69170    2.86430    3.29160    -999.25    -999.25    0.48110    -999.25    1.85140    7.35040  -49.65590
 1600.00000    -999.25    9.67110    -999.25    0.12370    -999.25    -999.25    0.24310    -999.25   80.03030    5.42690    5.78700    -999.25    -999.25    0.43230    -999.25    2.28520    5.13990  -47.41460
 1650.00000    -999.25   10.18630    -999.25    0.14050    -999.25    -999.25    0.31700    -999.25   86.04700    5.44460    6.17000    -999.25    -999.25    0.55750    -999.25    2.14680    6.01330  -43.25150
 1700.00000    -999.25   10.04110    -999.25    0.03020    -999.25    -999.25    0.19650    -999.25   80.36370    4.66320    4.85200    -999.25    -999.25    0.44550    -999.25    2.33860    6.68180  -40.87620
 1750.00000    -999.25   10.35390    -999.25    0.08060    -999.25    -999.25    0.25480    -999.25   82.45950    3.00230    3.27800    -999.25    -999.25    0.55150    -999.25    2.21930    5.05080  -38.73080
 1800.00000    -999.25   14.94380    -999.25    0.05800    -999.25    -999.25    0.56810    -999.25   59.64250    6.92300    7.50170    -999.25    -999.25    0.49790    -999.25    1.60560    8.15550  -37.62740
 1850.00000    -999.25   10.32440    -999.25    0.18570    -999.25    -999.25    0.41590    -999.25   93.23030    3.39980    3.86250    -999.25    -999.25    0.50000    -999.25    1.94100    5.64330  -37.30930
 1900.00000    -999.25   10.05290    -999.25    0.19650    -999.25    -999.25    0.36740    -999.25   89.36690    4.16710    4.52390    -999.25    -999.25    0.44740    -999.25    2.19680    4.71440  -35.40890
 1950.00000    -999.25    9.65020    -999.25    0.22880    -999.25    -999.25    0.21970    -999.25   95.56840    3.95800    4.28230    -999.25    -999.25    0.40230    -999.25    2.29310    4.63670  -35.66170
 2000.00000    -999.25    9.19370    -999.25    0.15900    -999.25    -999.25    0.25590    -999.25  100.53570    4.99270    5.51340    -999.25    -999.25    0.40750    -999.25    2.21940    8.35780  -36.44620
 2050.00000    -999.25    8.79610    -999.25    0.04970    -999.25    -999.25    0.22110    -999.25   86.20520    3.80750    4.15990    -999.25    -999.25    0.42700    -999.25    2.30040    7.07220  -36.53840
 2100.00000    -999.25    9.35340    -999.25    0.04050    -999.25    -999.25    0.22370    -999.25   88.35020    2.81650    2.98800    -999.25    -999.25    0.47700    -999.25    2.17390    4.75730  -35.17410
 2150.00000    -999.25    8.34580    -999.25    0.05260    -999.25    -999.25    0.23620    -999.25   59.32200    9.09410   10.37180    -999.25    -999.25    0.38710    -999.25    2.24790    7.48060  -53.95680
 2200.00000    -999.25   11.86350    -999.25    0.17350    -999.25    -999.25    0.39890    -999.25   94.74260    3.25950    3.50180    -999.25    -999.25    0.54750    -999.25    1.91730    3.81770  -33.63170
 2250.00000    -999.25    9.77920    -999.25    0.17100    -999.25    -999.25    0.38060    -999.25   78.00480    3.07630    3.47570    -999.25    -999.25    0.46030    -999.25    2.03570    5.06340  -34.30080
 2300.00000    -999.25    7.96940    -999.25    0.07010    -999.25    -999.25    0.24070    -999.25   62.45420    7.55580    8.42930    -999.25    -999.25    0.40990    -999.25    2.21430    8.54720  -53.44000
 2350.00000    -999.25    8.30180    -999.25    0.05970    -999.25    -999.25    0.21140    -999.25   76.87060    4.65590    5.06090    -999.25    -999.25    0.43810    -999.25    2.30570    5.81420  -35.86010
 2400.00000    -999.25    8.10410    -999.25    0.05470    -999.25    -999.25    0.24820    -999.25   59.41060    8.44090    8.69380    -999.25    -999.25    0.43170    -999.25    2.24810    9.03470  -41.73400
 2450.00000    -999.25    7.31560    -999.25    0.07570    -999.25    -999.25    0.25660    -999.25   55.01410   11.29500   13.02950    -999.25    -999.25    0.41740    -999.25    2.19230   11.78670  -50.90130
 2500.00000    -999.25    9.73820    -999.25    0.16430    -999.25    -999.25    0.26210    -999.25   75.95300    3.49410    3.92550    -999.25    -999.25    0.44940    -999.25    2.17650    7.58520  -32.29780
 2550.00000    -999.25    9.09580    -999.25    0.00690    -999.25    -999.25    0.17400    -999.25   72.59790    3.90050    4.37540    -999.25    -999.25    0.41290    -999.25    2.36200    4.83700  -33.02390
 2600.00000    -999.25    8.52310    -999.25    0.01650    -999.25    -999.25    0.20920    -999.25   63.13210    9.79360   10.48980    -999.25    -999.25    0.38190    -999.25    2.31170    8.68900  -38.15190
 2650.00000    -999.25    7.88370    -999.25    0.06870    -999.25    -999.25    0.23530    -999.25   70.62410    5.88370    6.63050    -999.25    -999.25    0.39640    -999.25    2.26800    7.12010  -46.35600
 2700.00000    -999.25    7.69250    -999.25    0.09890    -999.25    -999.25    0.24430    -999.25   60.78820    5.23970    6.12200    -999.25    -999.25    0.47180    -999.25    2.25940    8.86850  -43.56460
 2750.00000    -999.25    8.52230    -999.25    0.14690    -999.25    -999.25    0.21940    -999.25   83.76160    4.41260    4.69600    -999.25    -999.25    0.46070    -999.25    2.25970    9.52270  -32.81180
 2800.00000    -999.25    9.67990    -999.25    0.18320    -999.25    -999.25    0.29080    -999.25   74.62940    3.48490    3.61650    -999.25    -999.25    0.51580    -999.25    2.17960    4.16960  -25.28430
 2850.00000    -999.25    9.79300    -999.25    0.14970    -999.25    -999.25    0.33710    -999.25   76.17780    3.36630    3.59460    -999.25    -999.25    0.57110    -999.25    2.05010    4.26340  -24.31270
 2900.00000    -999.25    7.50710    -999.25    0.08810    -999.25    -999.25    0.23890    -999.25   55.08050   11.02730   14.32700    -999.25    -999.25    0.41600    -999.25    2.25650    8.35380  -46.13670
 2950.00000    -999.25    8.94750    -999.25    0.12480    -999.25    -999.25    0.36000    -999.25   68.48860    3.22440    3.37450    -999.25    -999.25    0.59740    -999.25    2.03580    8.05520  -26.11480
 3000.00000    -999.25    8.67490    -999.25    0.14080    -999.25    -999.25    0.21230    -999.25   65.09300    5.02280    6.04200    -999.25    -999.25    0.45950    -999.25    2.35130    6.22210  -39.92490
 3050.00000    -999.25    8.19270    -999.25    0.01710    -999.25    -999.25    0.15800    -999.25   63.13180    5.93190    6.21490    -999.25    -999.25    0.36000    -999.25    2.37050    6.37740  -32.84040
 3100.00000    -999.25    7.51650    -999.25    0.09390    -999.25    -999.25    0.17270    -999.25   51.06530   10.19930   13.61750    -999.25    -999.25    0.34020    -999.25    2.33690    9.75460  -49.38780
 3150.00000    -999.25    8.03810    -999.25    0.07850    -999.25    -999.25    0.12510    -999.25   72.01010    4.63300    5.17790    -999.25    -999.25    0.40650    -999.25    2.43970    4.65000  -31.59480
 3200.00000    -999.25    8.91780    -999.25    0.23260    -999.25    -999.25    0.23010    -999.25   79.29560    3.46760    3.98690    -999.25    -999.25    0.41980    -999.25    2.26660    4.57550  -31.32360
 3250.00000    -999.25    8.73390    -999.25    0.23750    -999.25    -999.25    0.18810    -999.25   80.03160    3.33380    3.73710    -999.25    -999.25    0.48010    -999.25    2.33530    3.98780  -30.55690
 3300.00000    -999.25    8.36410    -999.25    0.16720    -999.25    -999.25    0.15800    -999.25   99.65810    5.50380    6.06380    -999.25    -999.25    0.37390    -999.25    2.32500    6.44300  -32.42430
 3350.00000    -999.25    9.99890    -999.25    0.19560    -999.25    -999.25    0.33330    -999.25   99.87460    6.06470    6.40490    -999.25    -999.25    0.43470    -999.25    2.07620    6.71990  -35.59200
 3400.00000    -999.25   10.18650    -999.25    0.21520    -999.25    -999.25    0.31590    -999.25  100.26740    6.21000    6.59900    -999.25    -999.25    0.41950    -999.25    2.12330    6.92940  -36.81430
