~Version ---------------------------------------------------
VERS.      2.0 : CWLS log ASCII Standard -VERSION 2.0
WRAP.       NO : One line per depth step
CREA. 08/16/13 : LAS Creation Date
~Well ------------------------------------------------------
STRT.M                          400.0 : START DEPTH
STOP.M                         3500.0 : STOP DEPTH
STEP.M                       50.00000 : STEP LENGTH
NULL.                         -999.25 : NULL VALUE
COMP.     CANADA NORTHWEST ENERGY LTD : COMPANY
WELL. CNW ET AL ANTE CREEK 16-2-66-25 : WELL
FLD .                                 : FIELD
LOC .                                 : LOCATION
CTRY.                          CANADA : COUNTRY
SRVC.                         Unknown : SERVICE COMPANY
DATE.                     15-Feb-1985 : LOGDATE
PROV.                         Alberta : PROVINCE
UWI .                100160206625W500 : UNIQUE WELL ID
SLAT.WGS84                   54.68811 : SURFACE LATITUDE
SLON.WGS84                  -117.6596 : SURFACE LONGITUDE
~Curve Information -----------------------------------------
DEPT    .M      : DEPTH METER
C2ED    .MM     : CALIPER 2 FROM DENSITY LOG [ADJ. TO RESISTIVITY LOG]
CALDED  .MM     : CALIPER FROM DENSITY LOG [ADJ. TO RESISTIVITY LOG]
CALSED  .MM     : CALIPER FROM SONIC LOG
CALWS   .MM     : CALIPER [CALDED]
CONDWS  .MMHO   : CONDUCTIVITY [1000/DRESWS]
DCORWS  .KG/M3  : DENSITY CORRECTION [DRHOED]
DENWS   .KG/M3  : FORMATION BULK DENSITY [CALC FROM DPOLSWS, M=2710,F=1000]
DPHILSED.V/V    : DENSITY POROSITY LIMESTONE [M=2710,F=1000] FROM DENSITY LOG [ADJ. TO RESISTIVITY LOG]
DPHISSED.V/V    : DENSITY POROSITY SANDSTONE [M=2650,F=1000] FROM DENSITY LOG [ADJ. TO RESISTIVITY LOG]
DPOLSWS .V/V    : DENSITY POROSITY LIMESTONE [DPHISSED CONVERTED TO LIMESTONE(M=2710,F=1000) & SPL TO DPHILSED @2150M]
DRESWS  .OHMM   : DEEP RESISTIVITY [ILDED]
DRHOED  .KG/M3  : DENSITY CORRECTION FROM DENSITY LOG [ADJ. TO RESISTIVITY LOG]
DTED    .US/M   : DELTA TIME FROM SONIC LOG
DTWS    .US/M   : COMPRESSIONAL  SONIC [DTED]
GRDED   .GAPI   : GAMMA RAY FROM DENSITY LOG [ADJ. TO RESISTIVITY LOG]
GRRED   .GAPI   : GAMMA RAY FROM RESISTIVITY LOG
GRWS    .GAPI   : GAMMA RAY [GRRED]
ILDED   .OHMM   : DEEP INDUCTION FROM RESISTIVITY LOG
ILMED   .OHMM   : MEDIUM INDUCTION FROM RESISTIVITY LOG
MRESWS  .OHMM   : MEDIUM RESISTIVITY [ILMED]
NPHILSED.V/V    : NEUTRON POROSITY LIMESTONE FROM DENSITY LOG [ADJ. TO RESISTIVITY LOG]
NPHISSED.V/V    : NEUTRON POROSITY SANDSTONE FROM DENSITY LOG [ADJ. TO RESISTIVITY LOG]
NPOLSWS .V/V    : NEUTRON POROSITY LIMESTONE [NPHISSED MATRIX CONVERSION FOR LIMESTONE & SPL. TO NPHILSED @2150M']
RHOBED  .KG/M3  : BULK DENSITY FROM DENSITY LOG [ADJ. TO RESISTIVITY LOG]
SFLUED  .OHMM   : SPHERICALLY FOCUSED RESISTIVITY FROM RESISTIVITY LOG
SPRED   .MV     : SPONTANEOUS POTENTIAL FROM RESISTIVITY LOG
SPWS    .MV     : SPONTANEOUS POTENTIAL [BASELINE 0 MV, SPRED]
SRESWS  .OHMM   : SHALLOW RESISTIVITY [SFLUED]
TENDED  .N      : TENSION FROM DENSITY LOG [ADJ. TO RESISTIVITY LOG]
TENRED  .N      : TENSION FROM RESISTIVITY LOG
~Params ----------------------------------------------------
PD  .                         GL : PERMANENT DATUM
EPD .M                     767.2 : ELEVATION PERMANENT DATUM
LMF .                         KB : LOG MEASURED FROM
DAPD.M                       6.3 : FEET ABOVE PERMANENT DATUM
DMF .                         KB : DRILLING MEASURED FROM
EKB .M                     773.5 : KELLY BUSHING
EDF .M                     773.1 : DRILLING FLOOR
EGL .M                     767.2 : GROUND LEVEL
DATE.                   02/15/85 : RUN DATE
RUN .                          1 : RUN NUMBER
DD  .M                      3495 : DEPTH DRILLER
DL  .M                      3497 : DEPTH LOGGER
BLI .M                      3496 : BOTTOM LOG INTERVAL
TLI .M                       400 : TOP LOG INTERVAL
CS  .MM                    244.5 : CASING SIZE
CBD .M                       400 : CASING BOTTOM DRILLER
CBL .M                       400 : CASING BOTTOM LOGGER
BS  .MM                      222 : BIT SIZE
BSD .M                      3495 : BIT SIZE AT DEPTH
DFT .                   GEL CHEM : DRILLING FLUID TYPE
DFD .                       1110 : DRILLING FLUID DENSITY
DFV .                         91 : DRILLING FLUID VISCOSITY
DFPH.                         10 : DRILLING FLUID PH
DFL .                        8.1 : DRILLING FLUID LOSS
MSS .                   FLOWLINE : MUD SAMPLE SOURCE
RMS .OHMM                   1.92 : RESISTIVITY MUD SAMPLE
MST .DEGC                     23 : MUD SAMPLE TEMPERATURE
RMF .OHMM                   1.83 : RESISTIVITY MUD FILTRATE SAMPLE
MFST.DEGC                     20 : MUD FILTRATE SAMPLE TEMPERATURE
RMC .OHMM                  0.714 : RESISTIVITY MUD CAKE
MCST.DEGC                     85 : MUD CAKE SAMPLE TEMPERATURE
MFSS.                       MEAS : MUD FILTRATE SAMPLE SOURCE
MCSS.                       MEAS : MUD CAKE SAMPLE SOURCE
RMB .OHMM                  0.804 : RESISTIVITY MUD AT BHT
TCS .HRS                    1600 : TIME CIRCULATED STOPPED
LUN .                       8100 : LOGGING UNIT NUMBER
LUL .                         GP : LOGGING UNIT LOCATION
ENGI.                     YEAGER : RECORDING ENGINEER
WITN.                       WEBB : WITNESSED BY
CLNT.                    A2DTECH : CLIENT CODE
ORIG. 6.5"/100M 16.5"/100M PRINT : ORIGIN OF DATA
UWI .           100160206625W500 : UNIQUE WELL ID
DICO.     A2D Technologies, Inc. : DIGITIZING COMPANY
~Other -----------------------------------------------------
DIL-SFL-BCS LOG RAN IN COMBO & CNL-FDC LOG RAN
RHOB HAS BEEN VERIFIED FROM SMALL LOG
~ASCII -----------------------------------------------------
# ...
 2800.00000  372.32110  244.52730  296.61070  244.52730    0.50000    5.90890 2621.76400    0.05160    -999.25    0.05160 2000.00000    5.90890  160.98470  160.98470   10.15400   13.66070   13.66070 2000.00000 1279.31210 1279.31210    0.01460    -999.25    0.01460 2621.76400 2000.00000 -206.78340 -195.55160 2000.00000 83690.96090 82756.46880
 2850.00000  377.08110  222.49770  254.21880  222.49770    0.50000  -17.21080 2698.03000    0.00700    -999.25    0.00700 2000.00000  -17.21080  160.78740  160.78740   11.90180   12.43930   12.43930 2000.00000 2000.00000 2000.00000    0.01070    -999.25    0.01070 2698.03000 2000.00000 -241.15770 -232.56140 2000.00000 83512.85160 82529.09380
 2900.00000  361.20200  225.92820  261.65580  225.92820    0.50000   -9.58040 2700.25300    0.00570    -999.25    0.00570 2000.00000   -9.58040  160.17720  160.17720   10.35460   11.12150   11.12150 2000.00000 2000.00000 2000.00000    0.00680    -999.25    0.00680 2700.25300 2000.00000 -247.00750 -241.04670 2000.00000 83078.96090 82318.85940
 2950.00000  277.51880  242.20470  262.35090  242.20470    0.50000  -17.25050 2714.78800   -0.00280    -999.25   -0.00280 2000.00000  -17.25050  157.28320  157.28320    9.87060   10.27400   10.27400 2000.00000 1999.06560 1999.06560    0.00720    -999.25    0.00720 2714.78800 2000.00000 -111.85400 -108.52880 2000.00000 82952.90620 82350.66410
 3000.00000  368.31630  253.31510  311.22600  253.31510    1.27870  114.08630 2732.91400   -0.01340    -999.25   -0.01340  782.05640  114.08630  169.88460  169.88460   17.31590   19.79790   19.79790  782.05640   95.13280   95.13280    0.09290    -999.25    0.09290 2732.91400 1963.40980 -161.46240 -160.77270 1963.40980 82553.66410 82014.59380
 3050.00000  270.13390  228.69010  243.64490  228.69010    0.50000  -12.78090 2708.97400    0.00060    -999.25    0.00060 2000.00000  -12.78090  166.45070  166.45070   26.64050   28.94900   28.94900 2000.00000 2000.00000 2000.00000    0.02700    -999.25    0.02700 2708.97400 1974.32010 -174.50310 -176.44900 1974.32010 82204.55470 81736.02340
 3100.00000  236.58160  231.53670  244.81210  231.53670    7.79150  -16.89210 2686.40200    0.01380    -999.25    0.01380  128.34470  -16.89210  176.90130  176.90130   36.16770   34.00150   34.00150  128.34470  169.26530  169.26530    0.05550    -999.25    0.05550 2686.40200  121.23610  -48.37780  -52.95920  121.23610 81995.07810 81294.70310
 3150.00000  240.95890  242.54320  252.60960  242.54320   22.49020   76.37480 2424.94300    0.16670    -999.25    0.16670   44.46390   76.37480  219.22870  219.22870   79.72550   78.66200   78.66200   44.46390   49.76840   49.76840    0.18990    -999.25    0.18990 2424.94300   66.23340   -1.85510   -9.07210   66.23340 81749.06250 80813.89060
 3200.00000  247.81660  299.37160  265.53650  299.37160  120.37030   -4.41130 1605.34000    0.64600    -999.25    0.64600    8.30770   -4.41130  232.67200  232.67200   63.74960   63.19200   63.19200    8.30770    9.29470    9.29470    0.33600    -999.25    0.33600 1605.34000    7.56430  -12.86350  -26.65070    7.56430 81662.82030 81543.41410
 3250.00000  258.03360  305.92200  268.52430  305.92200  122.20460  112.14510 2185.71400    0.30660    -999.25    0.30660    8.18300  112.14510  226.70580  226.70580   76.22970   76.23070   76.23070    8.18300    9.63630    9.63630    0.23110    -999.25    0.23110 2185.71400   10.30590  -24.14280  -49.88940   10.30590 80395.08590 80674.36720
 3300.00000  320.79420  371.84010  323.78700  371.84010  159.12160  144.39630 2317.89700    0.22930    -999.25    0.22930    6.28450  144.39630  243.27430  243.27430   72.21600   70.67540   70.67540    6.28450    6.20670    6.20670    0.29490    -999.25    0.29490 2317.89700    7.00700    6.62430  -31.08180    7.00700 80940.30470 80881.16410
 3350.00000  233.93670  251.92900  253.18380  251.92900   22.17760   -6.80390 2678.70700    0.01830    -999.25    0.01830   45.09050   -6.80390  200.39590  200.39590   56.32550   54.57910   54.57910   45.09050   52.41330   52.41330    0.09030    -999.25    0.09030 2678.70700   77.09300   34.98600   -0.34990   77.09300 80828.11720 80109.19530
 3400.00000  214.72290  231.09140  239.32530  231.09140    9.66120   -9.19570 2712.05200   -0.00120    -999.25   -0.00120  103.50660   -9.19570  161.26190  161.26190    8.29310    8.85900    8.85900  103.50660  157.00520  157.00520    0.00940    -999.25    0.00940 2712.05200  544.73270 -310.72810 -328.25200  544.73270 80861.78910 80440.08590
 3450.00000  212.34450  264.51780  242.79540  264.51780    0.50000  242.04560 2634.76000    0.04400    -999.25    0.04400 2000.00000  242.04560  165.03100  165.03100   16.97670   14.37260   14.37260 2000.00000 2000.00000 2000.00000    0.00930    -999.25    0.00930 2634.76000 1915.80160 -123.56120 -123.27310 1915.80160 80737.70310 79901.11720
 3500.00000    -999.25    -999.25    -999.25    -999.25    -999.25    -999.25    -999.25    -999.25    -999.25    -999.25    -999.25    -999.25    -999.25    -999.25    -999.25    -999.25    -999.25    -999.25    -999.25    -999.25    -999.25    -999.25    -999.25    -999.25    -999.25    -999.25    -999.25    -999.25 84658.24220 85016.07030
