~Version ---------------------------------------------------
VERS. 2.0 : CWLS log ASCII Standard -VERSION 2.0
WRAP.  NO : ONE LINE PER DEPTH STEP
~Well ------------------------------------------------------
STRT.F                         1050.0 : START DEPTH
STOP.F                        10050.0 : STOP DEPTH
STEP.F                       50.00000 : STEP LENGTH
NULL.                         -999.25 : NULL VALUE
COMP.        SKELLY OIL OF CANADA LTD : COMPANY
WELL. SKELLY A3 TWO CREEK 10-17-62-16 : WELL
FLD .                                 : FIELD
LOC .                                 : LOCATION
CTRY.                          CANADA : COUNTRY
SRVC.                         Unknown : SERVICE COMPANY
DATE.                     26-Aug-1976 : LOGDATE
PROV.                         Alberta : PROVINCE
UWI .                100101706216W500 : UNIQUE WELL ID
SLAT.WGS84                   54.36596 : SURFACE LATITUDE
SLON.WGS84                   -116.357 : SURFACE LONGITUDE
~Curve Information -----------------------------------------
DEPT   .F    0   1   0  0 : 1 MEASURED DEPTH
DRHO   .G/C3 45 356 01 00 : BULK DENSITY CORRECTION
RHOB   .G/C3 45 350 01 00 : BULK DENSITY
CALD   .IN   45 280 60 00 : CALIPER FROM DENSITY LOG
GRD    .GAPI 45 310 01 00 : GAMMA RAY FROM DENSITY LOG
DPHI_SS.DEC  45 890 12 00 : DENSITY POROSITY SANDSTONE
NPHI_SS.DEC  42 890 03 00 : NEUTRON POROSITY SANDSTONE
DPHI_LS.DEC  45 890 10 00 : DENSITY POROSITY LIMESTONE
NPHI_LS.DEC  42 890 01 00 : NEUTRON POROSITY LIMESTONE
SPR    .MV   07 010 01 00 : SPONTANEOUS POTENTIAL FROM RESISTIVITY LOG
ILD    .OHMM 07 120 46 00 : INDUCTION DEEP RESISTIVITY
ILM    .OHMM 07 120 44 00 : INDUCTION MEDIUM RESISTIVITY
LL8    .OHMM 07 220 08 00 : LATEROLOG 8
CILD   .MMHO 07 110 46 00 : INDUCTION DEEP CONDUCTIVITY
DT     .US/F 60 500 00 00 : DELTA-T (INTERVAL TRANSIT TIME)
GRS    .GAPI 60 310 01 00 : GAMMA RAY FROM SONIC LOG
CALS   .IN   60 280 50 00 : CALIPER FROM SONIC LOG
~Params ----------------------------------------------------
PD  .                     GL : PERMANENT DATUM
EPD .FT               3020.5 : ELEVATION PERMANENT DATUM
LMF .                     KB : LOG MEASURED FROM
DAPD.FT                 14.9 : FEET ABOVE PERMANENT DATUM
EKB .FT               3035.4 : KELLY BUSHING
EGL .FT               3020.5 : GROUND LEVEL
DATE.               08/26/76 : RUN DATE
RUN .                      1 : RUN NUMBER
DD  .FT                10065 : DEPTH DRILLER
DL  .FT                10059 : DEPTH LOGGER
BLI .FT                10053 : BOTTOM LOG INTERVAL
TLI .FT                 1048 : TOP LOG INTERVAL
CBD .FT                 1047 : CASING BOTTOM DRILLER
CBL .FT                 1048 : CASING BOTTOM LOGGER
BS  .IN                7.875 : BIT SIZE
BSD .FT                10065 : BIT SIZE AT DEPTH
DFT .               GEL CHEM : DRILLING FLUID TYPE
DFD .                    9.9 : DRILLING FLUID DENSITY
DFV .                    2.2 : DRILLING FLUID VISCOSITY
DFPH.                      9 : DRILLING FLUID PH
DFL .                    6.2 : DRILLING FLUID LOSS
MSS .             CIRCULATED : MUD SAMPLE SOURCE
RMS .OHMM               2.55 : RESISTIVITY MUD SAMPLE
MST .DEGF                 57 : MUD SAMPLE TEMPERATURE
RMF .OHMM               2.27 : RESISTIVITY MUD FILTRATE SAMPLE
MFST.DEGF                 60 : MUD FILTRATE SAMPLE TEMPERATURE
RMC .OHMM               2.87 : RESISTIVITY MUD CAKE
MCST.DEGF                 55 : MUD CAKE SAMPLE TEMPERATURE
RMB .OHMM               0.77 : RESISTIVITY MUD AT BHT
TCS .HRS                   3 : TIME CIRCULATED STOPPED
LUN .                   7691 : LOGGING UNIT NUMBER
LUL .                    WCT : LOGGING UNIT LOCATION
ENGI.              CROCKFORD : RECORDING ENGINEER
WITN.                   BALL : WITNESSED BY
CLNT.                A2DTECH : CLIENT CODE
ORIG.        2" 5" 10" PRINT : ORIGIN OF DATA
UWI .       100101706216W500 : UNIQUE WELL ID
DICO. A2D Technologies, Inc. : DIGITIZING COMPANY
~Other -----------------------------------------------------
~ASCII -----------------------------------------------------
# ...
 5350.00000    0.04280    2.67090    9.21790   49.96690    0.00170    0.17680    -999.25    -999.25  -17.91410   16.38280   15.01850   39.21810    -999.25   66.09900   51.70890    9.19730
 5400.00000    0.12020    2.56400   10.14050   78.92330    0.04250    0.24880    -999.25    -999.25  -21.42740    9.60960    9.00250   11.05890    -999.25   74.63030   77.29840    9.45930
 5450.00000    0.06020    2.63190   10.17230   75.20490    0.02430    0.22850    -999.25    -999.25  -25.73070   14.22900   13.46290   18.70840    -999.25   72.54340   76.25150    9.43290
 5500.00000    0.24580    2.51280   11.61060   94.82390    0.07390    0.31280    -999.25    -999.25  -19.14900    9.78760    8.59940    9.65900    -999.25   86.74210   96.19960    9.42430
 5550.00000    0.01000    1.54880   11.09440   52.91870    0.45020    0.44660    -999.25    -999.25  -20.34420   18.72720   14.09200   94.24440    -999.25  136.17700   56.20730   11.66820
 5600.00000    0.07330    2.55050    9.97980   76.75970    0.07770    0.27540    -999.25    -999.25  -40.51860   10.43540   10.86340   14.37960    -999.25   86.97370   79.27080    8.77900
 5650.00000    0.03750    2.57240    9.75430   77.20590    0.01300    0.25370    -999.25    -999.25  -24.40460   11.80100   10.91570   13.86450    -999.25   73.74390   73.47160    9.81390
 5700.00000    0.08780    2.55450    9.39980   53.55420    0.04290    0.19780    -999.25    -999.25  -62.78020   11.35400   13.43720   21.46440    -999.25   70.30420   51.81580    8.67500
 5750.00000    0.04950    2.61950    9.22450   86.13220    0.00460    0.24500    -999.25    -999.25   -9.96500    8.60190    8.16300    9.83140    -999.25   75.26770   83.42310    9.02710
 5800.00000    0.04010    2.60920    9.01310   77.06500    0.00530    0.24860    -999.25    -999.25  -21.24480    8.21280    8.79230   11.11950    -999.25   71.17460   70.53730    8.82090
 5850.00000    0.04030    2.65070    8.94420   93.93930   -0.01350    0.24540    -999.25    -999.25  -13.39240   10.17420    9.62520   12.74070    -999.25   73.23530   87.49120    8.66220
 5900.00000    0.04900    2.66100    9.15040   92.43340   -0.00020    0.21890    -999.25    -999.25  -11.57780   11.17570   11.77910   19.25210    -999.25   68.44240   90.60530    8.79590
 5950.00000    0.16310    2.55280   10.12940   99.29960    0.09560    0.27680    -999.25    -999.25   -6.26010    6.90250    6.02110    8.70800    -999.25   80.39120  103.13620    9.33280
 6000.00000    0.04290    2.52590    8.37760   56.36400    0.07780    0.22900    -999.25    -999.25  -40.53920   14.43430   15.14560   26.84370    -999.25   74.05880   54.02130    8.29060
 6050.00000    0.10800    1.85000    8.38080   79.89770    0.26820    0.38390    -999.25    -999.25  -41.35920    8.28950    8.13530   28.49890    -999.25   91.38610   68.81370    8.55320
 6100.00000    0.16160    1.84250    -999.25   98.26500    -999.25    0.46550    -999.25    -999.25  -17.56170    3.64330    3.37790    4.39370    -999.25   90.56060   95.46730   13.27790
 6150.00000    0.07420    2.65230    9.02980   88.93740    0.00650    0.22870    -999.25    -999.25 -106.69730    9.82710    9.30600   16.68100    -999.25   73.73230   90.91870    8.72060
 6200.00000    0.15340    2.72710    9.43060   78.02060   -0.01360    0.28000    -999.25    -999.25 -103.20400    8.45910    7.62450   17.39740    -999.25   73.22860   77.86540    9.92890
 6250.00000    0.10840    2.58320    8.72920   81.44920    0.01280    0.19420    -999.25    -999.25 -104.52000   10.21350    8.41440   20.00230    -999.25   73.00250   82.08810    8.83010
 6300.00000    0.01790    2.53730    8.06010  154.02330    0.07260    0.16560    -999.25    -999.25  -92.24390  339.33740  724.84160 1300.04060    -999.25   63.04250  146.71970    8.11780
 6350.00000    0.01570    2.45910    8.31190  300.20670    0.12030    0.25650    -999.25    -999.25 -120.61000  251.06210  479.26510 1343.94490    -999.25   74.90570    -999.25    8.28370
 6400.00000    0.15850    2.58130    8.13090   59.58540    0.03200    0.24080    -999.25    -999.25 -185.94620    5.46090    9.41800   65.57280    -999.25   59.23530   50.08550    7.60740
 6450.00000    0.02410    2.75320    8.32350   58.59100   -0.03330    0.08960   -0.05770    0.09970 -132.32170   12.06130   11.25360   27.67730    -999.25   56.50400   54.53900    8.26690
 6500.00000    0.06680    2.73910    8.77490   66.45820    -999.25    -999.25   -0.07000    0.12170 -127.00700    9.12980    8.39040   13.38560    -999.25   61.17190   57.88780    8.60550
 6550.00000    0.02770    2.77330    8.33030   23.56150    -999.25    -999.25   -0.03590    0.08300 -139.13690   18.74710   28.22950  457.21150    -999.25   49.46620   20.61760    8.30720
 6600.00000    0.03360    2.86870    8.47060   25.63300    -999.25    -999.25   -0.07340    0.04080 -168.58890    6.64150    8.63180   22.00560    -999.25   57.19780   37.12740    8.39030
 6650.00000    0.01630    2.90750    8.75460   12.77650    -999.25    -999.25   -0.14000    0.00070 -173.39830  189.66820  744.29220 1511.37440    -999.25   50.33940   16.63290    8.54300
 6700.00000    0.07020    2.66470    8.17980   16.85050    -999.25    -999.25    0.02030    0.04130 -294.73180   22.90180   32.96630  398.27410    -999.25   51.09440   17.68930    8.18770
 6750.00000    0.08010    2.63150    8.46870   18.59060    -999.25    -999.25   -0.00700    0.03100 -285.21800   16.45490   26.80200  183.52200    -999.25   54.51040   15.65480    7.75420
 6800.00000    0.07330    2.68240    8.55630   86.64520    -999.25    -999.25   -0.00970    0.18470 -132.26860    4.36300    4.43830    6.19860    -999.25   65.97000   83.76220    8.57690
 6850.00000    0.08540    2.78960    8.43770   75.65990    -999.25    -999.25   -0.03130    0.12250 -138.15720   14.49330   15.12460   27.03600    -999.25   56.30130   74.63580    8.40360
 6900.00000    0.06810    2.73520    8.67140   50.40770    -999.25    -999.25   -0.00910    0.09050 -182.95180    5.47050    6.34980    8.56050    -999.25   61.68400   49.21060    8.45670
 6950.00000    0.04040    2.74810    8.51240   34.17330    -999.25    -999.25   -0.02840    0.02900 -147.02530  120.40090  183.85770  442.81210    -999.25   52.61000   27.91840    8.45830
 7000.00000    0.02470    2.72620    8.93640   45.91920    -999.25    -999.25   -0.01550    0.03380 -125.05090   36.45530   31.90330   50.46710    -999.25   55.65440   44.64680    8.65430
 7050.00000    0.00680    2.67160    8.19240   25.81580    -999.25    -999.25    0.00570    0.02380 -188.79900   23.91370   19.41190   38.30350    -999.25   58.50210   23.39420    8.22130
 7100.00000    0.01700    2.74500    8.17760   26.65480    -999.25    -999.25   -0.01380    0.03230 -169.35610   40.20830   43.40120   94.24270    -999.25   53.82470   27.18400    7.92840
 7150.00000    0.01140    2.70860    8.14160   30.12330    -999.25    -999.25    0.00620    0.02030 -147.27530   99.08350  127.70140  254.31470    -999.25   52.88520   30.19690    8.05100
 7200.00000    0.02090    2.70250    8.13860   26.20270    -999.25    -999.25   -0.00610    0.01830 -109.82110  118.86370  125.38000  218.01970    -999.25   53.00100   27.79370    8.06490
 7250.00000    0.03810    2.74330    8.14150   25.16140    -999.25    -999.25   -0.02780    0.01370 -143.89920  161.93650  149.87620  215.91100    -999.25   52.22150   26.19640    8.11080
 7300.00000    0.03320    2.72860    8.12640   40.57670    -999.25    -999.25    0.00130    0.02330 -133.67590  516.96420  645.61410  806.41350    -999.25   53.65280   40.63730    8.15470
 7350.00000    0.04800    2.74430    8.22380   37.60370    -999.25    -999.25   -0.00620    0.01090 -127.65790   90.50070  119.87700  217.00450    -999.25   50.59210   43.63400    8.27300
 7400.00000    0.01640    2.71930    8.26080   14.07190    -999.25    -999.25   -0.01150    0.00790 -106.47430  564.58670  920.79980 1496.75060    -999.25   49.75050   16.30450    8.38420
 7450.00000    0.01610    2.70190    8.60140   16.88610    -999.25    -999.25    0.01080    0.00630 -192.22510  309.60400  356.83650  459.02130    -999.25   49.30520   17.08770    8.39320
