~Version ---------------------------------------------------
VERS.      2.0 : CWLS log ASCII Standard -VERSION 2.0
WRAP.       NO : One line per depth step
CREA. 10/04/13 : LAS Creation Date
~Well ------------------------------------------------------
STRT.M                             350.0 : START DEPTH
STOP.M                            2450.0 : STOP DEPTH
STEP.M                          50.00000 : STEP LENGTH
NULL.                            -999.25 : NULL VALUE
COMP. CALPINE CANADA NATURAL GAS COMPANY : COMPANY
WELL.       NORWICH TOGL TWIN 4-28-33-23 : WELL
FLD .                                    : FIELD
LOC .                                    : LOCATION
CTRY.                             CANADA : COUNTRY
SRVC.                                BPB : SERVICE COMPANY
DATE.                        21-Feb-1989 : LOGDATE
PROV.                            Alberta : PROVINCE
UWI .                   100042803323W400 : UNIQUE WELL ID
SLAT.WGS84                      51.85486 : SURFACE LATITUDE
SLON.WGS84                     -113.2132 : SURFACE LONGITUDE
~Curve Information -----------------------------------------
DEPT    .M      : DEPTH METER
CALSED  .MM     : CALIPER FROM SONIC LOG [ADJ. TO RESISTIVITY LOG]
CALWS   .MM     : CALIPER [CALXDED]
CALXDED .MM     : CALIPER X FROM DENSITY LOG [ADJ. TO RESISTIVITY LOG]
CALYDED .MM     : CALIPER Y FROM DENSITY LOG [ADJ. TO RESISTIVITY LOG]
CONDWS  .MMHO   : CONDUCTIVITY [1000/DRESWS]
DCORED  .KG/M3  : DENSITY CORRECTION FROM DENSITY LOG [ADJ. TO DPHISSED/DPHILSED/RESISTIVITY LOG]
DCORWS  .KG/M3  : DENSITY CORRECTION [DCORED]
DENED   .KG/M3  : BULK DENSITY FROM DENSITY LOG [ADJ. TO DPHISSED/DPHILSED/RESISTIVITY LOG]
DENWS   .KG/M3  : FORMATION BULK DENSITY [CALC. FROM DPOLSWS, M=2710, F=1000]
DPHILSED.V/V    : DENSITY POROSITY LIMESTONE [M=2710, F=1000] FROM DENSITY LOG [ADJ. TO RESISTIVITY LOG]
DPHISSED.V/V    : DENSITY POROSITY SANDSTONE [M=2650, F=1000] FROM DENSITY LOG [ADJ. TO DPHILSED/RESISTIVITY LOG]
DPOLSWS .V/V    : DENSITY POROSITY LIMESTONE [DPHISSED CONVERTED TO LIMESTONE MATRIX, M=2710, F=1000 SPL. TO DPHILSED @ 1562 M]
DRESWS  .OHMM   : DEEP RESISTIVITY [ILDED]
DTED    .US/M   : DELTA TIME FROM SONIC LOG [ADJ. TO RESISTIVITY LOG]
DTWS    .US/M   : COMPRESSIONAL SONIC [DTED]
FPEED   .B/E    : FAR PHOTOELECTRIC FROM DENSITY LOG [ADJ. TO RESISTIVITY LOG]
GRDED   .GAPI   : GAMMA RAY FROM DENSITY LOG [ADJ. TO RESISTIVITY LOG]
GRRED   .GAPI   : GAMMA RAY FROM RESISTIVITY LOG
GRSED   .GAPI   : GAMMA RAY FROM SONIC LOG [ADJ. TO RESISTIVITY LOG]
GRWS    .GAPI   : GAMMA RAY [GRSED]
ILDED   .OHMM   : DEEP INDUCTION RESISTIVITY FROM RESISTIVITY LOG
ILMED   .OHMM   : MEDIUM INDUCTION RESISTIVITY FROM RESISTIVITY LOG
MRESWS  .OHMM   : MEDIUM RESISTIVITY [ILMED]
NPEED   .B/E    : NEAR PHOTOELECTRIC FROM DENSITY LOG [ADJ. TO RESISTIVITY LOG]
NPHILSED.V/V    : NEUTRON POROSITY LIMESTONE FROM DENSITY LOG [ADJ. TO RESISTIVITY LOG]
NPHISSED.V/V    : NEUTRON POROSITY SANDSTONE FROM DENSITY LOG [ADJ. TO NPHISSED/RESISTIVITY LOG]
NPOLSWS .V/V    : NEUTRON POROSITY LIMESTONE [NPHISSED CONVERTED TO LIMESTONE MATRIX, SPL. TO NPHILSED @ 1562 M]
PEFWS   .B/E    : PHOTOELECTRIC FACTOR [FPEED]
SFEED   .OHMM   : SHALLOW FOCUSED ELECTRIC RESISTIVITY FROM RESISTIVITY LOG
SPRED   .MV     : SPONTANEOUS POTENTIAL FROM RESISTIVITY LOG
SPWS    .MV     : SPONTANEOUS POTENTIAL [BASELINE 0 MV, SPRED]
SRESWS  .OHMM   : SHALLOW RESISTIVITY [SFEED]
TENDED  .N      : TENSION FROM DENSITY LOG [ADJ. TO RESISTIVITY LOG]
TENSED  .N      : TENSION FROM SONIC LOG [ADJ. TO RESISTIVITY LOG]
~Params ----------------------------------------------------
PD  .                         GL : PERMANENT DATUM
EPD .M                    839.17 : ELEVATION PERMANENT DATUM
DAPD.M                      7.19 : FEET ABOVE PERMANENT DATUM
DMF .                         KB : DRILLING MEASURED FROM
EKB .M                    846.36 : KELLY BUSHING
EGL .M                    839.17 : GROUND LEVEL
DATE.                   02/21/89 : RUN DATE
RUN .                          1 : RUN NUMBER
DD  .M                      2455 : DEPTH DRILLER
DL  .M                    2457.3 : DEPTH LOGGER
BLI .M                      2457 : BOTTOM LOG INTERVAL
TLI .M                     396.3 : TOP LOG INTERVAL
CBD .M                       398 : CASING BOTTOM DRILLER
CBL .M                     396.3 : CASING BOTTOM LOGGER
BS  .MM                      222 : BIT SIZE
BSD .M                      2455 : BIT SIZE AT DEPTH
DFT .                   GEL CHEM : DRILLING FLUID TYPE
DFD .                       1150 : DRILLING FLUID DENSITY
DFV .                         75 : DRILLING FLUID VISCOSITY
DFPH.                       11.5 : DRILLING FLUID PH
DFL .                       10.4 : DRILLING FLUID LOSS
MSS .                   FLOWLINE : MUD SAMPLE SOURCE
RMS .OHMM                   0.48 : RESISTIVITY MUD SAMPLE
MST .DEGC                     20 : MUD SAMPLE TEMPERATURE
RMF .OHMM                   0.39 : RESISTIVITY MUD FILTRATE SAMPLE
MFST.DEGC                     20 : MUD FILTRATE SAMPLE TEMPERATURE
RMC .OHMM                   0.82 : RESISTIVITY MUD CAKE
MCST.DEGC                     20 : MUD CAKE SAMPLE TEMPERATURE
MFSS.                      PRESS : MUD FILTRATE SAMPLE SOURCE
MCSS.                      PRESS : MUD CAKE SAMPLE SOURCE
RMB .OHMM                   0.22 : RESISTIVITY MUD AT BHT
TCS .HRS                       9 : TIME CIRCULATED STOPPED
LUN .                     V 1024 : LOGGING UNIT NUMBER
LUL .                        GPR : LOGGING UNIT LOCATION
ENGI.                    TRACHUK : RECORDING ENGINEER
WITN.                   REICHERT : WITNESSED BY
CLNT.                    A2DTECH : CLIENT CODE
ORIG. 6.5"/100M 16.5"/100M PRINT : ORIGIN OF DATA
UWI .           100042803323W400 : UNIQUE WELL ID
DICO.     A2D Technologies, Inc. : DIGITIZING COMPANY
~Other -----------------------------------------------------
CNL-LDT-DIL-BCS LOG RAN.
RHOB & DCOR FROM 2" DATA LOG.
GRRED HAS GAPS DUE TO POOR QUALITY OF IMAGE.
~ASCII -----------------------------------------------------
  350.00000    -999.25    -999.25    -999.25    -999.25    -999.25    -999.25    -999.25    -999.25    -999.25    -999.25    -999.25    -999.25    -999.25    -999.25    -999.25    -999.25    -999.25   41.72700   40.40320   40.40320    -999.25    -999.25    -999.25    -999.25    -999.25    -999.25    -999.25    -999.25    -999.25    -999.25    -999.25    -999.25    -999.25    -999.25
  400.00000  407.39950  405.32410  405.32410  410.05300  275.91530  188.00000  188.00000 1699.30000 1612.31500    -999.25    0.62890    0.64190    3.62430  488.82820  488.82820    2.62810   78.04570   67.90410   64.95030   64.95030    3.62430    2.41610    2.41610    2.03900    -999.25    0.47930    0.44110    2.62810    4.83960  -96.12210  -15.12550    4.83960 3790.22110 3624.43100
  450.00000  316.80860  247.28140  247.28140  329.64640  192.30400  131.20000  131.20000 2323.00000 2315.54500    -999.25    0.20270    0.23070    5.20010  347.42740  347.42740    2.80530   72.92950   71.35370   69.72580   69.72580    5.20010    4.54690    4.54690    2.35550    -999.25    0.48420    0.44630    2.80530    5.38120  -90.57830   -9.44320    5.38120 3990.88130 3949.46790
  500.00000  231.18860  223.20250  223.20250  231.40630  152.07280   34.80000   34.80000 2425.80000 2422.30000    -999.25    0.13800    0.16820    6.57580  288.29500  288.29500    2.50520   56.93580   67.91160   69.81590   69.81590    6.57580    7.07110    7.07110    2.15940    -999.25    0.28130    0.23870    2.50520    7.21140  -92.95110  -11.54440    7.21140 4306.69740 4222.26980
  550.00000  230.42260  218.55590  218.55590  220.27450   94.24890   59.60000   59.60000 2300.20000 2293.10500    -999.25    0.21630    0.24380   10.61020  322.02180  322.02180    2.51670   53.55770   60.63340   58.63040   58.63040   10.61020    9.01540    9.01540    2.31360    -999.25    0.31220    0.26950    2.51670    7.98130 -100.00920  -18.33100    7.98130 4515.42940 4059.26290
  600.00000  241.77660  230.00710  230.00710  232.66940   99.04320   40.30000   40.30000 2413.70000 2410.58500    -999.25    0.14510    0.17510   10.09660  290.09900  290.09900    2.55300   63.71340   54.53680   52.89520   52.89520   10.09660    8.82270    8.82270    2.33710    -999.25    0.30330    0.26060    2.55300    9.54020 -100.11590  -18.16610    9.54020 4757.24360 4285.91050
  650.00000  402.50540  246.32790  246.32790  389.09410  216.54860  183.90000  183.90000 2144.60000 2304.49000    -999.25    0.20940    0.23710    4.61790  347.47860  347.47860    2.77530   58.57210   59.05080   59.91280   59.91280    4.61790    3.28920    3.28920    2.36760    -999.25    0.39030    0.34870    2.77530    3.18680  -90.32240   -9.12550    3.18680 4811.47540 4602.46990
  700.00000  352.38790  261.72810  261.72810  307.01300  193.86610  142.30000  142.30000 2324.90000 2350.19500    -999.25    0.18170    0.21040    5.15820  324.44660  324.44660    3.04790   67.16760   69.81370   71.19090   71.19090    5.15820    4.46840    4.46840    2.24710    -999.25    0.46240    0.42340    3.04790    4.65130  -91.10930  -12.53460    4.65130 5170.49940 4654.56750
  750.00000  278.21960  223.00830  223.00830  215.40250  138.20170  173.50000  173.50000 2408.30000 2310.59500    -999.25    0.20570    0.23360    7.23580  315.38560  315.38560    2.70900   81.82860   63.57160   68.20490   68.20490    7.23580    6.21510    6.21510    1.80020    -999.25    0.38390    0.34220    2.70900    6.34010  -90.36070  -14.40830    6.34010 5419.27910 4930.26340
  800.00000  303.36330  253.75440  253.75440  248.82510  203.49610  211.40000  211.40000 2261.40000 2276.27500    -999.25    0.22650    0.25360    4.91410  315.79960  315.79960    2.49040   76.93000   70.04890   75.13260   75.13260    4.91410    4.08450    4.08450    1.96990    -999.25    0.43390    0.39370    2.49040    4.64050  -88.30570  -14.97560    4.64050 5426.85530 5053.16060
  850.00000  328.15440  294.12120  294.12120  248.75130  124.58260  259.90000  259.90000 2338.20000 2339.96500    -999.25    0.18790    0.21640    8.02680  299.55040  299.55040    2.33720   90.30500   92.51120   91.49290   91.49290    8.02680    7.09030    7.09030    1.61250    -999.25    0.30780    0.26510    2.33720    7.27790  -83.69540  -12.90440    7.27790 5645.53080 5392.17870
  900.00000  396.05620  309.71780  309.71780  269.38410  109.51220  323.20000  323.20000 2185.40000 2260.93000    -999.25    0.23580    0.26260    9.13140  281.84120  281.84120    3.00370   92.85440   95.89460   89.16230   89.16230    9.13140    7.15480    7.15480    2.02040    -999.25    0.36510    0.32300    3.00370    8.00370  -87.18890  -17.35850    8.00370 6024.56680 5378.81090
  950.00000  279.81540  256.01340  256.01340  234.91710  102.21500  128.40000  128.40000 2540.00000 2537.80000    -999.25    0.06800    0.10070    9.78330  312.65250  312.65250    2.94340  143.25340  139.61070  136.14670  136.14670    9.78330    8.95120    8.95120    2.82550    -999.25    0.38250    0.34070    2.94340   10.51750  -83.01430  -14.14440   10.51750 5665.50240 5967.03840
 1000.00000  304.74320  266.07320  266.07320  253.36490  124.12950  304.10000  304.10000 2175.50000 2121.01000    -999.25    0.32060    0.34440    8.05610  309.24320  309.24320    2.58340  105.16930  120.24340  117.42110  117.42110    8.05610    7.06130    7.06130    1.36820    -999.25    0.39230    0.35080    2.58340    9.92510  -82.35810  -14.44870    9.92510 6119.15920 5978.64780
 1050.00000  322.99660  288.11730  288.11730  255.90710  117.87170  319.10000  319.10000 2262.90000 2214.56500    -999.25    0.26390    0.28970    8.48380  288.32230  288.32230    2.78700  113.17090  103.45380  103.33790  103.33790    8.48380    7.35890    7.35890    1.45740    -999.25    0.31950    0.27690    2.78700    8.25270  -78.10980  -11.16100    8.25270 6334.97530 6201.58780
 1100.00000  367.40670  299.14560  299.14560  233.88930  119.96880  300.90000  300.90000 2099.80000 2095.27000    -999.25    0.33620    0.35950    8.33550  289.13180  289.13180    2.72510  102.05110  107.78560  106.59100  106.59100    8.33550    7.48780    7.48780    1.54910    -999.25    0.37510    0.33320    2.72510    8.73590  -77.51440  -12.30740    8.73590 6539.01300 6525.02110
 1150.00000  401.35160  351.48160  351.48160  275.11570  125.92710  280.60000  280.60000 1988.50000 2014.58500    -999.25    0.38510    0.40670    7.94110  287.15870  287.15870    2.40380   97.58240  106.84020  101.46520  101.46520    7.94110    6.58100    6.58100    1.53620    -999.25    0.39990    0.35860    2.40380    7.18250  -74.56610  -12.55210    7.18250 7060.52410 6384.95370
 1200.00000  348.96500  303.07570  303.07570  252.20300  150.65910  334.50000  334.50000 2310.70000 2311.25500    -999.25    0.20530    0.23320    6.63750  311.70100  311.70100    2.37870  109.23900  112.22020  114.29200  114.29200    6.63750    6.04920    6.04920    1.50070    -999.25    0.42850    0.38810    2.37870    7.38470  -72.54590  -13.72480    7.38470 6717.01300 6734.28190
 1250.00000  256.75900  253.15840  253.15840  240.73170  102.10230  126.00000  126.00000 2531.30000 2539.78000    -999.25    0.06680    0.09950    9.79410  292.88340  292.88340    3.26550  121.55170  124.04400  119.32740  119.32740    9.79410    9.42550    9.42550    2.43640    -999.25    0.34090    0.29840    3.26550   13.05070  -67.60260  -11.97440   13.05070 6907.97300 6787.19350
 1300.00000  276.77250  266.40830  266.40830  236.42070  166.50850  179.30000  179.30000 2425.80000 2402.50000    -999.25    0.15000    0.17980    6.00570  320.08960  320.08960    2.89160  186.48270  201.80020  201.95660  201.95660    6.00570    5.78770    5.78770    2.07000    -999.25    0.42750    0.38710    2.89160    7.86790  -62.60460  -10.16930    7.86790 6968.63160 6805.46330
 1350.00000  344.54860  311.11210  311.11210  270.29710  300.01200  279.15000  279.15000 2158.95000 2158.30000    -999.25    0.29800    0.32260    3.33320  315.49630  315.49630    2.22870   98.25510   98.16660   97.23120   97.23120    3.33320    2.72130    2.72130    1.57390    -999.25    0.43220    0.39200    2.22870    3.62270  -61.22130  -11.97900    3.62270 7469.79270 7460.42560
