~Version ---------------------------------------------------
VERS.      2.0 : CWLS log ASCII Standard -VERSION 2.0
WRAP.       NO : One line per depth step
CREA. 12/07/17 : LAS Creation Date
~Well ------------------------------------------------------
STRT.FT                      750.0 : START DEPTH
STOP.FT                     6700.0 : STOP DEPTH
STEP.FT                   50.00000 : STEP LENGTH
NULL.                      -999.25 : NULL VALUE
COMP.     CHEVRON STANDARD LIMITED : COMPANY
WELL. CHEVRON WESTLOCK 10-16-60-27 : WELL
FLD .                              : FIELD
LOC .                              : LOCATION
CTRY.                       CANADA : COUNTRY
SRVC.                 Schlumberger : SERVICE COMPANY
DATE.                  11-Nov-1965 : LOGDATE
PROV.                      Alberta : PROVINCE
UWI .             100101606027W400 : UNIQUE WELL ID
SLAT.WGS84                 54.1904 : SURFACE LATITUDE
SLON.WGS84                -113.984 : SURFACE LONGITUDE
~Curve Information -----------------------------------------
DEPT  .FT    : Depth Curve
CALWS .IN    : CALIPER [MCALED]
CILDED.MMHO  : DEEP CONDUCTIVITY FROM RESISTIVITY LOG
CONDWS.MMHO  : CONDUCTIVITY [1000/DRESWS]
DRESWS.MMHO  : DEEP RESISTIVITY [1000/CILDED IF ILDED<5, ILDED]
DTED  .US/F  : DELTA TIME FROM SONIC LOG [ADJ. TO RESISTIVITY LOG]
DTWS  .US/F  : COMPRESSIONAL SONIC [DTED]
GRSED .GAPI  : GAMMA RAY FROM SONIC LOG [ADJ. TO RESISTIVITY LOG]
GRWS  .GAPI  : GAMMA RAY [GRSED]
ILDED .OHMM  : DEEP INDUCTION RESISTIVITY FROM RESISTIVITY LOG
MCALED.IN    : MLT CALIPER FROM MICRO LOG
SNED  .OHMM  : SHORT NORMAL RESISTIVITY16" FROM RESISTIVITY LOG
SPRED .MV    : SPONTANEOUS POTENTIAL FROM RESISTIVITY LOG
SPWS  .MV    : SPONTANEOUS POTENTIAL [BASELINE 0 MV. SPRED]
SRESWS.OHMM  : SHALLOW RESISTIVITY [SNED]
~Params ----------------------------------------------------
PD  .                     GL : PERMANENT DATUM
EPD .FT               2067.4 : ELEVATION PERMANENT DATUM
LMF .                     KB : LOG MEASURED FROM
DAPD.FT                 12.6 : FEET ABOVE PERMANENT DATUM
EKB .FT                 2080 : KELLY BUSHING
EGL .FT               2067.4 : GROUND LEVEL
DATE.               11/11/65 : RUN DATE
RUN .                      2 : RUN NUMBER
DD  .FT                 6730 : DEPTH DRILLER
DL  .FT                 6730 : DEPTH LOGGER
BLI .FT                 6729 : BOTTOM LOG INTERVAL
TLI .FT                 6300 : TOP LOG INTERVAL
CBD .FT                  712 : CASING BOTTOM DRILLER
CBL .FT                  711 : CASING BOTTOM LOGGER
BS  .IN                 8.75 : BIT SIZE
BSD .FT                 6730 : BIT SIZE AT DEPTH
DFT .               GEL CHEM : DRILLING FLUID TYPE
DFD .                   10.1 : DRILLING FLUID DENSITY
DFV .                    135 : DRILLING FLUID VISCOSITY
DFPH.                   10.5 : DRILLING FLUID PH
DFL .                   12.8 : DRILLING FLUID LOSS
RMS .OHMM              0.644 : RESISTIVITY MUD SAMPLE
MST .DEGF                 60 : MUD SAMPLE TEMPERATURE
RMF .OHMM              0.418 : RESISTIVITY MUD FILTRATE SAMPLE
MFST.DEGF                 66 : MUD FILTRATE SAMPLE TEMPERATURE
RMC .OHMM                0.7 : RESISTIVITY MUD CAKE
MCST.DEGF                 65 : MUD CAKE SAMPLE TEMPERATURE
RMB .OHMM              0.302 : RESISTIVITY MUD AT BHT
TCS .HRS                 1.5 : TIME CIRCULATED STOPPED
LUN .                   3523 : LOGGING UNIT NUMBER
LUL .                    EDM : LOGGING UNIT LOCATION
ENGI.              SWINARTON : RECORDING ENGINEER
WITN.                  LINKE : WITNESSED BY
CLNT.                A2DTECH : CLIENT CODE
ORIG.            2" 5" PRINT : ORIGIN OF DATA
UWI .       100101606027W400 : UNIQUE WELL ID
DICO. A2D Technologies, Inc. : DIGITIZING COMPANY
~Other -----------------------------------------------------
IEL-BHC-MICROLOG RUN
~ASCII -----------------------------------------------------
# ...
 3200.00000    9.44660  171.15390  170.84290    5.85790   87.20210   87.20210   55.62380   55.62380    5.85790    9.44660    8.74290  -67.00050   -2.31670    8.74290
 3250.00000   11.89040  221.96650  222.37050    4.49700  116.10820  116.10820   62.16680   62.16680    4.49700   11.89040    6.39040  -72.67070   -5.61720    6.39040
 3300.00000   10.29960   34.00400   30.57560   32.70580   48.48570   48.48570   23.56810   23.56810   32.70580   10.29960   31.27700  -73.21760   -3.79430   31.27700
 3350.00000    8.44770  192.17730  194.78370    5.13390   52.94340   52.94340   17.66620   17.66620    5.13390    8.44770   25.10310 -152.30200  -83.18690   25.10310
 3400.00000    8.01500  132.57960  131.10970    7.62720   50.33240   50.33240    6.56260    6.56260    7.62720    8.01500   39.18040 -160.67350  -92.46400   39.18040
 3450.00000    8.10660  216.78480  221.80190    4.50910   52.06680   52.06680    8.63620    8.63620    4.50910    8.10660   32.98460 -160.99390  -93.69600   32.98460
 3500.00000    7.99110  247.92380  250.56380    3.99100   51.09520   51.09520    9.59630    9.59630    3.99100    7.99110   32.07320 -159.97850  -93.58610   32.07320
 3550.00000    7.85160  220.05290  223.09480    4.48240   50.76900   50.76900    7.01090    7.01090    4.48240    7.85160   29.41100 -158.36050  -92.87370   29.41100
 3600.00000    7.86300  336.36870  337.47300    2.96320   50.44680   50.44680    6.46980    6.46980    2.96320    7.86300   16.35320 -159.37170  -94.79650   16.35320
 3650.00000    7.81980  202.92270  200.61390    4.98470   50.38330   50.38330    7.55950    7.55950    4.98470    7.81980   33.02440 -159.35780  -95.68820   33.02440
 3700.00000    7.84010  431.34130  415.94790    2.40680   50.62190   50.62190   12.89830   12.89830    2.40680    7.84010   19.64740 -157.99490  -95.23680   19.64740
 3750.00000    7.85330  419.92750  396.29070    2.52340   51.98550   51.98550    9.72930    9.72930    2.52340    7.85330   25.02150 -161.72190  -99.86940   25.02150
 3800.00000    7.74420  249.44010  250.80260    3.98720   49.91500   49.91500    7.44630    7.44630    3.98720    7.74420   36.50600 -163.29080 -102.34390   36.50600
 3850.00000    7.93730  235.96450  228.22190    4.38170   49.36660   49.36660   26.21640   26.21640    4.38170    7.93730   20.85530 -142.93730  -82.90190   20.85530
 3900.00000    8.94300  169.14450  169.21620    5.90960   45.17240   45.17240    7.79550    7.79550    5.90960    8.94300   36.10430 -154.64920  -95.51940   36.10430
 3950.00000    8.22540  111.74010  111.68320    8.95500   48.46690   48.46690   19.96500   19.96500    8.95500    8.22540   33.38750 -152.93110  -94.71290   33.38750
 4000.00000   10.72040  228.38300  227.30370    4.39940   52.32540   52.32540   47.45470   47.45470    4.39940   10.72040    6.28820  -79.07220  -21.75960    6.28820
 4050.00000    8.80270   22.38260   20.97620   47.67310   46.12500   46.12500   12.28730   12.28730   47.67310    8.80270   60.49150  -76.05530  -20.18100   60.49150
 4100.00000    9.12400   44.50910   41.76950   23.94090   48.08610   48.08610   31.64080   31.64080   23.94090    9.12400   25.97420  -69.24340  -15.19660   25.97420
 4150.00000   10.52340  149.27150  149.40980    6.69300   66.72910   66.72910   44.07730   44.07730    6.69300   10.52340    8.55660  -58.62630   -6.39510    8.55660
 4200.00000    8.75710   21.69480   17.95930   55.78300   53.74040   53.74040   15.52920   15.52920   55.78300    8.75710   40.58840  -62.46870  -12.06490   40.58840
 4250.00000   13.34770  262.17700  262.99180    3.80240   91.80390   91.80390   61.46540   61.46540    3.80240   13.34770    5.60940  -67.48010  -18.89190    5.60940
 4300.00000   10.66910   77.23740   74.71160   13.38480   67.21000   67.21000   39.18900   39.18900   13.38480   10.66910   13.74850  -52.50610   -5.73340   13.74850
 4350.00000   10.21450  210.75490  212.72070    4.70100   66.75690   66.75690   39.85190   39.85190    4.70100   10.21450    7.74220  -63.59480  -17.85950    7.74220
 4400.00000    8.81780   35.33120   33.38150   29.95670   57.90400   57.90400   24.55400   24.55400   29.95670    8.81780   31.87200  -55.10990   -7.85440   31.87200
 4450.00000   13.57110  196.47390  195.14100    5.12450   85.28860   85.28860   60.18690   60.18690    5.12450   13.57110    6.67290  -59.12000  -11.40930    6.67290
 4500.00000   17.11190  288.40990  291.61320    3.42920   89.77330   89.77330   64.03820   64.03820    3.42920   17.11190    4.77390  -59.65800  -12.79530    4.77390
 4550.00000   14.87680  206.40370  205.08610    4.87600   82.43330   82.43330   49.63480   49.63480    4.87600   14.87680    6.32440  -61.79380  -15.77920    6.32440
 4600.00000    9.68710   87.40300   83.78440   11.93540   65.04220   65.04220   36.15850   36.15850   11.93540    9.68710   17.12540  -47.65350   -2.49260   17.12540
 4650.00000    9.13410   29.52050   26.24890   38.09680   53.42570   53.42570   16.69310   16.69310   38.09680    9.13410   35.94020  -50.42460   -6.11170   35.94020
 4700.00000    8.84410   27.63900   25.75300   38.84600   58.50650   58.50650   26.78860   26.78860   38.84600    8.84410   42.75190  -57.35370  -13.89450   42.75190
 4750.00000    8.95070   35.01530   32.09270   31.15970   58.26170   58.26170   25.98560   25.98560   31.15970    8.95070   34.43860  -48.68620   -6.07510   34.43860
 4800.00000    9.48090   84.25180   81.42660   12.28100   65.65450   65.65450   63.14180   63.14180   12.28100    9.48090   17.67720  -47.19310   -5.43000   17.67720
 4850.00000    9.45500   49.34850   46.78690   21.37350   63.67000   63.67000   32.55370   32.55370   21.37350    9.45500   22.34480  -49.05580   -7.28500   22.34480
 4900.00000    8.77880   35.03630   32.13990   31.11400   56.70710   56.70710   23.60220   23.60220   31.11400    8.77880   31.04540  -52.38400   -9.56360   31.04540
 4950.00000    8.79920   36.63640   32.06400   31.32980   56.00350   56.00350   22.28700   22.28700   31.32980    8.79920   33.45210  -51.90450   -8.02770   33.45210
 5000.00000    8.85270   81.78150   78.52440   12.73490   65.98360   65.98360   43.98480   43.98480   12.73490    8.85270   16.87840  -46.39690   -2.65650   16.87840
 5050.00000   10.45210  134.41260  124.00950    8.06390   70.66600   70.66600   41.93410   41.93410    8.06390   10.45210    8.91170  -69.65430  -26.23010    8.91170
 5100.00000   15.93130  274.73300  266.95850    3.74590  139.82570  139.82570   58.69600   58.69600    3.74590   15.93130    5.54540  -59.38540  -16.27940    5.54540
 5150.00000   15.75030  272.60610  271.31890    3.68570   91.59850   91.59850   66.06580   66.06580    3.68570   15.75030    4.88920  -64.65210  -21.86220    4.88920
 5200.00000   17.45990  209.96790  209.26900    4.77870   81.77800   81.77800   49.42940   49.42940    4.77870   17.45990    5.63480  -58.62470  -16.15310    5.63480
 5250.00000   14.94570  191.25080  189.90830    5.26570   88.13320   88.13320   47.80600   47.80600    5.26570   14.94570    6.12490  -63.83000  -21.67450    6.12490
 5300.00000    8.68760   16.24430   12.69110   78.79550   51.18040   51.18040   10.62790   10.62790   78.79550    8.68760   54.55720  -75.10530  -33.26600   54.55720
 5350.00000    9.14230   50.11840   46.15850   21.66450   56.61280   56.61280   24.80720   24.80720   21.66450    9.14230   26.25540  -47.90540   -6.38430   26.25540
 5400.00000   11.13960  137.59300  140.75780    7.10440   72.01680   72.01680   49.46170   49.46170    7.10440   11.13960    9.81290  -47.28810   -6.08310    9.81290
 5450.00000    9.37160   18.08840   13.86630   72.22010   51.49880   51.49880    5.71630    5.71630   72.22010    9.37160   52.24950  -80.25590  -39.36910   52.24950
 5500.00000    8.75550   20.03520   16.36030   61.12350   53.41950   53.41950   20.33650   20.33650   61.12350    8.75550   55.38730  -48.39050   -8.02020   55.38730
 5550.00000    9.02060   27.60440   24.63520   40.59240   52.48890   52.48890    9.78240    9.78240   40.59240    9.02060   44.45740  -95.09830  -56.49380   44.45740
 5600.00000    9.44510   56.12300   51.54400   19.40090   60.54070   60.54070   35.12040   35.12040   19.40090    9.44510   27.58210  -44.58420   -7.75710   27.58210
