~Version ---------------------------------------------------
VERS.      2.0 : CWLS log ASCII Standard -VERSION 2.0
WRAP.       NO : One line per depth step
CREA. 11/17/17 : LAS Creation Date
~Well ------------------------------------------------------
STRT.FT                             900.0 : START DEPTH
STOP.FT                            9050.0 : STOP DEPTH
STEP.FT                          50.00000 : STEP LENGTH
NULL.                             -999.25 : NULL VALUE
COMP. EDWIN L. COX SOUTHERN DRILLING INC. : COMPANY
WELL.               COX AZTEC 11-30-69-19 : WELL
FLD .                                     : FIELD
LOC .                                     : LOCATION
CTRY.                              CANADA : COUNTRY
SRVC.                       Dresser Atlas : SERVICE COMPANY
DATE.                         18-Dec-1971 : LOGDATE
PROV.                             Alberta : PROVINCE
UWI .                    100113006919W500 : UNIQUE WELL ID
SLAT.WGS84                       55.00587 : SURFACE LATITUDE
SLON.WGS84                      -116.8901 : SURFACE LONGITUDE
~Curve Information -----------------------------------------
DEPT  .FT    : Depth Curve
CALSED.IN    : CALIPER FROM SONIC LOG [ADJ TO RESISTIVITY LOG]
CALWS .IN    : CALIPER [CASED]
CILDED.MMHO  : DEEP INDUCTION CONDUCTIVITY FROM RESSITIVITY LOG
CONDWS.MMHO  : CONDUCTIVITY [1000/DRESWS]
DRESWS.OHMM  : DEEP RESISTIVITY [1000/CILDED IF ILDED <1, ILDED & SPL. TO ILDED @ 3160']
DTED  .US/F  : DELTA-TIME FROM SONIC LOG [ADJ TO RESISTIVITY LOG]
DTWS  .US/F  : COMPRESSIONAL SONIC [DTED]
GRSED .GAPI  : GAMMA RAY FROM SONIC LOG [ADJ TO RESISTIVITY LOG]
GRWS  .GAPI  : GAMMA RAY [GRSED]
ILDED .OHMM  : DEEP INDUCTION RESISTIVITY FROM RESISTIVITY LOG
ILMED .OHMM  : MEDIUM INDUCTION  RESISTIVITY FROM RESISTIVITY LOG
MRESWS.OHMM  : MEDIUM RESISTIVITY [ILMED]
SFLED .OHMM  : SPHERICALLY FOCUSED LOG FROM RESISTIVITY LOG
SPRED .MV    : SPONTANEOUS POTENTIAL FROM RESISTIVITY LOG
SPWS  .MV    : SPONTANEOUS POTENTIAL [BASELINE 0 MV, SPRED]
SRESWS.OHMM  : SHALLOW RESISTIVITY [SFLED]
~Params ----------------------------------------------------
PD  .                     GL : PERMANENT DATUM
EPD .FT               2315.7 : ELEVATION PERMANENT DATUM
LMF .                     KB : LOG MEASURED FROM
DAPD.FT                 15.4 : FEET ABOVE PERMANENT DATUM
DMF .                     KB : DRILLING MEASURED FROM
EKB .FT               2331.1 : KELLY BUSHING
EGL .FT               2315.7 : GROUND LEVEL
DATE.               12/18/71 : RUN DATE
RUN .                      1 : RUN NUMBER
DD  .FT                 9106 : DEPTH DRILLER
DL  .FT                 9087 : DEPTH LOGGER
BLI .FT                 9085 : BOTTOM LOG INTERVAL
TLI .FT                  935 : TOP LOG INTERVAL
CS  .IN                8.625 : CASING SIZE
CBD .FT                  930 : CASING BOTTOM DRILLER
CBL .FT                  935 : CASING BOTTOM LOGGER
BS  .IN                7.875 : BIT SIZE
BSD .FT                 9106 : BIT SIZE AT DEPTH
DFT .                MUD GEL : DRILLING FLUID TYPE
DFD .                    9.2 : DRILLING FLUID DENSITY
DFV .                    135 : DRILLING FLUID VISCOSITY
DFPH.                    9.5 : DRILLING FLUID PH
DFL .                    7.6 : DRILLING FLUID LOSS
MSS .                   CIRC : MUD SAMPLE SOURCE
RMS .OHMM                  2 : RESISTIVITY MUD SAMPLE
MST .DEGF                 60 : MUD SAMPLE TEMPERATURE
RMF .OHMM                1.9 : RESISTIVITY MUD FILTRATE SAMPLE
MFST.DEGF                 61 : MUD FILTRATE SAMPLE TEMPERATURE
RMC .OHMM                2.7 : RESISTIVITY MUD CAKE
MCST.DEGF                 61 : MUD CAKE SAMPLE TEMPERATURE
MFSS.                   MEAS : MUD FILTRATE SAMPLE SOURCE
MCSS.                   MEAS : MUD CAKE SAMPLE SOURCE
RMB .OHMM               0.63 : RESISTIVITY MUD AT BHT
TCS .HRS                 3.5 : TIME CIRCULATED STOPPED
LUN .                   6091 : LOGGING UNIT NUMBER
LUL .                     VV : LOGGING UNIT LOCATION
ENGI.          CLARK GISTERN : RECORDING ENGINEER
WITN.                 MACKEY : WITNESSED BY
CLNT.                A2DTECH : CLIENT CODE
ORIG.            2" 5" PRINT : ORIGIN OF DATA
UWI .       100113006919W500 : UNIQUE WELL ID
DICO. A2D Technologies, Inc. : DIGITIZING COMPANY
~Other -----------------------------------------------------
DIFL-SONIC LOG RUN
ALL DATA UP TO THE TOP TO 3160' VARIFIED FROM 2 INCH SCALE SECTION
~ASCII -----------------------------------------------------
# ...
 7350.00000    8.67900    8.67900    -999.25   39.57950   25.26560   44.80640   44.80640   41.80890   41.80890   25.26560   28.11630   28.11630   38.17270 -112.05480  -73.97570   38.17270
 7400.00000    8.49840    8.49840    -999.25    7.81480  127.96160   44.58890   44.58890   22.86540   22.86540  127.96160  173.06440  173.06440  326.86720 -144.87930 -103.97120  326.86720
 7450.00000    8.65680    8.65680    -999.25   86.61160   11.54580   55.06810   55.06810   46.26550   46.26550   11.54580   20.61320   20.61320   54.07790  -99.99300  -56.25590   54.07790
 7500.00000    8.38770    8.38770    -999.25   20.74440   48.20570   50.47890   50.47890   34.20810   34.20810   48.20570   67.60290   67.60290   83.22720  -57.19810  -10.63200   83.22720
 7550.00000    9.14210    9.14210    -999.25  125.02310    7.99860   75.00430   75.00430   75.90320   75.90320    7.99860    8.85880    8.85880   15.08040  -55.63990   -6.33330   15.08040
 7600.00000    8.44200    8.44200    -999.25   41.72400   23.96700   54.20750   54.20750   44.70660   44.70660   23.96700   30.86540   30.86540   40.22640  -92.90830  -41.75560   40.22640
 7650.00000    9.66350    9.66350    -999.25  111.47030    8.97100   63.57210   63.57210   80.81670   80.81670    8.97100   11.28690   11.28690   17.07600 -109.38500  -56.39540   17.07600
 7700.00000    9.67610    9.67610    -999.25  102.35410    9.77000   62.37060   62.37060   74.23180   74.23180    9.77000   14.77150   14.77150   31.47300 -156.78500 -101.95840   31.47300
 7750.00000   13.31810   13.31810    -999.25  373.76190    2.67550   74.03630   74.03630   90.98420   90.98420    2.67550    3.27220    3.27220    5.18540 -127.04250  -70.37890    5.18540
 7800.00000   12.82700   12.82700    -999.25  315.97860    3.16480   83.89320   83.89320  101.40540  101.40540    3.16480    3.83070    3.83070    5.03400  -76.83800  -18.34660    5.03400
 7850.00000   13.18800   13.18800    -999.25  239.44640    4.17630   81.10910   81.10910   95.77450   95.77450    4.17630    5.31600    5.31600    5.77010  -81.15740  -21.03100    5.77010
 7900.00000   14.47950   14.47950    -999.25  280.51280    3.56490   80.47670   80.47670   93.51430   93.51430    3.56490    4.36660    4.36660    5.33560 -119.21730  -59.01370    5.33560
 7950.00000   14.06720   14.06720    -999.25  272.75450    3.66630   78.38310   78.38310   97.88020   97.88020    3.66630    4.48600    4.48600    5.60120  -83.61130  -23.33050    5.60120
 8000.00000   12.50040   12.50040    -999.25  331.48800    3.01670   82.97870   82.97870  109.48430  109.48430    3.01670    3.75500    3.75500    5.05840 -102.37520  -42.01720    5.05840
 8050.00000   12.68240   12.68240    -999.25  348.47550    2.86970   82.90250   82.90250  112.87880  112.87880    2.86970    3.55100    3.55100    4.89270 -110.81950  -50.38460    4.89270
 8100.00000   11.18990   11.18990    -999.25  333.18900    3.00130   87.96090   87.96090  111.20740  111.20740    3.00130    3.78050    3.78050    5.42810  -91.60520  -31.09270    5.42810
 8150.00000    8.31010    8.31010    -999.25  104.40160    9.57840   62.48310   62.48310   67.06000   67.06000    9.57840   12.96580   12.96580   17.06590 -112.50970  -51.92000   17.06590
 8200.00000    7.94940    7.94940    -999.25   80.46480   12.42780   60.72340   60.72340   54.79920   54.79920   12.42780   16.36440   16.36440   21.00930  -92.49990  -31.83290   21.00930
 8250.00000    7.92390    7.92390    -999.25  112.36330    8.89970   66.44340   66.44340   76.89480   76.89480    8.89970   11.63660   11.63660   15.79980  -78.90010  -18.15590   15.79980
 8300.00000    7.59390    7.59390    -999.25  143.52260    6.96750   70.98500   70.98500   88.84260   88.84260    6.96750    9.23310    9.23310   12.81510 -112.68640  -51.86530   12.81510
 8350.00000    8.26940    8.26940    -999.25  149.96550    6.66820   67.73570   67.73570   85.18340   85.18340    6.66820   10.46390   10.46390   17.26040  -82.62240  -21.72380   17.26040
 8400.00000    9.34740    9.34740    -999.25  245.80900    4.06820   75.51260   75.51260   97.97310   97.97310    4.06820    5.92360    5.92360    9.23900 -104.42870  -43.45280    9.23900
 8450.00000    9.50760    9.50760    -999.25  321.24390    3.11290   79.94690   79.94690  117.90780  117.90780    3.11290    4.53720    4.53720    7.31700 -108.30900  -47.25590    7.31700
 8500.00000    8.85670    8.85670    -999.25  205.77830    4.85960   74.52610   74.52610  123.09870  123.09870    4.85960    7.02330    7.02330   10.76170  -73.91910  -12.78880   10.76170
 8550.00000    9.13060    9.13060    -999.25  253.71980    3.94140   73.20870   73.20870  111.36690  111.36690    3.94140    5.81620    5.81620    8.50770  -67.50370  -18.21190    8.50770
 8600.00000    8.30070    8.30070    -999.25   49.29170   20.28740   74.23410   74.23410  156.46790  156.46790   20.28740   35.56960   35.56960  118.78990  -58.83890  -24.53240  118.78990
 8650.00000    8.63220    8.63220    -999.25   39.39430   25.38440   75.34600   75.34600  108.74360  108.74360   25.38440   45.55310   45.55310  169.96810  -45.13890  -25.74310  169.96810
 8700.00000    8.36130    8.36130    -999.25    7.09790  140.88670   48.53570   48.53570   22.07910   22.07910  140.88670  318.88670  318.88670  282.51760  -35.78270  -27.42130  282.51760
 8750.00000    8.27360    8.27360    -999.25    4.25790  234.85830   48.14880   48.14880   29.23010   29.23010  234.85830  371.85960  371.85960  409.88500  -69.20850  -60.84710  409.88500
 8800.00000    8.33200    8.33200    -999.25   15.52560   64.48310   50.25130   50.25130   28.52060   28.52060   64.48310   79.03600   79.03600  149.49530  -71.93010  -63.56870  149.49530
 8850.00000    8.13880    8.13880    -999.25  139.90710    7.14760   50.62730   50.62730   17.63760   17.63760    7.14760   12.55110   12.55110   51.50150 -139.93100 -131.56960   51.50150
 8900.00000    8.37240    8.37240    -999.25  211.10410    4.73700   53.24330   53.24330   15.23310   15.23310    4.73700    7.08490    7.08490   25.19390 -111.79320 -103.43180   25.19390
 8950.00000    8.06470    8.06470    -999.25   11.24020   88.96620   47.53170   47.53170   17.21220   17.21220   88.96620  107.02980  107.02980  103.28640  -84.13460  -75.77320  103.28640
 9000.00000    8.32490    8.32490    -999.25    9.19860  108.71240   48.00930   48.00930   17.34980   17.34980  108.71240  158.31450  158.31450  209.19360  -84.10640  -75.74500  209.19360
 9050.00000    8.30030    8.30030    -999.25    8.30030  120.63880   48.59620   48.59620   26.89880   26.89880  120.63880  212.59890  212.59890  308.07090 -111.52770 -103.16630  308.07090
