~Version ---------------------------------------------------
VERS.      2.0 : CWLS log ASCII Standard -VERSION 2.0
WRAP.       NO : One line per depth step
CREA. 01/05/18 : LAS Creation Date
~Well ------------------------------------------------------
STRT.FT                 2050.0 : START DEPTH
STOP.FT                11350.0 : STOP DEPTH
STEP.FT               50.00000 : STEP LENGTH
NULL.                  -999.25 : NULL VALUE
COMP.     CHEVRON STANDARD LTD : COMPANY
WELL. CHEVRON CLARK 11-1-59-18 : WELL
FLD .                          : FIELD
LOC .                          : LOCATION
CTRY.                   CANADA : COUNTRY
SRVC.             Schlumberger : SERVICE COMPANY
DATE.              29-Oct-1968 : LOGDATE
PROV.                  Alberta : PROVINCE
UWI .         100110105918W500 : UNIQUE WELL ID
SLAT.WGS84            54.07408 : SURFACE LATITUDE
SLON.WGS84           -116.5668 : SURFACE LONGITUDE
~Curve Information -----------------------------------------
DEPT    .FT        : Depth Curve
CALDED  .IN        : CALIPER FROM  FROM FDL LOG
CALNED  .IN        : CALIPER FROM NEUTRON LOG
CALSED  .IN        : CALIPER FROM SONIC LOG
CALWS   .IN        : CALIPER [CALSED]
CONDWS  .MMHO      : CONDUCTIVITY [1000/DRESWS]
CORRED  .G/C3      : DENSITY CORRECTION  FROM FDL LOG  [ADJ. TODPHILSED]
DCORED  .G/C3      : DENSITY CORRECTION FROM FDL LOG [REPEAT SECTION]  [ADJ. TO  CORRED/DPHILSED]
DCORWS  .G/C3      : DENSITY CORRECTION [CORRED SPL. TO DCORED @ 11014']
DENWS   .G/C3      : FORMATION BULK DENSITY [RHOBED]
DPHILSED.V/V       : DENSITY POROSITY LIMESTONE FROM FDL LOG
DPOLSWS .V/V       : DENSITY  POROSITY LIMESTONE [DPHILSED]
DRESWS  .OHMM      : DEEP RESISTIVITY [ILDED]
DTED    .us/m      : DELTA-T (INTERVAL TRANSIT TIME) FROM SONIC LOG
DTWS    .us/m      : COMPRESSIONAL SONIC [DTED]
GRNED   .GAPI      : GAMMA RAY FROM GRN LOG
GRSED   .GAPI      : GAMMA RAY FROM SONIC LOG
GRWS    .GAPI      : GAMMA RAY [GRSED]
ILDED   .OHMM      : DEEP INDUCTION RESISTIVITY FROM RESISTIVITY LOG
ILMED   .OHMM      : MEDIUM INDUCTION RESISTIVITY FROM RESISTIVITY LOG
LL8ED   .OHMM      : LATEROLOG 8 RESISTIVITY FROM RESISTIVITY LOG
MRESWS  .OHMM      : MEDIUM RESISTIVITY [ILMED]
NEUTED  .NAPI      : NEUTRON FROM GRN LOG
NEUTWS  .NAPI      : NEUTRON [NEUTED]
NPOLSWS .V/V       : NEUTRON POROSITY LIMESTONE [SNPDMED MATRIX CONVERSION FOR LIMESTONE, SPL. TO SNPLSED @ 10787']
RATIOED .UNITLESS  : RATIO FROM TDT LOG [LOGGING DATE-1973] [ADJ. TO RESISTIVITY LOG]
RHOBED  .G/C3      : BULK DENSITY FROM FDL LOG [ADJ. TO DPHILSED]
SIGMAED .CU        : FORMATION SIGMA (NEUTRON CAPTURE CROSS SECTION) FROM TDT LOG [LOGGING DATE-1973] [ADJ. TO RESISTIVITY LOG]
SIGMED  .CU        : FORMATION SIGMA (NEUTRON CAPTURE CROSS SECTION) FROM TDT LOG [LOGGING DATE-1970]
SNPDMED .V/V       : SIDEWALL NEUTRON POROSITY [DOLOMITE] FROM NEUTRON LOG
SNPLSED .V/V       : SIDEWALL NEUTRON POROSITY [LIMESTONE] FROM NEUTRON LOG
SPRED   .MV        : SPONTANEOUS POTENTIAL FROM RESISTIVITY LOG
SPWS    .MV        : SPONTANEOUS POTENTIAL [BASELINE 0 MV,SPRED]
SRESWS  .OHMM      : SHALLOW RESISTIVITY [LL8ED]
TAU1ED  .US        : THERMAL NEUTRON DECAY TIME  FROM TDT LOG [LOGGING DATE-1974] [ADJ. TO RESISTIVITY LOG]
TAU2ED  .US        : THERMAL NEUTRON DECAY TIME  FROM TDT LOG [LOGGING DATE-1973] [ADJ. TO RESISTIVITY LOG]
TAUED   .US        : THERMAL NEUTRON DECAY TIME  FROM TDT LOG [LOGGING DATE-1970]
~Params ----------------------------------------------------
PD  .                     GL : PERMANENT DATUM
EPD .FT               3399.9 : ELEVATION PERMANENT DATUM
LMF .                     KB : LOG MEASURED FROM
DAPD.FT                 13.8 : FEET ABOVE PERMANENT DATUM
EKB .FT               3413.7 : KELLY BUSHING
EGL .FT               3399.9 : GROUND LEVEL
DATE.               10/29/68 : RUN DATE
RUN .                      1 : RUN NUMBER
DD  .FT                11342 : DEPTH DRILLER
DL  .FT                11354 : DEPTH LOGGER
BLI .FT                11350 : BOTTOM LOG INTERVAL
TLI .FT                 2029 : TOP LOG INTERVAL
CBD .FT                 2030 : CASING BOTTOM DRILLER
CBL .FT                 2030 : CASING BOTTOM LOGGER
BS  .IN                 8.75 : BIT SIZE
BSD .FT                11342 : BIT SIZE AT DEPTH
DFT .                    GEL : DRILLING FLUID TYPE
DFD .                    9.6 : DRILLING FLUID DENSITY
DFV .                    310 : DRILLING FLUID VISCOSITY
DFPH.                     10 : DRILLING FLUID PH
DFL .                    9.4 : DRILLING FLUID LOSS
MSS .                   CIRC : MUD SAMPLE SOURCE
RMS .OHMM               1.71 : RESISTIVITY MUD SAMPLE
MST .DEGF                 65 : MUD SAMPLE TEMPERATURE
RMF .OHMM                1.5 : RESISTIVITY MUD FILTRATE SAMPLE
MFST.DEGF                 65 : MUD FILTRATE SAMPLE TEMPERATURE
RMC .OHMM               1.39 : RESISTIVITY MUD CAKE
MCST.DEGF                 67 : MUD CAKE SAMPLE TEMPERATURE
TCS .HRS                 3.5 : TIME CIRCULATED STOPPED
LUN .                   7501 : LOGGING UNIT NUMBER
LUL .                    EDM : LOGGING UNIT LOCATION
ENGI.               STUEHMER : RECORDING ENGINEER
WITN.                HOVDEBO : WITNESSED BY
CLNT.                A2DTECH : CLIENT CODE
ORIG.            2" 5" PRINT : ORIGIN OF DATA
UWI .       100110105918W500 : UNIQUE WELL ID
DICO. A2D Technologies, Inc. : DIGITIZING COMPANY
~Other -----------------------------------------------------
~ASCII -----------------------------------------------------
# ...
 10050.00000    -999.25    -999.25   10.49250   10.49250   39.89870    -999.25    -999.25    -999.25    -999.25    -999.25    -999.25   25.06350  192.15060  192.15060    -999.25   45.08110   45.08110   25.06350   26.30250   29.58800   26.30250    -999.25    -999.25    -999.25    -999.25    -999.25    -999.25    -999.25    -999.25    -999.25  -41.60260 -118.77180   29.58800    -999.25    -999.25    -999.25
 10100.00000    -999.25    -999.25   11.03740   11.03740   64.07710    -999.25    -999.25    -999.25    -999.25    -999.25    -999.25   15.60620  205.60270  205.60270    -999.25   57.16670   57.16670   15.60620   16.51550   18.37970   16.51550    -999.25    -999.25    -999.25    -999.25    -999.25    -999.25    -999.25    -999.25    -999.25  -15.26010  -92.31890   18.37970    -999.25    -999.25    -999.25
 10150.00000    -999.25    -999.25   11.46970   11.46970   70.54420    -999.25    -999.25    -999.25    -999.25    -999.25    -999.25   14.17550  214.86680  214.86680    -999.25   66.19910   66.19910   14.17550   14.94730   18.50210   14.94730    -999.25    -999.25    -999.25    -999.25    -999.25    -999.25    -999.25    -999.25    -999.25  -12.70020  -89.64940   18.50210    -999.25    -999.25    -999.25
 10200.00000    -999.25    -999.25   11.06390   11.06390   63.95410    -999.25    -999.25    -999.25    -999.25    -999.25    -999.25   15.64960  200.59700  200.59700    -999.25   66.31490   66.31490   15.64960   17.91730   25.35020   17.91730    -999.25    -999.25    -999.25    -999.25    -999.25    -999.25    -999.25    -999.25    -999.25  -11.04060  -87.87940   25.35020    -999.25    -999.25    -999.25
 10250.00000    -999.25    -999.25   13.39500   13.39500  151.07110    -999.25    -999.25    -999.25    -999.25    -999.25    -999.25    6.61940  223.38980  223.38980    -999.25   84.91800   84.91800    6.61940    7.30510   11.99680    7.30510    -999.25    -999.25    -999.25    -999.25    -999.25    -999.25    -999.25    -999.25    -999.25   -0.64920  -77.37840   11.99680    -999.25    -999.25    -999.25
 10300.00000    -999.25    -999.25   10.18150   10.18150  111.16670    -999.25    -999.25    -999.25    -999.25    -999.25    -999.25    8.99550  216.01640  216.01640    -999.25   65.80380   65.80380    8.99550    9.41320   11.12860    9.41320    -999.25    -999.25    -999.25    -999.25    -999.25    -999.25    -999.25    -999.25    -999.25  -11.65790  -88.27740   11.12860    -999.25    -999.25    -999.25
 10350.00000    -999.25    -999.25   11.63980   11.63980  125.78930    -999.25    -999.25    -999.25    -999.25    -999.25    -999.25    7.94980  250.41500  250.41500    -999.25   78.89140   78.89140    7.94980    8.35060    9.84240    8.35060    -999.25    -999.25    -999.25    -999.25    -999.25    -999.25    -999.25    -999.25    -999.25  -50.48810 -126.99730    9.84240    -999.25    -999.25    -999.25
 10400.00000    -999.25    -999.25   10.19190   10.19190   79.03700    -999.25    -999.25    -999.25    -999.25    -999.25    -999.25   12.65230  255.75130  255.75130    -999.25   86.05850   86.05850   12.65230   13.61990   16.42730   13.61990    -999.25    -999.25    -999.25    -999.25    -999.25    -999.25    -999.25    -999.25    -999.25  -39.87350 -116.27300   16.42730    -999.25    -999.25    -999.25
 10450.00000    -999.25    -999.25    9.51110    9.51110   60.71660    -999.25    -999.25    -999.25    -999.25    -999.25    -999.25   16.50230  225.50670  225.50670    -999.25   69.76640   69.76640   16.50230   19.66010   23.60850   19.66010    -999.25    -999.25    -999.25    -999.25    -999.25    -999.25    -999.25    -999.25    -999.25    5.90450  -70.38460   23.60850    -999.25    -999.25    -999.25
 10500.00000    -999.25    -999.25    9.85730    9.85730   93.95940    -999.25    -999.25    -999.25    -999.25    -999.25    -999.25   10.64290  236.54760  236.54760    -999.25   90.48840   90.48840   10.64290   11.94950   14.04770   11.94950    -999.25    -999.25    -999.25    -999.25    -999.25    -999.25    0.03280    -999.25    -999.25    0.66330  -75.51620   14.04770    -999.25    -999.25  130.49700
 10550.00000    -999.25    -999.25    9.50660    9.50660   65.84580    -999.25    -999.25    -999.25    -999.25    -999.25    -999.25   15.18700  205.95600  205.95600    -999.25   68.56080   68.56080   15.18700   19.09400   31.80710   19.09400    -999.25    -999.25    -999.25    -999.25    -999.25    -999.25    0.03290    -999.25    -999.25   18.40480  -57.66500   31.80710    -999.25    -999.25  136.00130
 10600.00000    -999.25    -999.25    9.73230    9.73230   86.13710    -999.25    -999.25    -999.25    -999.25    -999.25    -999.25   11.60940  226.72930  226.72930    -999.25   74.19440   74.19440   11.60940   13.07180   14.73790   13.07180    -999.25    -999.25    -999.25    -999.25    -999.25    -999.25    0.03410    -999.25    -999.25   40.61580  -35.34370   14.73790    -999.25    -999.25  128.73820
 10650.00000    -999.25    -999.25    9.47430    9.47430  105.92770    -999.25    -999.25    -999.25    -999.25    -999.25    -999.25    9.44040  239.73160  239.73160    -999.25   98.10130   98.10130    9.44040   10.73620   13.21640   10.73620    -999.25    -999.25    -999.25    -999.25    -999.25    -999.25    0.04000    -999.25    -999.25   24.19950  -51.65030   13.21640    -999.25    -999.25  111.22730
 10700.00000    -999.25    -999.25    8.74420    8.74420    2.58930    -999.25    -999.25    -999.25    -999.25    -999.25    -999.25  386.36950  233.52120  233.52120    -999.25  155.42470  155.42470  386.36950 2017.90540  809.95090 2017.90540    -999.25    -999.25    -999.25    -999.25    -999.25    -999.25    0.03300    -999.25    -999.25   21.63120  -54.10820  809.95090    -999.25    -999.25  126.39800
 10750.00000    -999.25    -999.25    8.73540    8.73540    0.60170    -999.25    -999.25    -999.25    -999.25    -999.25    -999.25 1661.86630  241.91400  241.91400    -999.25  216.67540  216.67540 1661.86630 2136.15970 1342.97580 2136.15970    -999.25    -999.25    -999.25    -999.25    -999.25    -999.25    0.03130    -999.25    -999.25  -29.30760 -104.93740 1342.97580    -999.25    -999.25  139.92060
 10800.00000    8.63490    9.17850    8.62510    8.62510    0.61190    0.04040    -999.25    0.04040    2.63550    -999.25    0.04360 1634.26110  209.19920  209.19920    -999.25   69.45320   69.45320 1634.26110 2193.65650 1374.49840 2193.65650    -999.25    -999.25    0.09600    -999.25    2.63550    -999.25    0.02770    0.07290    -999.25  -20.46290  -95.98300 1374.49840    -999.25    -999.25  158.83480
 10850.00000    8.38030    9.16250    8.66170    8.66170    4.20360    0.10420    -999.25    0.10420    2.56160    -999.25    0.08680  237.89080  201.09220  201.09220    -999.25   94.15310   94.15310  237.89080  890.23640  756.07530  890.23640    -999.25    -999.25    0.08300    4.10790    2.56160   34.21400    0.03030    0.06140    -999.25    2.48300  -72.92680  756.07530    -999.25  128.04580  145.16950
 10900.00000   10.26240   10.42680    9.17070    9.17070    0.60250    0.25000    -999.25    0.25000    2.58290    -999.25    0.07430 1659.73910  159.87170  159.87170    7.28080   15.73360   15.73360 1659.73910 1028.47140 1352.74540 1028.47140 1461.75780 1461.75780    0.11540    3.01470    2.58290   10.20650   -0.00000    0.09050    -999.25  -64.64700 -139.94710 1352.74540  398.87340  435.48990  384.43980
 10950.00000    8.49530    7.85870    8.38970    8.38970    1.23580    0.13270    -999.25    0.13270    2.58670    -999.25    0.07210  814.71490  206.71510  206.71510    6.34570   13.99550   13.99550  814.71490 1580.17070 1360.21490 1580.17070 1111.24170 1111.24170    0.26820    3.24480    2.58670   12.74430    0.01220    0.24110    -999.25  -84.15180 -159.34160 1360.21490  355.61810  360.40940  416.26610
 11000.00000    8.16920    7.79990    8.21560    8.21560    0.60060    0.19180    0.18640    0.19180    2.69710    0.06730    0.00750 1664.94010  178.44460  178.44460    8.84130   12.83220   12.83220 1664.94010 2122.48750 1360.83220 2122.48750 1018.98310 1018.98310    0.20160    3.35890    2.69710   13.49530    0.01210    0.17260    -999.25  -75.55020 -150.63030 1360.83220  307.48120  329.47230  434.04810
