~Version ---------------------------------------------------
VERS.      2.0 : CWLS log ASCII Standard -VERSION 2.0
WRAP.       NO : One line per depth step
CREA. 08/29/13 : LAS Creation Date
~Well ------------------------------------------------------
STRT.M                            300.0 : START DEPTH
STOP.M                           3900.0 : STOP DEPTH
STEP.M                         50.00000 : STEP LENGTH
NULL.                           -999.25 : NULL VALUE
COMP.  CHEVRON CANADA RESOURCES LIMITED : COMPANY
WELL. CHEVRON SHELL SIMONETTE 2-3-64-26 : WELL
FLD .                                   : FIELD
LOC .                                   : LOCATION
CTRY.                            CANADA : COUNTRY
SRVC.                      Schlumberger : SERVICE COMPANY
DATE.                       03-Oct-1995 : LOGDATE
PROV.                           Alberta : PROVINCE
UWI .                  100163406326W500 : UNIQUE WELL ID
SLAT.WGS84                     54.49935 : SURFACE LATITUDE
SLON.WGS84                    -117.8368 : SURFACE LONGITUDE
~Curve Information -----------------------------------------
DEPT    .M      : DEPTH METER
CAL2ED  .MM     : CALIPER 2 FROM DENSITY LOG [ADJ. TO RESISTIVITY LOG]
CALDED  .MM     : CALIPER FROM DENSITY LOG [ADJ. TO RESISTIVITY LOG]
CALWS   .MM     : CALIPER [CALDED]
CONDWS  .MMHO   : CONDUCTIVITY [1000/DRESWS]
DCORWS  .KG/M3  : DENSITY CORRECTION [DRHOED]
DENWS   .KG/M3  : FORMATION BULK DENSITY [CALC FROM DPOLSWS, M=2710,F=1000]
DPHILSED.V/V    : DENSITY POROSITY LIMESTONE [M=2710,F=1000] FROM DENSITY LOG [ADJ. TO RESISTIVITY LOG]
DPHISSED.V/V    : DENSITY POROSITY SANDSTONE [M=2650,F=1000] FROM DENSITY LOG [ADJ. TO RESISTIVITY LOG]
DPOLSWS .V/V    : DENSITY POROSITY LIMESTONE [DPHISSED CONVERTED TO LIMESTONE MATRIX, M=2710,F=1000, SPL TO DPHILSED @ 2366.7M]
DRESWS  .OHMM   : DEEP RESISTIVITY [IDPHED]
DRHOED  .KG/M3  : DENSITY CORRECTION FROM DENSITY LOG [ADJ. TO RESISTIVITY LOG]
DTED    .US/M   : DELTA TIME FROM SONIC LOG
DTWS    .US/M   : COMPRESSIONAL  SONIC [DTED]
GRDED   .GAPI   : GAMMA RAY FROM DENSITY LOG [ADJ. TO RESISTIVITY LOG]
GRSED   .GAPI   : GAMMA RAY FROM SONIC LOG
GRWS    .GAPI   : GAMMA RAY [GRSED SPL TO GRDED @3890M]
HDED    .MM     : HOLE DIAMETER FROM SONIC LOG
IDPHED  .OHMM   : DEEP INDUCTION PHASE RESISTIVITY FROM RESISTIVITY LOG
IMPHED  .OHMM   : MEDIUM INDUCTION PHASE RESISTIVITY FROM RESISTIVITY LOG
MRESWS  .OHMM   : MEDIUM RESISTIVITY [IMPHED]
NPOLSWS .V/V    : NEUTRON POROSITY LIMESTONE [NPORSSED MATRIX CONVERSION FOR LIMESTONE, SPL. TO NPORLSED @2366.7M]
NPORLSED.V/V    : NEUTRON POROSITY LIMESTONE FROM DENSITY LOG [ADJ. TO RESISTIVITY LOG]
NPORSSED.V/V    : NEUTRON POROSITY SANDSTONE FROM DENSITY LOG [ADJ. TO RESISTIVITY LOG]
PEFED   .B/E    : PHOTOELECTRIC FACTOR FROM DENSITY LOG [ADJ. TO RESISTIVITY LOG]
PEFWS   .B/E    : PHOTOLELECTRIC FACTOR [PEFED]
RHOBED  .KG/M3  : BULK DENSITY FROM DENSITY LOG [ADJ. TO RESISTIVITY LOG]
SFLUED  .OHMM   : SPHERICALLY FOCUSED RESISTIVITY FROM RESISTIVITY LOG
SPRED   .MV     : SPONTANEOUS POTENTIAL FROM RESISTIVITY LOG
SPWS    .MV     : SPONTANEOUS POTENTIAL [BASELINE 0 MV, SPRED]
SRESWS  .OHMM   : SHALLOW RESISTIVITY [SFLUED]
TENDED  .N      : TENSION FROM DENSITY LOG [ADJ. TO RESISTIVITY LOG]
TENRED  .N      : TENSION FROM RESISTIVITY LOG
~Params ----------------------------------------------------
PD  .                         GL : PERMANENT DATUM
EPD .M                    814.11 : ELEVATION PERMANENT DATUM
LMF .                         KB : LOG MEASURED FROM
DAPD.M                       6.9 : FEET ABOVE PERMANENT DATUM
DMF .                         KB : DRILLING MEASURED FROM
EKB .M                    920.96 : KELLY BUSHING
EDF .M                    920.66 : DRILLING FLOOR
EGL .M                    914.11 : GROUND LEVEL
DATE.                   10/03/95 : RUN DATE
RUN .                          1 : RUN NUMBER
DD  .M                      3912 : DEPTH DRILLER
DL  .M                      3914 : DEPTH LOGGER
BLI .M                    3912.1 : BOTTOM LOG INTERVAL
TLI .M                     457.5 : TOP LOG INTERVAL
CS  .MM                    244.5 : CASING SIZE
CBD .M                     457.5 : CASING BOTTOM DRILLER
CBL .M                     457.5 : CASING BOTTOM LOGGER
BS  .MM                      222 : BIT SIZE
BSD .M                      3912 : BIT SIZE AT DEPTH
DFT .                GEL POLYMER : DRILLING FLUID TYPE
DFD .                       1190 : DRILLING FLUID DENSITY
DFV .                         73 : DRILLING FLUID VISCOSITY
DFPH.                       10.5 : DRILLING FLUID PH
DFL .                          6 : DRILLING FLUID LOSS
MSS .                   FLOWLINE : MUD SAMPLE SOURCE
RMS .OHMM                   1.54 : RESISTIVITY MUD SAMPLE
MST .DEGC                     13 : MUD SAMPLE TEMPERATURE
RMF .OHMM                   1.83 : RESISTIVITY MUD FILTRATE SAMPLE
MFST.DEGC                     16 : MUD FILTRATE SAMPLE TEMPERATURE
RMC .OHMM                   2.08 : RESISTIVITY MUD CAKE
MCST.DEGC                     16 : MUD CAKE SAMPLE TEMPERATURE
MFSS.                   MEASURED : MUD FILTRATE SAMPLE SOURCE
MCSS.                   MEASURED : MUD CAKE SAMPLE SOURCE
RMB .OHMM                  0.487 : RESISTIVITY MUD AT BHT
TLAB.HRS                    1200 : TIME LOGGER AT BOTTOM
LUN .                       8381 : LOGGING UNIT NUMBER
LUL .              GRANDE PRAIRE : LOGGING UNIT LOCATION
ENGI.                     FENSKY : RECORDING ENGINEER
WITN.                       LANG : WITNESSED BY
CLNT.                    A2DTECH : CLIENT CODE
ORIG. 6.5"/100M 16.5"/100M PRINT : ORIGIN OF DATA
UWI .           100163406326W500 : UNIQUE WELL ID
DICO.     A2D Technologies, Inc. : DIGITIZING COMPANY
~Other -----------------------------------------------------
PI-SFL-BCS LOG RAN IN COMBO & CNL-LDT LOG RAN
RHOB FROM SMALL SCALE SECTION
NEUTRON MATRIX CONVERSION USING SCHLUMBERGER CHART
~ASCII -----------------------------------------------------
# ...
 2500.00000  266.49500  259.22880  259.22880   26.00020  -13.80000 2600.67400    0.06390    -999.25    0.06390   38.46130  -13.80000  211.46230  211.46230   73.13600   77.63370   77.63370  264.08480   38.46130   40.27180   40.27180    0.12130    0.12130    -999.25    2.73520    2.73520 2602.10820   43.25230   32.32180  -73.18260   43.25230 16589.32810 15530.35160
 2550.00000  249.70060  244.15450  244.15450   39.63520  -21.50000 2625.29800    0.04950    -999.25    0.04950   25.23010  -21.50000  198.75690  198.75690   62.52730   68.37730   68.37730  247.78010   25.23010   26.46020   26.46020    0.07220    0.07220    -999.25    2.69340    2.69340 2622.95970   27.42240   62.47530  -48.63880   27.42240 16655.87890 15250.25200
 2600.00000  269.89120  288.43700  288.43700   11.12660  -17.30000 2675.68600    0.02010    -999.25    0.02010   89.87480  -17.30000  190.33360  190.33360   69.51990   68.43950   68.43950  288.55290   89.87480  105.42360  105.42360    0.07510    0.07510    -999.25    3.11650    3.11650 2680.15230  122.17770   28.29320  -88.87720  122.17770 17495.48440 16705.87700
 2650.00000  231.93000  261.91740  261.91740   26.83480   59.60000 2692.10200    0.01050    -999.25    0.01050   37.26500   59.60000  172.13490  172.13490   37.70700   29.36290   29.36290  246.43230   37.26500   48.55660   48.55660    0.06170    0.06170    -999.25    2.89220    2.89220 2653.68260   41.93130   17.64510 -105.58170   41.93130 18153.48440 16244.15330
 2700.00000  226.64330  260.82030  260.82030    0.50510  112.00000 2698.71400    0.00660    -999.25    0.00660 1979.98360  112.00000  158.67590  158.67590   48.46920   47.88370   47.88370  251.40220 1979.98360  353.32130  353.32130    0.06010    0.06010    -999.25    3.17730    3.17730 2713.66140  998.95690  -58.15180 -187.43500  998.95690 18826.89450 17284.98630
 2750.00000  224.46740  225.85310  225.85310    1.25030    1.40000 2822.97400   -0.06610    -999.25   -0.06610  799.80510    1.40000  156.52450  156.52450   14.26150   13.18590   13.18590  224.66850  799.80510 1954.59220 1954.59220    0.00810    0.00810    -999.25    2.87150    2.87150 2822.22610 1979.96520  -86.01660 -221.35610 1979.96520 18974.45510 17221.43360
 2800.00000  219.76900  316.39410  316.39410    0.50450  145.30000 2508.67600    0.11770    -999.25    0.11770 1982.23500  145.30000  166.21040  166.21040   21.75160   23.62380   23.62380  247.18630 1982.23500  231.08040  231.08040    0.02660    0.02660    -999.25    3.92300    3.92300 2508.67600 1990.57400   30.99860 -110.39730 1990.57400 19008.19140 17072.40430
 2850.00000  238.85020  236.90110  236.90110   23.35390  -11.70000 2723.68000   -0.00800    -999.25   -0.00800   42.81940  -11.70000  164.59620  164.59620   15.59040   15.76350   15.76350  244.45320   42.81940   60.09880   60.09880    0.01930    0.01930    -999.25    4.96130    4.96130 2717.49710  129.49480   -0.64570 -128.58340  129.49480 18979.81250 16718.46480
 2900.00000  230.30520  250.81970  250.81970    2.39840  -21.10000 2950.99600   -0.14090    -999.25   -0.14090  416.94800  -21.10000  162.27660  162.27660   13.24820   11.27470   11.27470  240.68590  416.94800  349.99980  349.99980   -0.01080   -0.01080    -999.25    4.80380    4.80380 2950.99600 2010.74670    4.19340 -101.68170 2010.74670 19088.68950 17809.41600
 2950.00000  242.72800  262.33750  262.33750  205.80370    8.00000 2671.92400    0.02230    -999.25    0.02230    4.85900    8.00000  194.80710  194.80710   57.87740   64.51890   64.51890  253.22640    4.85900    5.19540    5.19540    0.13670    0.13670    -999.25    3.25230    3.25230 2671.92400    8.39080   40.71960  -39.88830    8.39080 19955.04100 18316.14260
 3000.00000  250.34070  277.95200  277.95200   51.55990  -14.20000 2719.23400   -0.00540    -999.25   -0.00540   19.39490  -14.20000  188.01630  188.01630   36.04360   39.89770   39.89770  280.21740   19.39490   19.30090   19.30090    0.06860    0.06860    -999.25    3.58800    3.58800 2718.96140   24.63150   27.39230  -14.23090   24.63150 19706.40230 17352.98440
 3050.00000  235.08150  242.77890  242.77890   18.61880  -18.50000 2703.16000    0.00400    -999.25    0.00400   53.70910  -18.50000  178.30550  178.30550   35.36310   31.67650   31.67650  228.94790   53.70910   59.19680   59.19680    0.04030    0.04030    -999.25    3.76360    3.76360 2702.37400   78.46570   26.82630  -16.69130   78.46570 19302.00390 17819.24800
 3100.00000  238.60850  241.55790  241.55790   15.46710   -8.10000 2716.27000   -0.00370    -999.25   -0.00370   64.65350   -8.10000  178.92160  178.92160   41.41660   31.29840   31.29840  243.38460   64.65350   67.44450   67.44450    0.04990    0.04990    -999.25    4.43220    4.43220 2716.27000   81.62540    4.18970  -21.06830   81.62540 19903.71480 17846.21480
 3150.00000  369.59150  342.76540  342.76540    0.50160  139.50000 2322.17200    0.22680    -999.25    0.22680 1993.53440  139.50000  169.62090  169.62090   17.19350   17.32840   17.32840  260.09370 1993.53440 1059.72850 1059.72850    0.01250    0.01250    -999.25    3.19540    3.19540 2322.17200 2000.00000  -57.41710  -91.52900 2000.00000 20362.51560 19347.49220
 3200.00000  376.67550  216.97460  216.97460    0.52210  -15.40000 2733.82600   -0.01390    -999.25   -0.01390 1915.43040  -15.40000  162.95330  162.95330   10.23960   12.43760   12.43760  248.96070 1915.43040  154.78580  154.78580    0.02520    0.02520    -999.25    4.30940    4.30940 2733.58250 1788.95030 -181.19960 -217.65410 1788.95030 21170.50390 19655.33790
 3250.00000  314.39590  218.54200  218.54200    1.78100  -18.80000 2721.28600   -0.00660    -999.25   -0.00660  561.48220  -18.80000  167.97960  167.97960   10.17570    9.47740    9.47740  244.94550  561.48220 1991.70970 1991.70970    0.01350    0.01350    -999.25    2.54590    2.54590 2721.11080  288.59130 -141.49500 -180.29200  288.59130 20990.08400 19418.10940
 3300.00000  313.44160  221.58080  221.58080    0.50000  -11.50000 2799.94600   -0.05260    -999.25   -0.05260 2000.00000  -11.50000  156.11800  156.11800   16.85890   16.11130   16.11130  248.03970 2000.00000 2000.00000 2000.00000    0.01420    0.01420    -999.25    1.73000    1.73000 2797.63600 2000.00000 -174.17080 -215.31040 2000.00000 21449.23440 19994.60160
 3350.00000  221.38730  215.57180  215.57180   23.92640    2.10000 2710.00000    0.00000    -999.25    0.00000   41.79480    2.10000  164.07440  164.07440   15.16550   16.47510   16.47510  222.39880   41.79480   56.93880   56.93880    0.09070    0.09070    -999.25    1.59420    1.59420 2708.30030   54.92950 -107.93500 -151.41720   54.92950 21165.59380 19526.69920
 3400.00000  251.67170  229.51110  229.51110    3.62410   36.30000 2771.67400   -0.03610    -999.25   -0.03610  275.92760   36.30000  155.21800  155.21800   17.78750   19.33740   19.33740  243.53720  275.92760  613.36740  613.36740    0.05130    0.05130    -999.25    1.51990    1.51990 2769.14140  308.35810 -108.20980 -154.03450  308.35810 21595.89450 19917.08200
 3450.00000  231.44540  229.69650  229.69650   19.76820  -10.30000 2750.24200   -0.02350    -999.25   -0.02350   50.58620  -10.30000  174.47310  174.47310   36.88020   35.40680   35.40680  248.52750   50.58620   56.26570   56.26570    0.04820    0.04820    -999.25    1.99530    1.99530 2751.06300   61.62240    8.19510  -39.97210   61.62240 21306.80660 20119.27540
 3500.00000  218.30290  300.58770  300.58770    2.02850  230.80000 2446.31800    0.15420    -999.25    0.15420  492.98330  230.80000  166.83650  166.83650   25.51870   27.87630   27.87630  255.06240  492.98330  561.03080  561.03080    0.03030    0.03030    -999.25    2.77610    2.77610 2445.45310  385.97470  -85.16500 -135.67480  385.97470 21703.43750 20103.57620
 3550.00000  234.97770  235.89430  235.89430   12.61460    4.70000 2718.89200   -0.00520    -999.25   -0.00520   79.27350    4.70000  180.69160  180.69160   32.20990   33.06870   33.06870  241.85490   79.27350  106.35540  106.35540    0.06990    0.06990    -999.25    1.74660    1.74660 2721.92820   86.11610    0.77470  -58.67250   86.11610 21197.27930 20114.29300
