~Version ---------------------------------------------------
VERS.      2.0 : CWLS log ASCII Standard -VERSION 2.0
WRAP.       NO : One line per depth step
CREA. 07/27/17 : LAS Creation Date
~Well ------------------------------------------------------
STRT.FT                       700.0 : START DEPTH
STOP.FT                     10900.0 : STOP DEPTH
STEP.FT                    50.00000 : STEP LENGTH
NULL.                       -999.25 : NULL VALUE
COMP.   SHELL CANADA RESOURCES LTD. : COMPANY
WELL. SHELL ET AL PEERS 11-34-53-14 : WELL
FLD .                               : FIELD
LOC .                               : LOCATION
CTRY.                        CANADA : COUNTRY
SRVC.        Schlumberger of Canada : SERVICE COMPANY
DATE.                   29-Aug-1977 : LOGDATE
PROV.                       Alberta : PROVINCE
UWI .              100113405314W500 : UNIQUE WELL ID
SLAT.WGS84                 53.62396 : SURFACE LATITUDE
SLON.WGS84                -115.9841 : SURFACE LONGITUDE
~Curve Information -----------------------------------------
DEPT    .FT    : Depth Curve
CALDED  .IN    : CALIPER FROM FDC/CNL LOG
CALSED  .IN    : CALIPER FROM BHC/GR LOG
CALWS   .IN    : CALIPER [CALDED]
CONDWS  .MMHO  : CONDUCTIVITY [1000/DRESWS]
DCORED  .G/C3  : DENSITY CORRECTION FROM FDC/CNL LOG
DCORWS  .G/C3  : DENSITY CORRECTION [DCORED]
DENWS   .G/C3  : BULK DENSITY [M=2.650,2.710 F=1000] [RHOBED]
DPHILSED.V/V   : DENSITY POROSITY [M=2.710 F=1.000] FROM FDC/CNL LOG
DPHISSED.V/V   : DENSITY POROSITY [M=2.650 F=1.000] FROM FDC/CNL LOG
DPOLSWS .V/V   : DENSITY POROSITY [M=2.710 F=1.000] [CALCULATED FROM DENWS]
DRESWS  .OHMM  : DEEP RESISTIVITY [LLDED]
DTED    .US/F  : DELTA TIME FROM BHC/GR LOG
DTWS    .US/F  : DELTA TIME [DTED]
GRDED   .GAPI  : GAMMA RAY FROM FDC/CNL LOG
GRRED   .GAPI  : GAMMA RAY FROM DLL LOG
GRSED   .GAPI  : GAMMA RAY FROM BHC/GR LOG
GRWS    .GAPI  : GAMMA RAY [MERGED GRSED/GRRED at 1160.5']
LLDED   .OHMM  : LATEROLOG DEEP RESISTIVITY FROM DLL LOG
LLSED   .OHMM  : LATEROLOG SHALLOW RESISTIVITY FROM DLL LOG
MCALED  .IN    : CALIPER MICROLOG FROM PML LOG
NPHILSED.V/V   : NEUTRON POROSITY LIMESTONE FROM FDC/CNL LOG
NPHISSED.V/V   : NEUTRON POROSITY SANDSTONE FROM FDC/CNL LOG
NPOLSWS .V/V   : NEUTRON POROSITY LIMESTONE [MERGED NPHISSED CONVERTED TO LS/NPHILSED at 7316']
PROXED  .OHMM  : PROXIMITY RESISTIVITY FROM PML LOG
RHOBED  .G/C3  : BULK DENSITY FROM FDC/CNL LOG
SRESWS  .OHMM  : SHALLOW RESISTIVITY [LLSED]
~Params ----------------------------------------------------
PD  .                     GL : PERMANENT DATUM
EPD .FT               2853.7 : ELEVATION PERMANENT DATUM
LMF .                     KB : LOG MEASURED FROM
DAPD.FT                 20.6 : FEET ABOVE PERMANENT DATUM
EKB .FT               2874.3 : KELLY BUSHING
EGL .FT               2853.7 : GROUND LEVEL
DATE.               08/29/77 : RUN DATE
RUN .                      1 : RUN NUMBER
DD  .FT                10950 : DEPTH DRILLER
DL  .FT                10935 : DEPTH LOGGER
BLI .FT                10932 : BOTTOM LOG INTERVAL
TLI .FT                 1159 : TOP LOG INTERVAL
CS  .IN                9.625 : CASING SIZE
CBD .FT                 1159 : CASING BOTTOM DRILLER
CBL .FT                 1159 : CASING BOTTOM LOGGER
BS  .IN                 8.75 : BIT SIZE
BSD .FT                10950 : BIT SIZE AT DEPTH
DFT .             KCL BARITE : DRILLING FLUID TYPE
DFD .                    9.2 : DRILLING FLUID DENSITY
DFV .                     65 : DRILLING FLUID VISCOSITY
DFPH.                   10.5 : DRILLING FLUID PH
DFL .                   14.2 : DRILLING FLUID LOSS
RMS .OHMM              0.243 : RESISTIVITY MUD SAMPLE
MST .DEGF                 60 : MUD SAMPLE TEMPERATURE
RMF .OHMM              0.172 : RESISTIVITY MUD FILTRATE SAMPLE
MFST.DEGF                 74 : MUD FILTRATE SAMPLE TEMPERATURE
RMB .OHMM              0.069 : RESISTIVITY MUD AT BHT
TCS .HRS                   5 : TIME CIRCULATED STOPPED
LUN .                   7772 : LOGGING UNIT NUMBER
LUL .                    EDM : LOGGING UNIT LOCATION
ENGI.               BERNISKY : RECORDING ENGINEER
WITN.                  CRAIG : WITNESSED BY
CLNT.                A2DTECH : CLIENT CODE
ORIG.            2" 5" PRINT : ORIGIN OF DATA
UWI .       100113405314W500 : UNIQUE WELL ID
DICO. A2D Technologies, Inc. : DIGITIZING COMPANY
~Other -----------------------------------------------------
~ASCII -----------------------------------------------------
# ...
 6100.00000   10.49190    9.93430    9.93430   99.97600    0.25320    0.25320    2.45730    -999.25    0.12130    0.14780   10.00240   82.40390   82.40390  133.34770  134.62600  132.19760  134.62600   10.00240   12.07220    -999.25    -999.25    0.33560    0.28580    -999.25    2.45730   12.07220
 6150.00000   10.44880    9.81440    9.81440  102.19620    0.22040    0.22040    2.44280    -999.25    0.12880    0.15630    9.78510   87.09380   87.09380  172.41820  169.74060  170.93220  169.74060    9.78510   11.89630    -999.25    -999.25    0.37960    0.33290    -999.25    2.44280   11.89630
 6200.00000   12.75850   10.28040   10.28040  199.62470    0.21060    0.21060    2.08830    -999.25    0.34160    0.36360    5.00940   86.62640   86.62640  120.74720  123.25620  127.95180  123.25620    5.00940    5.79350    -999.25    -999.25    0.40570    0.36120    -999.25    2.08830    5.79350
 6250.00000   12.32570   10.17660   10.17660  151.44400    0.25750    0.25750    2.25990    -999.25    0.24450    0.26320    6.60310   84.02630   84.02630  122.89650  126.86200  128.30290  126.86200    6.60310    7.81560    -999.25    -999.25    0.36680    0.31910    -999.25    2.25990    7.81560
 6300.00000    8.70560    9.16360    9.16360   36.41380    0.01560    0.01560    2.55830    -999.25    0.05270    0.08870   27.46210   69.11010   69.11010  102.00550  101.79150  102.56900  101.79150   27.46210   30.78510    -999.25    -999.25    0.20030    0.14950    -999.25    2.55830   30.78510
 6350.00000    8.72840    9.27180    9.27180   37.07620   -0.01500   -0.01500    2.64330    -999.25    0.00220    0.03900   26.97150   65.77560   65.77560   83.11030   82.57810   77.61630   82.57810   26.97150   29.17110    -999.25    -999.25    0.14560    0.10000    -999.25    2.64330   29.17110
 6400.00000    9.17130    9.41330    9.41330   51.56130   -0.00030   -0.00030    2.59710    -999.25    0.02840    0.06600   19.39440   70.53100   70.53100  102.11560   98.16330   95.65410   98.16330   19.39440   18.39800    -999.25    -999.25    0.21730    0.16550    -999.25    2.59710   18.39800
 6450.00000    9.01050    9.51830    9.51830   45.20740   -0.01910   -0.01910    2.52930    -999.25    0.08130    0.10570   22.12020   72.50840   72.50840   93.06870   95.89060   88.12680   95.89060   22.12020   25.81970    -999.25    -999.25    0.33560    0.28590    -999.25    2.52930   25.81970
 6500.00000    9.06960    9.46570    9.46570   41.07990    0.00920    0.00920    2.50530    -999.25    0.08370    0.11970   24.34280   77.75190   77.75190  117.41450  119.61130  106.57610  119.61130   24.34280   25.58960    -999.25    -999.25    0.32350    0.27310    -999.25    2.50530   25.58960
 6550.00000   10.20310   10.09330   10.09330   65.65340    0.01830    0.01830    2.55020    -999.25    0.05670    0.09350   15.23150   68.26580   68.26580   67.68310   66.37120   64.61300   66.37120   15.23150   13.69910    -999.25    -999.25    0.18470    0.13510    -999.25    2.55020   13.69910
 6600.00000    9.72140   10.03180   10.03180   36.27920    0.04500    0.04500    2.60060    -999.25    0.01770    0.06400   27.56400   72.40130   72.40130  101.71220  113.33560  101.32170  113.33560   27.56400   27.80650    -999.25    -999.25    0.30520    0.25390    -999.25    2.60060   27.80650
 6650.00000   10.88570   11.03140   11.03140   64.23970    0.10710    0.10710    2.54300    -999.25    0.06240    0.09770   15.56670   87.53630   87.53630  121.60880  113.60410  115.71040  113.60410   15.56670   14.28770    -999.25    -999.25    0.36950    0.32200    -999.25    2.54300   14.28770
 6700.00000   10.02500   10.15120   10.15120   38.42380    0.03190    0.03190    2.62190    -999.25    0.01740    0.05150   26.02560   67.19000   67.19000   70.67090   73.63830   70.03120   73.63830   26.02560   18.53180    -999.25    -999.25    0.20110    0.15030    -999.25    2.62190   18.53180
 6750.00000    9.06600    9.84990    9.84990   42.04720    0.00860    0.00860    2.60620    -999.25    0.03030    0.06070   23.78280   73.02290   73.02290   89.07640  100.92670   95.30740  100.92670   23.78280   21.93450    -999.25    -999.25    0.28810    0.23630    -999.25    2.60620   21.93450
 6800.00000    9.24220    9.43350    9.43350   63.21910    0.02770    0.02770    2.60600    -999.25    0.02040    0.06080   15.81800   68.33780   68.33780   81.14060   83.27350   74.21440   83.27350   15.81800   15.29810    -999.25    -999.25    0.21700    0.16520    -999.25    2.60600   15.29810
 6850.00000    9.00220    9.41990    9.41990   33.86310    0.00290    0.00290    2.66310    -999.25   -0.01140    0.02750   29.53070   64.72030   64.72030   62.48510   63.15730   59.96760   63.15730   29.53070   31.39040    -999.25    -999.25    0.16770    0.11960    -999.25    2.66310   31.39040
 6900.00000    9.25430    9.57210    9.57210   17.96530    0.06310    0.06310    2.71310    -999.25   -0.04170   -0.00180   55.66300   58.60060   58.60060   57.07360   57.56160   53.18570   57.56160   55.66300   63.57310    -999.25    -999.25    0.14170    0.09670    -999.25    2.71310   63.57310
 6950.00000    9.38780    9.52100    9.52100   61.73580    0.01640    0.01640    2.63480    -999.25    0.01580    0.04400   16.19800   73.09480   73.09480  111.76930  105.84330  107.97850  105.84330   16.19800   19.30910    -999.25    -999.25    0.26460    0.21200    -999.25    2.63480   19.30910
 7000.00000    9.12320    9.53750    9.53750   26.29100    0.02140    0.02140    2.62850    -999.25    0.00870    0.04770   38.03580   67.17640   67.17640   90.47430   91.07430   87.73480   91.07430   38.03580   44.63740    -999.25    -999.25    0.19350    0.14320    -999.25    2.62850   44.63740
 7050.00000    9.18580    9.40460    9.40460   25.28390    0.00910    0.00910    2.48300    -999.25    0.10050    0.13270   39.55080   69.42290   69.42290   49.21140   47.37780   44.72190   47.37780   39.55080   34.82410    -999.25    -999.25    0.11090    0.07110    -999.25    2.48300   34.82410
 7100.00000   11.02400    9.76080    9.76080   16.12170    0.22510    0.22510    2.48190    -999.25    0.10790    0.13340   62.02830   68.30340   68.30340   83.87850   89.14140   89.75710   89.14140   62.02830   71.75730    -999.25    -999.25    0.18530    0.13560    -999.25    2.48190   71.75730
 7150.00000    9.57000    9.67080    9.67080   36.52270    0.02500    0.02500    2.61550    -999.25    0.01630    0.05530   27.38020   69.98260   69.98260  126.23620  119.24960  118.84610  119.24960   27.38020   27.04890    -999.25    -999.25    0.22570    0.17360    -999.25    2.61550   27.04890
 7200.00000    9.60580    9.56690    9.56690   25.84600    0.03710    0.03710    2.69840    -999.25   -0.03880    0.00680   38.69070   63.38530   63.38530   59.27000   65.89110   63.97450   65.89110   38.69070   46.23430    -999.25    -999.25    0.12690    0.08440    -999.25    2.69840   46.23430
 7250.00000    9.23320    9.49600    9.49600   30.56370    0.02660    0.02660    2.66450    -999.25   -0.00670    0.02660   32.71860   59.99040   59.99040   42.96560   44.26780   39.32610   44.26780   32.71860   41.14760    -999.25    -999.25    0.11530    0.07470    -999.25    2.66450   41.14760
 7300.00000   11.48620   10.26460   10.26460   69.83680    0.19170    0.19170    2.50630    -999.25    0.08290    0.11910   14.31910   83.28940   83.28940  136.32620  128.83050  129.49210  128.83050   14.31910   16.34050    -999.25    -999.25    0.34910    0.30020    -999.25    2.50630   16.34050
 7350.00000    8.55380    9.00780    9.00780    1.11210    0.04120    0.04120    2.65070    0.05860   -0.00080    0.03470  899.22050   55.66970   55.66970   32.54260   35.98580   33.15300   35.98580  899.22050  709.88070    -999.25    0.03810    0.06570    0.03810    -999.25    2.65070  709.88070
 7400.00000    8.50760    8.85440    8.85440   61.81850    0.02100    0.02100    2.45410    0.15950    0.13190    0.14960   16.17640   63.22180   63.22180   23.57770   22.79060   21.47400   22.79060   16.17640   12.82000    -999.25    0.11550    0.15040    0.11550    -999.25    2.45410   12.82000
