~Version ---------------------------------------------------
VERS.      2.0 : CWLS log ASCII Standard -VERSION 2.0
WRAP.       NO : One line per depth step
CREA. 09/11/14 : LAS Creation Date
~Well ------------------------------------------------------
STRT.M                         600.0 : START DEPTH
STOP.M                        4700.0 : STOP DEPTH
STEP.M                      50.00000 : STEP LENGTH
NULL.                        -999.25 : NULL VALUE
COMP.      GULF CANADA RESOURCES INC : COMPANY
WELL. GULF ET AL MITCHELL 3-26-49-20 : WELL
FLD .                                : FIELD
LOC .                                : LOCATION
CTRY.                         CANADA : COUNTRY
SRVC.                   Schlumberger : SERVICE COMPANY
DATE.                    19-Feb-1984 : LOGDATE
PROV.                        Alberta : PROVINCE
UWI .               100032604920W500 : UNIQUE WELL ID
SLAT.WGS84                  53.25412 : SURFACE LATITUDE
SLON.WGS84                 -116.8205 : SURFACE LONGITUDE
~Curve Information -----------------------------------------
DEPT    .M      : Depth Curve
C1ED    .MM     : CALIPER 1 FROM DENSITY LOG
C2ED    .MM     : CALIPER 2 FROM DENSITY LOG
CALDED  .MM     : CALIPER FROM DENSITY LOG
CALSED  .MM     : CALIPER FROM SONIC LOG
CALWS   .MM     : CALIPER [CALSED SPL. TO CALDED @ 4695.7 M]
CONDWS  .MMHO   : CONDUCTIVITY [1000/DRESWS]
DCORWS  .KG/M3  : DENSITY CORRECTION [DRHOED]
DENWS   .KG/M3  : FORMATION BULK DENSITY [CALC. FROM DPOLSWS,M=2710,F=1000]
DPHILSED.V/V    : DENSITY POROSITY LIMESTONE [M=2710, F=1000] FROM DENSITY LOG
DPHISSED.V/V    : DENSITY POROSITY SANDSTONE [M=2650, F=1000] FROM DENSITY LOG
DPOLSWS .V/V    : DENSITY POROSITY LIMESTONE [DPHISSED CONVERTED TO LIMSTONE MATRIX,M=2710,F=1000 & SPL. TO DPHILSED @ 3525 M]
DRESWS  .OHMM   : DEEP RESISTIVITY [ILDED]
DRHOED  .KG/M3  : BULK DENSITY CORRECTION FROM DENSITY LOG
DTED    .US/M   : DELTA-T FROM SONIC LOG
DTWS    .US/M   : COMPRESSIONAL SONIC [DTED]
GRDED   .GAPI   : GAMMA RAY FROM DENSITY LOG
GRSED   .GAPI   : GAMMA RAY FROM SONIC LOG
GRWS    .GAPI   : GAMMA RAY [GRSED SPL. TO GRDED @ 4691.3 M &  GRWS IN CSG @ (3107.98 M-3127 M) +15 GAPI ]
ILDED   .OHMM   : DEEP INDUCTION RESISTIVITY FROM RESISTIVITY LOG
ILMED   .OHMM   : MEDIUM INDUCTION RESISTIVITY FROM RESISTIVITY LOG
MRESWS  .OHMM   : MEDIUM RESISTIVITY [ILMED]
NPHILSED.V/V    : NEUTRON POROSITY LIMESTONE FROM DENSITY LOG
NPHISSED.V/V    : NEUTRON POROSITY SANDSTONE FROM DENSITY LOG
NPOLSWS .V/V    : NEUTRON POROSITY LIMESTONE [NPHISSED CONVERSION FOR LIMESTONE MATRIX,SPL. TO NPHILSED @ 3525.4 M]
RHOBED  .KG/M3  : BULK DENSITY FROM DENSITY LOG
SFLUED  .OHMM   : SHALLOW FOCUSED RESISTIVITY FROM RESISTIVITY LOG
SPRED   .MV     : SPONTANEOUS POTENTIAL FROM RESISTIVITY LOG
SPWS    .MV     : SPONTANEOUS POTENTIAL [BASELINE 0 MV,SPRED]
SRESWS  .OHMM   : SHALLOW RESISTIVITY [SFLUED]
TENDED  .N      : TENSION [KG*9.80665002864] FROM DENSITY LOG
TENSED  .N      : TENSION [KG*9.80665002864] FROM SONIC LOG
~Params ----------------------------------------------------
PD  .                         GL : PERMANENT DATUM
EPD .M                      1136 : ELEVATION PERMANENT DATUM
LMF .                         KB : LOG MEASURED FROM
DAPD.M                      7.65 : FEET ABOVE PERMANENT DATUM
DMF .                         KB : DRILLING MEASURED FROM
EKB .M                   1144.35 : KELLY BUSHING
EGL .M                    1136.7 : GROUND LEVEL
DATE.                   02/19/84 : RUN DATE
RUN .                          2 : RUN NUMBER
DD  .M                      4712 : DEPTH DRILLER
DL  .M                      4718 : DEPTH LOGGER
BLI .M                      4717 : BOTTOM LOG INTERVAL
TLI .M                      3127 : TOP LOG INTERVAL
CS  .MM                      244 : CASING SIZE
CBD .M                      3120 : CASING BOTTOM DRILLER
CBL .M                      3127 : CASING BOTTOM LOGGER
BS  .MM                      216 : BIT SIZE
BSD .M                      4712 : BIT SIZE AT DEPTH
DFT .                   GEL CHEM : DRILLING FLUID TYPE
DFD .                       1185 : DRILLING FLUID DENSITY
DFV .                        180 : DRILLING FLUID VISCOSITY
DFPH.                         11 : DRILLING FLUID PH
DFL .                        8.8 : DRILLING FLUID LOSS
MSS .                   FLOWLINE : MUD SAMPLE SOURCE
RMS .OHMM                    1.1 : RESISTIVITY MUD SAMPLE
MST .DEGC                     24 : MUD SAMPLE TEMPERATURE
RMF .OHMM                   0.81 : RESISTIVITY MUD FILTRATE SAMPLE
MFST.DEGC                     22 : MUD FILTRATE SAMPLE TEMPERATURE
RMC .OHMM                  0.236 : RESISTIVITY MUD CAKE
MCST.DEGC                     28 : MUD CAKE SAMPLE TEMPERATURE
MFSS.                      PRESS : MUD FILTRATE SAMPLE SOURCE
MCSS.                      PRESS : MUD CAKE SAMPLE SOURCE
RMB .OHMM                  0.335 : RESISTIVITY MUD AT BHT
TCS .HRS                    2315 : TIME CIRCULATED STOPPED
TLAB.HRS                    2100 : TIME LOGGER AT BOTTOM
LUN .                       8210 : LOGGING UNIT NUMBER
LUL .                        EDM : LOGGING UNIT LOCATION
ENGI.                   ACKERMAN : RECORDING ENGINEER
WITN.                   STEPHENS : WITNESSED BY
CLNT.                    A2DTECH : CLIENT CODE
ORIG. 6.5"/100M 16.5"/100M PRINT : ORIGIN OF DATA
UWI .           100032604920W500 : UNIQUE WELL ID
DICO.     A2D Technologies, Inc. : DIGITIZING COMPANY
~Other -----------------------------------------------------
~ASCII -----------------------------------------------------
# ...
 4050.00000    -999.25    -999.25  338.83620  254.56220  254.56220    1.38230   94.26310 1995.04900    0.41810    -999.25    0.41810  723.44930   94.26310  165.84680  165.84680   13.08390   13.47110   13.47110  723.44930  103.20340  103.20340    0.00750    -999.25    0.00750 1995.09670 1833.64380   32.02240 -124.32220 1833.64380 23227.18980 23369.96490
 4100.00000    -999.25    -999.25  347.30970  276.77530  276.77530    0.50320  150.71970 2213.92900    0.29010    -999.25    0.29010 1987.17290  150.71970  162.30090  162.30090   10.83980   11.50050   11.50050 1987.17290  997.39300  997.39300    0.00260    -999.25    0.00260 2216.55880  801.12600   13.39550 -154.42080  801.12600 23284.80390 23561.66430
 4150.00000    -999.25    -999.25  426.95290  257.48790  257.48790   12.75940   14.35560 1716.66100    0.58090    -999.25    0.58090   78.37360   14.35560  167.69200  167.69200   15.89470   16.22250   16.22250   78.37360   46.64790   46.64790    0.05790    -999.25    0.05790 1759.20090 1894.42960   -9.22580 -188.51380 1894.42960 23533.68300 23868.74970
 4200.00000    -999.25    -999.25  237.50900  240.79050  240.79050   10.12130   -4.61700 2682.46900    0.01610    -999.25    0.01610   98.80150   -4.61700  180.29770  180.29770   52.81410   53.83240   53.83240   98.80150   58.40500   58.40500    0.02830    -999.25    0.02830 2681.30930   99.94840   19.32340 -171.43630   99.94840 23896.27110 24302.78910
 4250.00000    -999.25    -999.25  231.95750  229.21080  229.21080   17.12490   -3.01690 2693.24200    0.00980    -999.25    0.00980   58.39450   -3.01690  178.83510  178.83510   51.44700   53.17740   53.17740   58.39450   50.42390   50.42390    0.03970    -999.25    0.03970 2695.54270   72.14360   95.29070 -106.94060   72.14360 23921.66150 24340.78010
 4300.00000    -999.25    -999.25  237.47100  233.92320  233.92320   18.22620    9.62550 2693.07100    0.00990    -999.25    0.00990   54.86610    9.62550  194.43200  194.43200   66.19320   68.69360   68.69360   54.86610   49.92390   49.92390    0.11300    -999.25    0.11300 2686.06760   71.35850  212.18890   -1.44490   71.35850 24519.49350 24955.71680
 4350.00000    -999.25    -999.25  260.04310  252.79080  252.79080   49.26500   30.26130 2689.48000    0.01200    -999.25    0.01200   20.29840   30.26130  202.65620  202.65620   62.94470   64.74990   64.74990   20.29840   16.95720   16.95720    0.09440    -999.25    0.09440 2687.81230   26.53710  126.37630  -96.83640   26.53710 24411.74690 24605.84300
 4400.00000    -999.25    -999.25  257.36430  254.15240  254.15240  114.63030   49.34380 2730.69100   -0.01210    -999.25   -0.01210    8.72370   49.34380  227.75420  227.75420   96.25170   99.68610   99.68610    8.72370    9.19800    9.19800    0.18670    -999.25    0.18670 2730.65140   11.05240  167.94220  -64.85530   11.05240 24842.16270 25168.73590
 4450.00000    -999.25    -999.25  306.13090  264.61090  264.61090  125.52090  184.33270 2526.34600    0.10740    -999.25    0.10740    7.96680  184.33270  246.29050  246.29050  104.86030  106.72490  106.72490    7.96680    7.64870    7.64870    0.20520    -999.25    0.20520 2516.70900   13.30360  239.05310  -10.43410   13.30360 24887.80780 25418.97320
 4500.00000    -999.25    -999.25  246.00880  233.31960  233.31960    7.39380   -3.71660 2510.10100    0.11690    -999.25    0.11690  135.24780   -3.71660  239.46190  239.46190  165.06640  170.89420  170.89420  135.24780   96.44690   96.44690    0.08350    -999.25    0.08350 2505.63230  173.85050  172.40720  -77.08000  173.85050 25056.80280 25474.93090
 4550.00000    -999.25    -999.25  302.15670  248.50100  248.50100    0.50000  243.16930 2646.21700    0.03730    -999.25    0.03730 2000.00000  243.16930  159.00110  159.00110   10.92760   11.14910   11.14910 2000.00000  157.33460  157.33460   -0.00380    -999.25   -0.00380 2635.91700 1924.30480   23.04260 -226.44460 1924.30480 25224.66230 25634.06340
 4600.00000    -999.25    -999.25  216.03370  214.15090  214.15090   23.84300  100.69610 2660.75200    0.02880    -999.25    0.02880   41.94100  100.69610  171.19950  171.19950    6.97400    7.26440    7.26440   41.94100   50.75740   50.75740    0.12650    -999.25    0.12650 2652.95340  110.20380  -14.99560 -264.48280  110.20380 25529.16360 25550.47740
 4650.00000    -999.25    -999.25  426.42420  266.88600  266.88600    0.60430   -4.96090 1871.75800    0.49020    -999.25    0.49020 1654.90530   -4.96090  209.30730  209.30730   23.10700   24.05800   24.05800 1654.90530   23.99760   23.99760    0.03690    -999.25    0.03690 1842.27370   49.19230   64.45000 -185.03720   49.19230 25543.88640 25661.97020
 4700.00000    -999.25    -999.25  346.68710  219.84600  346.68710    0.52010  218.40550 2172.03400    0.31460    -999.25    0.31460 1922.80210  218.40550    -999.25    -999.25    -999.25    -999.25    -999.25 1922.80210  790.58750  790.58750    0.00720    -999.25    0.00720 2182.23460 1977.53960  -53.95040 -303.43760 1977.53960 25430.60000 25424.45120
