~Version ---------------------------------------------------
VERS.      2.0 : CWLS log ASCII Standard -VERSION 2.0
WRAP.       NO : One line per depth step
CREA. 08/31/17 : LAS Creation Date
~Well ------------------------------------------------------
STRT.FT                                       1500.0 : START DEPTH
STOP.FT                                      11100.0 : STOP DEPTH
STEP.FT                                     50.00000 : STEP LENGTH
NULL.                                        -999.25 : NULL VALUE
COMP. GREAT PLAINS DEVELOPMENT COMPANY OF CANADA LTD : COMPANY
WELL.                 GPD ET AL ROSEVEAR 10-14-54-16 : WELL
FLD .                                                : FIELD
LOC .                                                : LOCATION
CTRY.                                         CANADA : COUNTRY
SRVC.                                   Schlumberger : SERVICE COMPANY
DATE.                                    01-Feb-1978 : LOGDATE
PROV.                                        Alberta : PROVINCE
UWI .                               100101405416W500 : UNIQUE WELL ID
SLAT.WGS84                                  53.66484 : SURFACE LATITUDE
SLON.WGS84                                 -116.2439 : SURFACE LONGITUDE
~Curve Information -----------------------------------------
DEPT    .FT    : Depth Curve
CALDED  .IN    : CALIPER FROM DENSITY LOG
CALSED  .IN    : CALIPER FROM SONIC LOG [ADJ. TO RESISTIVITY LOG]
CALWS   .IN    : CALIPER [CALDED]
CONDWS  .MMHO  : CONDUCTIVITY [1000/DRESWS]
DCORWS  .G/C3  : DENSITY CORRECTION [DRHOED]
DENWS   .G/C3  : FORMATION BULK DENSITY [RHOBED]
DPHILSED.V/V   : DENSITY POROSITY LIME [M=2.71, F=1.0] FROM DENSITY LOG [ADJ. TO RHOBED]
DPHISSED.V/V   : DENSITY POROSITY SAND [M=2.65, F=1.0] FROM DENSITY LOG [ADJ. TO RHOBED]
DPOLSWS .V/V   : DENSITY POROSITY LIME [CALC FROM DENWS, M=2.71, F=1.0]
DRESWS  .OHMM  : DEEP RESISTIVITY [LLDED]
DRHOED  .G/C3  : DENSITY CORRECTION FROM DENSITY LOG
DTED    .US/F  : DELTA TIME FROM SONIC LOG [ADJ. TO RESISTIVITY LOG]
DTWS    .US/F  : COMPRESSIONAL SONIC [DTED]
GRDED   .GAPI  : GAMMA RAY FROM DENSITY LOG
GRSED   .GAPI  : GAMMA RAY FROM SONIC LOG [ADJ. TO RESISTIVITY LOG]
GRWS    .GAPI  : GAMMA RAY [GRSED]
LLDED   .OHMM  : LATEROLOG DEEP RESISTIVITY FROM RESISTIVITY LOG
LLSED   .OHMM  : LATEROLOG SHALLOW RESISTIVITY FROM RESISTIVITY LOG
NPHILSED.V/V   : NEUTRON POROSITY LIME FROM DENSITY LOG [ADJ. TO RHOBED]
NPOLSWS .V/V   : NEUTRON POROSITY LIME [SS MATRIX(SLB) CONVERTED TO LS, SPL. TO NPHILSED @ 7520']
NPORSSED.V/V   : NEUTRON POROSITY  SAND FROM DENSITY LOG [ADJ. TO RHOBED]
RHOBED  .G/C3  : BULK DENSITY FROM DENSITY LOG
SPRED   .MV    : SPONTANEOUS POTENTIAL FROM RESISTIVITY LOG
SPWS    .MV    : SPONTANEOUS POTENTIAL [BASELINE 0 MV, SPRED]
SRESWS  .OHMM  : SHALLOW RESISTIVITY [LLSED]
~Params ----------------------------------------------------
PD  .                     GL : PERMANENT DATUM
EPD .FT                 2743 : ELEVATION PERMANENT DATUM
LMF .                     KB : LOG MEASURED FROM
DAPD.FT                 21.4 : FEET ABOVE PERMANENT DATUM
EKB .FT               2764.4 : KELLY BUSHING
EGL .FT                 2743 : GROUND LEVEL
DATE.               02/01/78 : RUN DATE
RUN .                      1 : RUN NUMBER
DD  .FT                11140 : DEPTH DRILLER
DL  .FT                11134 : DEPTH LOGGER
BLI .FT                11133 : BOTTOM LOG INTERVAL
TLI .FT                 1512 : TOP LOG INTERVAL
CBD .FT                 1512 : CASING BOTTOM DRILLER
CBL .FT                 1512 : CASING BOTTOM LOGGER
BS  .IN                 8.75 : BIT SIZE
BSD .FT                11140 : BIT SIZE AT DEPTH
DFT .            KCL POLYMER : DRILLING FLUID TYPE
DFD .                    9.4 : DRILLING FLUID DENSITY
DFV .                     45 : DRILLING FLUID VISCOSITY
DFPH.                    9.5 : DRILLING FLUID PH
DFL .                     16 : DRILLING FLUID LOSS
RMS .OHMM              0.205 : RESISTIVITY MUD SAMPLE
MST .DEGF                 39 : MUD SAMPLE TEMPERATURE
RMF .OHMM              0.163 : RESISTIVITY MUD FILTRATE SAMPLE
MFST.DEGF                 38 : MUD FILTRATE SAMPLE TEMPERATURE
RMC .OHMM              0.032 : RESISTIVITY MUD CAKE
MCST.DEGF                118 : MUD CAKE SAMPLE TEMPERATURE
RMB .OHMM              0.032 : RESISTIVITY MUD AT BHT
TCS .HRS                   7 : TIME CIRCULATED STOPPED
LUN .                   7772 : LOGGING UNIT NUMBER
LUL .                    EDM : LOGGING UNIT LOCATION
ENGI.                BODYMAN : RECORDING ENGINEER
WITN.                  BATES : WITNESSED BY
CLNT.                A2DTECH : CLIENT CODE
ORIG.               5" PRINT : ORIGIN OF DATA
UWI .       100101405416W500 : UNIQUE WELL ID
DICO. A2D Technologies, Inc. : DIGITIZING COMPANY
~Other -----------------------------------------------------
~ASCII -----------------------------------------------------
# ...
 7100.00000   10.58520   10.39230   10.58520   60.36740    0.03250    2.66230    -999.25   -0.00480    0.02840   16.56970    0.03250   72.33580   72.33580   95.76690   96.30160   96.30160   16.56970   18.02100    -999.25    0.17800    0.22170    2.66230  -82.52040   -7.06860   18.02100
 7150.00000   10.38770   10.25230   10.38770   63.79300    0.03950    2.64450    -999.25    0.00220    0.03650   15.67570    0.03950   68.78350   68.78350   91.99070   93.67660   93.67660   15.67570   17.22690    -999.25    0.19730    0.24120    2.64450  -82.50990   -7.31650   17.22690
 7200.00000   11.61270   10.35920   11.61270   50.55680    0.23410    2.70180    -999.25   -0.04690    0.00690   19.98630    0.23410   78.19960   78.19960   95.16810   88.89240   88.89240   19.98630   23.48640    -999.25    0.16620    0.20980    2.70180  -85.86810  -10.93500   23.48640
 7250.00000   11.40030   10.28610   11.40030   74.41260    0.08000    2.52540    -999.25    0.07590    0.10620   13.44050    0.08000   70.78300   70.78300   43.45090   45.06520   45.06520   13.44050   11.61000    -999.25    0.08420    0.12650    2.52540  -81.52100   -6.84650   11.61000
 7300.00000   14.06880   10.26770   14.06880   16.35330    0.22810    2.24370    -999.25    0.24980    0.26610   61.14960    0.22810   69.60960   69.60960   38.15040   36.68820   36.68820   61.14960   29.50210    -999.25    0.06610    0.10790    2.24370  -79.61960   -5.20370   29.50210
 7350.00000   12.82540   10.57220   12.82540   40.92030    0.17970    2.49920    -999.25    0.09230    0.12380   24.44010    0.17970   75.91780   75.91780  110.90770  106.28800  106.28800   24.44010   22.85050    -999.25    0.25570    0.29960    2.49920  -85.68280  -11.52720   22.85050
 7400.00000   13.70180   11.25320   13.70180  115.04040    0.24870    2.34320    -999.25    0.20120    0.20850    8.69260    0.24870   71.96990   71.96990   74.21070   76.64970   76.64970    8.69260    9.41150    -999.25    0.21550    0.25940    2.34320  -79.09100   -5.19380    9.41150
 7450.00000   11.42960   10.82720   11.42960   58.17700    0.04060    2.67020    -999.25   -0.01390    0.02400   17.19140    0.04060   74.00860   74.00860  116.56190  108.38980  108.38980   17.19140   19.10000    -999.25    0.20360    0.24750    2.67020  -85.59970  -11.96280   19.10000
 7500.00000    9.25510    9.03490    9.25510    2.20960    0.01240    2.72610    -999.25   -0.06130   -0.01050  452.75230    0.01240   53.21800   53.21800   25.91060   26.36890   26.36890  452.75230  263.89080    -999.25    0.01780    0.05240    2.72610  -91.39090  -18.01260  263.89080
 7550.00000   11.05260   10.40250   11.05260   24.35630    0.02070    2.60160    0.05100    -999.25    0.06400   41.05720    0.02070   54.82070   54.82070   58.76680   53.43340   53.43340   41.05720   29.03700    0.08180    0.08180    -999.25    2.60160  -82.30850   -9.18890   29.03700
 7600.00000    9.07820    8.96790    9.07820    0.43580    0.00760    2.63050    0.04210    -999.25    0.04470 2412.38950    0.00760   54.61020   54.61020   33.47090   33.46090   33.46090 2412.38950  745.13630    0.01670    0.01670    -999.25    2.63050  -86.04140  -13.18200  745.13630
 7650.00000    9.13050    8.93280    9.13050    0.05800    0.06390    2.70750    0.00360    -999.25    0.00820 17235.84380    0.06390   54.51500   54.51500   32.05640   26.42580   26.42580 17235.84380 1157.59630    0.01870    0.01870    -999.25    2.70750  -88.72630  -16.12540 1157.59630
 7700.00000    9.15870    9.57770    9.15870   25.53090    0.01440    2.60360    0.06330    -999.25    0.06060   39.67760    0.01440   57.73960   57.73960   66.09870   66.51330   66.51330   39.67760   26.86610    0.06030    0.06030    -999.25    2.60360  -78.61890   -6.27830   26.86610
 7750.00000   12.65470   10.37510   12.65470   13.57550    0.16120    2.48750    0.13760    -999.25    0.13800   73.67490    0.16120   51.73760   51.73760   42.33150   38.09960   38.09960   73.67490   55.83620    0.07950    0.07950    -999.25    2.48750  -83.19430  -11.11220   55.83620
 7800.00000   12.38090   10.24820   12.38090   14.49470    0.24940    2.56220    0.08250    -999.25    0.07530   68.99060    0.24940   52.57470   52.57470   39.57840   37.05820   37.05820   68.99060   51.03890    0.05430    0.05430    -999.25    2.56220  -84.61690  -12.79340   51.03890
 7850.00000   10.83650   10.60180   10.83650    0.02650    0.03570    2.94250   -0.14170    -999.25   -0.13700 37796.61870    0.03570   49.94260   49.94260   14.48260   14.13720   14.13720 37796.61870  214.42840   -0.00480   -0.00480    -999.25    2.94250  -76.73450   -5.17130  214.42840
 7900.00000    9.66350    9.47250    9.66350    0.66620    0.01980    2.85960   -0.09750    -999.25   -0.08610 1500.96610    0.01980   47.29690   47.29690   27.27210   31.92810   31.92810 1500.96610  481.30140    0.00920    0.00920    -999.25    2.85960  -86.28400  -14.97930  481.30140
 7950.00000   12.02560    9.68560   12.02560    7.71470    0.17840    2.23730    0.27980    -999.25    0.27420  132.05970    0.17840   54.79650   54.79650   26.55440   25.72790   25.72790  132.05970  121.69760    0.13190    0.13190    -999.25    2.23730  -88.12380  -17.07940  121.69760
 8000.00000    9.28610    9.03760    9.28610   57.26090    0.02430    2.75280   -0.02430    -999.25   -0.02520   17.46430    0.02430   60.41940   60.41940   92.53270   86.41420   86.41420   17.46430   18.84770    0.11520    0.11520    -999.25    2.75280  -77.21310   -6.42730   18.84770
 8050.00000    9.11110    8.95850    9.11110  100.12720    0.07290    2.71040   -0.01190    -999.25   -0.00270    9.98730    0.07290   54.81790   54.81790   71.71370   61.10970   61.10970    9.98730   11.89470    0.14070    0.14070    -999.25    2.71040  -77.65280   -7.12560   11.89470
 8100.00000    9.29100    9.03870    9.29100   21.18460    0.01600    2.74460   -0.02370    -999.25   -0.01910   47.21660    0.01600   55.53610   55.53610   52.85190   52.93440   52.93440   47.21660   55.02850    0.05720    0.05720    -999.25    2.74460  -78.99080   -8.72390   55.02850
 8150.00000    9.76250    9.64110    9.76250    9.97790    0.02050    2.72180   -0.01130    -999.25   -0.00790  100.22180    0.02050   57.17810   57.17810   60.42020   56.93450   56.93450  100.22180   62.88290    0.04510    0.04510    -999.25    2.72180  -79.18050   -9.17210   62.88290
 8200.00000    9.85590    9.65180    9.85590   10.72790   -0.00650    2.72140   -0.00820    -999.25   -0.00820   93.22780   -0.00650   51.89230   51.89230   27.28040   24.71950   24.71950   93.22780  100.10380    0.01540    0.01540    -999.25    2.72140  -75.91030   -6.16210  100.10380
 8250.00000    9.25290    8.97350    9.25290   10.74340    0.05210    2.76890   -0.03680    -999.25   -0.03300   93.40950    0.05210   52.73330   52.73330   35.61800   39.28230   39.28230   93.40950  106.46770    0.02960    0.02960    -999.25    2.76890  -79.49600  -10.00640  106.46770
 8300.00000    9.25080    9.06630    9.25080   19.92890    0.05250    2.78060   -0.04480    -999.25   -0.04050   50.17830    0.05250   55.73830   55.73830   40.90330   42.80630   42.80630   50.17830   63.36170    0.04300    0.04300    -999.25    2.78060  -78.43220   -9.20120   63.36170
 8350.00000    9.03540    8.91020    9.03540    3.17740    0.01790    2.75520   -0.03000    -999.25   -0.02560  314.72280    0.01790   51.66690   51.66690   33.03440   37.63050   37.63050  314.72280  299.56570    0.02210    0.02210    -999.25    2.75520  -78.53440   -9.56370  299.56570
 8400.00000    9.09760    8.88240    9.09760    5.78930    0.01660    2.69990    0.00590    -999.25    0.00650  172.73190    0.01660   53.25180   53.25180   36.45450   42.43100   42.43100  172.73190  180.92140    0.02360    0.02360    -999.25    2.69990  -80.43140  -11.71920  180.92140
 8450.00000    9.05570    8.78910    9.05570   10.60130    0.00590    2.70100    0.00700    -999.25    0.00500   94.39620    0.00590   58.44480   58.44480   66.10300   63.37660   63.37660   94.39620   86.91900    0.06590    0.06590    -999.25    2.70100  -77.85040   -9.39840   86.91900
