~Version ---------------------------------------------------
VERS. 2.0 : CWLS log ASCII Standard -VERSION 2.0
WRAP.  NO : ONE LINE PER DEPTH STEP
~Well ------------------------------------------------------
STRT.F                        300.0 : START DEPTH
STOP.F                       9300.0 : STOP DEPTH
STEP.F                     50.00000 : STEP LENGTH
NULL.                       -999.25 : NULL VALUE
COMP. CANADIAN EXPORT OIL & GAS LTD : COMPANY
WELL. CEGO ET AL SUNSET 10-23-69-19 : WELL
FLD .                               : FIELD
LOC .                               : LOCATION
CTRY.                        CANADA : COUNTRY
SRVC.                       Unknown : SERVICE COMPANY
DATE.                   18-Jan-1973 : LOGDATE
PROV.                       Alberta : PROVINCE
UWI .              100102306919W500 : UNIQUE WELL ID
SLAT.WGS84                   54.992 : SURFACE LATITUDE
SLON.WGS84                -116.7783 : SURFACE LONGITUDE
~Curve Information -----------------------------------------
DEPT  .F                 : 
ASN   .OHMM 05 041 16 00 : AMPLIFIED SHORT NORMAL RESISTIVITY 16"
CILD_1.MMHO 07 110 46 00 : CONDUCTIVITY INDUCTION LOG DEEP
ILD_1 .None              : 
SPR_1 .M/V  00 000 00 01 : SPONTANEOUS POTENTIAL FROM RESISTIVITY
CALS  .IN                : CALIPER FROM SONIC LOG
DT    .US/F 60 520 00 00 : DELTA TIME FROM SONIC LOG
GRS   .GAPI              : GAMMA RAY FROM SONIC LOG
SPR   .MV   99 010 00 00 : SELF POTENTIAL
ASFL  .OHMM 06 221 01 00 : AMPLIFIED SHALLOW FOCUSED RESISTIVITY
CILD  .MMHO 07 110 00 00 : CONDUCTIVITY INDUCTION LOG
ILD   .OHMM 06 121 12 00 : INDUCTION LOG RESISTIVITY
GR    .GAPI              : GAMMA RAY FROM CEMENT BOND
~Params ----------------------------------------------------
PD  .                     GL : PERMANENT DATUM
EPD .FT                 2660 : ELEVATION PERMANENT DATUM
LMF .                     KB : LOG MEASURED FROM
DAPD.FT                 14.7 : FEET ABOVE PERMANENT DATUM
EKB .FT               2674.7 : KELLY BUSHING
EGL .FT                 2660 : GROUND LEVEL
DATE.               01/18/73 : RUN DATE
RUN .                      2 : RUN NUMBER
DD  .FT                 9336 : DEPTH DRILLER
DL  .FT                 9336 : DEPTH LOGGER
BLI .FT                 9325 : BOTTOM LOG INTERVAL
TLI .FT                 8800 : TOP LOG INTERVAL
CBD .FT                  944 : CASING BOTTOM DRILLER
CBL .FT                  941 : CASING BOTTOM LOGGER
BS  .IN                7.875 : BIT SIZE
BSD .FT                 9336 : BIT SIZE AT DEPTH
DFT .                    KCL : DRILLING FLUID TYPE
DFD .                    9.1 : DRILLING FLUID DENSITY
DFV .                     60 : DRILLING FLUID VISCOSITY
DFPH.                    9.0 : DRILLING FLUID PH
DFL .                    8.2 : DRILLING FLUID LOSS
RMS .OHMM               0.44 : RESISTIVITY MUD SAMPLE
MST .DEGF                 55 : MUD SAMPLE TEMPERATURE
RMF .OHMM                0.6 : RESISTIVITY MUD FILTRATE SAMPLE
MFST.DEGF                 60 : MUD FILTRATE SAMPLE TEMPERATURE
RMB .OHMM               0.14 : RESISTIVITY MUD AT BHT
TCS .HRS                   2 : TIME CIRCULATED STOPPED
LUN .                   7635 : LOGGING UNIT NUMBER
LUL .                    D C : LOGGING UNIT LOCATION
ENGI.                   HALL : RECORDING ENGINEER
WITN.         WIGGINS WILMER : WITNESSED BY
CLNT.                A2DTECH : CLIENT CODE
ORIG.            2" 5" PRINT : ORIGIN OF DATA
UWI .       100102306919W500 : UNIQUE WELL ID
DICO. A2D Technologies, Inc. : DIGITIZING COMPANY
~Other -----------------------------------------------------
~ASCII -----------------------------------------------------
# ...
 5900.00000    -999.25    -999.25    -999.25    -999.25    7.74860   59.83600   14.88900    -999.25   24.27460   58.29160   20.47090   17.14910
 5950.00000    -999.25    -999.25    -999.25    -999.25    8.04310   53.29340   16.21140    -999.25    -999.25   27.95890   49.64010   11.04940
 6000.00000    -999.25    -999.25    -999.25    -999.25    8.73430   81.20210   71.19150    -999.25    2.51280  523.63840    1.82700   86.50850
 6050.00000    -999.25    -999.25    -999.25    -999.25    8.59510   75.04890   75.12140    -999.25    7.53810  220.97930    4.55640   79.84540
 6100.00000    -999.25    -999.25    -999.25    -999.25    8.28290   61.91960   48.86840    -999.25   14.19190  152.74490    7.37530   58.03270
 6150.00000    -999.25    -999.25    -999.25    -999.25    8.03430   53.22140   19.42910    -999.25   72.04940   18.46690   76.26900   55.40550
 6200.00000    -999.25    -999.25    -999.25    -999.25    8.30370   54.28210   25.69730    -999.25    -999.25   26.46040   51.43800   36.48560
 6250.00000    -999.25    -999.25    -999.25    -999.25    8.17770   54.60710   20.67680    -999.25    -999.25   25.94990    -999.25   48.31810
 6300.00000    -999.25    -999.25    -999.25    -999.25    7.81910   57.93210   32.87850    -999.25   34.52170   41.38940   30.99490   34.82600
 6350.00000    -999.25    -999.25    -999.25    -999.25    8.03530   56.64800   21.03290    -999.25   42.99290   29.62520   44.82640   26.39640
 6400.00000    -999.25    -999.25    -999.25    -999.25    8.05180   58.95810   31.59740    -999.25   28.53410   43.14310   28.81420   28.92840
 6450.00000    -999.25    -999.25    -999.25    -999.25    8.18250   61.26500   41.43660    -999.25   22.95340   57.71230   20.98660   34.64550
 6500.00000    -999.25    -999.25    -999.25    -999.25    8.03790   64.11310   42.62280    -999.25   22.03230   66.16610   17.81810   21.19670
 6550.00000    -999.25    -999.25    -999.25    -999.25    8.02620   63.79970   55.05950    -999.25   19.20110   69.20550   17.16330   53.75400
 6600.00000    -999.25    -999.25    -999.25    -999.25    8.09820   61.63150   37.68390    -999.25   27.26720   66.24300   17.85260   49.05010
 6650.00000    -999.25    -999.25    -999.25    -999.25    8.31180   65.53120   69.14580    -999.25    7.94300  134.48690    8.11150   28.93570
 6700.00000    -999.25    -999.25    -999.25    -999.25    8.38770   51.26040   17.40420    -999.25  140.78760   11.52320  199.70820   16.43150
 6750.00000    -999.25    -999.25    -999.25    -999.25    8.48420   56.05650   17.03880    -999.25    -999.25   36.13490   34.53480   12.74300
 6800.00000    -999.25    -999.25    -999.25    -999.25    8.42680   51.15940   17.84240    -999.25  111.98060    8.33060    -999.25   20.06270
 6850.00000    -999.25    -999.25    -999.25    -999.25    8.33210   51.86380   14.53630    -999.25   71.55400   12.19820  177.61510   16.69060
 6900.00000    -999.25    -999.25    -999.25    -999.25    8.22210   51.11310   18.22120    -999.25   72.40490    8.72450  363.29610   13.28740
 6950.00000    -999.25    -999.25    -999.25    -999.25    8.25510   51.33750   12.89160    -999.25   73.67790   10.72630  226.78040   11.84920
 7000.00000    -999.25    -999.25    -999.25    -999.25    8.22390   55.05370   13.62410    -999.25   41.76470   40.81030   31.56090    8.37960
 7050.00000    -999.25    -999.25    -999.25    -999.25    8.08240   52.87690   10.93300    -999.25   74.15210   33.23250   39.33660   16.29120
 7100.00000    -999.25    -999.25    -999.25    -999.25    8.33850   53.31120   13.28900    -999.25    -999.25   35.38620   37.40020   18.46870
 7150.00000    -999.25    -999.25    -999.25    -999.25    8.30910   50.97880   12.52550  -95.40950   66.04680    9.59180  260.34910   12.17690
 7200.00000    -999.25    -999.25    -999.25    -999.25    8.27570   50.60160   10.64340  -91.85440   66.30300    7.21190    -999.25   20.66760
 7250.00000    -999.25    -999.25    -999.25    -999.25    8.43700   51.03090   13.25800  -83.22710   62.12280    7.10950    -999.25   12.25450
 7300.00000    -999.25    -999.25    -999.25    -999.25    8.55370   52.66690   15.43250  -69.49080   57.14020    7.79370    -999.25   11.94930
 7350.00000    -999.25    -999.25    -999.25    -999.25    7.41540   52.34280   12.82160  -73.40350    -999.25   27.17580   49.66550    6.98490
 7400.00000    -999.25    -999.25    -999.25    -999.25    7.22150   56.74790   16.22900  -82.34070   19.69780  156.73870    6.83180   10.90230
 7450.00000    -999.25    -999.25    -999.25    -999.25    8.66320   53.40670   19.88110  -72.54460    7.89390  279.08970    4.30860   18.73920
 7500.00000    -999.25    -999.25    -999.25    -999.25    8.04990   67.41590   33.51510  -88.57780   11.06130  363.19260    2.76670   49.39670
 7550.00000    -999.25    -999.25    -999.25    -999.25    7.99960   49.18260   19.71180  -91.66520   76.06570   22.15500   74.29520   26.29410
 7600.00000    -999.25    -999.25    -999.25    -999.25    7.99880   54.19950   26.92510  -96.74310   16.73180   62.75990   18.47300   39.20770
 7650.00000    -999.25    -999.25    -999.25    -999.25    8.00940   53.83120   30.22350  -95.21490   28.80460   35.13370   37.95210   54.96690
 7700.00000    -999.25    -999.25    -999.25    -999.25    8.16020   70.36430   78.01770  -76.39110    9.49360  137.84450    8.13020   38.36230
 7750.00000    -999.25    -999.25    -999.25    -999.25    8.00920   52.99490   16.91840  -66.77690   74.57280    9.13970    -999.25    6.44230
 7800.00000    -999.25    -999.25    -999.25    -999.25    8.00360   60.38030   38.53130  -57.20230   21.16960   77.74330   14.47710   55.16860
 7850.00000    -999.25    -999.25    -999.25    -999.25    7.99590   65.38610   51.50660  -58.12050   16.19680  106.52850   10.46760  102.02330
 7900.00000    -999.25    -999.25    -999.25    -999.25   10.28180   74.50270   66.69900  -64.26470    4.01330  250.67140    3.66460   66.09840
 7950.00000    -999.25    -999.25    -999.25    -999.25   12.13520   89.53970   87.24370  -75.40450    2.35620  359.51430    2.81980   78.25420
 8000.00000    -999.25    -999.25    -999.25    -999.25   12.03110  151.45060   86.54560  -71.40450    2.29960  347.87030    2.87290   95.53720
 8050.00000    -999.25    -999.25    -999.25    -999.25   10.82440  132.14940   79.94690  -59.19400    2.97150  290.42850    3.55370   59.61320
 8100.00000    -999.25    -999.25    -999.25    -999.25   10.65000  113.37390   75.18470  -52.23970    2.60340  280.46760    3.66760   77.38130
 8150.00000    -999.25    -999.25    -999.25    -999.25   11.28080  103.83540   79.83810  -63.15790    2.69620  308.69670    3.39120   69.79040
 8200.00000    -999.25    -999.25    -999.25    -999.25   13.38150  114.23230   83.98820  -68.66540    2.29170  313.05200    3.28200   55.28210
 8250.00000    -999.25    -999.25    -999.25    -999.25   13.18400  101.80560   84.51730  -75.16440    2.41690  336.08170    3.04690   75.36190
 8300.00000    -999.25    -999.25    -999.25    -999.25    7.76130   68.75840   72.63190  -80.45350   12.43530  116.77510    9.32320  100.31430
 8350.00000    -999.25    -999.25    -999.25    -999.25    7.98320   65.55360   54.17080  -80.22340   13.25870  110.66420    9.93160   52.97930
 8400.00000    -999.25    -999.25    -999.25    -999.25    8.10650   85.62530   80.63890  -84.13520    7.54980  181.93930    5.78710   50.24150
 8450.00000    -999.25    -999.25    -999.25    -999.25    7.99680   83.23970   80.11570  -80.89510    9.77600  137.38140    7.89820   76.26110
 8500.00000    -999.25    -999.25    -999.25    -999.25    7.47050   84.73430   74.32310  -73.35340    8.04310  165.40030    6.36010   91.70280
 8550.00000    -999.25    -999.25    -999.25    -999.25    8.16490   83.53860   78.87690  -66.87010    9.73260  161.65990    6.69450   61.22520
 8600.00000    -999.25    -999.25    -999.25    -999.25    8.15380   98.26620   86.94670  -54.74030    8.27950  165.57160    6.25460   67.90590
 8650.00000    -999.25    -999.25    -999.25    -999.25    8.18920   78.12650   80.59230  -50.35140    7.10030  165.67690    6.04740  120.01550
