~Version ---------------------------------------------------
VERS.      2.0 : CWLS log ASCII Standard -VERSION 2.0
WRAP.       NO : One line per depth step
CREA. 09/29/17 : LAS Creation Date
~Well ------------------------------------------------------
STRT.FT                      2600.0 : START DEPTH
STOP.FT                     12600.0 : STOP DEPTH
STEP.FT                    50.00000 : STEP LENGTH
NULL.                       -999.25 : NULL VALUE
COMP. AMOCO CANADA COMPANY LIMITED. : COMPANY
WELL.        AMOCO NIPAC 6-20-50-15 : WELL
FLD .                               : FIELD
LOC .                               : LOCATION
CTRY.                        CANADA : COUNTRY
SRVC.                  Schlumberger : SERVICE COMPANY
DATE.                   07-Aug-1978 : LOGDATE
PROV.                       Alberta : PROVINCE
UWI .              100062005015W500 : UNIQUE WELL ID
SLAT.WGS84                 53.32816 : SURFACE LATITUDE
SLON.WGS84                -116.1619 : SURFACE LONGITUDE
~Curve Information -----------------------------------------
DEPT    .FT    : Depth Curve
CALDED  .IN    : CALIPER FROM DENSITY LOG [ADJ. TO RESISTIVITY LOG]
CALSED  .IN    : CALIPER FROM SONIC LOG [ADJ. TO RESISTIVITY LOG]
CALWS   .IN    : CALIPER [CALSED]
CONDWS  .MMHO  : CONDUCTIVITY [1000/DRESWS]
DCORED  .G/C3  : DENSITY CORRECTION FROM DENSITY LOG [ADJ. TO RESISTIVITY LOG]
DCORWS  .G/C3  : DENSITY CORRECTION [DCORED]
DENWS   .G/C3  : BULK DENSITY [RHOBED]
DPHILSED.V/V   : DENSITY POROSITY LIMESTONE [M=2.71, F=1.00] FROM DENSITY LOG [ADJ. TO RESISTIVITY LOG]
DPHISSED.V/V   : DENSITY POROSITY SANDSTONE [M=2.65, F=1.00] FROM DENSITY LOG [ADJ. TO RESISTIVITY LOG]
DPOLSWS .V/V   : DENSITY POROSITY LIMESTONE [CALC FROM DENWS,M=2.71, F=1.00]
DRESWS  .OHMM  : DEEP RESISTIVITY [ILDED]
DTED    .US/F  : DELTA-T FROM SONIC LOG [ADJ. TO RESISTIVITY LOG]
DTWS    .US/F  : COMPRESSIONAL SONIC [DTED]
GRDED   .GAPI  : GAMMA RAY FROM DENSITY LOG [ADJ. TO RESISTIVITY LOG]
GRSED   .GAPI  : GAMMA RAY  FRPM SONIC LOG [ADJ. TO RESISTIVITY LOG]
GRWS    .GAPI  : GAMMA RAY [GRDED]
ILDED   .OHMM  : DEEP INDUCTION RESISTIVITY FROM RESISTIVITY LOG
ILMED   .OHMM  : MEDIUM INDUCTION RESISTIVITY FROM RESISTIVITY LOG
LL8ED   .OHMM  : LATEROLOG 8 RESISTIVITY FROM RESISTIVITY LOG
MRESWS  .OHMM  : MEDIUM RESISTIVITY [ILMED]
NPHILSED.V/V   : NEUTRON POROSITY LIMESTONE FROM DENSITY LOG [ADJ. TO RESISTIVITY LOG]
NPHISSED.V/V   : NEUTRON POROSITY SANDSTONE FROM DENSITY LOG [ADJ. TO RESISTIVITY LOG]
NPOLSWS .V/V   : NEUTRON POROSITY LIMESTONE [NPHISSED CONVERTED TO LIMESTONE MATRIX, SPL. TO NPHILSED @ 8990' ]
RHOBED  .G/C3  : BULK DENSITY  FROM DENSITY LOG [ADJ. TO RESISTIVITY LOG]
SFLED   .OHMM  : SPHERICALLY FOCUSED RESISTIVITY FROM RESISTIVITY LOG
SPRED   .MV    : SPONTANEOUS POTENTIAL FROM RESISTIVITY LOG
SPWS    .MV    : SPONTANEOUS POTENTIAL [BASELINE 0 MV,SPRED]
SRESWS  .OHMM  : SHALLOW RESISTIVITY [LL8ED SPL. TO SFLED @ 8997']
~Params ----------------------------------------------------
PD  .                     GL : PERMANENT DATUM
EPD .FT               101.84 : ELEVATION PERMANENT DATUM
LMF .                     KB : LOG MEASURED FROM
DAPD.FT                 6.22 : FEET ABOVE PERMANENT DATUM
DMF .                     KB : DRILLING MEASURED FROM
EKB .FT              1017.06 : KELLY BUSHING
EGL .FT              1010.84 : GROUND LEVEL
DATE.               08/07/78 : RUN DATE
RUN .                      3 : RUN NUMBER
DD  .FT               3846.6 : DEPTH DRILLER
DL  .FT                 3846 : DEPTH LOGGER
BLI .FT                 3845 : BOTTOM LOG INTERVAL
TLI .FT                 3290 : TOP LOG INTERVAL
CBD .FT                 2742 : CASING BOTTOM DRILLER
CBL .FT                 2741 : CASING BOTTOM LOGGER
BS  .MM                  216 : BIT SIZE
BSD .FT               3846.6 : BIT SIZE AT DEPTH
RMF .OHMM               1.36 : RESISTIVITY MUD FILTRATE SAMPLE
MFST.DEGF               22.2 : MUD FILTRATE SAMPLE TEMPERATURE
RMC .OHMM               0.94 : RESISTIVITY MUD CAKE
MCST.DEGF               24.4 : MUD CAKE SAMPLE TEMPERATURE
LUN .                   7809 : LOGGING UNIT NUMBER
LUL .                    EDM : LOGGING UNIT LOCATION
ENGI.            GUNN DRONEN : RECORDING ENGINEER
WITN.                CULSHAW : WITNESSED BY
CLNT.                A2DTECH : CLIENT CODE
ORIG.            2" 5" PRINT : ORIGIN OF DATA
UWI .       100062005015W500 : UNIQUE WELL ID
DICO. A2D Technologies, Inc. : DIGITIZING COMPANY
~Other -----------------------------------------------------
DIL-SFL/CNFD/BCS LOG RAN
SPRED HAS GAPS AT MANY INTERVAL DUE TO NOT VISIBILITY OF SP IN PRINT
GR RAN RAN THROUGH CASING FROM 8980'-9000' SO GRWS ADDED +10 API.
NEUTRON MATRIX CONVERSION FOR LIMESTONE USING SCHLUMBERGER CHART
MUD CONTAIN BARITE
~ASCII -----------------------------------------------------
# ...
 7600.00000   15.44610   12.91610   12.91610   82.84040    0.07950    0.07950    2.66210    -999.25   -0.00710    0.02800   12.07140   71.40860   71.40860   75.61510   85.66550   75.61510   12.07140   11.12980   15.33030   11.12980    -999.25    0.21070    0.16710    2.66210    -999.25  -58.59800   -6.00600   15.33030
 7650.00000   16.97990   13.88600   13.88600  131.25600    0.03950    0.03950    2.42950    -999.25    0.12730    0.16400    7.61870   84.70990   84.70990   80.89220   90.45890   80.89220    7.61870    6.98180   10.20840    6.98180    -999.25    0.29910    0.25510    2.42950    -999.25  -57.81270   -5.22070   10.20840
 7700.00000   16.97990   13.24850   13.24850   94.55460    0.07530    0.07530    2.54150    -999.25    0.07140    0.09850   10.57590   77.27540   77.27540   79.03320  101.80200   79.03320   10.57590    9.69480   13.07830    9.69480    -999.25    0.24000    0.19620    2.54150    -999.25  -59.23700   -6.64500   13.07830
 7750.00000    -999.25   13.94050   13.94050  126.55990    0.07220    0.07220    2.48020    -999.25    0.10640    0.13440    7.90140   80.31050   80.31050   92.11600   92.76940   92.11600    7.90140    7.18930   10.50870    7.18930    -999.25    0.30250    0.25860    2.48020    -999.25  -57.79190   -5.19990   10.50870
 7800.00000    -999.25   13.77550   13.77550  160.70140    0.11330    0.11330    2.52140    -999.25    0.07510    0.11030    6.23570   88.71950   88.71950  102.49520  110.82040  102.49520    6.23570    5.37610    8.86130    5.37610    -999.25    0.29550    0.25160    2.52140    -999.25  -56.92380   -4.33180    8.86130
 7850.00000    -999.25   13.54780   13.54780  162.26920    0.01210    0.01210    2.51120    -999.25    0.07060    0.11630    6.16260   79.64810   79.64810   69.41870   74.38800   69.41870    6.16260    5.86060    9.99620    5.86060    -999.25    0.32380    0.27990    2.51120    -999.25  -57.64830   -5.05630    9.99620
 7900.00000   12.96430   12.45420   12.45420   43.99360    0.09010    0.09010    2.61370    -999.25    0.02640    0.05630   22.73060   67.98050   67.98050   52.98470   62.66600   52.98470   22.73060   24.02320   31.67770   24.02320    -999.25    0.10800    0.06620    2.61370    -999.25  -64.50640  -11.91440   31.67770
 7950.00000   13.62770   13.34590   13.34590   89.58490    0.10310    0.10310    2.61710    -999.25    0.02100    0.05430   11.16260   76.21280   76.21280   63.71380   73.32390   63.71380   11.16260    9.81760   14.72310    9.81760    -999.25    0.25220    0.20830    2.61710    -999.25  -59.67470   -7.08270   14.72310
 8000.00000   13.46820   12.87260   12.87260   64.49200    0.03690    0.03690    2.63650    -999.25    0.01570    0.04300   15.50580   68.75530   68.75530   52.89010   55.15270   52.89010   15.50580   17.14940   20.70320   17.14940    -999.25    0.20900    0.16550    2.63650    -999.25  -68.92670  -17.03380   20.70320
 8050.00000   13.40150   12.80120   12.80120   58.58450    0.07830    0.07830    2.69170    -999.25   -0.00000    0.01070   17.07060   65.73610   65.73610   38.42100   42.87570   38.42100   17.07060   15.81780   19.06070   15.81780    -999.25    0.15010    0.10750    2.69170    -999.25  -75.44190  -24.35300   19.06070
 8100.00000   13.76620   13.08100   13.08100   79.21170    0.02460    0.02460    2.61730    -999.25    0.02020    0.05420   12.62440   69.52760   69.52760   65.57460   65.40720   65.57460   12.62440   13.23230   17.99340   13.23230    -999.25    0.23970    0.19590    2.61730    -999.25  -60.17390   -9.89560   17.99340
 8150.00000   13.72740   13.22370   13.22370   81.26780    0.05090    0.05090    2.60840    -999.25    0.02100    0.05940   12.30500   69.26630   69.26630   47.90490   54.14500   47.90490   12.30500   13.54750   16.51600   13.54750    -999.25    0.20220    0.15870    2.60840    -999.25  -70.58250  -21.10990   16.51600
 8200.00000   13.25000   12.75190   12.75190   69.69270    0.05320    0.05320    2.61900    -999.25    0.01270    0.05320   14.34870   70.24040   70.24040   42.57690   52.63100   42.57690   14.34870   13.32660   17.82520   13.32660    -999.25    0.17810    0.13500    2.61900    -999.25  -66.01460  -17.35250   17.82520
 8250.00000   12.97860   12.64370   12.64370   64.98910    0.07460    0.07460    2.72270    -999.25   -0.00300   -0.00740   15.38720   69.95040   69.95040   54.93440   57.10000   54.93440   15.38720   17.33210   20.35550   17.33210    -999.25    0.22660    0.18290    2.72270    -999.25  -64.14260  -16.28620   20.35550
 8300.00000   12.83210   12.76570   12.76570   68.19250    0.04570    0.04570    2.68240    -999.25   -0.00020    0.01610   14.66510   67.11700   67.11700   46.04560   49.61900   46.04560   14.66510   15.87300   21.22730   15.87300    -999.25    0.21070    0.16720    2.68240    -999.25  -69.99820  -22.94580   21.22730
 8350.00000   13.15020   12.80530   12.80530   60.26640    0.08120    0.08120    2.83390    -999.25   -0.00030   -0.07250   16.59300   61.62020   61.62020   46.85380   50.29200   46.85380   16.59300   17.52900   28.00970   17.52900    -999.25    0.15730    0.11460    2.83390    -999.25  -62.27440  -16.03260   28.00970
 8400.00000   12.69110   12.59210   12.59210   62.13300    0.08370    0.08370    2.70570    -999.25   -0.00080    0.00250   16.09450   65.60120   65.60120   53.90630   65.49630   53.90630   16.09450   17.61420   21.75710   17.61420    -999.25    0.17310    0.13010    2.70570    -999.25  -60.32300  -14.88680   21.75710
 8450.00000   13.09590   12.71490   12.71490   41.00580    0.05820    0.05820    2.67360    -999.25   -0.00070    0.02130   24.38680   62.72960   62.72960   43.87340   44.35710   43.87340   24.38680   21.87000   30.65330   21.87000    -999.25    0.14770    0.10520    2.67360    -999.25  -63.25380  -18.62810   30.65330
 8500.00000   13.41600   12.85050   12.85050   66.39890    0.03840    0.03840    2.67340    -999.25   -0.00190    0.02140   15.06050   67.19150   67.19150   46.50440   51.65140   46.50440   15.06050   13.35840   19.55100   13.35840    -999.25    0.19950    0.15610    2.67340    -999.25  -56.65480  -12.83480   19.55100
 8550.00000   13.00540   12.69010   12.69010   63.24350    0.05420    0.05420    2.69510    -999.25   -0.00220    0.00870   15.81200   69.94210   69.94210   59.14110   70.57260   59.14110   15.81200   17.05420   21.85920   17.05420    -999.25    0.22610    0.18240    2.69510    -999.25  -52.04480   -9.02890   21.85920
 8600.00000   13.76930   12.81720   12.81720  175.47860    0.03180    0.03180    2.39580    -999.25    0.14760    0.18370    5.69870  104.22090  104.22090   76.52510   79.29710   76.52510    5.69870    4.53640    7.44780    4.53640    -999.25    0.39870    0.35580    2.39580    -999.25  -50.87990   -8.67450    7.44780
 8650.00000   13.22880   12.80640   12.80640   19.46700    0.02740    0.02740    2.65800    -999.25    0.00030    0.03040   51.36910   64.65160   64.65160   54.82490   51.32750   54.82490   51.36910   41.46500   71.05730   41.46500    -999.25    0.14720    0.10470    2.65800    -999.25  -52.13210  -16.00090   71.05730
 8700.00000   12.04660   12.69120   12.69120   36.96130    0.02900    0.02900    2.61260    -999.25    0.03530    0.05690   27.05530   77.78710   77.78710   83.25370   81.83890   83.25370   27.05530   24.07150   35.20410   24.07150    -999.25    0.29120    0.24720    2.61260    -999.25  -50.33450  -16.64640   35.20410
 8750.00000   12.16170   12.36010   12.36010   29.75050    0.07350    0.07350    2.68830    -999.25   -0.00730    0.01270   33.61290   62.01050   62.01050   63.25190   62.77740   63.25190   33.61290   29.72210   54.72670   29.72210    -999.25    0.14420    0.10180    2.68830    -999.25  -52.92360  -18.56620   54.72670
 8800.00000   12.57780   12.29830   12.29830   42.72600    0.06810    0.06810    2.64030    -999.25    0.00400    0.04070   23.40510   61.22900   61.22900   52.49710   56.61970   52.49710   23.40510   21.10610   27.21580   21.10610    -999.25    0.12090    0.07860    2.64030    -999.25  -53.08360  -18.05820   27.21580
