~Version ---------------------------------------------------
VERS.      2.0 : CWLS log ASCII Standard -VERSION 2.0
WRAP.       NO : One line per depth step
CREA. 08/02/17 : LAS Creation Date
~Well ------------------------------------------------------
STRT.FT                       300.0 : START DEPTH
STOP.FT                     10150.0 : STOP DEPTH
STEP.FT                    50.00000 : STEP LENGTH
NULL.                       -999.25 : NULL VALUE
COMP.          MOBIL OIL CANADA LTD : COMPANY
WELL. MOBIL MCLEOD RIVER 11-1-57-14 : WELL
FLD .                               : FIELD
LOC .                               : LOCATION
CTRY.                        CANADA : COUNTRY
SRVC.        Schlumberger of Canada : SERVICE COMPANY
DATE.                   02-May-1978 : LOGDATE
PROV.                       Alberta : PROVINCE
UWI .              100110105714W500 : UNIQUE WELL ID
SLAT.WGS84                 53.89809 : SURFACE LATITUDE
SLON.WGS84                -115.9478 : SURFACE LONGITUDE
~Curve Information -----------------------------------------
DEPT    .FT    : Depth Curve
CALDED  .IN    : CALIPER FROM CNL-FDC LOG [ADJ. TO ILDED/CALSED]
CALSED  .IN    : CALIPER FROM BCS LOG
CALWS   .IN    : CALIPER [CALSED]
CONDWS  .MMHO  : CONDUCTIVITY [1000/DRESWS]
DCORED  .G/C3  : DENSITY CORRECTION FROM CNL-FDC LOG [ADJ. TO ILDED]
DCORWS  .G/C3  : DENSITY CORRECTION [DCORED]
DENWS   .G/C3  : FORMATION BULK DENSITY [RHOBED]
DPHILSED.V/V   : DENSITY POROSITY LIMESTONE [M=2.71, F=1.0] FROM CNL-FDC LOG [ADJ. TO ILDED]
DPHISSED.V/V   : DENSITY POROSITY SANDSTONE [M=2.65, F=1.0] FROM CNL-FDC LOG [ADJ. TO ILDED]
DPOLSWS .V/V   : DENSITY POROSITY LIMESTONE [CALCULATED FROM DENWS, M=2.71, F=1.0]
DRESWS  .OHMM  : DEEP RESISTIVITY [ILDED]
DTED    .US/F  : DELTA-T (INTERVAL TRANSIT TIME) FROM BCS LOG
DTWS    .US/F  : COMPRESSIONAL SONIC [DTED]
GRDED   .GAPI  : GAMMA RAY FROM CNL-FDC LOG  [ADJ. TO ILDED]
GRSED   .GAPI  : GAMMA RAY FROM BCS LOG
GRWS    .GAPI  : GAMMA RAY [GRDED SPL. TO GRSED @ 10161']
ILDED   .OHMM  : DEEP INDUCTION FROM DIL-LL LOG
ILMED   .OHMM  : MEDIUM INDUCTION FROM DIL-LL LOG
LL8ED   .OHMM  : LATEROLOG 8 FROM DIL-LL LOG
MRESWS  .OHMM  : MEDIUM RESISTIVITY [ILMED]
NPHILSED.V/V   : NEUTRON POROSITY LIMESTONE FROM CNL-FDC LOG [ADJ. TO ILDED]
NPHISSED.V/V   : NEUTRON POROSITY SANDSTONE FROM CNL-FDC LOG [ADJ. TO ILDED]
NPOLSWS .V/V   : NEUTRON POROSITY LIMESTONE [NPHISSED CONVERTED TO LIMESTONE MATRIX & SPL. TO NPHILSED @ 6700']
RHOBED  .G/C3  : BULK DENSITY FROM CNL-FDC LOG [ADJ. TO ILDED]
SPRED   .MV    : SPONTANEOUS POTENTIAL FROM DIL-LL LOG
SPWS    .MV    : SPONTANEOUS POTENTIAL [BASELINE 0 MV, SPRED]
SRESWS  .OHMM  : SHALLOW RESISTIVITY [LL8ED]
~Params ----------------------------------------------------
PD  .                     GL : PERMANENT DATUM
EPD .FT               2845.4 : ELEVATION PERMANENT DATUM
LMF .                     KB : LOG MEASURED FROM
DAPD.FT                   20 : FEET ABOVE PERMANENT DATUM
EKB .FT               2865.2 : KELLY BUSHING
EGL .FT               2845.4 : GROUND LEVEL
DATE.               05/02/78 : RUN DATE
RUN .                      1 : RUN NUMBER
DD  .FT                10200 : DEPTH DRILLER
DL  .FT                10189 : DEPTH LOGGER
BLI .FT                10183 : BOTTOM LOG INTERVAL
TLI .FT                 1217 : TOP LOG INTERVAL
CBD .FT                 1217 : CASING BOTTOM DRILLER
CBL .FT                 1217 : CASING BOTTOM LOGGER
BS  .IN                 8.75 : BIT SIZE
BSD .FT                10200 : BIT SIZE AT DEPTH
DFT .                    GEL : DRILLING FLUID TYPE
DFD .                    9.4 : DRILLING FLUID DENSITY
DFV .                    205 : DRILLING FLUID VISCOSITY
DFPH.                   10.0 : DRILLING FLUID PH
DFL .                    8.5 : DRILLING FLUID LOSS
MSS .               FLOWLINE : MUD SAMPLE SOURCE
RMS .OHMM               2.27 : RESISTIVITY MUD SAMPLE
MST .DEGF                 66 : MUD SAMPLE TEMPERATURE
RMF .OHMM               1.96 : RESISTIVITY MUD FILTRATE SAMPLE
MFST.DEGF                 65 : MUD FILTRATE SAMPLE TEMPERATURE
TCS .HRS                   4 : TIME CIRCULATED STOPPED
LUN .                   7800 : LOGGING UNIT NUMBER
LUL .                    EDM : LOGGING UNIT LOCATION
ENGI.                 KUBICA : RECORDING ENGINEER
WITN.                   RUSH : WITNESSED BY
CLNT.                A2DTECH : CLIENT CODE
ORIG.            2" 5" PRINT : ORIGIN OF DATA
UWI .       100110105714W500 : UNIQUE WELL ID
DICO. A2D Technologies, Inc. : DIGITIZING COMPANY
~Other -----------------------------------------------------
~ASCII -----------------------------------------------------
# ...
 2900.00000    9.73650    9.56290    9.56290  107.40680    0.04770    0.04770    2.41030    -999.25    0.15530    0.17530    9.31040   94.02010   94.02010   76.63700   72.70260   76.63700    9.31040    9.92820   11.53240    9.92820    -999.25    0.34110    0.29740    2.41030  -81.79270  -13.50060   11.53240
 2950.00000   10.26940    9.85340    9.85340   64.34250    0.01960    0.01960    2.41280    -999.25    0.14470    0.17380   15.57820   84.95400   84.95400   50.57160   52.66700   50.57160   15.57820   14.44730   18.00980   14.44730    -999.25    0.27380    0.22990    2.41280  -83.14520  -15.55150   18.00980
 3000.00000   10.65230   10.32460   10.32460   64.49570    0.01930    0.01930    2.39870    -999.25    0.14650    0.18200   15.50490   82.54830   82.54830   44.33890   44.74930   44.33890   15.50490   16.80580   22.44330   16.80580    -999.25    0.25290    0.20900    2.39870  -81.23560  -13.54160   22.44330
 3050.00000    9.35150    9.33930    9.33930  102.34890    0.03740    0.03740    2.52660    -999.25    0.06880    0.10730    9.77050   80.54990   80.54990   60.31380   59.57500   60.31380    9.77050   10.11180   11.06410   10.11180    -999.25    0.29040    0.24640    2.52660  -74.61370   -6.17600   11.06410
 3100.00000   11.52170    9.34470    9.34470  209.34100    0.11530    0.11530    2.19210    -999.25    0.29450    0.30290    4.77700   88.91600   88.91600   75.74680   72.82930   75.74680    4.77700    4.94880    5.44990    4.94880    -999.25    0.37100    0.32760    2.19210  -75.00710   -5.82190    5.44990
 3150.00000    8.82370    9.36830    9.36830   77.43950    0.03660    0.03660    2.38720    -999.25    0.15350    0.18880   12.91330   83.79510   83.79510   51.93740   49.95100   51.93740   12.91330   13.98440   15.18030   13.98440    -999.25    0.31850    0.27460    2.38720  -83.31370  -13.38800   15.18030
 3200.00000   15.12810   12.84610   12.84610  246.54270    0.16970    0.16970    1.80010    -999.25    0.44960    0.53210    4.05610  101.41410  101.41410   64.23790   64.94930   64.23790    4.05610    4.19570    4.45680    4.19570    -999.25    0.55060    0.50890    1.80010  -76.10340   -5.43030    4.45680
 3250.00000   12.21560    9.68610    9.68610  170.08830    0.15960    0.15960    2.33420    -999.25    0.18000    0.21980    5.87930   89.31110   89.31110   75.61520   68.53610   75.61520    5.87930    6.95620   10.79120    6.95620    -999.25    0.45060    0.40890    2.33420  -76.28670   -4.87310   10.79120
 3300.00000    8.71220    8.67580    8.67580   44.06350    0.04810    0.04810    2.51060    -999.25    0.07480    0.11660   22.69450   71.72350   71.72350   46.02400   43.94770   46.02400   22.69450   31.44690   40.00700   31.44690    -999.25    0.26370    0.21970    2.51060  -84.13340  -12.36860   40.00700
 3350.00000    9.25170    9.10720    9.10720  251.71040    0.08020    0.08020    2.22060    -999.25    0.24810    0.28620    3.97310  112.85640  112.85640   76.88450   68.26850   76.88450    3.97310    4.11880    4.32790    4.11880    -999.25    0.43760    0.39560    2.22060  -77.08940   -5.22390    4.32790
 3400.00000   11.68110    9.55900    9.55900  217.04690    0.23050    0.23050    2.23010    -999.25    0.26290    0.28060    4.60730   90.57350   90.57350   79.60310   72.82000   79.60310    4.60730    4.76550    4.83810    4.76550    -999.25    0.37450    0.33120    2.23010  -77.77430   -5.80850    4.83810
 3450.00000   11.17570    9.77240    9.77240   74.13410    0.13060    0.13060    2.47430    -999.25    0.11440    0.13780   13.57700   87.39880   87.39880   69.55400   64.40120   69.55400   13.57700   15.85350   25.10560   15.85350    -999.25    0.33030    0.28650    2.47430  -98.07800  -26.05420   25.10560
 3500.00000   11.04450    9.82790    9.82790  167.83870    0.12940    0.12940    2.46760    -999.25    0.10030    0.14180    5.95810   91.76430   91.76430   76.34030   71.77050   76.34030    5.95810    6.80820    6.00950    6.80820    -999.25    0.38230    0.33910    2.46760  -76.63800   -4.61420    6.00950
 3550.00000    9.81500    9.57570    9.57570  144.57130    0.05650    0.05650    2.42600    -999.25    0.14370    0.16610    6.91700   95.14810   95.14810   78.89990   76.88390   78.89990    6.91700    7.72060    8.92470    7.72060    -999.25    0.43470    0.39260    2.42600  -77.92770   -5.90390    8.92470
 3600.00000   10.77870    9.78960    9.78960  185.80550    0.03990    0.03990    2.46710    -999.25    0.11120    0.14200    5.38350   89.22200   89.22200   78.81420   69.27590   78.81420    5.38350    5.86810    7.94280    5.86810    -999.25    0.36490    0.32140    2.46710  -77.31520   -5.29140    7.94280
 3650.00000   10.85860    9.56470    9.56470  188.35230    0.04750    0.04750    2.50070    -999.25    0.08710    0.12240    5.30920   86.84440   86.84440   82.38760   70.65840   82.38760    5.30920    5.49200    6.54810    5.49200    -999.25    0.31030    0.26640    2.50070  -76.59550   -4.57170    6.54810
 3700.00000   10.57660    9.84340    9.84340  120.87590    0.02540    0.02540    2.52670    -999.25    0.08480    0.10720    8.27300   82.03520   82.03520   74.04000   76.27620   74.04000    8.27300    8.56340   10.85120    8.56340    -999.25    0.31660    0.27270    2.52670  -77.36630   -5.34250   10.85120
 3750.00000   11.72230   10.09560   10.09560  176.91910    0.03110    0.03110    2.49780    -999.25    0.09060    0.12410    5.65230   88.97370   88.97370   88.32550   84.75740   88.32550    5.65230    6.01920    6.70700    6.01920    -999.25    0.36580    0.32240    2.49780  -75.61240   -3.53530    6.70700
 3800.00000   10.85310    9.82790    9.82790  140.13260    0.13040    0.13040    2.27260    -999.25    0.23100    0.25580    7.13610   87.67200   87.67200  106.17800   99.23130  106.17800    7.13610    7.38160    8.54620    7.38160    -999.25    0.38600    0.34290    2.27260  -78.97380   -6.60040    8.54620
 3850.00000   10.66720   10.08450   10.08450  118.42490    0.18890    0.18890    2.41040    -999.25    0.15010    0.17520    8.44420   84.01040   84.01040  100.86310  104.90140  100.86310    8.44420    8.73490    9.53280    8.73490    -999.25    0.38360    0.34050    2.41040  -78.94740   -6.27620    9.53280
 3900.00000   12.51320   10.38540   10.38540  138.39110    0.11120    0.11120    2.30470    -999.25    0.22310    0.23700    7.22590   86.81430   86.81430  109.67750  112.34840  109.67750    7.22590    7.47420    8.15260    7.47420    -999.25    0.41160    0.36900    2.30470  -79.48550   -6.51950    8.15260
 3950.00000   14.57550   10.23270   10.23270  135.12430    0.17960    0.17960    2.34160    -999.25    0.18900    0.21540    7.40060   85.54020   85.54020  116.00510  115.09490  116.00510    7.40060    7.99730    9.16680    7.99730    -999.25    0.37150    0.32810    2.34160  -78.11250   -4.84880    9.16680
 4000.00000   14.56450   10.50390   10.50390  140.56000    0.17060    0.17060    2.21460    -999.25    0.27120    0.28970    7.11440   91.40200   91.40200  126.83420  120.50230  126.83420    7.11440    7.53090    9.36220    7.53090    -999.25    0.38350    0.34030    2.21460  -77.69430   -4.13570    9.36220
 4050.00000   12.38500   10.98700   10.98700  101.05600    0.11150    0.11150    2.47770    -999.25    0.12130    0.13580    9.89550   87.91350   87.91350  130.11820  138.67620  130.11820    9.89550   10.44190   14.23160   10.44190    -999.25    0.38930    0.34620    2.47770  -78.35150   -4.49660   14.23160
 4100.00000   13.09070   10.48700   10.48700  139.37000    0.11720    0.11720    2.39400    -999.25    0.15930    0.18480    7.17520   90.83720   90.83720  124.08050  118.21560  124.08050    7.17520    7.67820    9.86740    7.67820    -999.25    0.41480    0.37220    2.39400  -78.48720   -4.55230    9.86740
 4150.00000   13.70560    9.71990    9.71990  139.56340    0.18080    0.18080    2.22400    -999.25    0.25870    0.28420    7.16520   89.63040   89.63040  116.66640  127.72790  116.66640    7.16520    7.59810    9.27550    7.59810    -999.25    0.39470    0.35170    2.22400  -78.72280   -4.78790    9.27550
