~Version ---------------------------------------------------
VERS.      2.0 : CWLS log ASCII Standard -VERSION 2.0
WRAP.       NO : One line per depth step
CREA. 10/01/14 : LAS Creation Date
~Well ------------------------------------------------------
STRT.FT                                  935.9 : START DEPTH
STOP.FT                                 9375.9 : STOP DEPTH
STEP.FT                                0.50000 : STEP LENGTH
NULL.                                  -999.25 : NULL VALUE
COMP. THE BRITISH AMERICAN OIL COMPANY LIMITED : COMPANY
WELL.        B.A. EAST GOOSE RIVER 10-22-66-15 : WELL
FLD .                                          : FIELD
LOC .                                          : LOCATION
CTRY.                                   CANADA : COUNTRY
SRVC.                   Schlumberger of Canada : SERVICE COMPANY
DATE.                              16-Mar-1960 : LOGDATE
PROV.                                  Alberta : PROVINCE
UWI .                         100102206615W500 : UNIQUE WELL ID
SLAT.WGS84                            54.72873 : SURFACE LATITUDE
SLON.WGS84                           -116.1771 : SURFACE LONGITUDE
~Curve Information -----------------------------------------
DEPT.FT      : DEPTH FEET
CILD.MMHO    : CONDUCTIVITY FROM RESISTIVITY LOG
DT  .US/F    : DELTA-T FROM SONIC LOG
GRS .MG/TON  : GAMMA RAY FROM SONIC LOG
ILD .OHMM    : DEEP INDUCTION FROM RESISTIVITY LOG
MCAL.IN      : MLT CALIPER FROM MICRO LOG
SN  .OHMM    : SHORT NORMAL FROM RESISTIVITY LOG
SPR .MV      : SPONTANEOUS POTENTIAL FROM RESISTIVITY LOG
~Params ----------------------------------------------------
LMF .                     KB : LOG MEASURED FROM
DMF .                     KB : DRILLING MEASURED FROM
EKB .FT                 3222 : KELLY BUSHING
EGL .FT                 3205 : GROUND LEVEL
DATE.               03/16/60 : RUN DATE
RUN .                      2 : RUN NUMBER
DD  .FT                 9370 : DEPTH DRILLER
DL  .FT                 9378 : DEPTH LOGGER
BLI .FT                 9373 : BOTTOM LOG INTERVAL
TLI .FT                 5000 : TOP LOG INTERVAL
CBD .FT                  975 : CASING BOTTOM DRILLER
BS  .IN                    9 : BIT SIZE
BSD .FT                 9370 : BIT SIZE AT DEPTH
DFT .                    GEL : DRILLING FLUID TYPE
DFD .                     10 : DRILLING FLUID DENSITY
DFV .                    120 : DRILLING FLUID VISCOSITY
DFPH.                     10 : DRILLING FLUID PH
DFL .                    6.2 : DRILLING FLUID LOSS
RMS .OHMM                2.8 : RESISTIVITY MUD SAMPLE
MST .DEGF                 59 : MUD SAMPLE TEMPERATURE
RMF .OHMM               1.41 : RESISTIVITY MUD FILTRATE SAMPLE
MFST.DEGF                 68 : MUD FILTRATE SAMPLE TEMPERATURE
RMC .OHMM               2.56 : RESISTIVITY MUD CAKE
MCST.DEGF                 67 : MUD CAKE SAMPLE TEMPERATURE
RMB .OHMM               0.94 : RESISTIVITY MUD AT BHT
TCS .HRS                 4.5 : TIME CIRCULATED STOPPED
LUN .                  1573C : LOGGING UNIT NUMBER
LUL .                     WC : LOGGING UNIT LOCATION
ENGI.              HAUSEGGER : RECORDING ENGINEER
WITN.                   COTE : WITNESSED BY
CLNT.                A2DTECH : CLIENT CODE
ORIG.            2" 5" PRINT : ORIGIN OF DATA
UWI .       100102206615W500 : UNIQUE WELL ID
DICO. A2D Technologies, Inc. : DIGITIZING COMPANY
~Other -----------------------------------------------------
~ASCII -----------------------------------------------------
# ...
 4310.90000  252.19440   97.84650    5.08990    4.56940   11.44540    4.38160  -59.67470
 4311.40000  247.98690   98.56750    5.10560    4.61910   11.07430    4.36290  -59.67330
 4311.90000  246.75270   94.27980    5.18930    4.63010   10.68230    4.29580  -59.56230
 4312.40000  249.04600   90.99910    5.19430    4.51960   10.86570    4.21940  -59.55810
 4312.90000  253.52430   94.22880    5.12240    4.39990   10.98570    4.13900  -59.56240
 4313.40000  260.67350   94.63190    5.08330    4.34000   11.01040    4.09880  -59.51770
 4313.90000  268.47270   94.65940    5.06780    4.16030   11.14920    3.97820  -58.94270
 4314.40000  270.97550   95.35940    5.12010    4.10040   11.14570    3.93800  -58.76910
 4314.90000  277.18100   98.48320    5.29870    3.96630   11.11030    3.81740  -58.46990
 4315.40000  279.00760   99.23270    5.26860    3.96570   11.10660    3.76650  -58.37730
 4315.90000  285.82840   98.39340    5.15550    3.96370   11.22980    3.61270  -58.31420
 4316.40000  288.05880   98.26360    5.13260    3.96240   11.36460    3.57810  -58.33340
 4316.90000  294.71350  102.94010    5.19280    3.90870   11.48310    3.54210  -58.35960
 4317.40000  296.19700  102.63470    5.24290    3.88250   11.39150    3.54140  -58.36310
 4317.90000  299.64850  101.18380    5.44120    3.80390   11.26020    3.53960  -58.37340
 4318.40000  300.37760  101.69030    5.48080    3.77770   11.28630    3.53890  -58.37680
 4318.90000  301.76020  103.66330    5.53170    3.69910   11.42640    3.52270  -58.38720
 4319.40000  302.50340  103.59210    5.52840    3.67980   11.43170    3.51000  -58.39070
 4319.90000  305.98090  100.25670    5.47240    3.65170   11.45070    3.47190  -58.38690
 4320.40000  309.16280  100.40150    5.38090    3.64270   11.48890    3.44640  -58.44870
 4320.90000  312.54390  102.83400    5.34910    3.63380   11.48960    3.43420  -58.55100
 4321.40000  314.76940  104.16470    5.52660    3.62480   11.44510    3.42400  -58.67300
 4321.90000  316.89400  104.75140    5.76310    3.61590   11.46580    3.41390  -58.73800
 4322.40000  317.47560  105.91850    5.89000    3.60690   11.14530    3.40370  -58.58520
 4322.90000  319.33290  106.52530    5.83840    3.60250   11.17900    3.39860  -58.67120
 4323.40000  321.30180  107.90150    5.69280    3.58900   11.25120    3.38330  -58.77870
 4323.90000  323.49910  107.51510    5.67340    3.58460   11.28420    3.37820  -58.75570
 4324.40000  325.18910  105.10800    5.68410    3.57730   11.17910    3.36250  -58.60590
 4324.90000  325.10890  105.55500    5.67510    3.57660   11.14390    3.34050  -58.57690
 4325.40000  325.28740  105.91190    5.62240    3.57470   10.91520    3.27470  -58.49380
 4325.90000  325.26040  102.97210    5.54840    3.57400   10.88230    3.29120  -58.51690
 4326.40000  325.10460   95.85240    5.27970    3.57210   11.06900    3.41290  -58.50140
 4326.90000  324.66360   97.26100    5.13010    3.57150   11.21180    3.46540  -58.50270
 4327.40000  321.69670  102.26260    4.95240    3.56950   11.46350    3.62310  -58.50650
 4327.90000  319.47050  102.25700    5.09260    3.56890   11.43330    3.67570  -58.76220
 4328.40000  310.40210  102.57650    5.51940    3.57110   11.29490    3.83330  -58.49040
 4328.90000  306.58520  104.92890    5.50440    3.60380   11.29460    3.88590  -58.78030
 4329.40000  295.08110  111.15160    5.38670    3.70190   11.25890    4.04350  -59.33770
 4329.90000  291.15680  108.67350    5.38560    3.78390   11.25710    4.09610  -59.35250
 4330.40000  277.34740  103.12400    5.49180    4.04380   11.26390    4.34430  -59.45370
 4330.90000  264.74190  101.69020    5.61780    4.22170   11.16700    4.62580  -59.49730
 4331.40000  251.88930  100.92060    5.73070    4.39960   11.13760    4.90730  -59.56050
 4331.90000  235.36300  100.19820    5.79120    4.57740   11.05890    5.31820  -59.83860
 4332.40000  217.56070   99.30970    5.69370    4.91770   10.99500    6.02630  -60.09390
 4332.90000  201.28840  100.71980    5.57970    5.25870   10.95710    6.85120  -60.53940
 4333.40000  187.51080  100.36350    5.50610    5.42920   10.94650    7.20070  -60.81470
 4333.90000  174.57180   98.03970    5.43640    5.94070   10.21740    8.20390  -62.41750
 4334.40000  166.67350   97.25570    5.43840    6.07700    9.86030    8.39630  -63.52330
 4334.90000  163.19890   87.35390    5.41530    6.34170    9.24020    8.30020  -66.61070
 4335.40000  163.04610   85.38010    5.34470    6.35910    9.13460    7.90020  -67.01140
 4335.90000  167.02130   79.74510    5.02010    6.16010    8.84550    6.54990  -66.07230
 4336.40000  172.34220   78.26630    4.81990    5.96250    8.85900    6.24250  -64.90820
 4336.90000  191.67730   76.92220    4.20280    5.36950    9.87540    5.45930  -61.70810
 4337.40000  199.43560   79.67450    4.09260    5.17900   10.23750    5.35230  -61.41510
 4337.90000  219.61720   95.08840    4.28770    4.80090   10.81480    5.42020  -60.59430
 4338.40000  222.49020   99.39910    4.59070    4.76280   10.87020    5.52060  -60.49290
 4338.90000  224.53360  108.51450    5.42010    4.74500   11.00790    5.85450  -60.36850
 4339.40000  220.82790  110.77180    5.59140    4.80500   11.03240    5.96190  -60.39340
 4339.90000  207.61670  115.87850    5.78710    5.09670   10.61550    6.21750  -60.65430
 4340.40000  202.30450  111.74870    5.68250    5.21260   10.58880    6.25540  -60.73400
 4340.90000  188.65940   99.48260    5.38710    5.56010   10.70260    6.34440  -60.81720
 4341.40000  184.49940   95.92670    5.10260    5.79180   10.88900    6.39550  -60.82080
 4341.90000  182.17930   90.34810    4.97500    5.81370   10.95290    6.44660  -60.61070
 4342.40000  180.28840   88.28600    4.93030    5.83470   10.99930    6.49770  -60.45330
 4342.90000  179.09840   86.02180    4.95720    5.85560   10.84190    6.54880  -60.46300
 4343.40000  177.53030   89.37300    4.95140    5.87660   10.63540    6.56000  -60.38290
 4343.90000  176.24530   89.52320    4.89870    5.88710   10.74500    6.55940  -60.27240
 4344.40000  174.08040   90.11270    4.80380    5.91850   10.90990    6.55740  -60.09030
 4344.90000  172.94550   91.26940    4.76510    5.93710   10.91290    6.56200  -60.07670
 4345.40000  172.19510   92.89270    4.76530    6.01350   10.88740    6.58550  -59.83500
 4345.90000  172.03730   92.52430    4.79250    6.04240   10.88510    6.59500  -59.79950
 4346.40000  173.12500   90.65540    4.86690    6.12920   10.89690    6.62570  -59.74110
 4346.90000  174.16290   90.20380    4.86290    6.08730   10.85240    6.58610  -59.73340
 4347.40000  178.17680   88.93690    4.90500    5.91250   10.84650    6.48830  -59.51180
 4347.90000  179.78600   89.24900    4.95040    5.84610   10.78560    6.41390  -59.60570
 4348.40000  184.95300   90.16940    4.95260    5.64670   10.70180    6.18040  -59.77660
 4348.90000  187.26150   90.43350    4.93160    5.58020   10.73830    6.10090  -59.81800
 4349.40000  194.92620   91.13900    4.90130    5.38040   10.89340    5.87210  -59.97240
 4349.90000  197.54950   91.52440    4.85470    5.31280   10.95850    5.81030  -59.97440
 4350.40000  205.36520   93.75100    4.74090    5.11000   11.13930    5.62510  -59.98030
 4350.90000  209.46130   93.13540    4.86990    4.97490   11.16750    5.50160  -59.98430
 4351.40000  213.16800   95.61860    4.92500    4.83970   11.22780    5.37800  -59.95980
 4351.90000  216.43830   95.15780    4.94630    4.75760   11.28390    5.25730  -59.92910
 4352.40000  218.77970   96.36820    4.97270    4.68600   11.29860    5.22230  -59.88410
 4352.90000  219.54720   97.04550    4.91900    4.61440   11.25160    5.17450  -59.78310
 4353.40000  220.47750   97.41820    4.94720    4.54280   11.44150    5.10810  -60.14430
 4353.90000  222.47370   96.17180    5.07050    4.50370   11.18510    5.04160  -60.09190
 4354.40000  225.18550   94.28300    5.15250    4.49360   10.98510    5.00840  -60.13130
 4354.90000  229.65480   94.75760    5.29740    4.46330   11.02370    4.90860  -60.18820
 4355.40000  234.32270   96.03440    5.30000    4.45320   11.14500    4.87540  -60.19230
