~Version ---------------------------------------------------
VERS.      2.0 : CWLS log ASCII Standard -VERSION 2.0
WRAP.       NO : One line per depth step
CREA. 09/22/17 : LAS Creation Date
~Well ------------------------------------------------------
STRT.FT                1200.0 : START DEPTH
STOP.FT               10800.0 : STOP DEPTH
STEP.FT              50.00000 : STEP LENGTH
NULL.                 -999.25 : NULL VALUE
COMP. SUN OIL COMPANY LIMITED : COMPANY
WELL. BEC ROSEVEAR 6-34-54-15 : WELL
FLD .                         : FIELD
LOC .                         : LOCATION
CTRY.                  CANADA : COUNTRY
SRVC.  Schlumberger of Canada : SERVICE COMPANY
DATE.             25-Mar-1971 : LOGDATE
PROV.                 Alberta : PROVINCE
UWI .        100063405415W500 : UNIQUE WELL ID
SLAT.WGS84           53.70553 : SURFACE LATITUDE
SLON.WGS84          -116.1304 : SURFACE LONGITUDE
~Curve Information -----------------------------------------
DEPT   .FT    : Depth Curve
CALIED .IN    : CALIPER FROM SNP LOG [ADJ. TO RESISTIVITY LOG]
CALSED .IN    : CALIPER FROM SONIC LOG [ADJ. TO RESISTIVITY LOG]
CALWS  .IN    : CALIPER [CALSED]
CILDED .MMHO  : CONDUCTIVITY FROM RESISTIVITY LOG
CONDWS .MMHO  : CONDUCTIVITY [1000/DRESWS]
DRESWS .OHMM  : DEEP RESISTIVITY [1000/CILDED IF ILDED<=5, ILDED]
DTED   .US/F  : DELTA T FROM SONIC LOG [ADJ. TO RESISTIVITY LOG]
DTWS   .US/F  : COMPRESSIONAL SONIC [DTED]
GRED   .GAPI  : GAMMA RAY FROM SNP LOG [ADJ. TO RESISTIVITY LOG]
GRNED  .GAPI  : GAMMA RAY NEUTRON FROM GRN LOG [ADJ. TO RESISTIVITY LOG]
GRSED  .GAPI  : GAMMA RAY FROM SONIC LOG [ADJ. TO RESISTIVITY LOG]
GRWS   .GAPI  : GAMMA RAY [GRSED SPL. TO GRNED @ 10735']
ILDED  .OHMM  : DEEP INDUCTION FROM RESISTIVITY LOG
ILMED  .OHMM  : MEDIUM INDUCTION FROM RESISTIVITY LOG
LL8ED  .OHMM  : LATEROLOG 8' FROM RESISTIVITY LOG
MRESWS .OHMM  : MEDIUM RESISTIVITY [ILMED]
NEUTED .NAPI  : NEUTRON FROM GRN LOG [ADJ. TO RESISTIVITY LOG]
NEUTWS .NAPI  : NEUTRON [NEUTED]
NPOLSWS.V/V   : NEUTRON POROSITY LIMESTONE [SNPLSED]
SNED   .OHMM  : SHORT NORMAL FROM RESISTIVITY LOG
SNPLSED.V/V   : SIDEWALL NEUTRON POROSITY LIMESTONE FROM SNP LOG [ADJ. TO RESISTIVITY LOG]
SPRED  .MV    : SPONTANEOUS POTENTIAL FROM RESISTIVITY LOG
SPWS   .MV    : SPONTANEOUS POTENTIAL [BASELINE 0 MV, SPRED]
SRESWS .OHMM  : SHALLOW RESISTIVITY [SNED SPL. TO LL8ED @ 4794']
~Params ----------------------------------------------------
PD  .                     GL : PERMANENT DATUM
EPD .FT               2803.5 : ELEVATION PERMANENT DATUM
LMF .                     KB : LOG MEASURED FROM
DAPD.FT                 15.5 : FEET ABOVE PERMANENT DATUM
EKB .FT                 2819 : KELLY BUSHING
EGL .FT               2803.5 : GROUND LEVEL
DATE.               03/25/71 : RUN DATE
RUN .                      1 : RUN NUMBER
DD  .FT                10590 : DEPTH DRILLER
DL  .FT                10587 : DEPTH LOGGER
BLI .FT                10581 : BOTTOM LOG INTERVAL
TLI .FT                 1243 : TOP LOG INTERVAL
CBD .FT                 1243 : CASING BOTTOM DRILLER
CBL .FT                 1243 : CASING BOTTOM LOGGER
BS  .IN                 8.75 : BIT SIZE
BSD .FT                10590 : BIT SIZE AT DEPTH
DFT .                    GEL : DRILLING FLUID TYPE
DFD .                   11.1 : DRILLING FLUID DENSITY
DFV .                    127 : DRILLING FLUID VISCOSITY
DFPH.                     10 : DRILLING FLUID PH
DFL .                      6 : DRILLING FLUID LOSS
MSS .                   CIRC : MUD SAMPLE SOURCE
RMS .OHMM               1.34 : RESISTIVITY MUD SAMPLE
MST .DEGF                 68 : MUD SAMPLE TEMPERATURE
RMF .OHMM               0.95 : RESISTIVITY MUD FILTRATE SAMPLE
MFST.DEGF                 50 : MUD FILTRATE SAMPLE TEMPERATURE
RMC .OHMM               1.98 : RESISTIVITY MUD CAKE
MCST.DEGF                 52 : MUD CAKE SAMPLE TEMPERATURE
RMB .OHMM               0.32 : RESISTIVITY MUD AT BHT
TCS .HRS                   4 : TIME CIRCULATED STOPPED
LUN .                   5628 : LOGGING UNIT NUMBER
ENGI.               PUOURSON : RECORDING ENGINEER
WITN.                 BAANUT : WITNESSED BY
CLNT.                A2DTECH : CLIENT CODE
ORIG.            2" 5" PRINT : ORIGIN OF DATA
UWI .       100063405415W500 : UNIQUE WELL ID
DICO. A2D Technologies, Inc. : DIGITIZING COMPANY
~Other -----------------------------------------------------
DIL-GRN-SNP-BCS LOG RAN.
~ASCII -----------------------------------------------------
# ...
 9900.00000   11.03960    9.75460    9.75460    -999.25   87.37430   11.44530   68.44720   68.44720   53.40100    -999.25   94.30900   94.30900   11.44530   13.74770   17.58460   13.74770    -999.25    -999.25    0.22320    -999.25    0.22320  -12.60710  -22.41360   17.58460
 9950.00000    9.79620    9.17730    9.17730    -999.25   81.42390   12.28140   67.46140   67.46140   55.69540    -999.25   93.84940   93.84940   12.28140   14.42130   19.12460   14.42130    -999.25    -999.25    0.21590    -999.25    0.21590   -3.96780  -15.19740   19.12460
 10000.00000    9.91570    9.30300    9.30300    -999.25   77.79130   12.85490   66.36490   66.36490   49.39370    -999.25   85.92590   85.92590   12.85490   15.10530   20.35770   15.10530    -999.25    -999.25    0.16810    -999.25    0.16810  -14.16880  -26.81450   20.35770
 10050.00000   10.11740    9.22430    9.22430    -999.25   52.62590   19.00210   65.79930   65.79930   47.93210    -999.25   76.88700   76.88700   19.00210   25.58560   19.83350   25.58560    -999.25    -999.25    0.10350    -999.25    0.10350  -22.83080  -36.88550   19.83350
 10100.00000    9.97130    9.13190    9.13190    -999.25   44.87770   22.28280   62.19840   62.19840   40.60160    -999.25   71.36820   71.36820   22.28280   27.06960   37.40940   27.06960    -999.25    -999.25    0.10450    -999.25    0.10450   -2.61560  -18.09350   37.40940
 10150.00000    9.94900    9.17720    9.17720    -999.25    4.71480  212.11750   50.93090   50.93090   19.04910    -999.25   30.53620   30.53620  212.11750 1058.52790  632.93690 1058.52790    -999.25    -999.25    0.03360    -999.25    0.03360  -22.96670  -39.85370  632.93690
 10200.00000   10.13100    9.03400    9.03400    -999.25    7.53910  132.64140   80.04340   80.04340  110.23030   75.48000  174.11870  174.11870  132.64140  615.20560 1177.61150  615.20560 3643.31930 3643.31930    0.13990    -999.25    0.13990  -33.52250  -51.83260 1177.61150
 10250.00000   10.25350    9.15550    9.15550    -999.25    0.69220 1444.64990   49.76690   49.76690    7.41440   14.74100   16.72560   16.72560 1444.64990  499.51250 1396.63960  499.51250 6609.73490 6609.73490    0.01290    -999.25    0.01290  -64.80950  -84.53570 1396.63960
 10300.00000   10.36390    9.15930    9.15930    -999.25    2.00260  502.03290   49.30220   49.30220    8.77650   12.99340   14.01770   14.01770  502.03290  227.20400  441.46460  227.20400 7133.54620 7133.54620    0.01930    -999.25    0.01930  -66.20650  -87.34180  441.46460
 10350.00000   11.36560    9.39540    9.39540    -999.25    0.70730 1413.91190   48.64750   48.64750    8.97260   14.21020   17.22420   17.22420 1413.91190 1486.89100 1668.93910 1486.89100 7078.62230 7078.62230    0.03920    -999.25    0.03920  -43.84090  -66.39930 1668.93910
 10400.00000   11.72520   10.02540   10.02540    -999.25    7.92220  139.58990   48.47250   48.47250   11.66700   17.08500   21.56880   21.56880  139.58990  105.02150 1077.13190  105.02150 5770.64170 5770.64170    0.05770    -999.25    0.05770   -4.78730  -28.75470 1077.13190
 10450.00000   10.08510    9.04940    9.04940    -999.25    0.69320 1442.50710   49.76570   49.76570    7.48970   17.59140   15.74040   15.74040 1442.50710 1050.72860 1666.52840 1050.72860 6651.58840 6651.58840    0.08670    -999.25    0.08670  -78.57460 -103.96520 1666.52840
 10500.00000    9.93060    8.93220    8.93220    -999.25    1.14310  874.81210   63.73240   63.73240   10.86330   13.41050   16.73860   16.73860  874.81210  608.34090 1077.92600  608.34090 4441.15530 4441.15530    0.16320    -999.25    0.16320  -85.69550 -112.50210 1077.92600
 10550.00000    9.47530    8.79720    8.79720    -999.25    8.32550  120.56300   56.46140   56.46140    9.42120   16.61720   18.39680   18.39680  120.56300   99.85860  165.74880   99.85860 4001.41060 4111.46210    0.18630    -999.25    0.18630 -100.03020 -128.24590  165.74880
 10600.00000    -999.25    9.07720    9.07720    -999.25    0.63510 1574.43490   49.77210   49.77210    -999.25   25.21510   15.01000   15.01000 1574.43490 1361.15560 1551.62100 1361.15560 6110.21780 6110.21780    -999.25    -999.25    -999.25 -114.48870 -144.12750 1551.62100
 10650.00000    -999.25    6.69810    6.69810    -999.25    0.69830 1432.06760   49.56820   49.56820    -999.25   22.83620   12.51060   12.51060 1432.06760 1217.73300 1514.12000 1217.73300 11076.33890 11076.33890    -999.25    -999.25    -999.25  -83.49030 -114.53820 1514.12000
 10700.00000    -999.25    6.31390    6.31390    -999.25    7.91020  126.41870   53.05020   53.05020    -999.25   58.65510   70.16440   70.16440  126.41870 1130.16060  755.53720 1130.16060 7333.25490 7333.25490    -999.25    -999.25    -999.25   -5.65090  -38.12190  755.53720
 10750.00000    -999.25    5.78630    5.78630    -999.25  152.12360    6.57360   67.08560   67.08560    -999.25   47.75640   57.10200   47.75640    6.57360    6.94530   58.35040    6.94530 5304.95850 5304.95850    -999.25    -999.25    -999.25  -90.08580 -123.32150   58.35040
 10800.00000    -999.25    6.07440    6.07440    -999.25   23.01590   43.53190   54.13560   54.13560    -999.25   57.72650    -999.25   57.72650   43.53190   75.18950   90.99690   75.18950 9722.46290 9722.46290    -999.25    -999.25    -999.25  -33.67350  -66.90920   90.99690
