~Version ---------------------------------------------------
VERS.      2.0 : CWLS log ASCII Standard -VERSION 2.0
WRAP.       NO : One line per depth step
CREA. 12/07/17 : LAS Creation Date
~Well ------------------------------------------------------
STRT.FT                           800.0 : START DEPTH
STOP.FT                          7200.0 : STOP DEPTH
STEP.FT                        50.00000 : STEP LENGTH
NULL.                           -999.25 : NULL VALUE
COMP.     WESTERN DECALTA PETROLEUM LTD : COMPANY
WELL. DECALTA P.O.R. E. SARAH 4-36-65-7 : WELL
FLD .                                   : FIELD
LOC .                                   : LOCATION
CTRY.                            CANADA : COUNTRY
SRVC.                        Lane Wells : SERVICE COMPANY
DATE.                       20-Jan-1965 : LOGDATE
PROV.                           Alberta : PROVINCE
UWI .                  100043606507W500 : UNIQUE WELL ID
SLAT.WGS84                     54.66307 : SURFACE LATITUDE
SLON.WGS84                    -114.9298 : SURFACE LONGITUDE
~Curve Information -----------------------------------------
DEPT  .FT    : Depth Curve
ACED  .US/F  : ACOUSTIC TIME FROM SONIC LOG [ADJ. TO RESISTIVITY LOG]
CILDED.MMHO  : DEEP INDUCTION CONDUCTIVITY FROM RESISTIVITY LOG [ADJ. TO ILDED]
CONDWS.MMHO  : CONDUCTIVITY [1000/DRESWS]
DRESWS.OHMM  : DEEP RESISTIVITY [1000/CILDED,IF ILDED<3,ILDED]
DTWS  .US/F  : COMPRESSIONAL SONIC [ACED]
GRSED .GAPI  : GAMMA RAY FROM SONIC LOG [ADJ. TO RESISTIVITY LOG]
GRWS  .GAPI  : GAMMA RAY [GRSED]
ILDED .OHMM  : DEEP INDUCTION RESISTIVITY FROM RESISTIVITY LOG
SNED  .OHMM  : 16 INCH  SHORT NORMAL FROM RESISTIVITY LOG
SPRED .MV    : SPONTANEOUS POTENTIAL FROM RESISTIVITY LOG
SPWS  .MV    : SPONTANEOUS POTENTIAL [BASELINE 0MV,SPRED]
SRESWS.OHMM  : SHALLOW RESISTIVITY [SNED]
~Params ----------------------------------------------------
PD  .                     GL : PERMANENT DATUM
EPD .FT               2639.1 : ELEVATION PERMANENT DATUM
LMF .                     KB : LOG MEASURED FROM
DAPD.FT                 12.4 : FEET ABOVE PERMANENT DATUM
DMF .                     KB : DRILLING MEASURED FROM
EKB .FT               2651.5 : KELLY BUSHING
EGL .FT               2639.1 : GROUND LEVEL
DATE.               01/20/65 : RUN DATE
RUN .                      1 : RUN NUMBER
DD  .FT                 7230 : DEPTH DRILLER
DL  .FT                 7234 : DEPTH LOGGER
BLI .FT                 7230 : BOTTOM LOG INTERVAL
TLI .FT                  763 : TOP LOG INTERVAL
CS  .IN                8.625 : CASING SIZE
CBD .FT                  763 : CASING BOTTOM DRILLER
CBL .FT                  763 : CASING BOTTOM LOGGER
BS  .IN                7.875 : BIT SIZE
BSD .FT                 7230 : BIT SIZE AT DEPTH
DFT .                MUD GEL : DRILLING FLUID TYPE
DFD .                    9.7 : DRILLING FLUID DENSITY
DFV .                    105 : DRILLING FLUID VISCOSITY
DFPH.                    8.5 : DRILLING FLUID PH
DFL .                     11 : DRILLING FLUID LOSS
MSS .                   CIRC : MUD SAMPLE SOURCE
RMS .OHMM                2.1 : RESISTIVITY MUD SAMPLE
MST .DEGF                 52 : MUD SAMPLE TEMPERATURE
RMF .OHMM                1.6 : RESISTIVITY MUD FILTRATE SAMPLE
MFST.DEGF                 64 : MUD FILTRATE SAMPLE TEMPERATURE
RMC .OHMM                2.4 : RESISTIVITY MUD CAKE
MCST.DEGF                 52 : MUD CAKE SAMPLE TEMPERATURE
MFSS.                   MEAS : MUD FILTRATE SAMPLE SOURCE
MCSS.                   MEAS : MUD CAKE SAMPLE SOURCE
RMB .OHMM                0.8 : RESISTIVITY MUD AT BHT
TCS .HRS                   4 : TIME CIRCULATED STOPPED
LUN .                   8034 : LOGGING UNIT NUMBER
LUL .                    R D : LOGGING UNIT LOCATION
ENGI.                FADZEAN : RECORDING ENGINEER
WITN.                 HARMAN : WITNESSED BY
CLNT.                A2DTECH : CLIENT CODE
ORIG.            2" 5" PRINT : ORIGIN OF DATA
UWI .       100043606507W500 : UNIQUE WELL ID
DICO. A2D Technologies, Inc. : DIGITIZING COMPANY
~Other -----------------------------------------------------
IEL-ACOUSTIC LOG RUN
~ASCII -----------------------------------------------------
  800.00000    -999.25   83.73170   80.35190   12.45240    -999.25    -999.25    -999.25   12.45240   13.63710  -81.52310  -16.43950   13.63710
  850.00000    -999.25  255.01300  208.37670    4.79900    -999.25    -999.25    -999.25    4.79900    5.39470  -70.71390   -5.63030    5.39470
  900.00000    -999.25  193.78080  159.64820    6.26700    -999.25    -999.25    -999.25    6.26700    7.31590  -71.72530   -6.64170    7.31590
  950.00000    -999.25  347.33780  260.45060    3.83950    -999.25    -999.25    -999.25    3.83950    5.23670  -70.12810   -5.04450    5.23670
 1000.00000    -999.25   52.94050   56.39300   17.73270    -999.25    -999.25    -999.25   17.73270   15.05330  -83.86810  -18.78450   15.05330
 1050.00000    -999.25  306.91370  234.39210    4.26710    -999.25    -999.25    -999.25    4.26710    4.99310  -68.22830   -3.14470    4.99310
 1100.00000    -999.25  234.77270  174.25250    5.73880    -999.25    -999.25    -999.25    5.73880    5.96090  -69.96610   -4.88250    5.96090
 1150.00000    -999.25  251.80330  204.10930    4.90180    -999.25    -999.25    -999.25    4.90180    6.33100  -76.65040  -11.56680    6.33100
 1200.00000    -999.25  139.61640  122.86670    8.13890    -999.25    -999.25    -999.25    8.13890    7.05350  -72.69480   -7.61120    7.05350
 1250.00000    -999.25  145.48810  124.75520    8.01570    -999.25    -999.25    -999.25    8.01570    7.08640  -71.57320   -6.48960    7.08640
 1300.00000    -999.25  211.60740  173.18010    5.77530    -999.25    -999.25    -999.25    5.77530    6.35970  -69.11360   -4.03000    6.35970
 1350.00000    -999.25  252.03910  195.12960    5.12480    -999.25    -999.25    -999.25    5.12480    5.89370  -66.73630   -1.47280    5.89370
 1400.00000    -999.25  141.00270  125.43540    7.97230    -999.25    -999.25    -999.25    7.97230    9.21700  -89.26140  -23.18430    9.21700
 1450.00000    -999.25  290.79910  225.26070    4.43930    -999.25    -999.25    -999.25    4.43930    5.38830  -70.07800   -3.17910    5.38830
 1500.00000    -999.25  161.99480  141.43470    7.07040    -999.25    -999.25    -999.25    7.07040    9.64150  -94.27410  -26.55750    9.64150
 1550.00000    -999.25  196.70510  168.98210    5.91780    -999.25    -999.25    -999.25    5.91780    6.96390  -77.67550   -9.14540    6.96390
 1600.00000    -999.25  365.01720  277.36940    3.60530    -999.25    -999.25    -999.25    3.60530    4.76050  -72.11560   -3.06170    4.76050
 1650.00000    -999.25  280.22440  220.39200    4.53740    -999.25    -999.25    -999.25    4.53740    5.43930  -72.66310   -3.35520    5.43930
 1700.00000    -999.25  320.29160  247.62280    4.03840    -999.25    -999.25    -999.25    4.03840    5.22010  -73.40540   -3.84110    5.22010
 1750.00000    -999.25  207.22580  172.55960    5.79510    -999.25    -999.25    -999.25    5.79510    6.34680  -76.03700   -6.21750    6.34680
 1800.00000    -999.25  213.79870  173.31000    5.77010    -999.25    -999.25    -999.25    5.77010    6.28100  -79.68480   -9.61130    6.28100
 1850.00000    -999.25  277.89700  213.04250    4.69390    -999.25    -999.25    -999.25    4.69390    5.89170  -76.23700   -5.90700    5.89170
 1900.00000    -999.25  156.66680  137.70240    7.26220    -999.25    -999.25    -999.25    7.26220    8.73370  -76.36120   -5.77740    8.73370
 1950.00000    -999.25  142.92260  127.84780    7.82180    -999.25    -999.25    -999.25    7.82180    8.56470  -80.66910   -9.82870    8.56470
 2000.00000    -999.25  223.93220  189.95160    5.26450    -999.25    -999.25    -999.25    5.26450    6.69730  -78.21050   -7.11490    6.69730
 2050.00000    -999.25  129.31380  116.57370    8.58010    -999.25    -999.25    -999.25    8.58010    9.27400  -85.44990  -14.10040    9.27400
 2100.00000    -999.25  169.44340  147.15190    6.79570    -999.25    -999.25    -999.25    6.79570    8.37520  -77.39790   -5.79190    8.37520
 2150.00000    -999.25  167.85430  138.03700    7.24460    -999.25    -999.25    -999.25    7.24460    7.56140  -80.91330   -9.26230    7.56140
 2200.00000    -999.25  176.15800  146.61680    6.82050    -999.25    -999.25    -999.25    6.82050    7.22380  -80.85630   -9.77200    7.22380
 2250.00000    -999.25  198.12540  164.25490    6.08810    -999.25    -999.25    -999.25    6.08810    6.50420  -80.45360   -9.93330    6.50420
 2300.00000    -999.25  166.49060  144.65370    6.91330    -999.25    -999.25    -999.25    6.91330    7.22500  -81.28160  -11.32250    7.22500
 2350.00000    -999.25  219.56420  185.15090    5.40100    -999.25    -999.25    -999.25    5.40100    6.77710  -78.09010   -8.69770    6.77710
 2400.00000    -999.25  223.06740  188.79870    5.29660    -999.25    -999.25    -999.25    5.29660    6.57420  -75.96170   -7.13050    6.57420
 2450.00000    -999.25  200.99950  169.88020    5.88650    -999.25    -999.25    -999.25    5.88650    7.81620  -74.97720   -6.71280    7.81620
 2500.00000    -999.25  183.60550  157.75610    6.33890    -999.25    -999.25    -999.25    6.33890    8.81620  -73.75290   -6.05240    8.81620
 2550.00000    -999.25  143.54060  128.05000    7.81060    -999.25    -999.25    -999.25    7.81060   12.66640  -76.81270   -9.67340   12.66640
 2600.00000    -999.25  251.98090  203.00860    4.92590    -999.25    -999.25    -999.25    4.92590    6.52320  -74.39370   -7.82120    6.52320
 2650.00000    -999.25  185.90670  159.91930    6.25320    -999.25    -999.25    -999.25    6.25320    8.87520  -82.66740  -16.65600    8.87520
 2700.00000    -999.25  250.10770  213.90830    4.67490    -999.25    -999.25    -999.25    4.67490    6.36740  -72.37410   -6.92950    6.36740
 2750.00000    -999.25  141.93190  126.08750    7.93100    -999.25    -999.25    -999.25    7.93100    8.71500  -77.29980  -12.41920    8.71500
 2800.00000    -999.25  262.67260  213.09010    4.69290    -999.25    -999.25    -999.25    4.69290    6.34690  -71.51370   -7.19420    6.34690
 2850.00000    -999.25  249.98290  203.21070    4.92100    -999.25    -999.25    -999.25    4.92100    6.59510  -73.34360   -9.59090    6.59510
 2900.00000    -999.25  357.42090  283.07960    3.53290    -999.25    -999.25    -999.25    3.53290    5.47110  -68.32790   -5.13640    5.47110
 2950.00000    -999.25  510.87810  378.74480    2.64030    -999.25    -999.25    -999.25    2.64030    3.83190  -69.61200   -6.98730    3.83190
 3000.00000    -999.25  325.83330  268.73770    3.72110    -999.25    -999.25    -999.25    3.72110    5.03320  -70.52620   -8.46540    5.03320
 3050.00000    -999.25  385.59140  297.58070    3.36160    -999.25    -999.25    -999.25    3.36160    4.85290  -70.03980   -8.54020    4.85290
 3100.00000    -999.25  316.37410  259.68630    3.85080    -999.25    -999.25    -999.25    3.85080    5.69560  -71.05010  -10.11730    5.69560
 3150.00000    -999.25  872.08850  579.79020    1.72480    -999.25    -999.25    -999.25    1.72480    2.82220  -63.59050   -3.21880    2.82220
 3200.00000    -999.25  251.24680  214.35310    4.66520    -999.25    -999.25    -999.25    4.66520   11.58510 -109.92370  -49.51610   11.58510
 3250.00000    -999.25  247.95230  205.49070    4.86640    -999.25    -999.25    -999.25    4.86640   14.55580  -96.57660  -36.03210   14.55580
 3300.00000    -999.25  232.16560  200.24820    4.99460    -999.25    -999.25    -999.25    4.99460   16.01060 -108.13400  -47.45320   16.01060
 3350.00000    -999.25  123.52490  110.31440    9.06500    -999.25    -999.25    -999.25    9.06500   16.03030  -73.13090  -12.31260   16.03030
 3400.00000    -999.25  255.31120  213.71670    4.67910    -999.25    -999.25    -999.25    4.67910    7.48190  -84.98620  -24.03170    7.48190
 3450.00000    -999.25  311.99490  259.13450    3.85900    -999.25    -999.25    -999.25    3.85900    9.20800 -112.00320  -50.91110    9.20800
 3500.00000    -999.25  254.48970  210.38900    4.75310    -999.25    -999.25    -999.25    4.75310    6.84320  -77.15800  -15.92900    6.84320
 3550.00000    -999.25  260.21100  217.66950    4.59520    -999.25    -999.25    -999.25    4.59520   17.43050 -121.53150  -60.16630   17.43050
