~Version ---------------------------------------------------
VERS.      2.0 : CWLS log ASCII Standard -VERSION 2.0
WRAP.       NO : One line per depth step
CREA. 08/01/17 : LAS Creation Date
~Well ------------------------------------------------------
STRT.FT                          300.0 : START DEPTH
STOP.FT                        13100.0 : STOP DEPTH
STEP.FT                       50.00000 : STEP LENGTH
NULL.                          -999.25 : NULL VALUE
COMP.      ANADARKO CANADA CORPORATION : COMPANY
WELL.      NORCEN ET AL FERR 9-23-40-9 : WELL
FLD .                               WC : FIELD
LOC .                                  : LOCATION
CTRY.                           CANADA : COUNTRY
SRVC. Schlumberger Well Surveying Corp : SERVICE COMPANY
DATE.                      17-Jun-1956 : LOGDATE
PROV.                          Alberta : PROVINCE
UWI .                 102092304009W500 : UNIQUE WELL ID
SLAT.WGS84                    52.45946 : SURFACE LATITUDE
SLON.WGS84                   -115.1788 : SURFACE LONGITUDE
~Curve Information -----------------------------------------
DEPT  .FT     : Depth Curve
CALWS .IN     : CALIPER [MCALED]
CONDWS.MMHO   : CONDUCTIVITY [1000/DRESWS]
DRESWS.OHMM   : DEEP RESISTIVITY [LNED]
GRNED .UR/HR  : GAMMA RAY FROM NEUTRON LOG
GRWS  .GAPI   : GAMMA RAY [GRNED WAS RESCALED FROM 0-15 UR/HR TO 0-150 PSEUDO API UNIT]
LNED  .OHMM   : 64 INCH LONG NORMAL RESISTIVITY FROM EL
LT18ED.OHMM   : LATERAL 18'8" FROM EL
MCALED.IN     : CALIPER FROM MICRO LOG
MINVED.OHMM   : MICROINVERSE RESISTIVITY FROM MICROLOG
MNORED.OHMM   : MICRONORMAL RESISTIVITY FROM MICROLOG
NEUTED.CU     : NEUTRON FROM GAMMA RAY NEUTRON LOG
NEUTWS.CU     : NEUTRON[NEUTED]
SNED  .OHMM   : 16 INCH SHORT NORMAL RESISTIVITY FROM EL
SPMED .MV     : SPONTANEOUS POTENTIAL FROM MICROLOG
SPRED .MV     : SPONTANEOUS POTENTIAL FROM RESISTIVITY LOG
SPWS  .MV     : SPONTANEOUS POTENTIAL [BASELINE 0 MV] [SPRED]
SRESWS.OHMM   : SHALLOW RESISTIVITY [SNED]
~Params ----------------------------------------------------
LMF .                     KB : LOG MEASURED FROM
DMF .                     KB : DRILLING MEASURED FROM
EGL .FT                 3455 : GROUND LEVEL
DATE.               06/17/56 : RUN DATE
RUN .                      5 : RUN NUMBER
DD  .FT                13102 : DEPTH DRILLER
DL  .FT                13103 : DEPTH LOGGER
BLI .FT                13100 : BOTTOM LOG INTERVAL
TLI .FT                11000 : TOP LOG INTERVAL
BS  .IN                    9 : BIT SIZE
BSD .FT                13102 : BIT SIZE AT DEPTH
DFT .              LIME BASE : DRILLING FLUID TYPE
DFD .                   10.9 : DRILLING FLUID DENSITY
DFV .                     98 : DRILLING FLUID VISCOSITY
DFPH.                     13 : DRILLING FLUID PH
DFL .                    4.4 : DRILLING FLUID LOSS
MSS .            CIRCULATION : MUD SAMPLE SOURCE
RMS .OHMM               0.46 : RESISTIVITY MUD SAMPLE
MST .DEGF                 61 : MUD SAMPLE TEMPERATURE
RMF .OHMM               0.21 : RESISTIVITY MUD FILTRATE SAMPLE
MFST.DEGF                 79 : MUD FILTRATE SAMPLE TEMPERATURE
RMC .OHMM               0.74 : RESISTIVITY MUD CAKE
MCST.DEGF                 68 : MUD CAKE SAMPLE TEMPERATURE
TLAB.HRS                   3 : TIME LOGGER AT BOTTOM
LUN .                   1729 : LOGGING UNIT NUMBER
LUL .                     RD : LOGGING UNIT LOCATION
ENGI.                BOSWELL : RECORDING ENGINEER
WITN.                 DUNCAN : WITNESSED BY
CLNT.                A2DTECH : CLIENT CODE
ORIG.       1" 5" 25" PRINT0 : ORIGIN OF DATA
UWI .       102092304009W500 : UNIQUE WELL ID
DICO. A2D Technologies, Inc. : DIGITIZING COMPANY
~Other -----------------------------------------------------
~ASCII -----------------------------------------------------
# ...
 6450.00000    -999.25   66.04980   15.14010    7.21790   72.17900   15.14010   15.60870    -999.25    -999.25    -999.25  119.70080  119.70080   13.61210    -999.25  -31.34250   -7.26600   13.61210
 6500.00000    -999.25   60.18880   16.61440    7.44870   74.48700   16.61440   16.69620    -999.25    -999.25    -999.25  105.39480  105.39480   15.13510    -999.25  -31.16540   -6.93300   15.13510
 6550.00000    -999.25   64.36410   15.53660    7.57690   75.76900   15.53660   17.11270    -999.25    -999.25    -999.25   80.42390   80.42390   14.92490    -999.25  -31.27200   -6.88370   14.92490
 6600.00000    -999.25   59.83830   16.71170    7.80770   78.07700   16.71170   17.93090    -999.25    -999.25    -999.25   86.65830   86.65830   17.32990    -999.25  -31.19930   -6.65510   17.32990
 6650.00000    -999.25   72.60160   13.77380    7.50000   75.00000   13.77380   17.51450    -999.25    -999.25    -999.25  111.59600  111.59600   14.89610    -999.25  -30.35450   -5.65440   14.89610
 6700.00000    -999.25   39.85640   25.09010    8.14820   81.48200   25.09010   17.37450    -999.25    -999.25    -999.25  176.45030  176.45030   23.60320    -999.25  -29.42880   -4.57280   23.60320
 6750.00000    -999.25   35.18230   28.42340    8.08640   80.86400   28.42340   28.20420    -999.25    -999.25    -999.25  140.27430  140.27430   25.62700    -999.25  -29.76880   -4.75690   25.62700
 6800.00000    -999.25   41.96600   23.82880    8.41980   84.19800   23.82880   22.79960    -999.25    -999.25    -999.25  124.66880  124.66880   22.54600    -999.25  -29.57190   -4.40410   22.54600
 6850.00000    -999.25   58.26760   17.16220    7.30770   73.07700   17.16220   21.64630    -999.25    -999.25    -999.25   98.78710   98.78710   16.95500    -999.25  -32.75100   -7.42740   16.95500
 6900.00000    -999.25   57.66250   17.34230    6.72500   67.25000   17.34230   16.21760    -999.25    -999.25    -999.25  105.77720  105.77720   19.49140    -999.25  -33.82430   -8.34480   19.49140
 6950.00000    -999.25  101.02950    9.89810    7.85900   78.59000    9.89810   14.18130    -999.25    -999.25    -999.25   61.72070   61.72070   11.67630    -999.25  -34.54220   -8.90680   11.67630
 7000.00000    -999.25   76.73710   13.03150    6.62500   66.25000   13.03150   10.72940    -999.25    -999.25    -999.25   93.20790   93.20790   13.49100    -999.25  -33.18070   -7.38940   13.49100
 7050.00000    -999.25  104.22530    9.59460    7.16670   71.66700    9.59460   14.13850    -999.25    -999.25    -999.25   93.51620   93.51620   10.68070    -999.25  -31.43840   -5.49120   10.68070
 7100.00000    -999.25   89.15680   11.21620    7.21790   72.17900   11.21620   11.54870    -999.25    -999.25    -999.25  113.25550  113.25550   12.49640    -999.25  -29.62740   -3.52430   12.49640
 7150.00000    -999.25   80.24070   12.46250    6.48750   64.87500   12.46250   13.46380    -999.25    -999.25    -999.25   72.94260   72.94260   14.09380    -999.25  -30.42170   -4.16270   14.09380
 7200.00000    -999.25   99.55200   10.04500    7.42310   74.23100   10.04500   14.44170    -999.25    -999.25    -999.25   55.48630   55.48630   11.84690    -999.25  -29.64440   -3.22950   11.84690
 7250.00000    -999.25   70.36460   14.21170    7.00000   70.00000   14.21170   15.86940    -999.25    -999.25    -999.25   99.33500   99.33500   16.08110    -999.25  -29.78270   -3.21190   16.08110
 7300.00000    -999.25  100.45200    9.95500    7.42310   74.23100    9.95500   14.44100    -999.25    -999.25    -999.25  100.37410  100.37410   11.57660    -999.25  -29.31130   -2.58470   11.57660
 7350.00000    -999.25  147.01990    6.80180    7.51250   75.12500    6.80180    9.01320    -999.25    -999.25    -999.25  177.17500  177.17500    9.35850    -999.25  -30.88100   -3.99850    9.35850
 7400.00000    -999.25  106.41130    9.39750    7.93750   79.37500    9.39750   11.18620    -999.25    3.16530    3.27890  177.60980  177.60980   11.30740  -24.78630  -32.04790   -5.00950   11.30740
 7450.00000    -999.25   82.71640   12.08950    6.28750   62.87500   12.08950    8.25610    -999.25    3.27440    3.66290  201.16700  201.16700   12.29970  -26.40030  -30.17620   -2.98190   12.29970
 7500.00000    -999.25   41.05430   24.35800    6.92500   69.25000   24.35800   46.21740    -999.25    9.15680   10.59160  267.79030  267.79030   28.14440  -27.09290  -31.50850   -4.15830   28.14440
 7550.00000    -999.25   64.96330   15.39330    6.93750   69.37500   15.39330   17.78310    -999.25    4.13050    5.14240  205.05620  205.05620   14.95870  -22.49710  -28.01210   -0.50600   14.95870
 7600.00000    -999.25   13.11980   76.22050    5.33330   53.33300   76.22050   46.41890    -999.25    5.05200    9.19250  338.41310  338.41310   94.87410  -30.46250  -41.33400  -13.67200   94.87410
 7650.00000    -999.25   66.92140   14.94290    7.77500   77.75000   14.94290   15.10680    -999.25    3.90970    4.96200  214.10740  214.10740   13.91890  -25.43950  -32.16360   -4.34570   13.91890
 7700.00000    -999.25   74.88220   13.35430    8.04940   80.49400   13.35430   13.45200    -999.25    -999.25    -999.25   88.54160   88.54160   13.93890    -999.25  -32.76330   -4.78960   13.93890
 7750.00000    -999.25   81.21430   12.31310    7.65390   76.53900   12.31310   16.21220    -999.25    -999.25    -999.25   94.13960   94.13960   13.10420    -999.25  -30.60100   -2.47140   13.10420
 7800.00000    -999.25   86.31400   11.58560    7.83330   78.33300   11.58560   13.61610    -999.25    -999.25    -999.25   67.95510   67.95510   13.02540    -999.25  -29.32730   -1.04180   13.02540
 7850.00000    -999.25   66.26860   15.09010    7.75640   77.56400   15.09010   13.68900    -999.25    -999.25    -999.25   73.44140   73.44140   16.44140    -999.25  -28.06480    0.37660   16.44140
 7900.00000    -999.25   49.00660   20.40540    8.33330   83.33300   20.40540   23.49600    -999.25    -999.25    -999.25  129.05240  129.05240   23.31100    -999.25  -30.55030   -1.95300   23.31100
 7950.00000    -999.25   56.07550   17.83310    7.56410   75.64100   17.83310   16.61470    -999.25    -999.25    -999.25  112.84290  112.84290   19.46360    -999.25  -30.47190   -1.71870   19.46360
 8000.00000    -999.25   62.53520   15.99100    7.37180   73.71800   15.99100   16.94390    -999.25    -999.25    -999.25   74.18950   74.18950   17.82280    -999.25  -33.19350   -4.33540   17.82280
 8050.00000    -999.25   55.08670   18.15320    7.08970   70.89700   18.15320   17.06740    -999.25    -999.25    -999.25   97.98420   97.98420   20.04500    -999.25  -33.73490   -4.77580   20.04500
 8100.00000    -999.25   42.44730   23.55860    6.88750   68.87500   23.55860   19.33260    -999.25    -999.25    -999.25  127.80550  127.80550   25.28890    -999.25  -33.34890   -4.28870   25.28890
 8150.00000    -999.25   85.05720   11.75680    6.96250   69.62500   11.75680   13.75200    -999.25    -999.25    -999.25   67.95510   67.95510   12.97080    -999.25  -35.16650   -6.00530   12.97080
 8200.00000    -999.25   76.49650   13.07250    7.02560   70.25600   13.07250   11.37530    -999.25    -999.25    -999.25   36.93160   36.93160   14.64730    -999.25  -38.36040   -9.09810   14.64730
 8250.00000    -999.25   48.05200   20.81080    9.29490   92.94900   20.81080   15.01510    -999.25    -999.25    -999.25   62.03240   62.03240   21.34420    -999.25  -34.66510   -5.30180   21.34420
 8300.00000    -999.25   77.80530   12.85260    8.14820   81.48200   12.85260   14.26720    -999.25    -999.25    -999.25   55.48630   55.48630   14.93610    -999.25  -33.22930   -3.76490   14.93610
 8350.00000    -999.25   85.81480   11.65300    7.23080   72.30800   11.65300   10.14390    -999.25    -999.25    -999.25   52.99250   52.99250   13.68560    -999.25  -35.41930   -5.85390   13.68560
 8400.00000    -999.25   87.20300   11.46750    8.62960   86.29600   11.46750    9.08560    -999.25    -999.25    -999.25   89.09540   89.09540   11.84690    -999.25  -36.31050   -6.64400   11.84690
 8450.00000    -999.25  189.74250    5.27030    6.48750   64.87500    5.27030    7.75710    -999.25    -999.25    -999.25   51.97230   51.97230    5.94270    -999.25  -35.85880   -6.77200    5.94270
