~Version ---------------------------------------------------
VERS.      2.0 : CWLS log ASCII Standard -VERSION 2.0
WRAP.       NO : One line per depth step
CREA. 10/12/17 : LAS Creation Date
~Well ------------------------------------------------------
STRT.FT                      1050.0 : START DEPTH
STOP.FT                      9550.0 : STOP DEPTH
STEP.FT                    50.00000 : STEP LENGTH
NULL.                       -999.25 : NULL VALUE
COMP. GOLDEN EAGLE REFINING COMPANY : COMPANY
WELL. GREC GOA SAKWATAMAU 6-1-63-15 : WELL
FLD .                            WC : FIELD
LOC .                               : LOCATION
CTRY.                        CANADA : COUNTRY
SRVC.                  Schlumberger : SERVICE COMPANY
DATE.                   08-Dec-1970 : LOGDATE
PROV.                       Alberta : PROVINCE
UWI .              100060106315W500 : UNIQUE WELL ID
SLAT.WGS84                 54.41837 : SURFACE LATITUDE
SLON.WGS84                -116.1336 : SURFACE LONGITUDE
~Curve Information -----------------------------------------
DEPT  .FT    : Depth Curve
CALSED.IN    : CALIPER FROM SONIC LOG [ADJ. TO RESISTIVITY LOG]
CALWS .IN    : CALIPER [CALSED]
CONDWS.MMHO  : CONDUCTIVITY [1000/DRESWS]
DRESWS.OHMM  : DEEP RESISTIVITY [ILDED]
DTED  .US/F  : DELTA TIME FROM SONIC LOG [ADJ. TO RESISTIVITY LOG]
DTWS  .US/F  : COMPRESSIONAL SONIC [DTED]
GRSED .GAPI  : GAMMA RAY FROM SONIC LOG [ADJ. TO RESISTIVITY LOG]
GRWS  .GAPI  : GAMMA RAY [GRSED]
ILDED .OHMM  : DEEP INDUCTION FROM RESISTIVITY LOG
ILMED .OHMM  : MEDIUM INDUCTION FROM RESISTIVITY LOG
LL8ED .OHMM  : LATEROLOG 8 FROM  RESISTIVITY LOG
MRESWS.OHMM  : MEDIUM RESISTIVITY [ILMED]
SPRED .MV    : SPONTANEOUS POTENTIAL FROM RESISTIVITY LOG
SPWS  .MV    : SPONTANEOUS POTENTIAL [BASELINE 0 MV. SPRED]
SRESWS.OHMM  : SHALLOW RESISTIVITY [LL8ED]
~Params ----------------------------------------------------
PD  .                     GL : PERMANENT DATUM
EPD .FT                 2985 : ELEVATION PERMANENT DATUM
LMF .                     KB : LOG MEASURED FROM
DAPD.FT                   14 : FEET ABOVE PERMANENT DATUM
EKB .FT                 2999 : KELLY BUSHING
EGL .FT                 2985 : GROUND LEVEL
DATE.               12/08/70 : RUN DATE
RUN .                      1 : RUN NUMBER
DD  .FT                 9566 : DEPTH DRILLER
DL  .FT                 9567 : DEPTH LOGGER
BLI .FT                 9559 : BOTTOM LOG INTERVAL
TLI .FT                 1035 : TOP LOG INTERVAL
CBD .FT                 1035 : CASING BOTTOM DRILLER
CBL .FT                 1035 : CASING BOTTOM LOGGER
BS  .IN                7.875 : BIT SIZE
BSD .FT                 9566 : BIT SIZE AT DEPTH
DFT .                    GEL : DRILLING FLUID TYPE
DFD .                      9 : DRILLING FLUID DENSITY
DFV .                    115 : DRILLING FLUID VISCOSITY
DFPH.                     10 : DRILLING FLUID PH
DFL .                   11.5 : DRILLING FLUID LOSS
MSS .               FLOWLINE : MUD SAMPLE SOURCE
RMS .OHMM               6.04 : RESISTIVITY MUD SAMPLE
MST .DEGF                 70 : MUD SAMPLE TEMPERATURE
RMF .OHMM               5.75 : RESISTIVITY MUD FILTRATE SAMPLE
MFST.DEGF                 62 : MUD FILTRATE SAMPLE TEMPERATURE
RMB .OHMM               2.15 : RESISTIVITY MUD AT BHT
TCS .HRS                   3 : TIME CIRCULATED STOPPED
LUN .                   7002 : LOGGING UNIT NUMBER
LUL .                     RD : LOGGING UNIT LOCATION
ENGI.                 TALBOT : RECORDING ENGINEER
WITN.               DUCHARME : WITNESSED BY
CLNT.                A2DTECH : CLIENT CODE
ORIG.        2" 5" 10" PRINT : ORIGIN OF DATA
UWI .       100060106315W500 : UNIQUE WELL ID
DICO. A2D Technologies, Inc. : DIGITIZING COMPANY
~Other -----------------------------------------------------
DIL-BHC LOG RAN
~ASCII -----------------------------------------------------
# ...
 5650.00000    9.50570    9.50570   27.83770   35.99080   62.44570   62.44570   40.37100   40.37100   35.99080   41.51180   74.65310   41.51180  -62.35620  -19.16250   74.65310
 5700.00000   15.13860   15.13860  475.85060    2.10150   99.57180   99.57180   82.02380   82.02380    2.10150    2.33380    3.75790    2.33380  -47.91520   -5.30040    3.75790
 5750.00000    9.72550    9.72550  148.46930    6.73540   83.09680   83.09680   84.33170   84.33170    6.73540    7.55140   12.76420    7.55140  -48.66440   -6.62460   12.76420
 5800.00000   11.57030   11.57030  213.72120    4.68140  116.38490  116.38490   90.09770   90.09770    4.68140    5.06090    7.47100    5.06090  -47.88000   -6.41530    7.47100
 5850.00000   10.80480   10.80480  201.87750    4.95350   90.29070   90.29070   88.60510   88.60510    4.95350    5.32530    8.55760    5.32530  -50.05610   -9.17020    8.55760
 5900.00000    8.24700    8.24700    5.13210  195.02120   58.79790   58.79790   29.84770   29.84770  195.02120  216.47440  389.98280  216.47440  -79.37320  -39.06230  389.98280
 5950.00000    8.45950    8.45950    4.64870  215.11550   70.25050   70.25050  251.29950  251.29950  215.11550  400.23400 1379.72400  400.23400 -110.27820  -70.54610 1379.72400
 6000.00000    8.80660    8.80660  100.29890    9.97020   62.23040   62.23040   47.06910   47.06910    9.97020   11.60430   15.46240   11.60430  -89.52290  -50.36590   15.46240
 6050.00000    8.70320    8.70320   29.25680   34.21990   51.94460   51.94460   13.66090   13.66090   34.21990   42.55450  398.19450   42.55450  -99.81320  -61.23120  398.19450
 6100.00000    8.61310    8.61310   42.56420   23.49390   54.75620   54.75620   27.76320   27.76320   23.49390   29.89980  248.72060   29.89980  -91.41240  -53.40930  248.72060
 6150.00000    8.04080    8.04080   61.46840   16.27100   52.90070   52.90070   11.65670   11.65670   16.27100   26.19220  402.34890   26.19220 -199.97710 -162.54900  402.34890
 6200.00000    8.45920    8.45920   36.05370   27.73640   52.96150   52.96150   15.46260   15.46260   27.73640   42.86820  689.82350   42.86820    -999.25    -999.25  689.82350
 6250.00000    8.68040    8.68040   28.48480   35.10640   50.13330   50.13330   14.56210   14.56210   35.10640   61.57920  268.52540   61.57920 -143.07230 -106.79810  268.52540
 6300.00000    8.64540    8.64540   56.81520   17.63170   55.20820   55.20820   38.77440   38.77440   17.63170   18.70410   60.96460   18.70410  -87.15490  -51.45570   60.96460
 6350.00000    8.31270    8.31270  254.74460    3.92550   79.97210   79.97210   81.53850   81.53850    3.92550    4.75750    8.37180    4.75750  -86.43730  -51.31690    8.37180
 6400.00000    8.83510    8.83510   69.46920   14.42310   53.74680   53.74680   48.34630   48.34630   14.42310   17.43640   39.01320   17.43640  -62.18000  -27.63470   39.01320
 6450.00000    8.40420    8.40420   17.26180   57.93130   54.21280   54.21280   21.71290   21.71290   57.93130   64.21520   72.38280   64.21520  -85.80370  -51.83720   72.38280
 6500.00000    8.24510    8.24510   35.93400   27.82880   56.33780   56.33780   22.49940   22.49940   27.82880   30.27730   38.15090   30.27730  -94.26970  -60.87820   38.15090
 6550.00000    8.33380    8.33380   26.01610   38.47050   55.89640   55.89640   15.65310   15.65310   38.47050   40.48340   54.49380   40.48340  -88.73200  -55.91560   54.49380
 6600.00000    8.51710    8.51710   26.91280   37.15700   53.96320   53.96320   17.14820   17.14820   37.15700   40.24540   67.71040   40.24540 -126.11390  -93.87630   67.71040
 6650.00000    8.02650    8.02650    6.60440  151.41970   53.81380   53.81380   26.26370   26.26370  151.41970  159.91890  185.79350  159.91890  -72.66640  -41.00380  185.79350
 6700.00000    7.84980    7.84980   16.12760   62.00550   55.55940   55.55940   32.69200   32.69200   62.00550   66.63040   84.55410   66.63040  -68.22340  -37.13970   84.55410
 6750.00000    8.17840    8.17840   17.06270   58.60720   54.70650   54.70650   33.81370   33.81370   58.60720   63.28300   85.59690   63.28300  -69.87960  -39.37090   85.59690
 6800.00000    9.04260    9.04260   45.26010   22.09460   84.29200   84.29200  203.90510  203.90510   22.09460   25.29350   29.34100   25.29350  -46.58720  -16.63050   29.34100
 6850.00000    8.40600    8.40600   44.58850   22.42730   78.58950   78.58950  242.75210  242.75210   22.42730   25.30540   63.22140   25.30540  -45.00960  -14.45670   63.22140
 6900.00000    8.51240    8.51240    6.99630  142.93260   72.81950   72.81950   13.69430   13.69430  142.93260  134.52400  174.97900  134.52400 -146.28930 -115.14410  174.97900
 6950.00000    8.58930    8.58930    1.01430  985.93180   49.43330   49.43330   14.75540   14.75540  985.93180  610.88030 1353.94820  610.88030 -117.02890  -85.28760 1353.94820
 7000.00000    8.48390    8.48390    4.87460  205.14460   50.12960   50.12960   14.10010   14.10010  205.14460  241.32430  275.75490  241.32430 -150.96410 -118.63050  275.75490
 7050.00000    8.61740    8.61740    4.34900  232.79140   49.23110   49.23110   10.70490   10.70490  232.79140  275.05000  939.82470  275.05000 -158.04830 -125.12240  939.82470
 7100.00000    8.34450    8.34450    2.96510  337.25460   49.30770   49.30770   13.47620   13.47620  337.25460  421.34890 1289.80540  421.34890 -145.30970 -111.78760 1289.80540
 7150.00000    7.99340    7.99340   35.38760   28.26350   56.79490   56.79490   12.70170   12.70170   28.26350   60.79540  616.56820   60.79540 -193.43070 -159.31630  616.56820
 7200.00000    7.77880    7.77880   32.55210   30.72000   54.25770   54.25770   10.89000   10.89000   30.72000   47.38770  427.58080   47.38770 -194.53930 -159.82870  427.58080
 7250.00000    8.33990    8.33990   13.07690   76.47100   44.80660   44.80660   10.39100   10.39100   76.47100   86.68220  155.91450   86.68220 -167.30940 -132.00650  155.91450
 7300.00000    8.41240    8.41240    1.94060  519.22040   49.10150   49.10150   13.92730   13.92730  519.22040  417.15540  581.41600  417.15540 -143.93440 -108.03920  581.41600
 7350.00000    8.40600    8.40600    7.87350  127.00850   50.25410   50.25410   12.97620   12.97620  127.00850  143.13470  162.65550  143.13470 -150.66360 -114.17230  162.65550
 7400.00000    8.40840    8.40840    2.88980  346.24000   47.96670   47.96670   10.65700   10.65700  346.24000  379.59700  468.48560  379.59700 -147.30300 -110.21940  468.48560
 7450.00000    8.53630    8.53630   27.17140   36.80340   50.18440   50.18440   10.09530   10.09530   36.80340   51.27500  861.83300   51.27500 -168.53420 -130.85440  861.83300
 7500.00000    8.40850    8.40850   17.86130   55.98710   47.93360   47.93360   11.02250   11.02250   55.98710   96.99400 1061.93290   96.99400 -192.44990 -154.17780 1061.93290
 7550.00000    7.78650    7.78650   23.13090   43.23520   53.71890   53.71890   18.32390   18.32390   43.23520   66.77680 1051.46270   66.77680 -174.85710 -135.99270 1051.46270
 7600.00000    8.29050    8.29050   11.98510   83.43690   48.67220   48.67220   21.34290   21.34290   83.43690  112.90640  584.25350  112.90640 -126.43620  -86.97560  584.25350
 7650.00000    8.52000    8.52000    9.29560  107.95270   49.64460   49.64460    9.81530    9.81530  107.95270  163.56490 1419.04320  163.56490  -93.81970  -53.76680 1419.04320
 7700.00000    8.19750    8.19750    6.05160  165.24470   48.77740   48.77740   18.75440   18.75440  165.24470  150.98540  401.04870  150.98540 -136.78100  -96.13200  401.04870
 7750.00000    8.25340    8.25340   13.26720   75.37370   49.54360   49.54360   19.68860   19.68860   75.37370  100.87740  164.13200  100.87740 -108.57610  -67.33480  164.13200
 7800.00000    8.22210    8.22210   60.75510   16.49730   51.37880   51.37880   26.17800   26.17800   16.49730   17.94680   27.26930   17.94680 -105.29250  -63.45890   27.26930
 7850.00000    8.31630    8.31630   19.35060   51.67810   53.90260   53.90260   34.98760   34.98760   51.67810   57.16480   76.47710   57.16480  -51.40590   -8.97610   76.47710
 7900.00000    8.30630    8.30630   11.79040   84.82120   53.72010   53.72010   30.72260   30.72260   84.82120   92.89790  131.39270   92.89790  -47.80110   -4.77900  131.39270
