~Version ---------------------------------------------------
VERS.      2.0 : CWLS log ASCII Standard -VERSION 2.0
WRAP.       NO : One line per depth step
CREA. 12/29/17 : LAS Creation Date
~Well ------------------------------------------------------
STRT.FT                     1350.0 : START DEPTH
STOP.FT                    12700.0 : STOP DEPTH
STEP.FT                   50.00000 : STEP LENGTH
NULL.                      -999.25 : NULL VALUE
COMP. TRANS-PRAIRIES PIPELINES LTD : COMPANY
WELL. TPPL DEEP VALLEY 11-21-64-25 : WELL
FLD .                              : FIELD
LOC .                              : LOCATION
CTRY.                       CANADA : COUNTRY
SRVC.                 Schlumberger : SERVICE COMPANY
DATE.                  04-Jan-1974 : LOGDATE
PROV.                      Alberta : PROVINCE
UWI .             100112106425W500 : UNIQUE WELL ID
SLAT.WGS84                54.55513 : SURFACE LATITUDE
SLON.WGS84               -117.7228 : SURFACE LONGITUDE
~Curve Information -----------------------------------------
DEPT    .FT    : Depth Curve
CALDED  .IN    : CALIPER FROM DENSITY LOG [ADJ. TO RESISTIVITY LOG]
CALSED  .IN    : CALIPER FROM SONIC LOG [ADJ. TO RESISTIVITY LOG]
CALWS   .IN    : CALIPER [CALSED]
CILDED  .MMHO  : CONDUCTIVITY FROM RESISTIVITY LOG
CONDWS  .MMHO  : CONDUCTIVITY [1000/DRESWS]
DCORWS  .G/C3  : DENSITY CORRECTION [DRHOED]
DENWS   .G/C3  : FORMATION BULK DENSITY [RHOBED]
DPHILSED.V/V   : DENSITY POROSITY LIMESTONE [M=2.71 F=1.00] FROM DENSITY LOG [ADJ. TO RHOBED/RESISTIVITY LOG]
DPHISSED.V/V   : DENSITY POROSITY SANDSTONE [M=2.65 F=1.00] FROM DENSITY LOG [ADJ. TO RHOBED/RESISTIVITY LOG]
DPOLSWS .V/V   : DENSITY POROSITY LIMESTONE [CALC FROM DENWS,M=2.71 F=1.00]
DRESWS  .OHMM  : DEEP RESISTIVITY [1000/CILDED IF ILDED<=5, ILDED]
DRHOED  .G/C3  : DENSITY CORRECTION FROM DENSITY LOG [ADJ. TO RESISTIVITY LOG]
DTED    .US/F  : DELTA T FROM SONIC LOG [ADJ. TO RESISTIVITY LOG]
DTWS    .US/F  : COMPRESSIONAL SONIC [DTED]
GRDED   .GAPI  : GAMMA RAY FROM DENSITY LOG [ADJ. TO RESISTIVITY LOG]
GRSED   .GAPI  : GAMMA RAY FROM SONIC LOG [ADJ. TO RESISTIVITY LOG]
GRWS    .GAPI  : GAMMA RAY [GRSED SPL. TO GRDED @ 7211']
ILDED   .OHMM  : DEEP INDUCTION FROM RESISTIVITY LOG
NPHILSED.V/V   : NEUTRON POROSITY LIMESTONE FROM DENSITY LOG [ADJ. TO RHOBED/RESISTIVITY LOG]
NPHISSED.V/V   : NEUTRON POROSITY SANDSTONE FROM DENSITY LOG [ADJ. TO RHOBED/RESISTIVITY LOG]
NPOLSWS .V/V   : NEUTRON POROSITY LIMESTONE [NPHISSED CONVERTED TO LIMESTONE MATRIX, SPL. TO NPHILSED @ 7065']
RHOBED  .G/C3  : BULK DENSITY FROM DENSITY LOG [ADJ. TO RESISTIVITY LOG]
SNED    .OHMM  : SHORT NORMAL FROM RESISTIVITY LOG
SPRED   .MV    : SPONTANEOUS POTENTIAL FROM RESISTIVITY LOG
SPWS    .MV    : SPONATENOUS POTENTIAL [BASELINE 0 MV, SPRED]
SRESWS  .OHMM  : SHALLOW RESISTIVITY [SNED]
~Params ----------------------------------------------------
PD  .                     GL : PERMANENT DATUM
EPD .FT                 2726 : ELEVATION PERMANENT DATUM
LMF .                     KB : LOG MEASURED FROM
DAPD.FT                   22 : FEET ABOVE PERMANENT DATUM
EKB .FT                 2748 : KELLY BUSHING
EDF .FT                 2726 : DRILLING FLOOR
DATE.               01/04/74 : RUN DATE
RUN .                      3 : RUN NUMBER
DD  .FT                12720 : DEPTH DRILLER
DL  .FT                12719 : DEPTH LOGGER
BLI .FT                12713 : BOTTOM LOG INTERVAL
TLI .FT                11088 : TOP LOG INTERVAL
CBD .FT                 1313 : CASING BOTTOM DRILLER
CBL .FT                 1314 : CASING BOTTOM LOGGER
BS  .IN                 8.75 : BIT SIZE
BSD .FT                12720 : BIT SIZE AT DEPTH
DFT .               GEL CHEM : DRILLING FLUID TYPE
DFD .                    9.6 : DRILLING FLUID DENSITY
DFV .                     97 : DRILLING FLUID VISCOSITY
DFL .                   10.9 : DRILLING FLUID LOSS
RMS .OHMM               2.08 : RESISTIVITY MUD SAMPLE
MST .DEGF                 50 : MUD SAMPLE TEMPERATURE
RMF .OHMM               1.51 : RESISTIVITY MUD FILTRATE SAMPLE
MFST.DEGF                 58 : MUD FILTRATE SAMPLE TEMPERATURE
RMC .OHMM               2.27 : RESISTIVITY MUD CAKE
MCST.DEGF                 52 : MUD CAKE SAMPLE TEMPERATURE
TCS .HRS                 2.5 : TIME CIRCULATED STOPPED
LUN .                   7691 : LOGGING UNIT NUMBER
LUL .                    EDM : LOGGING UNIT LOCATION
ENGI.                  LEITH : RECORDING ENGINEER
WITN.        SLOAN MCDONNELL : WITNESSED BY
CLNT.                A2DTECH : CLIENT CODE
ORIG.            2" 5" PRINT : ORIGIN OF DATA
UWI .       100112106425W500 : UNIQUE WELL ID
DICO. A2D Technologies, Inc. : DIGITIZING COMPANY
~Other -----------------------------------------------------
CNFD-IEL-BCS LOG RAN.
RUN#2: FDC ONLY TO 11088' & CNL ONLY TO 11650'
~ASCII -----------------------------------------------------
# ...
 5400.00000    -999.25    9.74600    9.74600   91.73630   95.73590    -999.25    -999.25    -999.25    -999.25    -999.25   10.44540    -999.25   79.05650   79.05650    -999.25  101.40990  101.40990   10.44540    -999.25    -999.25    -999.25    -999.25   13.47860  -24.57120   -4.74810   13.47860
 5450.00000    -999.25    9.48770    9.48770   97.29890  100.93870    -999.25    -999.25    -999.25    -999.25    -999.25    9.90700    -999.25   81.14180   81.14180    -999.25  108.26380  108.26380    9.90700    -999.25    -999.25    -999.25    -999.25   13.21280  -23.27620   -4.13490   13.21280
 5500.00000    -999.25   10.11810   10.11810  236.26240  236.26240    -999.25    -999.25    -999.25    -999.25    -999.25    4.23260    -999.25   95.26660   95.26660    -999.25  119.48500  119.48500    4.26160    -999.25    -999.25    -999.25    -999.25    5.93540  -22.19710   -3.73320    5.93540
 5550.00000    -999.25   10.39510   10.39510  274.42040  274.42040    -999.25    -999.25    -999.25    -999.25    -999.25    3.64400    -999.25   96.28640   96.28640    -999.25   95.70880   95.70880    3.65880    -999.25    -999.25    -999.25    -999.25    5.40080  -21.71310   -3.92660    5.40080
 5600.00000    -999.25   10.88230   10.88230  268.67730  268.67730    -999.25    -999.25    -999.25    -999.25    -999.25    3.72190    -999.25   99.89360   99.89360    -999.25  104.11040  104.11040    3.59310    -999.25    -999.25    -999.25    -999.25    5.01110  -22.01630   -4.91160    5.01110
 5650.00000    -999.25    9.91160    9.91160  143.42200  148.09550    -999.25    -999.25    -999.25    -999.25    -999.25    6.75240    -999.25   82.73460   82.73460    -999.25  102.75800  102.75800    6.75240    -999.25    -999.25    -999.25    -999.25    9.25460  -19.94600   -3.51870    9.25460
 5700.00000    -999.25    9.65570    9.65570   81.59530   84.97040    -999.25    -999.25    -999.25    -999.25    -999.25   11.76880    -999.25   76.28990   76.28990    -999.25  102.32420  102.32420   11.76880    -999.25    -999.25    -999.25    -999.25   16.42800  -21.78370   -6.03830   16.42800
 5750.00000    -999.25    9.32710    9.32710   52.32520   54.30530    -999.25    -999.25    -999.25    -999.25    -999.25   18.41440    -999.25   71.03700   71.03700    -999.25   89.93110   89.93110   18.41440    -999.25    -999.25    -999.25    -999.25   25.58410  -21.79320   -6.72240   25.58410
 5800.00000    -999.25    9.15770    9.15770   37.89160   38.61090    -999.25    -999.25    -999.25    -999.25    -999.25   25.89940    -999.25   72.98850   72.98850    -999.25   70.71440   70.71440   25.89940    -999.25    -999.25    -999.25    -999.25   37.08900  -28.89550  -14.08700   37.08900
 5850.00000    -999.25    9.00450    9.00450   58.56800   61.79930    -999.25    -999.25    -999.25    -999.25    -999.25   16.18140    -999.25   77.35390   77.35390    -999.25   49.49830   49.49830   16.18140    -999.25    -999.25    -999.25    -999.25   28.32380  -47.80930  -33.26480   28.32380
 5900.00000    -999.25    9.44630    9.44630   63.28010   66.94430    -999.25    -999.25    -999.25    -999.25    -999.25   14.93780    -999.25   72.04930   72.04930    -999.25   85.49600   85.49600   14.93780    -999.25    -999.25    -999.25    -999.25   22.00150  -21.54730   -7.26500   22.00150
 5950.00000    -999.25    9.40190    9.40190   79.29360   82.32960    -999.25    -999.25    -999.25    -999.25    -999.25   12.14630    -999.25   73.19970   73.19970    -999.25   85.24710   85.24710   12.14630    -999.25    -999.25    -999.25    -999.25   20.68860  -21.24510   -7.22680   20.68860
 6000.00000    -999.25    9.56600    9.56600   91.23650   95.80560    -999.25    -999.25    -999.25    -999.25    -999.25   10.43780    -999.25   73.60680   73.60680    -999.25   76.11630   76.11630   10.43780    -999.25    -999.25    -999.25    -999.25   15.13080  -20.04860   -6.29250   15.13080
 6050.00000    -999.25    9.78890    9.78890  101.09750  116.41710    -999.25    -999.25    -999.25    -999.25    -999.25    8.58980    -999.25   81.74480   81.74480    -999.25   95.82980   95.82980    8.58980    -999.25    -999.25    -999.25    -999.25   17.46490  -21.30330   -7.80950   17.46490
 6100.00000    -999.25    9.64370    9.64370   92.91130   96.11320    -999.25    -999.25    -999.25    -999.25    -999.25   10.40440    -999.25   77.60760   77.60760    -999.25   96.81190   96.81190   10.40440    -999.25    -999.25    -999.25    -999.25   18.27030  -18.89710   -5.66730   18.27030
 6150.00000    -999.25    9.37730    9.37730   48.07700   50.31190    -999.25    -999.25    -999.25    -999.25    -999.25   19.87600    -999.25   72.14430   72.14430    -999.25   71.22370   71.22370   19.87600    -999.25    -999.25    -999.25    -999.25   28.14110  -22.15340   -9.18580   28.14110
 6200.00000    -999.25    9.37300    9.37300   79.57290   83.43620    -999.25    -999.25    -999.25    -999.25    -999.25   11.98520    -999.25   73.18810   73.18810    -999.25   84.88660   84.88660   11.98520    -999.25    -999.25    -999.25    -999.25   16.94280  -20.52380   -7.82020   16.94280
 6250.00000    -999.25    9.66090    9.66090   75.80100   79.51270    -999.25    -999.25    -999.25    -999.25    -999.25   12.57660    -999.25   78.41980   78.41980    -999.25   99.50450   99.50450   12.57660    -999.25    -999.25    -999.25    -999.25   19.41790  -21.40220   -8.96080   19.41790
 6300.00000    -999.25    9.87260    9.87260   16.70090   15.21870    -999.25    -999.25    -999.25    -999.25    -999.25   65.70850    -999.25  121.70740  121.70740    -999.25   27.49500   27.49500   65.70850    -999.25    -999.25    -999.25    -999.25  116.77820  -25.42020  -13.24110  116.77820
 6350.00000    -999.25    9.32380    9.32380   65.99180   70.59700    -999.25    -999.25    -999.25    -999.25    -999.25   14.16490    -999.25   63.72240   63.72240    -999.25   59.56760   59.56760   14.16490    -999.25    -999.25    -999.25    -999.25   26.84180  -44.57400  -32.65890   26.84180
 6400.00000    -999.25    9.45860    9.45860   59.55880   62.19140    -999.25    -999.25    -999.25    -999.25    -999.25   16.07940    -999.25   69.57340   69.57340    -999.25   77.50440   77.50440   16.07940    -999.25    -999.25    -999.25    -999.25   24.87750  -19.57530   -7.92240   24.87750
 6450.00000    -999.25    9.67820    9.67820   94.62130   98.37480    -999.25    -999.25    -999.25    -999.25    -999.25   10.16520    -999.25   75.91810   75.91810    -999.25   76.97870   76.97870   10.16520    -999.25    -999.25    -999.25    -999.25   15.64610  -17.48960   -6.21750   15.64610
 6500.00000    -999.25    9.39920    9.39920   69.93770   72.54530    -999.25    -999.25    -999.25    -999.25    -999.25   13.78450    -999.25   70.09750   70.09750    -999.25   66.92940   66.92940   13.78450    -999.25    -999.25    -999.25    -999.25   19.05520  -28.13270  -17.63010   19.05520
 6550.00000    -999.25    9.19140    9.19140   77.58950   79.93990    -999.25    -999.25    -999.25    -999.25    -999.25   12.50940    -999.25   74.94000   74.94000    -999.25   57.14370   57.14370   12.50940    -999.25    -999.25    -999.25    -999.25   29.26090  -51.99060  -42.25750   29.26090
 6600.00000    -999.25    9.46510    9.46510   78.41170   81.33850    -999.25    -999.25    -999.25    -999.25    -999.25   12.29430    -999.25   73.45300   73.45300    -999.25   60.80920   60.80920   12.29430    -999.25    -999.25    -999.25    -999.25   22.12110  -38.39850  -29.44000   22.12110
 6650.00000    -999.25    9.36340    9.36340   38.81680   39.44770    -999.25    -999.25    -999.25    -999.25    -999.25   25.35000    -999.25   59.66110   59.66110    -999.25   52.18600   52.18600   25.35000    -999.25    -999.25    -999.25    -999.25   46.49830  -16.02000   -7.83110   46.49830
 6700.00000    -999.25    9.51260    9.51260   75.26700   78.68440    -999.25    -999.25    -999.25    -999.25    -999.25   12.70900    -999.25   74.59320   74.59320    -999.25  101.15030  101.15030   12.70900    -999.25    -999.25    -999.25    -999.25   19.46940  -14.54720   -7.13290   19.46940
