~Version ---------------------------------------------------
VERS.      2.0 : CWLS log ASCII Standard -VERSION 2.0
WRAP.       NO : One line per depth step
CREA. 09/09/14 : LAS Creation Date
~Well ------------------------------------------------------
STRT.FT                            1500.0 : START DEPTH
STOP.FT                           10450.0 : STOP DEPTH
STEP.FT                          50.00000 : STEP LENGTH
NULL.                             -999.25 : NULL VALUE
COMP.                CHEVRON STANDARD LTD : COMPANY
WELL. CHEVRON ET AL HEAVYSOUND 3-25-61-17 : WELL
FLD .                                     : FIELD
LOC .                                     : LOCATION
CTRY.                              CANADA : COUNTRY
SRVC.                        Schlumberger : SERVICE COMPANY
DATE.                         27-Nov-1977 : LOGDATE
PROV.                             Alberta : PROVINCE
UWI .                    100032506117W500 : UNIQUE WELL ID
SLAT.WGS84                       54.30091 : SURFACE LATITUDE
SLON.WGS84                       -116.419 : SURFACE LONGITUDE
~Curve Information -----------------------------------------
DEPT   .FT    : Depth Curve
CALD   .IN    : CALIPER FROM DENSITY LOG
CALS   .IN    : CALIPER FROM SONIC LOG
DPHI_LS.DEC   : DENSITY POROSITY LIMESTONE FROM DENSITY LOG
DPHI_SS.DEC   : DENSITY POROSITY SANDSTONE FROM DENSITY LOG
DRHO   .G/C3  : BULK DENSITY CORRECTION FROM DENSITY LOG
DT     .US/F  : DELTA-T (INTERVAL TRANSIT TIME)
GRD    .GAPI  : GAMMA RAY FROM DENSITY LOG
GRN    .CU    : GAMMA RAY FROM GRN LOG
GRS    .GAPI  : GAMMA RAY FROM SONIC LOG
ILD    .OHMM  : INDUCTION DEEP RESISTIVITY
ILM    .OHMM  : INDUCTION MEDIUM RESISTIVITY
LL8    .OHMM  : LATEROLOG 8
NEUT   .CU    : NEUTRON FROM GRN LOG
NPHI_LS.DEC   : NEUTRON POROSITY LIMESTONE FROM DENSITY LOG
NPHI_SS.DEC   : NEUTRON POROSITY SANDSTONE FROM DENSITY LOG
RHOB   .G/C3  : BULK DENSITY FROM DENSITY LOG
SPR    .MV    : SPONTANEOUS POTENTIAL FROM RESISTIVITY LOG
TEND   .LBF   : TENSION FROM DENSITY LOG
TENS   .LBF   : TENSION FROM SONIC LOG
~Params ----------------------------------------------------
PD  .                     GL : PERMANENT DATUM
EPD .FT                 3014 : ELEVATION PERMANENT DATUM
LMF .                     KB : LOG MEASURED FROM
DAPD.FT                   19 : FEET ABOVE PERMANENT DATUM
EKB .FT                 3033 : KELLY BUSHING
EGL .FT                 3014 : GROUND LEVEL
DATE.               11/27/77 : RUN DATE
RUN .                      1 : RUN NUMBER
DD  .FT                10428 : DEPTH DRILLER
DL  .FT                10435 : DEPTH LOGGER
BLI .FT                10429 : BOTTOM LOG INTERVAL
TLI .FT                 1501 : TOP LOG INTERVAL
CS  .IN                9.625 : CASING SIZE
CBD .FT                 1500 : CASING BOTTOM DRILLER
CBL .FT                 1501 : CASING BOTTOM LOGGER
DFT .                GEL OIL : DRILLING FLUID TYPE
DFD .                    9.1 : DRILLING FLUID DENSITY
DFV .                     83 : DRILLING FLUID VISCOSITY
MSS .               FLOWLINE : MUD SAMPLE SOURCE
RMS .OHMM               1.69 : RESISTIVITY MUD SAMPLE
MST .DEGF                 60 : MUD SAMPLE TEMPERATURE
RMF .OHMM               1.11 : RESISTIVITY MUD FILTRATE SAMPLE
MFST.DEGF                 54 : MUD FILTRATE SAMPLE TEMPERATURE
TCS .HRS                   4 : TIME CIRCULATED STOPPED
LUN .                   7670 : LOGGING UNIT NUMBER
LUL .                    EDM : LOGGING UNIT LOCATION
ENGI.                   DALY : RECORDING ENGINEER
WITN.     RICHARDSON SPRAGUE : WITNESSED BY
CLNT.                A2DTECH : CLIENT CODE
ORIG.            2" 5" PRINT : ORIGIN OF DATA
UWI .       100032506117W500 : UNIQUE WELL ID
DICO. A2D Technologies, Inc. : DIGITIZING COMPANY
~Other -----------------------------------------------------
~ASCII -----------------------------------------------------
 1500.00000    -999.25    -999.25    -999.25    -999.25    -999.25    -999.25    -999.25    -999.25   63.81230    -999.25    -999.25    -999.25    -999.25    -999.25    -999.25    -999.25    -999.25    -999.25    -999.25
 1550.00000    -999.25   10.03490    -999.25    -999.25    -999.25   99.16470    -999.25    -999.25   87.65680    5.99170    5.75680    6.43080    -999.25    -999.25    -999.25    -999.25  -26.34060    -999.25 1536.26870
 1600.00000    -999.25   10.18960    -999.25    -999.25    -999.25  108.90150    -999.25    -999.25   92.65240    3.76190    3.99230    4.39510    -999.25    -999.25    -999.25    -999.25  -24.80020    -999.25 1587.82340
 1650.00000    -999.25    9.49110    -999.25    -999.25    -999.25   79.27920    -999.25    -999.25   44.93620   10.23800   11.40370   11.80460    -999.25    -999.25    -999.25    -999.25  -26.82740    -999.25 1566.02810
 1700.00000    -999.25   10.23970    -999.25    -999.25    -999.25  103.66230    -999.25    -999.25   71.00290    3.93360    3.45000    3.65920    -999.25    -999.25    -999.25    -999.25  -23.96740    -999.25 1691.83460
 1750.00000    -999.25   10.22190    -999.25    -999.25    -999.25  105.88800    -999.25    -999.25   81.10870    3.52270    3.69400    3.93300    -999.25    -999.25    -999.25    -999.25  -23.95420    -999.25 1699.53880
 1800.00000    -999.25   10.19340    -999.25    -999.25    -999.25   86.14890    -999.25    -999.25   70.60620    7.55250    8.06150    6.99220    -999.25    -999.25    -999.25    -999.25  -24.26510    -999.25 1748.45120
 1850.00000    -999.25   10.54960    -999.25    -999.25    -999.25  102.51880    -999.25    -999.25   76.32750    2.88380    3.19970    3.41040    -999.25    -999.25    -999.25    -999.25  -23.37100    -999.25 1810.34240
 1900.00000    -999.25   10.64840    -999.25    -999.25    -999.25   92.94820    -999.25    -999.25   68.24070    6.41430    6.77840    7.02030    -999.25    -999.25    -999.25    -999.25  -24.02510    -999.25 1802.80510
 1950.00000    -999.25   10.11040    -999.25    -999.25    -999.25  111.23390    -999.25    -999.25   81.86170    3.31590    3.64580    4.16110    -999.25    -999.25    -999.25    -999.25  -23.22900    -999.25 1820.49760
 2000.00000    -999.25   10.42840    -999.25    -999.25    -999.25  115.56470    -999.25    -999.25   76.75020    4.46850    4.64210    4.17780    -999.25    -999.25    -999.25    -999.25  -22.45080    -999.25 1855.87870
 2050.00000    -999.25    9.46300    -999.25    -999.25    -999.25   78.92520    -999.25    -999.25   56.37240    7.06850    7.44820    9.61370    -999.25    -999.25    -999.25    -999.25  -23.82990    -999.25 1959.65100
 2100.00000    -999.25    9.88970    -999.25    -999.25    -999.25   93.85260    -999.25    -999.25   81.84930    5.99960    6.22100    6.78680    -999.25    -999.25    -999.25    -999.25  -24.30150    -999.25 1913.80750
 2150.00000    -999.25   11.13110    -999.25    -999.25    -999.25  119.79100    -999.25    -999.25   92.55240    4.13820    4.42110    4.79530    -999.25    -999.25    -999.25    -999.25  -23.08830    -999.25 1961.69870
 2200.00000    -999.25   10.36660    -999.25    -999.25    -999.25  103.93960    -999.25    -999.25   92.06300    3.24870    3.39540    3.60110    -999.25    -999.25    -999.25    -999.25  -23.49290    -999.25 1981.95680
 2250.00000    -999.25    9.94910    -999.25    -999.25    -999.25   93.11110    -999.25    -999.25   91.35900    7.62070    7.97970    8.51500    -999.25    -999.25    -999.25    -999.25  -23.60020    -999.25 1769.36760
 2300.00000    -999.25   10.24500    -999.25    -999.25    -999.25  105.48770    -999.25    -999.25  100.09380    3.20780    3.41390    3.60260    -999.25    -999.25    -999.25    -999.25  -23.24840    -999.25 1785.49400
 2350.00000    -999.25    9.69970    -999.25    -999.25    -999.25   84.50420    -999.25    -999.25   60.43130   11.08820   11.80940   12.43270    -999.25    -999.25    -999.25    -999.25  -25.40050    -999.25 1846.35180
 2400.00000    -999.25   10.22070    -999.25    -999.25    -999.25   99.21080    -999.25    -999.25   82.06050    3.71530    3.95490    4.36550    -999.25    -999.25    -999.25    -999.25  -23.79770    -999.25 1879.79280
 2450.00000    -999.25   10.01870    -999.25    -999.25    -999.25   96.07750    -999.25    -999.25   63.64520    8.52730    9.07100    8.78360    -999.25    -999.25    -999.25    -999.25  -24.95060    -999.25 1916.60820
 2500.00000    -999.25    9.01330    -999.25    -999.25    -999.25   94.98400    -999.25    -999.25   65.08940   10.01270   10.51060   12.03410    -999.25    -999.25    -999.25    -999.25  -30.05320    -999.25 1881.29980
 2550.00000    -999.25    8.98790    -999.25    -999.25    -999.25  100.43470    -999.25    -999.25   71.77080    6.95400    7.38410    9.41230    -999.25    -999.25    -999.25    -999.25  -23.04910    -999.25 1983.68550
 2600.00000   11.49020    9.84860    -999.25    0.42800    0.15080  113.88970   86.55810    -999.25   80.31800    3.15000    3.30600    3.68810    -999.25    -999.25    0.49620    2.04250  -22.08220 1380.25660 2023.27050
 2650.00000   10.03800    9.42500    -999.25    0.41360    0.05530  162.65160  151.35380    -999.25  138.48580    1.52820    1.56540    2.50900    -999.25    -999.25    0.57740    1.91340  -21.89570 1303.99780 2014.14540
 2700.00000    9.07770    8.65320    -999.25    0.24340    0.05150   96.99050   41.08130    -999.25   39.52190   27.05400   21.55670   18.59410    -999.25    -999.25    0.36770    2.24940  -28.88590 1256.34960 1587.65610
 2750.00000    9.51090    9.19030    -999.25    0.18020   -0.00200   96.23860   76.29810    -999.25   70.31530    5.31760    5.54200    6.72780    -999.25    -999.25    0.37470    2.34620  -24.05440 1357.87870 1667.95010
 2800.00000    9.12150    9.00060    -999.25    0.19480    0.07320   88.29070   49.86640    -999.25   44.33000   15.10210   15.73880   16.83090    -999.25    -999.25    0.29760    2.33020  -30.35100 1241.87510 1630.03310
 2850.00000   10.97330    9.62970    -999.25    0.30300    0.21310   97.71330   74.16370    -999.25   73.71240    4.38740    4.04860    3.93400    -999.25    -999.25    0.40740    2.17680  -21.19320 1366.73240 1695.48110
 2900.00000   10.29990   10.01030    -999.25    0.19660    0.05080   98.79360   74.63270    -999.25   71.01710    3.70780    3.84410    4.18330    -999.25    -999.25    0.39840    2.35690  -20.82530 1372.92680 1735.48180
 2950.00000    9.75440    9.11500    -999.25    0.15180    0.07720   90.03550   50.01120    -999.25   47.25160   17.73940   14.97720   14.30420    -999.25    -999.25    0.28210    2.33190  -34.48080 1382.44540 1675.07560
 3000.00000    9.86940    9.77610    -999.25    0.10720    0.18570   86.26100   72.76180    -999.25   62.15180    8.61750    9.67620   10.85870    -999.25    -999.25    0.30420    2.42810  -19.60840 1471.71530 1844.38650
 3050.00000   11.23100   10.60620    -999.25    0.27590    0.00930  132.67690   80.00460    -999.25   68.32440    3.52780    3.95020    4.14670    -999.25    -999.25    0.49030    2.22470  -19.37390 1525.50740 1802.99910
 3100.00000   12.18000    9.98400    -999.25    0.16730    0.05090   99.27320   75.00340    -999.25   54.33900    3.83700    4.01010    5.07070    -999.25    -999.25    0.34760    2.37400  -22.09630 1518.23210 1843.53440
 3150.00000   11.01530    9.76150    -999.25    0.21870    0.07320  109.28510   80.44500    -999.25   73.68270    3.73390    3.88700    4.79390    -999.25    -999.25    0.41780    2.36350  -20.26230 1246.40280 1883.08440
 3200.00000   12.66180   10.06240    -999.25    0.20700    0.02530  100.47070   68.89650    -999.25   64.08060    3.87210    4.01420    4.53600    -999.25    -999.25    0.39420    2.32490  -20.01830 1319.91650 1891.62240
 3250.00000    9.66510    9.01100    -999.25    0.20900    0.00760   91.33940   58.41460    -999.25   51.24420   15.88630   18.69650   19.43610    -999.25    -999.25    0.28830    2.35890  -23.38230 1250.88120 1970.91430
 3300.00000    9.45550    9.13700    -999.25    0.15770    0.02750   84.76370   50.77670    -999.25   46.18280   18.94070   19.64920   21.22680    -999.25    -999.25    0.29180    2.34050  -37.16600 1312.15560 1887.65950
