~Version ---------------------------------------------------
VERS. 2.0 : CWLS log ASCII Standard -VERSION 2.0
WRAP.  NO : ONE LINE PER DEPTH STEP
~Well ------------------------------------------------------
STRT.F                    900.0 : START DEPTH
STOP.F                   9200.0 : STOP DEPTH
STEP.F                 50.00000 : STEP LENGTH
NULL.                   -999.25 : NULL VALUE
COMP.     TEXACO CANADA LIMITED : COMPANY
WELL. TEXACO SUNSET 16-17-69-19 : WELL
FLD .                           : FIELD
LOC .                           : LOCATION
CTRY.                    CANADA : COUNTRY
SRVC.                   Unknown : SERVICE COMPANY
DATE.               16-Oct-1970 : LOGDATE
PROV.                   Alberta : PROVINCE
UWI .          100161706919W500 : UNIQUE WELL ID
SLAT.WGS84               54.979 : SURFACE LATITUDE
SLON.WGS84            -116.8515 : SURFACE LONGITUDE
~Curve Information -----------------------------------------
DEPT  .F                 : 
GRS   .GAPI 60 310 01 00 : GAMMA RAY FROM SONIC LOG
AC    .US/F 60 500 41 00 : ACOUSTIC
CALS  .IN   60 280 50 00 : CALIPER FROM SONIC LOG
GRS_1 .GAPI 60 310 01 00 : GAMMA RAY FROM SONIC
AC_1  .US/F 60 500 41 00 : ACOUSTIC
CALS_1.IN   60 280 50 00 : CALIPER FROM SONIC LOG
MCAL  .IN   15 280 01 00 : MLT (MICROLOG) CALIPER
SPR   .MV   07 010 01 00 : SPONTANEOUS POTENTIAL FROM RESISTIVITY LOG
ILD   .OHMM 07 120 46 00 : INDUCTION DEEP RESISTIVITY
ILM   .OHMM 07 120 44 00 : INDUCTION MEDIUM RESISTIVITY
SFL   .OHMM 07 220 06 00 : SPHERICALLY FOCUSED LOG
~Params ----------------------------------------------------
PD  .                     GL : PERMANENT DATUM
EPD .FT               2413.8 : ELEVATION PERMANENT DATUM
LMF .                     KB : LOG MEASURED FROM
DAPD.FT                    2 : FEET ABOVE PERMANENT DATUM
DMF .                     KB : DRILLING MEASURED FROM
EKB .FT                 2428 : KELLY BUSHING
EGL .FT               2413.8 : GROUND LEVEL
DATE.               10/16/70 : RUN DATE
RUN .                      1 : RUN NUMBER
DD  .FT                 9205 : DEPTH DRILLER
DL  .FT                 9205 : DEPTH LOGGER
BLI .FT                 9204 : BOTTOM LOG INTERVAL
TLI .FT                  929 : TOP LOG INTERVAL
CS  .IN                8.625 : CASING SIZE
CBD .FT                  929 : CASING BOTTOM DRILLER
CBL .FT                  929 : CASING BOTTOM LOGGER
BS  .IN                7.875 : BIT SIZE
BSD .FT                 9205 : BIT SIZE AT DEPTH
DFT .                MUD GEL : DRILLING FLUID TYPE
DFD .                    9.4 : DRILLING FLUID DENSITY
DFV .                     75 : DRILLING FLUID VISCOSITY
DFPH.                    9.5 : DRILLING FLUID PH
DFL .                    8.4 : DRILLING FLUID LOSS
MSS .                   CIRC : MUD SAMPLE SOURCE
RMS .OHMM                0.9 : RESISTIVITY MUD SAMPLE
MST .DEGF                 65 : MUD SAMPLE TEMPERATURE
RMF .OHMM                0.8 : RESISTIVITY MUD FILTRATE SAMPLE
MFST.DEGF                 65 : MUD FILTRATE SAMPLE TEMPERATURE
RMC .OHMM                1.4 : RESISTIVITY MUD CAKE
MCST.DEGF                 65 : MUD CAKE SAMPLE TEMPERATURE
MFSS.                   MEAS : MUD FILTRATE SAMPLE SOURCE
MCSS.                   MEAS : MUD CAKE SAMPLE SOURCE
RMB .OHMM                0.3 : RESISTIVITY MUD AT BHT
TCS .HRS                   3 : TIME CIRCULATED STOPPED
LUN .                   6090 : LOGGING UNIT NUMBER
LUL .                    V V : LOGGING UNIT LOCATION
ENGI.                 OFFORD : RECORDING ENGINEER
WITN.        PATTERSON IRVIN : WITNESSED BY
CLNT.                A2DTECH : CLIENT CODE
ORIG.            2" 5" PRINT : ORIGIN OF DATA
UWI .       100161706919W500 : UNIQUE WELL ID
DICO. A2D Technologies, Inc. : DIGITIZING COMPANY
~Other -----------------------------------------------------
~ASCII -----------------------------------------------------
  900.00000    -999.25    -999.25    -999.25   36.81620    -999.25    -999.25    -999.25    -999.25    -999.25    -999.25    -999.25
  950.00000    -999.25    -999.25    -999.25   49.30410  174.51590    -999.25   15.83360  -66.38520    4.15610    4.42910    5.22570
 1000.00000    -999.25    -999.25    -999.25   67.07650  134.38600    -999.25    9.59210  -64.52750    4.25000    4.71820    5.96660
 1050.00000    -999.25    -999.25    -999.25   50.60230  139.95270    -999.25   15.93710  -63.62660    3.51230    3.87580    5.07940
 1100.00000    -999.25    -999.25    -999.25   59.69490  122.04860    -999.25   15.58700  -62.20700    5.08080    5.40500    6.44030
 1150.00000    -999.25    -999.25    -999.25   59.27740  119.90850    -999.25    8.30980  -71.01340    7.70940    9.04770    9.65410
 1200.00000    -999.25    -999.25    -999.25   55.19940  137.75040    -999.25   15.67750  -61.72410    4.64400    5.04570    5.85820
 1250.00000    -999.25    -999.25    -999.25   56.60070  124.82160    -999.25   10.31690  -67.56240    6.56050    7.11320    8.17930
 1300.00000    -999.25    -999.25    -999.25   53.37540   98.01550    -999.25    8.52950  -70.45790   23.06650   27.63930   20.48200
 1350.00000    -999.25    -999.25    -999.25   59.15930  114.94520    -999.25   10.42640  -73.34510    9.35170   10.53360    8.81180
 1400.00000    -999.25    -999.25    -999.25   67.42420  118.33910    -999.25   13.18120  -66.89160    5.09590    6.39500    7.29350
 1450.00000    -999.25    -999.25    -999.25   69.74710  118.43060    -999.25   15.34250  -68.53840    4.68960    5.42140    6.67840
 1500.00000    -999.25    -999.25    -999.25   63.88390  126.23600    -999.25   15.90790  -69.31060    4.87300    5.46670    6.23210
 1550.00000    -999.25    -999.25    -999.25   62.19840  125.81050    -999.25   15.93390  -72.29970    4.46460    4.99590    6.30190
 1600.00000    -999.25    -999.25    -999.25   60.07300  109.97740    -999.25   15.21660  -75.11530    6.15680    7.28670    8.52010
 1650.00000    -999.25    -999.25    -999.25   65.28980  113.63510    -999.25   15.35720  -74.92740    5.62560    6.19970    6.61050
 1700.00000    -999.25    -999.25    -999.25   64.74710  125.13920    -999.25   14.13500  -72.04640    4.81490    5.33130    6.36870
 1750.00000    -999.25    -999.25    -999.25   70.83020  108.65360    -999.25   11.22700  -74.58820    6.99280    7.57770    8.48600
 1800.00000    -999.25    -999.25    -999.25   61.58120  143.60750    -999.25   16.05770  -75.36660    7.65660    8.07140    9.03020
 1850.00000    -999.25    -999.25    -999.25   72.19790  179.03800    -999.25   16.02120  -76.08800    5.19980    5.94830    7.45660
 1900.00000    -999.25    -999.25    -999.25  132.28590  114.22830    -999.25   15.34070  -74.62680    6.06560    6.65320    8.76820
 1950.00000    -999.25    -999.25    -999.25  167.33240  114.39840    -999.25   12.29240  -77.23580    8.00760    9.23910   10.86170
 2000.00000    -999.25    -999.25    -999.25  123.15700  111.21040    -999.25   13.42800  -77.63580    6.86890    7.37270    9.64490
 2050.00000    -999.25    -999.25    -999.25   93.61430  104.70490    -999.25   15.59960  -84.43860   10.32830   11.19470   12.09110
 2100.00000    -999.25    -999.25    -999.25   99.74640  108.21480    -999.25   15.64160  -82.04270   10.41490   11.47640   12.02150
 2150.00000    -999.25    -999.25    -999.25  107.25700  109.36430    -999.25   14.90400  -83.84940    8.06050    8.95150   10.15430
 2200.00000    -999.25    -999.25    -999.25  105.70750  110.86020    -999.25   15.82990  -84.17890    9.67360   10.49180   11.24950
 2250.00000    -999.25    -999.25    -999.25  103.82030  110.82460    -999.25   13.70930  -83.88260    7.78210    9.41520   10.11760
 2300.00000    -999.25    -999.25    -999.25   79.10070  149.62160    -999.25   15.91700  -82.40430   10.34840   10.78580   11.25760
 2350.00000    -999.25    -999.25    -999.25   94.49110  130.61370    -999.25   10.84750  -82.70650   13.24390   11.60800    9.39260
 2400.00000    -999.25    -999.25    -999.25   78.95730  113.16610    -999.25   15.97530  -77.95430   10.06570    9.02600    8.17470
 2450.00000    -999.25    -999.25    -999.25   87.66250   80.27890    -999.25   15.42000  -78.28110   14.09260   10.99260    9.00650
 2500.00000    -999.25    -999.25    -999.25   94.57120  114.64870    -999.25   15.92950  -77.61250    9.10500    8.25990    6.81050
 2550.00000    -999.25    -999.25    -999.25  114.56390  115.88770    -999.25   14.12510  -76.12330    8.95550    8.06270    7.51520
 2600.00000    -999.25    -999.25    -999.25  119.09130  106.92910    -999.25   15.29490  -75.90330    9.71570    8.86380    8.15790
 2650.00000    -999.25    -999.25    -999.25  111.42940  111.14590    -999.25   14.46610  -75.14810    9.32460    8.59530    7.82940
 2700.00000    -999.25    -999.25    -999.25  139.86160  110.50330    -999.25   11.60110  -76.83700   11.58150   10.03360    9.22820
 2750.00000    -999.25    -999.25    -999.25  121.61900   96.51020    -999.25   11.23000  -78.16820   10.48070    9.44030    9.85450
 2800.00000    -999.25    -999.25    -999.25   88.98980  123.31980    -999.25   15.21060  -73.35970    6.82490    6.22940    5.64060
 2850.00000    -999.25    -999.25    -999.25  105.18920  100.80230    -999.25   14.08920  -73.40190    7.87510    7.03850    6.70400
 2900.00000    -999.25    -999.25    -999.25  108.92640  100.39590    -999.25   12.69620  -73.17140    8.31550    7.68910    7.42360
 2950.00000    -999.25    -999.25    -999.25  105.00830   95.01950    -999.25   12.35140  -73.67450    8.75330    8.09080    8.23410
 3000.00000    -999.25    -999.25    -999.25  107.02060  102.03580    -999.25   14.35510  -70.93330    5.32120    6.02190    6.52360
 3050.00000    -999.25    -999.25    -999.25  110.89790   94.10000    -999.25   14.77280  -71.48380    5.85140    6.30420    6.54230
 3100.00000    -999.25    -999.25    -999.25  116.39410   90.43140    -999.25   13.39790  -74.07790   10.30980    8.98850    8.07640
 3150.00000    -999.25    -999.25    -999.25  114.60060  101.46940    -999.25   14.23270  -69.90870    7.00280    6.42190    5.96240
 3200.00000    -999.25    -999.25    -999.25  129.55500   99.79780    -999.25   15.29940  -69.10550    6.14400    5.94000    5.66600
 3250.00000    -999.25    -999.25    -999.25  126.19530  110.27790    -999.25   14.58380  -66.55620    3.16350    3.66660    4.03190
 3300.00000    -999.25    -999.25    -999.25  115.68630  112.06250    -999.25   15.37880  -66.79110    2.76300    3.20130    3.54740
 3350.00000    -999.25    -999.25    -999.25  109.75860  101.98390    -999.25   15.32060  -69.23560    4.55610    4.88520    5.36330
 3400.00000    -999.25    -999.25    -999.25  115.30200   98.52430    -999.25   14.78020  -68.46210    4.95130    5.15390    5.61630
 3450.00000    -999.25    -999.25    -999.25  109.32900  110.54690    -999.25   14.19910  -66.65450    3.34000    3.77970    4.46720
 3500.00000    -999.25    -999.25    -999.25  100.95120   99.00530    -999.25   11.97780  -66.98330    4.49100    4.71760    5.59250
 3550.00000    -999.25    -999.25    -999.25  101.27490   86.48450    -999.25   10.16920  -75.18140    7.43140    7.85630    8.63640
 3600.00000    -999.25    -999.25    -999.25   77.27890  106.72330    -999.25    9.65270  -76.24270    6.87540    7.58670    8.53080
 3650.00000    -999.25    -999.25    -999.25   51.99980   89.12010    -999.25    7.07090 -107.34350   13.68620   21.59620   25.49700
 3700.00000    -999.25    -999.25    -999.25   88.68670   97.20980    -999.25    8.20650  -73.88180    5.89300    6.57060    7.96870
 3750.00000    -999.25    -999.25    -999.25   85.52370  122.06840    -999.25    8.80960  -72.24940    5.01920    6.15220    4.44720
 3800.00000    -999.25    -999.25    -999.25   60.22720   78.94860    -999.25    6.57970 -114.62940    9.50610   15.85220   21.59110
 3850.00000    -999.25    -999.25    -999.25   96.35840   96.29730    -999.25   10.77900  -70.96460    6.01050    6.32310    6.92610
 3900.00000    -999.25    -999.25    -999.25   72.02770   88.29470    -999.25    8.28290  -95.15280    6.09630    7.72480    9.30320
