~Version ---------------------------------------------------
VERS. 2.0 : CWLS log ASCII Standard -VERSION 2.0
WRAP.  NO : ONE LINE PER DEPTH STEP
~Well ------------------------------------------------------
STRT.F                          300.0 : START DEPTH
STOP.F                         7450.0 : STOP DEPTH
STEP.F                       50.00000 : STEP LENGTH
NULL.                         -999.25 : NULL VALUE
COMP.         BRALORNE RESOURCES LTD. : COMPANY
WELL. BRALORNE ET AL HEARTR 9-1-77-16 : WELL
FLD .                                 : FIELD
LOC .                                 : LOCATION
CTRY.                          CANADA : COUNTRY
SRVC.                         Unknown : SERVICE COMPANY
DATE.                     01-Apr-1977 : LOGDATE
PROV.                         Alberta : PROVINCE
UWI .                100090107716W500 : UNIQUE WELL ID
SLAT.WGS84                   55.64558 : SURFACE LATITUDE
SLON.WGS84                  -116.3326 : SURFACE LONGITUDE
~Curve Information -----------------------------------------
DEPT   .F    0   1   0  0 : 1 MEASURED DEPTH
GRD    .GAPI 45 310 01 00 : GAMMA RAY FROM DENSITY LOG
NPHI_SS.DEC  42 890 03 00 : NEUTRON POROSITY SANDSTONE
CALD   .IN   45 280 60 00 : CALIPER FROM DENSITY LOG
DPHI_SS.DEC  45 890 12 00 : DENSITY POROSITY SANDSTONE
DPHI_LS.DEC  45 890 10 00 : DENSITY POROSITY LIMESTONE
NPHI_LS.DEC  42 890 01 00 : NEUTRON POROSITY LIMESTONE
DRHO   .G/C3 45 356 01 00 : BULK DENSITY CORRECTION
RHOB   .G/C3 45 350 01 00 : BULK DENSITY
SPR    .MV   07 010 01 00 : SPONTANEOUS POTENTIAL FROM RESISTIVITY LOG
ILM    .OHMM 07 120 44 00 : INDUCTION MEDIUM RESISTIVITY
LL8    .OHMM 07 220 08 00 : LATEROLOG 8
ILD    .OHMM 07 120 46 00 : INDUCTION DEEP RESISTIVITY
~Params ----------------------------------------------------
PD  .                     GL : PERMANENT DATUM
EPD .FT               2310.5 : ELEVATION PERMANENT DATUM
LMF .                     KB : LOG MEASURED FROM
DAPD.FT                 14.4 : FEET ABOVE PERMANENT DATUM
EKB .FT               2324.9 : KELLY BUSHING
EGL .FT               2310.5 : GROUND LEVEL
DATE.               04/01/77 : RUN DATE
RUN .                      1 : RUN NUMBER
DD  .FT                 7520 : DEPTH DRILLER
DL  .FT                 7486 : DEPTH LOGGER
BLI .FT                 7480 : BOTTOM LOG INTERVAL
TLI .FT                  796 : TOP LOG INTERVAL
CBD .FT                  796 : CASING BOTTOM DRILLER
CBL .FT                  796 : CASING BOTTOM LOGGER
BS  .IN                7.875 : BIT SIZE
BSD .FT                 7520 : BIT SIZE AT DEPTH
DFT .              GEL BENEX : DRILLING FLUID TYPE
DFD .                    9.2 : DRILLING FLUID DENSITY
DFV .                     80 : DRILLING FLUID VISCOSITY
DFPH.                   10.5 : DRILLING FLUID PH
DFL .                     12 : DRILLING FLUID LOSS
MSS .             CIRCULATED : MUD SAMPLE SOURCE
RMS .OHMM               0.49 : RESISTIVITY MUD SAMPLE
MST .DEGF                 64 : MUD SAMPLE TEMPERATURE
RMF .OHMM               0.35 : RESISTIVITY MUD FILTRATE SAMPLE
MFST.DEGF                 66 : MUD FILTRATE SAMPLE TEMPERATURE
RMB .OHMM               0.17 : RESISTIVITY MUD AT BHT
TCS .HRS                 2.5 : TIME CIRCULATED STOPPED
LUN .                   7809 : LOGGING UNIT NUMBER
LUL .                    EDM : LOGGING UNIT LOCATION
ENGI.      CROCKFORD BUSHMAN : RECORDING ENGINEER
WITN.      KIRKPATRICK MOORE : WITNESSED BY
CLNT.                A2DTECH : CLIENT CODE
ORIG.            2" 5" PRINT : ORIGIN OF DATA
UWI .       100090107716W500 : UNIQUE WELL ID
DICO. A2D Technologies, Inc. : DIGITIZING COMPANY
~Other -----------------------------------------------------
~ASCII -----------------------------------------------------
  300.00000   65.23010    0.42690    -999.25    -999.25    -999.25    -999.25    -999.25    -999.25    -999.25    -999.25    -999.25    -999.25
  350.00000   62.85480    0.39160    -999.25    -999.25    -999.25    -999.25    -999.25    -999.25    -999.25    -999.25    -999.25    -999.25
  400.00000   70.29720    0.42960    -999.25    -999.25    -999.25    -999.25    -999.25    -999.25    -999.25    -999.25    -999.25    -999.25
  450.00000  121.87000    0.48080    -999.25    -999.25    -999.25    -999.25    -999.25    -999.25    -999.25    -999.25    -999.25    -999.25
  500.00000   68.25540    0.39160    -999.25    -999.25    -999.25    -999.25    -999.25    -999.25    -999.25    -999.25    -999.25    -999.25
  550.00000   67.14850    0.36850    -999.25    -999.25    -999.25    -999.25    -999.25    -999.25    -999.25    -999.25    -999.25    -999.25
  600.00000   70.54830    0.38560    -999.25    -999.25    -999.25    -999.25    -999.25    -999.25    -999.25    -999.25    -999.25    -999.25
  650.00000   63.75740    0.32630    -999.25    -999.25    -999.25    -999.25    -999.25    -999.25    -999.25    -999.25    -999.25    -999.25
  700.00000   78.73930    0.31080    -999.25    -999.25    -999.25    -999.25    -999.25    -999.25    -999.25    -999.25    -999.25    -999.25
  750.00000   77.07650    0.33120    -999.25    -999.25    -999.25    -999.25    -999.25    -999.25    -999.25    -999.25    -999.25    -999.25
  800.00000  117.31760    0.38430    9.04040    0.13770    -999.25    -999.25    0.10130    2.19010   -3.49890    3.15990    7.73890    4.82600
  850.00000  130.45250    0.43650    9.54370    0.19430    -999.25    -999.25    0.07660    2.11160  -13.68060    6.27010    7.04550    6.72970
  900.00000   99.96610    0.36100   11.34330    0.12890    -999.25    -999.25    0.18930    2.18280  -13.23760    6.42350    7.34390    6.87130
  950.00000  111.08780    0.31220    9.94280    0.10330    -999.25    -999.25    0.15650    2.23960  -16.42030    6.21470    6.39850    6.83340
 1000.00000   96.79750    0.27080   10.60840    0.10030    -999.25    -999.25    0.05400    2.23980  -14.22970    6.63400    5.98650    6.24370
 1050.00000  146.67550    0.40760   10.43060    0.15400    -999.25    -999.25    0.09730    2.19460  -15.34320    3.34110    3.24940    4.01150
 1100.00000  115.05510    0.40010   11.64380    0.15340    -999.25    -999.25    0.06420    2.12730  -12.71910    3.45210    3.86470    3.71930
 1150.00000  104.79380    0.34510   12.44100    0.15150    -999.25    -999.25    0.06300    2.14740  -15.60440    4.55690    4.24120    4.69680
 1200.00000  117.56930    0.42300   11.17960    0.17720    -999.25    -999.25    0.07360    2.12010   -7.35750    3.59340    4.39670    4.12520
 1250.00000  121.17180    0.31930   10.75400    0.07270    -999.25    -999.25    0.10810    2.28260  -16.91560    4.69620    5.14490    4.91730
 1300.00000  117.83820    0.33440   10.61120    0.17830    -999.25    -999.25    0.07200    2.13870  -12.32830    4.88550    5.28190    5.44710
 1350.00000  129.39840    0.34000   11.30030    0.19680    -999.25    -999.25    0.13880    2.19800  -10.93780    2.95850    3.63190    3.18790
 1400.00000  101.86220    0.36090   11.87640    0.16370    -999.25    -999.25    0.11520    2.14870  -17.66440    2.25400    2.63560    2.41350
 1450.00000  107.69650    0.38590   11.45250    0.16160    -999.25    -999.25    0.12010    2.13740  -16.20270    2.43560    3.19700    2.57450
 1500.00000  107.59060    0.35300   11.26560    0.17240    -999.25    -999.25    0.11040    2.10820  -12.56800    3.19150    3.45100    3.36310
 1550.00000  105.25080    0.38790    9.14010    0.14880    -999.25    -999.25    0.09610    2.16440   -5.25380    3.65220    4.90940    3.86500
 1600.00000   79.41950    0.27840    8.60830    0.05470    -999.25    -999.25    0.03050    2.30670  -18.05960    5.37880    5.29380    4.33600
 1650.00000  108.94050    0.30190    8.88060    0.02070    -999.25    -999.25    0.10940    2.37960  -10.29480    5.04300    4.58720    4.41380
 1700.00000  110.53470    0.33100    8.74120    0.08790    -999.25    -999.25    0.18680    2.26080   -6.92690    2.74360    3.12470    2.59450
 1750.00000   60.30470    0.30940    8.15290    0.16670    -999.25    -999.25    0.00750    2.13940  -31.32300    2.37190    4.58290    2.02760
 1800.00000   54.42450    0.03170    8.21310   -0.14110    -999.25    -999.25    0.02780    2.52610  -24.45100    8.23520   40.03890    7.22680
 1850.00000   99.75030    0.40110    8.55410    0.16290    -999.25    -999.25    0.10650    2.01760  -19.26220    1.70020    2.16580    1.95290
 1900.00000   70.29760    0.35940    7.87160    0.14870    -999.25    -999.25    0.02320    2.17660  -34.19050    2.32080    3.90350    2.00820
 1950.00000   63.77490    0.29390    7.88900    0.16180    -999.25    -999.25    0.02290    2.14140  -36.86480    2.36890    5.05680    1.98060
 2000.00000   90.94910    0.29170    8.31250    0.05920    -999.25    -999.25    0.02550    2.30810  -26.04170    3.18430    3.93040    3.03420
 2050.00000   97.92960    0.31470    8.19880    0.03030    -999.25    -999.25    0.00830    2.33430  -21.67230    3.30670    3.57780    3.19470
 2100.00000   85.66940    0.31020    8.24820    0.09610    -999.25    -999.25    0.00940    2.22920  -25.72650    2.79030    3.51920    3.58480
 2150.00000   90.37720    0.29960    7.86620    0.04530    -999.25    -999.25    0.06000    2.30610  -23.00820    3.21470    3.73180    3.32910
 2200.00000   85.69090    0.35040    8.00410    0.11320    -999.25    -999.25    0.05730    2.21950  -21.06170    3.56910    3.84570    4.02440
 2250.00000   85.74300    0.25170    8.63870   -0.02570    -999.25    -999.25    0.03830    2.35230  -20.45670    5.01410    5.63850    3.71780
 2300.00000   87.26490    0.26940    9.05300    0.02530    -999.25    -999.25    0.05810    2.40930  -24.14570    4.73560    6.87190    4.32470
 2350.00000   93.20630    0.26220    9.33830    0.02980    -999.25    -999.25    0.02910    2.35750  -27.16600    5.63660    7.47240    7.19700
 2400.00000  105.49160    0.27840    8.36850    0.01400    -999.25    -999.25    0.05360    2.38750  -21.82380    3.89060    4.31600    4.06250
 2450.00000   70.01800    0.15110    7.87860   -0.09140    -999.25    -999.25    0.04890    2.55190  -25.52570   17.65880   22.14090   21.62480
 2500.00000   98.58140    0.26840    8.19530    0.01920    -999.25    -999.25    0.03040    2.37420  -26.09810    4.32040    5.18650    4.50070
 2550.00000  100.70370    0.25870    8.48430   -0.03350    -999.25    -999.25    0.09620    2.48000  -89.02640    4.73680    5.44420    4.90600
 2600.00000   98.10650    0.28750    9.29650   -0.02170    -999.25    -999.25    0.10480    2.39590  -82.48490    3.92200    5.26440    4.16310
 2650.00000   78.08310    0.22260    8.29430    0.02060    -999.25    -999.25    0.02380    2.36540  -89.03560   16.74350   29.24180   10.93960
 2700.00000  112.30690    0.24740    8.48630   -0.01710    0.14200    0.31770    0.05480    2.47610  -85.95830    6.57910    6.90410    7.17600
 2750.00000   96.08560    0.19800    8.29050   -0.06550    0.12700    0.28160    0.04450    2.51230  -87.85650    5.77640    6.97120    5.64510
 2800.00000   34.97910    0.09630    7.83310    0.04080    0.24340    0.20890    0.02340    2.32450 -105.26800    2.83120    9.95020    2.25240
 2850.00000   80.44690    0.23850    9.38090   -0.00700    0.16960    0.34640    0.01630    2.44010  -84.41800    2.81400    3.08530    2.97700
 2900.00000   38.61780    0.22420    7.92250    0.00420    0.18640    0.34680    0.04890    2.41570 -108.15520    9.07760   11.26910   10.40580
 2950.00000   42.41060    0.19000    8.40140   -0.08520    0.11730    0.28740    0.02470    2.55540 -113.30600    6.26210   11.60380    6.02420
 3000.00000   45.34500    0.24430    7.88900    0.05370    0.17060    0.33010    0.07050    2.34170 -106.75370    9.01540   13.86860    6.94610
 3050.00000   66.52400    0.22210    8.88100    0.00320    0.17530    0.32500    0.02510    2.40080  -92.28570    3.51050    6.91340    3.34980
