~Version ---------------------------------------------------
VERS. 2.0 : CWLS log ASCII Standard -VERSION 2.0
WRAP.  NO : ONE LINE PER DEPTH STEP
~Well ------------------------------------------------------
STRT.F                           1000.0 : START DEPTH
STOP.F                          10450.0 : STOP DEPTH
STEP.F                         50.00000 : STEP LENGTH
NULL.                           -999.25 : NULL VALUE
COMP.     CANADIAN SUPERIOR OIL COMPANY : COMPANY
WELL. CDN-SUP CEGO FOX CR 10-11SH-62-18 : WELL
FLD .                                   : FIELD
LOC .                                   : LOCATION
CTRY.                            CANADA : COUNTRY
SRVC.                      Schlumberger : SERVICE COMPANY
DATE.                       29-Mar-1977 : LOGDATE
PROV.                           Alberta : PROVINCE
UWI .                  102101106218W500 : UNIQUE WELL ID
SLAT.WGS84                     54.35151 : SURFACE LATITUDE
SLON.WGS84                    -116.5828 : SURFACE LONGITUDE
~Curve Information -----------------------------------------
DEPT   .F                 : 
SPR    .MV                : SPONTANEOUS POTENTIAL FROM RESISTIVITY
LL8    .OHMM              : LATEROLOG-8 RESISTIVITY
ILD    .OHMM 06 121 12 00 : INDUCTION LOG DEEP RESISTIVITY
ILM    .OHMM 07 120 44 00 : INDUCTION LOG MEDIUM RESISTIVITY
CILD   .MMHO 07 110 00 00 : CONDUCTIVITY INDUCTION LOG
GRS    .GAPI              : GAMMA RAY FROM SONIC LOG
DT     .US/F 60 520 00 00 : SONIC
CALD   .IN   45 280 60 00 : CALIPER FROM DENSITY LOG
DCOR   .G/C3 45 356 01 00 : DENSITY CORRECTION
RHOB   .G/C3 45 350 01 00 : BULK DENSITY
NPOR_SS.DEC               : NEUTRON POROSITY SANDSTONE
DPOR_SS.DEC               : DENSITY POROSITY
CALS   .IN                : CALIPER FROM SONIC LOG
GRD    .GAPI              : GAMMA RAY FROM DENSITY LOG
NPOR_LS.DEC               : NEUTRON POROSITY LIMESTONE
DPOR_LS.DEC               : DENSITY POROSITY LIMESTONE
~Params ----------------------------------------------------
PD  .                     GL : PERMANENT DATUM
EPD .FT                 2963 : ELEVATION PERMANENT DATUM
LMF .                     KB : LOG MEASURED FROM
DAPD.FT                   13 : FEET ABOVE PERMANENT DATUM
EKB .FT                 2976 : KELLY BUSHING
EGL .FT                 2963 : GROUND LEVEL
DATE.               03/29/77 : RUN DATE
RUN .                      1 : RUN NUMBER
DD  .FT                10475 : DEPTH DRILLER
DL  .FT                10478 : DEPTH LOGGER
BLI .FT                10472 : BOTTOM LOG INTERVAL
TLI .FT                 1071 : TOP LOG INTERVAL
CBD .FT                 1070 : CASING BOTTOM DRILLER
CBL .FT                 1071 : CASING BOTTOM LOGGER
BS  .IN                 8.75 : BIT SIZE
BSD .FT                10475 : BIT SIZE AT DEPTH
DFT .               GEL CHEM : DRILLING FLUID TYPE
DFD .                    9.2 : DRILLING FLUID DENSITY
DFV .                     81 : DRILLING FLUID VISCOSITY
DFPH.                    9.5 : DRILLING FLUID PH
DFL .                      8 : DRILLING FLUID LOSS
MSS .             CIRCULATED : MUD SAMPLE SOURCE
RMS .OHMM                1.1 : RESISTIVITY MUD SAMPLE
MST .DEGF                 62 : MUD SAMPLE TEMPERATURE
RMF .OHMM               0.76 : RESISTIVITY MUD FILTRATE SAMPLE
MFST.DEGF                 62 : MUD FILTRATE SAMPLE TEMPERATURE
TCS .HRS                   4 : TIME CIRCULATED STOPPED
LUN .                   7690 : LOGGING UNIT NUMBER
LUL .                    EDM : LOGGING UNIT LOCATION
ENGI.                WOROWUK : RECORDING ENGINEER
WITN.                  KELLY : WITNESSED BY
CLNT.                A2DTECH : CLIENT CODE
ORIG.            2" 5" PRINT : ORIGIN OF DATA
UWI .       102101106218W500 : UNIQUE WELL ID
DICO. A2D Technologies, Inc. : DIGITIZING COMPANY
~Other -----------------------------------------------------
~ASCII -----------------------------------------------------
# ...
 5300.00000  -67.02440    3.43580    2.68990    2.57000    -999.25   70.73100   99.66500   13.45450    0.09340    2.38670    0.41130    0.15690   10.20890   93.62010    -999.25    -999.25
 5350.00000  -65.86310    3.96140    3.49340    3.67840    -999.25   72.96090   89.10600   14.55020    0.11590    2.44850    0.34620    0.11550   10.80500   91.34950    -999.25    -999.25
 5400.00000  -68.47820    7.40380    5.74970    6.35950    -999.25   65.79550   88.61470   12.39460    0.13640    2.33810    0.34240    0.19770   10.75220   85.72120    -999.25    -999.25
 5450.00000  -67.40490    7.80870    6.32730    6.65810    -999.25   49.96130   74.89920   10.72540    0.24620    2.29860    0.24290    0.15020   10.09590   69.45170    -999.25    -999.25
 5500.00000  -75.79930   15.29250   10.13920   11.56900    -999.25   42.72030   73.99330   10.56870    0.01350    2.52480    0.26370    0.03810   10.35450   50.60680    -999.25    -999.25
 5550.00000  -69.06280   13.38270    9.99510   10.71910    -999.25   49.27520  100.39750   12.09960    0.07620    2.03600    0.45850    0.45330   11.28750   69.97100    -999.25    -999.25
 5600.00000  -80.20320   10.66020    9.45640    9.59330    -999.25   32.72240   76.60430   11.01390    0.07330    2.52350    0.24650    0.08150   10.84540   57.70110    -999.25    -999.25
 5650.00000  -61.28870   11.36380    8.98710   10.88630    -999.25   56.33200   86.21830   10.94830    0.23730    2.34830    0.42530    0.20450   11.02600   75.07880    -999.25    -999.25
 5700.00000  -77.51710   14.04440   12.76490   13.33920    -999.25   43.42250   71.24040   10.66770    0.02240    2.55070    0.20890    0.05490   10.55100   56.06660    -999.25    -999.25
 5750.00000  -90.56500   13.68000   10.93220   12.28160    -999.25   36.28960   68.21460   11.29410    0.03030    2.54830    0.17530    0.06450   11.34630   48.02240    -999.25    -999.25
 5800.00000  -63.04950   74.61120   22.09450   27.45720    -999.25   48.20870   92.07470   12.21150    0.01130    2.03410    0.41950    0.28910   13.01850   38.15700    -999.25    -999.25
 5850.00000  -80.99230   12.66370   10.72300   11.31500    -999.25   57.54730   81.53100   11.01030    0.07820    2.42200    0.25720    0.13120   10.33350   82.18090    -999.25    -999.25
 5900.00000 -108.28400   20.90050   13.54940   16.72420    -999.25   29.69310   73.42930    9.45880    0.02550    2.39110    0.21220    0.16110    8.96510   38.57480    -999.25    -999.25
 5950.00000  -95.55670   20.88790   10.53050   13.00860    -999.25   35.68730   67.54660   10.39150    0.06880    2.57360    0.20750    0.03910   10.48540   45.10890    -999.25    -999.25
 6000.00000  -62.99060   11.86880    8.68910    9.84270    -999.25   53.03270   73.73370   10.62830    0.02130    2.52650    0.22970    0.06440   11.41100   75.91820    -999.25    -999.25
 6050.00000  -57.86410   12.52310    9.79450   10.97420    -999.25   53.60680   72.07300   10.10100    0.06010    2.64760    0.22760    0.01360   10.29570   67.17370    -999.25    -999.25
 6100.00000  -56.73790   13.79800   10.98920   12.42310    -999.25   55.70720   69.49580   10.54820    0.08350    2.61190    0.21640   -0.00110   10.16030   78.92060    -999.25    -999.25
 6150.00000  -54.44230   13.16970    8.74670    9.80620    -999.25   64.49190   74.07330   10.73770    0.02570    2.51140    0.25260    0.09290   10.37640   83.34320    -999.25    -999.25
 6200.00000  -55.79580    8.92110    6.65850    6.36590    -999.25   69.22860   77.21170   10.42260    0.09070    2.58950    0.25260    0.02670   10.46390   90.58120    -999.25    -999.25
 6250.00000  -54.62500    9.73620    7.94550    6.38760    -999.25   55.23350   79.50580    9.75030    0.16450    2.43030    0.26170    0.10110    9.64790   79.49510    -999.25    -999.25
 6300.00000 -123.49710   16.36250    6.21490    7.42340    -999.25   24.46900   75.56150   10.61980    0.11560    2.38840    0.16190    0.12670    9.83060   36.00830    -999.25    -999.25
 6350.00000  -50.70190   13.18250    8.81490    9.25570    -999.25   61.33160   81.38800   12.35010    -999.25    2.38870    0.29730    0.14120    9.79460   92.05880    -999.25    -999.25
 6400.00000  -47.31070    3.60310    3.36760    2.93150    -999.25   66.38770  106.72950    -999.25    0.08390    2.03270    0.47530    0.46110   14.01320   84.04540    -999.25    -999.25
 6450.00000  -46.88130    4.65280    4.49960    3.96010    -999.25   65.67980   85.52720    -999.25    0.16970    2.32380    0.43600    0.22210   13.34080   80.98300    -999.25    0.16260
 6500.00000  -49.32650   39.23280   37.35470   44.46100    -999.25   79.07890   67.35740   10.52510    0.04230    2.60040    0.30920    0.05510    9.78040  102.70910    0.19980    0.07410
 6550.00000  -52.94070   14.30690   10.65580    6.18050    -999.25   51.58430   88.52460    9.70660    0.19860    2.44080    -999.25    0.28140   11.85510   69.41440    0.31770    0.19700
 6600.00000  -69.39470 1264.52810  234.05360  315.03770    -999.25   37.17840   59.95130    9.07020    0.07480    2.62440    -999.25    -999.25    8.96460   48.23670    0.09010    0.07340
 6650.00000  -58.70350   17.66700   12.69730   13.74920    -999.25   54.59960   63.06780    9.48610    0.03110    2.66680    -999.25    -999.25    9.54970   75.93980    0.10980    0.02230
 6700.00000  -53.71160   19.32140   15.18850   15.97040    -999.25   55.69910   63.02100    9.53520    0.09590    2.77850    -999.25    -999.25    9.70810   79.90440    0.10960   -0.03790
 6750.00000 -125.56700   28.54130    3.66590    4.11690    -999.25   13.83160   64.15890    8.86590    0.17680    2.79680    -999.25    -999.25    8.33160   19.30300    0.16020   -0.00330
 6800.00000 -105.36260   17.15400    7.24110    7.20490    -999.25   11.68890   64.06410    9.58540    0.16560    2.68530    -999.25    -999.25    9.10620   22.43730    0.13160    0.00160
 6850.00000  -49.01780  409.37970   48.38380   83.80000    -999.25   41.64800   52.96230   12.20870    0.25060    2.55150    -999.25    -999.25    9.36910   30.84190    0.01630    0.05720
 6900.00000 -121.22810   22.18680    6.94270    9.27860    -999.25   39.71500   56.62840    9.78810    0.10340    2.71940    -999.25    -999.25    9.18120   40.19570    0.10860   -0.00630
 6950.00000 -112.72850   44.26660    6.51970    8.25490    -999.25   21.56240   61.82850    9.53760    0.11060    2.62000    -999.25    -999.25    9.40620   32.17780    0.15340    0.02720
 7000.00000 -106.83890   20.26400    6.37540    6.45080    -999.25   16.40170   56.66310    9.43210    0.06150    2.73840    -999.25    -999.25    9.48200   34.15520    0.07320   -0.07090
 7050.00000 -124.13030 1398.51330  228.87900  222.08740    -999.25    4.11250   51.06750    9.88680    0.02000    2.92670    -999.25    -999.25   10.07750    5.97770   -0.00650   -0.14650
 7100.00000    -999.25  141.42320   19.98750   30.77230    -999.25    8.41810   48.66480    9.20340    0.06600    2.73330    -999.25    -999.25    9.23610   12.58240    0.01310   -0.03800
 7150.00000 -193.96350  116.46260   23.99350   30.69310    -999.25    7.35370   52.15360    9.32150    0.04610    2.66420    -999.25    -999.25    9.38440   11.02780    0.03550    0.02990
 7200.00000 -119.60730    7.17000    5.32970    5.77650    -999.25   35.66430   60.44430    9.42840    0.08460    2.76290    -999.25    -999.25    9.56660   55.13130    0.13170   -0.04410
 7250.00000  -99.16100   15.35200   11.83000   11.19770    -999.25   46.49040   59.19560    9.30310    0.02800    2.68360    -999.25    -999.25    9.23350   81.97150    0.09750   -0.00210
 7300.00000  -97.22830   41.13210   13.62900   16.27020    -999.25   28.15960   54.49610   10.36250    0.23340    2.77520    -999.25    -999.25    9.64610   34.49340    0.08920   -0.01930
 7350.00000  -85.95980  143.07780   82.64060   89.86140    -999.25   21.88780   54.38780    9.19240    0.02390    2.66030    -999.25    -999.25    9.26480   33.65100    0.02860    0.03460
 7400.00000  -89.22040  279.03160   88.41200  109.76440    -999.25    7.64090   51.16820   11.70310    0.19650    2.59730    -999.25    -999.25    9.84770   12.70620    0.00460    0.05110
