~Version ---------------------------------------------------
VERS.      2.0 : CWLS log ASCII Standard -VERSION 2.0
WRAP.       NO : One line per depth step
CREA. 11/20/17 : LAS Creation Date
~Well ------------------------------------------------------
STRT.FT                      1000.0 : START DEPTH
STOP.FT                      9200.0 : STOP DEPTH
STEP.FT                    50.00000 : STEP LENGTH
NULL.                       -999.25 : NULL VALUE
COMP. AMOCO CANADA PETROLEUM CO LTD : COMPANY
WELL.    AMOCO HB SAKWA 11-26-62-14 : WELL
FLD .                               : FIELD
LOC .                               : LOCATION
CTRY.                        CANADA : COUNTRY
SRVC.                       Unknown : SERVICE COMPANY
DATE.                   15-Jan-1977 : LOGDATE
PROV.                       Alberta : PROVINCE
UWI .              100112606214W500 : UNIQUE WELL ID
SLAT.WGS84                 54.39502 : SURFACE LATITUDE
SLON.WGS84                 -115.993 : SURFACE LONGITUDE
~Curve Information -----------------------------------------
DEPT    .FT    : Depth Curve
CALDED  .IN    : CALIPER FROM DENSITY LOG [ADJ. TO RESISTIVITY LOG]
CALSED  .IN    : CALIPER FROM SONIC LOG [ADJ. TO RESISTIVITY LOG]
CALWS   .IN    : CALIPER [CALDED]
CONDWS  .MMHO  : CONDUCTIVITY [1000/DRESWS]
DCORWS  .G/C3  : DENSITY CORRECTION [DRHOED]
DENWS   .G/C3  : FORMATION BULK DENSITY [CALC. FROM DPOLSWS,M=2.71, F=1.00]
DPHILSED.V/V   : DENSITY POROSITY LIMESTONE [M=2.71, F=1.00] FROM DENSITY LOG [ADJ. TO RESISTIVITY LOG/NPHILS/NPHISS]
DPHISSED.V/V   : DENSITY POROSITY SANDSTONE [M=2.65, F=1.00] FROM DENSITY LOG [ADJ. TO RESISTIVITY LOG/NPHILSED/NPHISSED]
DPOLSWS .V/V   : DENSITY POROSITY LIMESTONE [DPHISSED CONVERTED TO LIMESTONE MATRIX,M=2.71, F=1.00,SPL. TO DPHILSED @ 5507']
DRESWS  .OHMM  : DEEP RESISTIVITY [ILDED]
DRHOED  .G/C3  : DENSITY CORRECTION FROM DENSITY LOG [ADJ. TO RESISTIVITY LOG/NPHILSED/NPHISSED/DPHILSED/DPHISSED]
DTED    .US/F  : DELTA-T FROM SONIC LOG [ADJ. TO RESISTIVITY LOG]
DTWS    .US/F  : COMPRESSIONAL SONIC [DTED]
GRDED   .GAPI  : GAMMA RAY FROM DENSITY LOG [ADJ. TO RESISTIVITY LOG]
GRSED   .GAPI  : GAMMA RAY FROM SONIC LOG [ADJ. TO RESISTIVITY LOG]
GRWS    .GAPI  : GAMMA RAY [GRSED SPL. TO GRDED @ 1007']
ILDED   .OHMM  : DEEP INDUCTION RESISTIVITY FROM RESISTIVITY LOG
ILMED   .OHMM  : MEDIUM INDUCTION RESISTIVITY FROM RESISTIVITY LOG
LL8ED   .OHMM  : LATEROLOG 8 FROM RESISTIVITY LOG
MRESWS  .OHMM  : MEDIUM RESISTIVITY [ILMED]
NPHILSED.V/V   : NEUTRON POROSITY LIMESTONE FROM DENSITY LOG [ADJ. TO RESISTIVITY LOG]
NPHISSED.V/V   : NEUTRON POROSITY SANDSTONE FROM DENSITY LOG [ADJ. TO RESISTIVITY LOG]
NPOLSWS .V/V   : NEUTRON POROSITY LIMESTONE [NPHISSED MATRIX CONVERSION FOR LIMESTONE, SPL. TO NPHILSED @5597']
RHOBED  .G/C3  : BULK DENSITY FROM DENSITY LOG [ADJ. TO RESISTIVITY LOG/NPHILSED/NPHISSED/DPHILSED/DPHISSED]
SPRED   .MV    : SPONTANEOUS POTENTIAL FROM RESISTIVITY LOG
SPWS    .MV    : SPONTANEOUS POTENTIAL [BASELINE 0 MV,SPRED]
SRESWS  .OHMM  : SHALLOW RESISTIVITY [LL8ED]
~Params ----------------------------------------------------
PD  .                     GL : PERMANENT DATUM
EPD .FT                 2835 : ELEVATION PERMANENT DATUM
LMF .                     KB : LOG MEASURED FROM
DAPD.FT                 14.6 : FEET ABOVE PERMANENT DATUM
EKB .FT               2849.6 : KELLY BUSHING
EGL .FT               2835.0 : GROUND LEVEL
DATE.               01/15/77 : RUN DATE
RUN .                      1 : RUN NUMBER
DD  .FT                 9200 : DEPTH DRILLER
DL  .FT                 9205 : DEPTH LOGGER
BLI .FT                 9204 : BOTTOM LOG INTERVAL
TLI .FT                 1012 : TOP LOG INTERVAL
CBD .FT                 1015 : CASING BOTTOM DRILLER
CBL .FT                 1012 : CASING BOTTOM LOGGER
BS  .IN                 8.25 : BIT SIZE
BSD .FT                 9200 : BIT SIZE AT DEPTH
DFT .                    GEL : DRILLING FLUID TYPE
DFD .                    9.1 : DRILLING FLUID DENSITY
DFV .                    105 : DRILLING FLUID VISCOSITY
DFPH.                    9.5 : DRILLING FLUID PH
RMS .OHMM               3.85 : RESISTIVITY MUD SAMPLE
MST .DEGF                 48 : MUD SAMPLE TEMPERATURE
RMF .OHMM               3.25 : RESISTIVITY MUD FILTRATE SAMPLE
MFST.DEGF                 62 : MUD FILTRATE SAMPLE TEMPERATURE
TCS .HRS                   8 : TIME CIRCULATED STOPPED
LUN .                   7802 : LOGGING UNIT NUMBER
LUL .                    EDM : LOGGING UNIT LOCATION
ENGI.                   PIHM : RECORDING ENGINEER
WITN.            PHILLIPCHUK : WITNESSED BY
CLNT.                A2DTECH : CLIENT CODE
ORIG.            2" 5" PRINT : ORIGIN OF DATA
UWI .       100112606214W500 : UNIQUE WELL ID
DICO. A2D Technologies, Inc. : DIGITIZING COMPANY
~Other -----------------------------------------------------
DIL-CNFD-BHC LOG RUN.
RHOB & DRHO VERIFYED FROM 2" OF SCALE
~ASCII -----------------------------------------------------
# ...
 6200.00000    9.27670    9.67680    9.27670   27.24970    0.00330    2.67750    0.01900    -999.25    0.01900   36.69770    0.00330   54.42700   54.42700   23.99780   24.12120   23.99780   36.69770   34.34800   56.30690   34.34800    0.02340    -999.25    0.02340    2.66650 -148.71510  -44.88260   56.30690
 6250.00000    9.23910    9.71080    9.23910   23.04980    0.04860    2.72740   -0.01020    -999.25   -0.01020   43.38440    0.04860   55.02770   55.02770   30.42060   31.27360   30.42060   43.38440   36.22930   56.28620   36.22930    0.02310    -999.25    0.02310    2.72940 -129.72700  -26.91470   56.28620
 6300.00000    9.31240    9.70880    9.31240   23.11670   -0.00470    2.65850    0.03010    -999.25    0.03010   43.26100   -0.00470   55.69030   55.69030   33.54770   37.92860   33.54770   43.26100   37.12180   45.58320   37.12180    0.02730    -999.25    0.02730    2.66120 -119.82520  -18.02800   45.58320
 6350.00000    9.29540    9.70060    9.29540   21.41860    0.01410    2.68490    0.01470    -999.25    0.01470   46.68840    0.01410   55.92230   55.92230   34.25960   43.34860   34.25960   46.68840   38.61640   44.79220   38.61640    0.03330    -999.25    0.03330    2.68280 -113.21270  -12.44100   44.79220
 6400.00000    9.08940    9.71820    9.08940   22.46890    0.02720    2.66900    0.02400    -999.25    0.02400   44.50600    0.02720   57.98800   57.98800   42.25940   54.94920   42.25940   44.50600   34.94200   39.06650   34.94200    0.04500    -999.25    0.04500    2.67050 -109.21230   -9.46080   39.06650
 6450.00000    9.80560   10.20550    9.80560   63.04490    0.02120    2.65020    0.03500    -999.25    0.03500   15.86170    0.02120   76.45000   76.45000  110.21610   95.59380  110.21610   15.86170   13.48000   17.75180   13.48000    0.16310    -999.25    0.16310    2.64950 -100.29750   -1.56630   17.75180
 6500.00000    9.59460   10.11470    9.59460   74.73840    0.02510    2.65630    0.03140    -999.25    0.03140   13.38000    0.02510   59.22910   59.22910   79.62170   95.79880   79.62170   13.38000   12.62620   17.75670   12.62620    0.07920    -999.25    0.07920    2.65360 -121.68890  -23.79340   17.75670
 6550.00000    9.65920   10.03570    9.65920    0.67260    0.01990    2.69660    0.00780    -999.25    0.00780 1486.83620    0.01990   50.36390   50.36390   24.88530   29.63130   24.88530 1486.83620  248.86610  343.88380  248.86610    0.00610    -999.25    0.00610    2.69860 -113.32400  -16.10650  343.88380
 6600.00000    9.78060   10.06010    9.78060    0.63440    0.00610    2.65200    0.03390    -999.25    0.03390 1576.30300    0.00610   51.12590   51.12590   22.99550   18.74110   22.99550 1576.30300  291.24270  335.68800  291.24270    0.00430    -999.25    0.00430    2.64550 -161.85160  -65.31910  335.68800
 6650.00000    9.81430   10.19440    9.81430    0.66190    0.01000    2.66330    0.02730    -999.25    0.02730 1510.68920    0.01000   50.01160   50.01160   14.37230   14.18050   14.37230 1510.68920  217.94130  254.79390  217.94130    0.00150    -999.25    0.00150    2.66560 -165.67840  -69.82730  254.79390
 6700.00000   10.96900   10.19670   10.96900    3.21900    0.01450    2.64500    0.03800    -999.25    0.03800  310.65860    0.01450   50.35430   50.35430   10.92550   13.19160   10.92550  310.65860  130.48440  147.58460  130.48440    0.00190    -999.25    0.00190    2.62580 -186.75420  -91.58460  147.58460
 6750.00000    9.79700    9.83650    9.79700    4.59890    0.04530    2.74060   -0.01790    -999.25   -0.01790  217.44460    0.04530   48.33320   48.33320   11.66560   13.55780   11.66560  217.44460  101.91750  131.52610  101.91750    0.00490    -999.25    0.00490    2.73960 -181.71770  -87.22950  131.52610
 6800.00000    9.69750    9.75170    9.69750    7.64310    0.02570    2.55970    0.08790    -999.25    0.08790  131.08650    0.02570   50.16550   50.16550    9.60890   12.13790    9.60890  131.08650   91.57380  170.76170   91.57380    0.01140    -999.25    0.01140    2.56210 -201.81960 -108.00950  170.76170
 6850.00000    8.40110    9.11540    8.40110   76.92840    0.10530    2.59420    0.06770    -999.25    0.06770   12.99910    0.10530   53.85590   53.85590   10.63780   11.65360   10.63780   12.99910   20.63660  147.77400   20.63660    0.05090    -999.25    0.05090    2.58660 -249.15080 -156.02550  147.77400
 6900.00000   10.31140   10.25190   10.31140    0.65050    0.07280    2.67020    0.02330    -999.25    0.02330 1537.38900    0.07280   48.35370   48.35370   12.73990   17.56610   12.73990 1537.38900  283.37530  957.16770  283.37530   -0.00100    -999.25   -0.00100    2.67480 -187.71600  -95.27220  957.16770
 6950.00000   10.29970    9.84470   10.29970    9.62530    0.05120    2.62930    0.04720    -999.25    0.04720  103.89260    0.05120   51.25880   51.25880   13.42430   16.07890   13.42430  103.89260   74.90090  387.11610   74.90090    0.00530    -999.25    0.00530    2.62230 -199.10670 -107.34430  387.11610
 7000.00000   10.00000    9.83000   10.00000    0.62930    0.00640    2.65870    0.03000    -999.25    0.03000 1589.09530    0.00640   48.92320   48.92320   13.66400   13.80130   13.66400 1589.09530  361.28740  428.52900  361.28740    0.00080    -999.25    0.00080    2.65430 -184.04730  -92.96640  428.52900
 7050.00000    9.88070    9.75760    9.88070    0.65190    0.02790    2.70400    0.00350    -999.25    0.00350 1533.95160    0.02790   48.92520   48.92520   12.55250   15.92290   12.55250 1533.95160  247.44860  274.57120  247.44860    0.00140    -999.25    0.00140    2.69860 -187.14820  -96.74530  274.57120
 7100.00000    9.90840    9.73250    9.90840   23.78180    0.05310    2.59870    0.06510    -999.25    0.06510   42.04890    0.05310   52.26800   52.26800   12.09250   14.88590   12.09250   42.04890   46.06330  109.50760   46.06330    0.02120    -999.25    0.02120    2.59560 -215.53910 -125.82110  109.50760
 7150.00000    9.73140   10.02370    9.73140   15.50700    0.04670    2.64400    0.03860    -999.25    0.03860   64.48720    0.04670   49.37660   49.37660   10.70620    9.11440   10.70620   64.48720   69.85310  258.27820   69.85310    0.01170    -999.25    0.01170    2.63870 -211.54400 -122.50740  258.27820
 7200.00000    8.68570    9.38600    8.68570   23.36380    0.11690    2.58500    0.07310    -999.25    0.07310   42.80120    0.11690   52.94830   52.94830   12.85290   16.13160   12.85290   42.80120   56.79530  263.69800   56.79530    0.05380    -999.25    0.05380    2.58430 -225.90020 -137.54510  263.69800
 7250.00000    9.50580    9.81300    9.50580    5.63980    0.00140    2.77300   -0.03690    -999.25   -0.03690  177.31030    0.00140   49.23260   49.23260   17.27920   18.39200   17.27920  177.31030  125.18320  960.02940  125.18320    0.02090    -999.25    0.02090    2.77180 -164.13320  -76.45950  960.02940
 7300.00000    9.79760   10.26010    9.79760   91.17180    0.06160    2.81730   -0.06280    -999.25   -0.06280   10.99310    0.06160   49.99480   49.99480   23.39930   24.82580   23.39930   10.99310   10.53210   21.82410   10.53210    0.09420    -999.25    0.09420    2.80870 -154.27080  -67.27520   21.82410
 7350.00000    9.07820    9.75570    9.07820   23.01670    0.02610    2.72880   -0.01100    -999.25   -0.01100   43.44680    0.02610   51.66830   51.66830   31.07650   37.66080   31.07650   43.44680   48.12360   80.79550   48.12360    0.09520    -999.25    0.09520    2.73460 -167.09150  -80.78070   80.79550
 7400.00000    9.33210    9.76110    9.33210   23.77160    0.02040    2.76950   -0.03480    -999.25   -0.03480   42.06700    0.02040   48.89030   48.89030   27.99900   36.72850   27.99900   42.06700   34.38380   68.40020   34.38380    0.08000    -999.25    0.08000    2.76820 -154.28040  -68.65110   68.40020
 7450.00000    9.09290    9.83620    9.09290   45.27470    0.02290    2.74590   -0.02100    -999.25   -0.02100   22.08740    0.02290   50.42990   50.42990   27.71910   32.00340   27.71910   22.08740   18.64460   28.20810   18.64460    0.07910    -999.25    0.07910    2.73790 -149.31550  -64.36770   28.20810
