~Version ---------------------------------------------------
VERS. 2.0 : CWLS log ASCII Standard -VERSION 2.0
WRAP.  NO : One line per depth step
~Well ------------------------------------------------------
STRT.m                           300.0 : START DEPTH
STOP.m                          3450.0 : STOP DEPTH
STEP.m                        50.00000 : STEP LENGTH
NULL.                          -999.25 : NULL VALUE
COMP. AMOCO CANADA PETROLEUM CO., LTD. : COMPANY
WELL.   AMOCO ET AL PEMBINA 14-20-47-9 : WELL
FLD .                                  : FIELD
LOC .                                  : Location
CTRY.                           CANADA : COUNTRY
SRVC.                     Schlumberger : SERVICE COMPANY
DATE.                      14-Mar-1979 : LOGDATE
LOC1.                                  : Location 1
SECT.                                  : Section
TOWN.                                  : Township
RNGE.                                  : Range
PDAT.                                  : Perm Datum
EPD .                           950.23 : Elevation
LMF .                               KB : Log Measured From
DMF .                               KB : Drill Measured From
APD .                                  : Above Perm Datum
EKB .                           956.33 : Elev-Kelly Bushing.
EDF .                                  : Elev-Drill Floor
EGL .                           950.23 : Elev-Ground Level
PROV.                          Alberta : PROVINCE
UWI .                 102142004709W500 : UNIQUE WELL ID
SLAT.WGS84                    53.07231 : SURFACE LATITUDE
SLON.WGS84                   -115.2847 : SURFACE LONGITUDE
~Curve Information -----------------------------------------
DEPT    .m      : Depth Curve
CALDED  .MM     : CALIPER FROM DENSITY LOG [ADJ. TO GRSED]
CALSED  .MM     : CALIPER FROM SONIC LOG
CALWS   .MM     : CALIPER [CALSED]
CONDWS  .MMHO   : CONDUCTIVITY [1000/DRESWS]
DCORED  .KG/M3  : DENSITY CORRECTION FROM DENSITY LOG [ADJ. TO GRSED]
DCORWS  .KG/M3  : DENSITY CORRECTION [DCORED]
DENWS   .KG/M3  : FORMATION BULK DENSITY [RHOBED]
DPHILSED.V/V    : DENSITY POROSITY LIMESTONE [M=2710,F=1000, ADJ. TO GRSED] FROM DENSITY LOG
DPHISSED.V/V    : DENSITY POROSITY SANDSTONE [M=2650,F=1000, ADJ. TO GRSED] FROM DENSITY LOG
DPOLSWS .V/V    : DENSITY POROSITY LIMESTONE [CALC FROM DENWS, M=2710,F=1000]
DRESWS  .OHMM   : DEEP RESISTIVITY [ILDED]
DTED    .US/M   : DELTA TIME FROM SONIC LOG
DTWS    .US/M   : COMPRESSIONAL SONIC [DTED]
GRDED   .GAPI   : GAMMA RAY FROM DENSITY LOG [ADJ. TO GRSED]
GRSED   .GAPI   : GAMMA RAY FROM SONIC LOG
GRWS    .GAPI   : GAMMA RAY [GRSED]
ILDED   .OHMM   : DEEP INDUCTION RESISTIVITY FROM RESISTIVITY LOG
ILMED   .OHMM   : MEDIUM NDUCTION RESISTIVITY FROM RESISTIVITY LOG
MLLED   .OHMM   : MICRO-LATEROLOG RESISTIVITY FROM MICRO LOG
MRESWS  .OHMM   : MEDIUM RESISTIVITY [ILMED]
NPHILSED.V/V    : NEUTRON POROSITY LIMESTONE FROM DENSITY LOG [ADJ. TO GRSED]
NPHISSED.V/V    : NEUTRON POROSITY SANDSTONE FROM DENSITY LOG [ADJ. TO GRSED]
NPOLSWS .V/V    : NEUTRON POROSITY LIMESTONE [NPHISSED MATRIX CONVERSION FOR LIMESTONE, SPL. TO NPHILSED @ 2302.2M]
RHOBED  .KG/M3  : BULK DENSITY FROM DENSITY LOG [ADJ. TO DPHISSED/DPHILSED/GRSED]
SFLED   .OHMM   : SPHERICALLY FOCUSED LOG FROM RESISTIVITY LOG [ADJ. TO ILDED]
SPRED   .MV     : SPONTANEOUS POTENTIAL FROM RESISTIVITY LOG
SPWS    .MV     : SPONTANEOUS POTENTIAL [BASELINE 0 MV, SPRED]
SRESWS  .OHMM   : SHALLOW RESISTIVITY [SFLED]
~Params ----------------------------------------------------
RUN .           2 : Run #
DATE.             : Date log was run
TDD .        3454 : Depth - Driller
TDL .        3453 : Depth - Logger
BLI .      3451.2 : Bottom Log Interval
TLI .      2555.5 : Top Log Interval
CBD .        2756 : Casing - Driller
CBL .      2555.5 : Casing - Logger
BS  .       215.9 : Bit Size
DFT .         GEL : Type of Fluid In Hole
DFD .        1310 : Drilling Fluid Density
DFV .          60 : Drilling Fluid Viscosity
DFPH.          11 : Drilling Fluid pH
DFL .         5.2 : Drilling Fluid Loss
MSS . CIRCULATION : Source of Sample
RMS .       0.933 : Mud Resitivity
RMFS.       0.687 : Mud Filtrate Resistivity
RMCS.             : Mud Cake Resitivity
MFSS.       PRESS : Source of Rmf
MCSS.             : Source of Rmc
RMBH.             : Rm at BHT
MRT .        87.8 : Max Recorded Temperature
CLNT.     A2DTECH : CLIENT CODE
~Other -----------------------------------------------------
DIL-SFL & CNL-LDT & SONIC LOG RUN
~ASCII -----------------------------------------------------
  300.00000    -999.25  379.80940  379.80940    -999.25    -999.25    -999.25    -999.25    -999.25    -999.25    -999.25    -999.25  426.93520  426.93520    -999.25   66.32180   66.32180    -999.25    -999.25    -999.25    -999.25    -999.25    -999.25    -999.25    -999.25    -999.25    -999.25    -999.25    -999.25
  350.00000    -999.25  379.97870  379.97870    -999.25    -999.25    -999.25    -999.25    -999.25    -999.25    -999.25    -999.25  665.41130  665.41130    -999.25   91.64520   91.64520    -999.25    -999.25    -999.25    -999.25    -999.25    -999.25    -999.25    -999.25    -999.25    -999.25    -999.25    -999.25
  400.00000    -999.25  379.25480  379.25480    -999.25    -999.25    -999.25    -999.25    -999.25    -999.25    -999.25    -999.25  345.40860  345.40860    -999.25   90.09240   90.09240    -999.25    -999.25    -999.25    -999.25    -999.25    -999.25    -999.25    -999.25    -999.25    -999.25    -999.25    -999.25
  450.00000    -999.25  379.49030  379.49030    -999.25    -999.25    -999.25    -999.25    -999.25    -999.25    -999.25    -999.25  335.67360  335.67360    -999.25    -999.25    -999.25    -999.25    -999.25    -999.25    -999.25    -999.25    -999.25    -999.25    -999.25    -999.25    -999.25    -999.25    -999.25
  500.00000  367.18950  336.53280  336.53280  117.15360  143.48260  143.48260 2256.99100    -999.25    0.24130    0.26490    8.53580  302.24770  302.24770   44.01150   43.96140   43.96140    8.53580    7.71490    -999.25    7.71490    -999.25    0.34820    0.30450 2256.99100    7.19840  -39.02260  -12.99750    7.19840
  550.00000  374.18350  335.60240  335.60240  108.83410    0.70360    0.70360 2547.27370    -999.25    0.05940    0.09520    9.18830  259.48670  259.48670   76.03030   66.60270   66.60270    9.18830    8.66890    -999.25    8.66890    -999.25    0.27850    0.23450 2547.27370    6.71510  -39.57090   -2.63150    6.71510
  600.00000  393.71530  378.23580  378.23580  231.13370  159.60990  159.60990 2240.10300    -999.25    0.24820    0.27480    4.32650  366.39030  366.39030   79.28150   80.20090   80.20090    4.32650    3.60140    -999.25    3.60140    -999.25    0.54740    0.51010 2240.10300    3.57480  -38.37010   -3.31810    3.57480
  650.00000  407.63320  341.69880  341.69880  108.73350   15.25190   15.25190 2431.86060    -999.25    0.13280    0.16270    9.19680  272.29440  272.29440   81.49020   76.10390   76.10390    9.19680    7.52570    -999.25    7.52570    -999.25    0.25820    0.21430 2431.86060    8.93750  -44.69820  -10.33200    8.93750
  700.00000  361.03620  326.85180  326.85180  131.30940    8.36060    8.36060 2507.05180    -999.25    0.07820    0.11870    7.61560  281.52510  281.52510   79.96790   73.64120   73.64120    7.61560    6.86320    -999.25    6.86320    -999.25    0.29050    0.24650 2507.05180    6.10550  -43.15190   -7.45630    6.10550
  750.00000  359.05800  323.85490  323.85490  171.28570  219.91510  219.91510 2294.71140    -999.25    0.21720    0.24290    5.83820  312.27650  312.27650   98.56910   91.99050   91.99050    5.83820    4.65880    -999.25    4.65880    -999.25    0.39600    0.35300 2294.71140    4.66460  -42.84800   -7.46410    4.66460
  800.00000  388.11720  320.96580  320.96580  169.99860   13.27610   13.27610 2196.97680    -999.25    0.27010    0.30000    5.88240  294.68370  294.68370   79.71230   83.83820   83.83820    5.88240    5.19970    -999.25    5.19970    -999.25    0.35560    0.31200 2196.97680    8.98690  -38.52130   -3.44920    8.98690
  850.00000  391.63020  334.67760  334.67760   99.49650   27.84120   27.84120 2595.96850    -999.25    0.03320    0.06670   10.05060  229.19100  229.19100   61.79760   59.01500   59.01500   10.05060   12.98000    -999.25   12.98000    -999.25    0.16890    0.12600 2595.96850   12.81030  -41.22500   -5.41380   12.81030
  900.00000  379.99010  326.82540  326.82540  183.69520  109.16220  109.16220 2332.17900    -999.25    0.19650    0.22090    5.44380  305.78110  305.78110   86.67230   79.58070   79.58070    5.44380    4.54090    -999.25    4.54090    -999.25    0.39100    0.34800 2332.17900    4.19520  -40.65150   -7.07420    4.19520
  950.00000  425.00000  336.13580  336.13580  255.64330  145.73130  145.73130 2253.88090    -999.25    0.25100    0.26670    3.91170  319.41800  319.41800   91.98350   83.75320   83.75320    3.91170    3.61740    -999.25    3.61740    -999.25    0.42070    0.37830 2253.88090    3.40310  -36.45950   -3.81690    3.40310
 1000.00000  425.00000  340.33200  340.33200  153.86750  113.24550  113.24550 2158.64400    -999.25    0.31140    0.32240    6.49910  376.20780  376.20780   92.61270   91.59550   91.59550    6.49910    5.63590    -999.25    5.63590    -999.25    0.44120    0.39930 2158.64400    6.40950  -33.61410   -2.01210    6.40950
 1050.00000  413.42660  349.32530  349.32530  192.13400   79.55920   79.55920 2375.62520    -999.25    0.17560    0.19550    5.20470  312.16580  312.16580   96.57010   89.42010   89.42010    5.20470    4.77740    -999.25    4.77740    -999.25    0.40250    0.35970 2375.62520    4.16170  -34.11610   -6.32050    4.16170
 1100.00000  368.38120  328.94040  328.94040  148.01660  230.59020  230.59020 2219.81490    -999.25    0.28870    0.28670    6.75600  296.71620  296.71620   80.38160   75.79200   75.79200    6.75600    6.04360    -999.25    6.04360    -999.25    0.38460    0.34140 2219.81490    5.00440  -35.43640   -8.79640    5.00440
 1150.00000  425.39820  329.46920  329.46920  201.47480   56.65430   56.65430 1876.26730    -999.25    0.44800    0.48760    4.96340  304.93810  304.93810   74.49230   76.68730   76.68730    4.96340    3.83340    -999.25    3.83340    -999.25    0.46440    0.42320 1876.26730    4.12110  -32.55700   -7.07270    4.12110
 1200.00000  425.00000  390.15410  390.15410  253.11330   51.59000   51.59000 1517.18310    -999.25    0.45000    0.69760    3.95080  464.92770  464.92770   40.57760   35.02920   35.02920    3.95080    2.23950    -999.25    2.23950    -999.25    0.68660    0.65890 1517.18310    3.18680  -25.52060   -1.19190    3.18680
 1250.00000  367.04650  327.31560  327.31560   61.62610   14.77730   14.77730 2521.18510    -999.25    0.08050    0.11040   16.22690  244.34480  244.34480   51.81570   49.93850   49.93850   16.22690   15.75220    -999.25   15.75220    -999.25    0.20950    0.16590 2521.18510   15.81720  -37.19080  -12.46530   15.81720
 1300.00000  354.70560  326.20240  326.20240   72.85660    8.97420    8.97420 2538.21000    -999.25    0.06450    0.10050   13.72560  231.66450  231.66450   60.17240   56.67540   56.67540   13.72560   11.90100    -999.25   11.90100    -999.25    0.22170    0.17800 2538.21000   14.47430  -34.57600   -9.32590   14.47430
 1350.00000  368.91470  314.56990  314.56990  114.20220  212.55800  212.55800 2332.24050    -999.25    0.20350    0.22090    8.75640  255.60120  255.60120   67.24650   65.16150   65.16150    8.75640    9.71350    -999.25    9.71350    -999.25    0.32570    0.28180 2332.24050   10.20630  -30.50310   -4.72850   10.20630
 1400.00000  396.38920  336.03730  336.03730  111.84560   67.35720   67.35720 2532.48490    -999.25    0.06960    0.10380    8.94090  255.83350  255.83350   66.41960   62.91330   62.91330    8.94090    9.80920    -999.25    9.80920    -999.25    0.24190    0.19800 2532.48490    8.19130  -29.45800   -3.26560    8.19130
 1450.00000  411.78500  330.99730  330.99730  154.21870   68.12530   68.12530 2574.27980    -999.25    0.04820    0.07940    6.48430  281.85740  281.85740   86.10530   81.30160   81.30160    6.48430    6.86730    -999.25    6.86730    -999.25    0.31340    0.26950 2574.27980    7.02260  -27.79410   -1.29260    7.02260
 1500.00000  425.00000  330.59990  330.59990   94.52960   15.23140   15.23140 2477.13960    -999.25    0.10200    0.13620   10.57870  264.58260  264.58260  100.51540   89.96600   89.96600   10.57870    9.74910    -999.25    9.74910    -999.25    0.26380    0.21980 2477.13960    9.45170  -29.91310   -3.10240    9.45170
