~Version ---------------------------------------------------
VERS.      2.0 : CWLS log ASCII Standard -VERSION 2.0
WRAP.       NO : One line per depth step
CREA. 08/01/17 : LAS Creation Date
~Well ------------------------------------------------------
STRT.FT                        1000.0 : START DEPTH
STOP.FT                        9200.0 : STOP DEPTH
STEP.FT                      50.00000 : STEP LENGTH
NULL.                         -999.25 : NULL VALUE
COMP.                LL&E  CANADA LTD : COMPANY
WELL. LL&E ET AL CHICKADEE 7-35-60-14 : WELL
FLD .                        WINDFALL : FIELD
LOC .                                 : LOCATION
CTRY.                          CANADA : COUNTRY
SRVC.                    Schlumberger : SERVICE COMPANY
DATE.                     10-Nov-1969 : LOGDATE
PROV.                         Alberta : PROVINCE
UWI .                100073506014W500 : UNIQUE WELL ID
SLAT.WGS84                     54.229 : SURFACE LATITUDE
SLON.WGS84                  -115.9821 : SURFACE LONGITUDE
~Curve Information -----------------------------------------
DEPT  .FT    : Depth Curve
CALSED.IN    : CALIPER FROM SONIC LOG
CALWS .IN    : CALIPER [CALSED]
CONDWS.MMHO  : CONDUCTIVITY [1000/DRESWS]
DRESWS.OHMM  : DEEP RESISTIVITY [ILDED]
DTED  .US/F  : DELTA TIME FROM SONIC LOG
DTWS  .US/F  : COMPRESSIONAL SONIC [DTED]
GRSED .GAPI  : GAMMA RAY FROM SONIC LOG
GRWS  .GAPI  : GAMMA RAY [GRSED]
ILDED .OHMM  : DEEP INDUCTION RESISTIVITY FROM RESISTIVITY LOG
ILMED .OHMM  : MEDIUM INDUCTION RESISTIVITY FROM RESISTIVITY LOG
LL8ED .OHMM  : 8 INCH LATEROLOG RESISTIVITY FROM RESISTIVITY LOG
MRESWS.OHMM  : MEDIUM RESISTIVITY [ILMED]
SPRED .MV    : SPONTANEOUS POTENTIAL FROM RESISTIVITY LOG
SPWS  .MV    : SPONTANEOUS POTENTIAL [BASELINE 0 MV, SPRED]
SRESWS.OHMM  : SHALLOW RESISTIVITY [RFOCED]
~Params ----------------------------------------------------
PD  .                     GL : PERMANENT DATUM
LMF .                     KB : LOG MEASURED FROM
DAPD.FT                 13.7 : FEET ABOVE PERMANENT DATUM
EGL .FT               2582.3 : GROUND LEVEL
DATE.               11/10/69 : RUN DATE
RUN .                      1 : RUN NUMBER
DD  .FT                 9222 : DEPTH DRILLER
DL  .FT                 9221 : DEPTH LOGGER
BLI .FT                 9217 : BOTTOM LOG INTERVAL
TLI .FT                 1027 : TOP LOG INTERVAL
CBD .FT                 1027 : CASING BOTTOM DRILLER
CBL .FT                 1028 : CASING BOTTOM LOGGER
BS  .IN                 8.75 : BIT SIZE
BSD .FT                 9222 : BIT SIZE AT DEPTH
DFT .                    GEL : DRILLING FLUID TYPE
DFD .                    9.4 : DRILLING FLUID DENSITY
DFV .                    200 : DRILLING FLUID VISCOSITY
DFPH.                   10.5 : DRILLING FLUID PH
DFL .                    6.4 : DRILLING FLUID LOSS
RMS .OHMM               1.07 : RESISTIVITY MUD SAMPLE
MST .DEGF                 62 : MUD SAMPLE TEMPERATURE
RMF .OHMM               0.79 : RESISTIVITY MUD FILTRATE SAMPLE
MFST.DEGF                 67 : MUD FILTRATE SAMPLE TEMPERATURE
RMC .OHMM               1.26 : RESISTIVITY MUD CAKE
MCST.DEGF                 66 : MUD CAKE SAMPLE TEMPERATURE
MCSS.               MEASURED : MUD CAKE SAMPLE SOURCE
RMB .OHMM               0.79 : RESISTIVITY MUD AT BHT
TCS .HRS                   3 : TIME CIRCULATED STOPPED
LUN .                   7502 : LOGGING UNIT NUMBER
LUL .                    EDM : LOGGING UNIT LOCATION
ENGI.              NICKERSON : RECORDING ENGINEER
WITN.                WOODMAN : WITNESSED BY
CLNT.                A2DTECH : CLIENT CODE
ORIG.            2" 5" PRINT : ORIGIN OF DATA
UWI .       100073506014W500 : UNIQUE WELL ID
DICO. A2D Technologies, Inc. : DIGITIZING COMPANY
~Other -----------------------------------------------------
~ASCII -----------------------------------------------------
 1000.00000    -999.25    -999.25    -999.25    -999.25    -999.25    -999.25   32.31430   32.31430    -999.25    -999.25    -999.25    -999.25    -999.25    -999.25    -999.25
 1050.00000   11.16400   11.16400  296.21730    3.37590  119.75990  119.75990   70.67160   70.67160    3.37590    2.89290    3.88730    2.89290 -103.22800   -5.08660    3.88730
 1100.00000    9.63230    9.63230  197.67140    5.05890  105.19930  105.19930   75.27610   75.27610    5.05890    3.88380    5.55240    3.88380 -101.10630   -3.12680    5.55240
 1150.00000   10.25180   10.25180  264.76040    3.77700  119.70910  119.70910   67.40030   67.40030    3.77700    3.34540    4.33860    3.34540 -101.68940   -5.55240    4.33860
 1200.00000   11.97820   11.97820  349.37830    2.86270  160.44890  160.44890   59.03930   59.03930    2.86270    2.41420    3.23110    2.41420  -98.15880   -3.87650    3.23110
 1250.00000   10.52700   10.52700  255.93780    3.90720  113.72820  113.72820   68.26960   68.26960    3.90720    3.43650    4.43620    3.43650  -95.10740   -2.66760    4.43620
 1300.00000   10.47260   10.47260  226.36730    4.41760  112.80290  112.80290   73.98560   73.98560    4.41760    3.56160    4.89280    3.56160  -95.59170   -4.99440    4.89280
 1350.00000    9.62210    9.62210  181.34340    5.51440   96.50170   96.50170   55.27910   55.27910    5.51440    4.76320    6.08830    4.76320  -91.14420   -2.40150    6.08830
 1400.00000    9.84870    9.84870  199.13180    5.02180  108.35490  108.35490   67.83710   67.83710    5.02180    4.12020    5.42850    4.12020  -93.98190   -4.66700    5.42850
 1450.00000   10.90200   10.90200  278.66250    3.59030  111.68770  111.68770   82.12480   82.12480    3.59030    3.04550    3.90110    3.04550  -95.56780   -5.54180    3.90110
 1500.00000    9.05960    9.05960  120.20390    8.31920  105.64770  105.64770   60.75570   60.75570    8.31920    7.07910    9.63080    7.07910  -93.09540   -2.36300    9.63080
 1550.00000    9.72540    9.72540  213.72540    4.67890  125.02820  125.02820   86.80630   86.80630    4.67890    3.52100    5.80780    3.52100  -97.91320   -6.71570    5.80780
 1600.00000   10.01310   10.01310  324.61210    3.08060  119.95430  119.95430   78.90680   78.90680    3.08060    2.63190    3.21080    2.63190  -99.19370   -8.33980    3.21080
 1650.00000    8.96150    8.96150  116.52570    8.58180   93.39800   93.39800   70.96300   70.96300    8.58180    6.86260   10.73710    6.86260  -97.88200   -7.36950   10.73710
 1700.00000    9.81740    9.81740  438.81710    2.27910  143.70030  143.70030   79.72620   79.72620    2.27910    1.83550    2.58770    1.83550  -99.12730   -8.95840    2.58770
 1750.00000    9.57180    9.57180   79.41990   12.59130   94.85110   94.85110   42.82960   42.82960   12.59130   10.36600   13.64060   10.36600  -97.91340   -8.08580   13.64060
 1800.00000    9.64160    9.64160   66.48320   15.04140   82.85130   82.85130   51.05290   51.05290   15.04140   14.07990   16.09310   14.07990  -96.20420   -6.71800   16.09310
 1850.00000    9.97740    9.97740  307.37080    3.25340  106.16460  106.16460   67.15890   67.15890    3.25340    2.87710    3.74760    2.87710  -98.34310   -9.20050    3.74760
 1900.00000    9.43430    9.43430  162.12710    6.16800  102.68750  102.68750   54.94070   54.94070    6.16800    4.56610    6.94900    4.56610  -97.74160   -8.94040    6.94900
 1950.00000    9.49230    9.49230  200.55930    5.00330   91.45040   91.45040   67.06200   67.06200    5.00330    4.48120    5.75600    4.48120  -97.23660   -8.77900    5.75600
 2000.00000    9.27250    9.27250   71.45360   13.99510   91.70150   91.70150   54.08210   54.08210   13.99510   12.87850   16.42790   12.87850  -93.64650   -5.53020   16.42790
 2050.00000   10.91040   10.91040  184.15530    5.43020  113.84090  113.84090   48.87430   48.87430    5.43020    3.81370    6.17640    3.81370 -100.65650  -12.88160    6.17640
 2100.00000    9.29940    9.29940   70.31800   14.22110   92.24460   92.24460   49.05230   49.05230   14.22110   11.87300   15.00420   11.87300  -94.51750   -7.08620   15.00420
 2150.00000    9.72530    9.72530  192.92730    5.18330  101.32360  101.32360   52.39120   52.39120    5.18330    4.39260    5.78660    4.39260  -95.09630   -8.00640    5.78660
 2200.00000    9.73360    9.73360  112.86160    8.87780   92.07360   92.07360   61.87920   61.87920    8.87780    7.53320    9.66620    7.53320  -93.48340   -6.73710    9.66620
 2250.00000    9.35780    9.35780   56.65850   17.64960  100.17460  100.17460   40.32260   40.32260   17.64960   16.24000   21.69130   16.24000  -89.93860   -3.53370   21.69130
 2300.00000    9.76150    9.76150  233.24160    4.28740   99.33250   99.33250   53.10400   53.10400    4.28740    3.70240    4.62400    3.70240  -96.26290  -10.19930    4.62400
 2350.00000    9.65310    9.65310   90.92070   10.99860   93.58680   93.58680   47.10540   47.10540   10.99860    9.88600   12.46890    9.88600  -93.67650   -7.95650   12.46890
 2400.00000   10.65060   10.65060   51.64300   19.36370   97.98560   97.98560   33.43750   33.43750   19.36370   16.10030   20.31780   16.10030  -96.46290  -11.08430   20.31780
 2450.00000    9.73020    9.73020  102.74480    9.76340   84.51770   84.51770   42.94280   42.94280    9.76340    8.89260   11.41460    8.89260  -92.59350   -7.55850   11.41460
 2500.00000    9.83080    9.83080   54.91280   18.21070   76.36720   76.36720   41.12200   41.12200   18.21070   14.13230   21.79670   14.13230  -94.95730  -10.26370   21.79670
 2550.00000   11.11790   11.11790  198.11400    5.04760  108.37470  108.37470   50.37890   50.37890    5.04760    3.46020    5.82760    3.46020  -92.11510   -7.76280    5.82760
 2600.00000    9.60510    9.60510  120.38330    8.30680   86.57720   86.57720   52.11530   52.11530    8.30680    7.63570    9.38240    7.63570  -92.03980   -8.03110    9.38240
 2650.00000    9.57950    9.57950   87.28360   11.45690   87.81170   87.81170   36.94420   36.94420   11.45690    9.52910   13.56000    9.52910  -90.33000   -6.66270   13.56000
 2700.00000    8.95210    8.95210   41.23780   24.25000   90.24420   90.24420   32.30490   32.30490   24.25000   20.90520   25.00860   20.90520  -88.45980   -5.13610   25.00860
 2750.00000   11.24250   11.24250  228.68120    4.37290  102.99760  102.99760   49.42070   49.42070    4.37290    3.26050    4.93650    3.26050  -91.34790   -8.36560    4.93650
 2800.00000    8.83970    8.83970  147.73890    6.76870   93.40740   93.40740   59.12170   59.12170    6.76870    5.64800    7.53540    5.64800  -89.33830   -6.69730    7.53540
 2850.00000   11.10540   11.10540  211.49700    4.72820   99.66400   99.66400   62.99550   62.99550    4.72820    4.14110    5.22980    4.14110  -89.77400   -7.47660    5.22980
 2900.00000   10.63090   10.63090  188.12200    5.31570   95.50720   95.50720   59.11000   59.11000    5.31570    4.68620    6.27200    4.68620  -88.69110   -6.73510    6.27200
 2950.00000   11.85620   11.85620  142.33200    7.02590   90.80430   90.80430   75.40580   75.40580    7.02590    5.54970    7.68000    5.54970  -85.71730   -4.10490    7.68000
 3000.00000   11.76550   11.76550  146.91620    6.80660   96.57890   96.57890   80.94080   80.94080    6.80660    5.41410    7.65460    5.41410  -86.51130   -5.24030    7.65460
 3050.00000   11.91470   11.91470  145.68130    6.86430   95.42600   95.42600   88.01770   88.01770    6.86430    5.17610    7.61670    5.17610  -82.78080   -1.85110    7.61670
 3100.00000   10.33890   10.33890  141.78160    7.05310   94.57990   94.57990   87.96580   87.96580    7.05310    5.42180    8.70310    5.42180  -84.82200   -4.54930    8.70310
 3150.00000    9.55940    9.55940   89.94910   11.11740   89.93670   89.93670   91.23530   91.23530   11.11740    8.67900   13.77050    8.67900  -85.96720   -6.67090   13.77050
 3200.00000   10.02450   10.02450  129.30460    7.73510   96.59810   96.59810   84.27180   84.27180    7.73510    6.56340    9.68430    6.56340  -82.59440   -4.28090    9.68430
 3250.00000    9.84100    9.84100  120.16200    8.32210   91.13610   91.13610   78.86260   78.86260    8.32210    6.84870    9.60470    6.84870  -80.72280   -3.38570    9.60470
