~Version ---------------------------------------------------
VERS. 2.0 : CWLS log ASCII Standard -VERSION 2.0
WRAP.  NO : ONE LINE PER DEPTH STEP
~Well ------------------------------------------------------
STRT.F                            1050.0 : START DEPTH
STOP.F                            9800.0 : STOP DEPTH
STEP.F                          50.00000 : STEP LENGTH
NULL.                            -999.25 : NULL VALUE
COMP.                TENNECO OIL COMPANY : COMPANY
WELL. TENN SUN A1 SAKWATAMAU 10-25-64-15 : WELL
FLD .                                    : FIELD
LOC .                                    : LOCATION
CTRY.                             CANADA : COUNTRY
SRVC.                       Schlumberger : SERVICE COMPANY
DATE.                        21-Feb-1963 : LOGDATE
PROV.                            Alberta : PROVINCE
UWI .                   100102506415W500 : UNIQUE WELL ID
SLAT.WGS84                      54.56867 : SURFACE LATITUDE
SLON.WGS84                     -116.1264 : SURFACE LONGITUDE
~Curve Information -----------------------------------------
DEPT.F    0   1   0  0 : 1 MEASURED DEPTH
CILD.MMHO 05 110 46 00 : INDUCTION DEEP CONDUCTIVITY
ILD .OHMM 05 120 46 00 : INDUCTION DEEP RESISTIVITY
SPR .MV   05 010 01 00 : SPONTANEOUS POTENTIAL FROM RESISTIVITY LOG
SN  .OHMM 05 040 16 00 : SHORT NORMAL RESISTIVITY
DT  .US/F 60 500 33 00 : DELTA-T (INTERVAL TRANSIT TIME)
GRS .GAPI 60 310 01 00 : GAMMA RAY FROM SONIC LOG
CALS.IN   60 280 50 00 : CALIPER FROM SONIC LOG
DT1 .US/F 60 500 31 00 : DELTA-T SHEAR - LOWER DIPOLE
~Params ----------------------------------------------------
PD  .                     GL : PERMANENT DATUM
EPD .FT              3480.18 : ELEVATION PERMANENT DATUM
LMF .                     KB : LOG MEASURED FROM
DAPD.FT                 11.6 : FEET ABOVE PERMANENT DATUM
DMF .                     KB : DRILLING MEASURED FROM
EKB .FT              3491.78 : KELLY BUSHING
EGL .FT              3490.18 : GROUND LEVEL
DATE.               02/21/63 : RUN DATE
RUN .                      1 : RUN NUMBER
DD  .FT                 9800 : DEPTH DRILLER
DL  .FT                 9804 : DEPTH LOGGER
BLI .FT                 9803 : BOTTOM LOG INTERVAL
TLI .FT                 1027 : TOP LOG INTERVAL
CBD .FT                 1024 : CASING BOTTOM DRILLER
CBL .FT                 1027 : CASING BOTTOM LOGGER
BS  .IN                 8.75 : BIT SIZE
BSD .FT                 9800 : BIT SIZE AT DEPTH
DFT .           OIL EMULSION : DRILLING FLUID TYPE
DFD .                    9.6 : DRILLING FLUID DENSITY
DFV .                     90 : DRILLING FLUID VISCOSITY
DFPH.                   10.5 : DRILLING FLUID PH
DFL .                    8.8 : DRILLING FLUID LOSS
RMS .OHMM               1.35 : RESISTIVITY MUD SAMPLE
MST .DEGF                 74 : MUD SAMPLE TEMPERATURE
RMF .OHMM              0.895 : RESISTIVITY MUD FILTRATE SAMPLE
MFST.DEGF                 74 : MUD FILTRATE SAMPLE TEMPERATURE
RMC .OHMM               1.92 : RESISTIVITY MUD CAKE
MCST.DEGF                 74 : MUD CAKE SAMPLE TEMPERATURE
RMB .OHMM              0.895 : RESISTIVITY MUD AT BHT
TCS .HRS                   3 : TIME CIRCULATED STOPPED
LUN .                   1572 : LOGGING UNIT NUMBER
LUL .                    EDM : LOGGING UNIT LOCATION
ENGI.                 HAINES : RECORDING ENGINEER
WITN.                 MORGAN : WITNESSED BY
CLNT.                A2DTECH : CLIENT CODE
ORIG.            2" 5" PRINT : ORIGIN OF DATA
UWI .       100102506415W500 : UNIQUE WELL ID
DICO. A2D Technologies, Inc. : DIGITIZING COMPANY
~Other -----------------------------------------------------
~ASCII -----------------------------------------------------
# ...
 5050.00000 1012.25560    0.88180  -55.30420    2.91640  137.46660   84.27190   10.98840    -999.25
 5100.00000  127.34530    8.89280  -64.81630    9.90950   83.76810   70.87200    9.51430    -999.25
 5150.00000  133.71300    7.68470  -64.02040   10.25770   79.79500   54.59380   11.09800    -999.25
 5200.00000  150.11310    7.38490  -59.48220   10.41230   80.77780   74.77180   10.76450    -999.25
 5250.00000  261.12840    4.51250  -53.10020    8.96850  122.14480   77.98380   12.41820    -999.25
 5300.00000  110.87010    9.55120  -85.86530   13.13890   90.16860   80.99200   12.13500    -999.25
 5350.00000  162.89350    6.71810  -48.85660    8.65020   74.43200   82.30830   11.33850    -999.25
 5400.00000  126.67310    8.49180  -81.88720   17.17430   83.13920   71.57900   11.54460    -999.25
 5450.00000  189.88050    5.87090  -49.70920    7.39940   87.79140   96.28150   11.49060    -999.25
 5500.00000  186.78130    5.60390 -104.29400   13.08930   79.68930   72.80240   10.69010    -999.25
 5550.00000  146.77040    7.18920  -62.76650   10.52960   82.07110   66.00690   10.75510    -999.25
 5600.00000  190.85760    5.43160  -53.64100    7.02200   80.08430   72.38830   12.00290    -999.25
 5650.00000  111.87360    9.00310  -49.56630    9.80640   71.79330   58.87510   11.64800    -999.25
 5700.00000  172.05560    5.82200  -46.80650    6.19900   82.93450   80.51940   12.85470    -999.25
 5750.00000  198.83900    5.30220 -107.44600   12.93070   81.27570   53.94210    8.10810    -999.25
 5800.00000  127.55320    8.98880  -43.41880    8.99960   79.41120   83.74450   12.47720    -999.25
 5850.00000  106.57890    9.73100  -48.85560   10.96120   72.69900   98.98380   13.26710    -999.25
 5900.00000   77.49990   13.65520  -72.78490   18.75220   72.37290   54.68000   11.94120    -999.25
 5950.00000  103.17060   10.04950  -51.53170    9.35110   69.40350   72.17020   10.75640    -999.25
 6000.00000  294.87260    3.79730  -45.16450    5.07850   85.07520   84.55490   13.99010    -999.25
 6050.00000   11.55720  111.24520  -54.41970   74.70260   64.38300   52.33280   10.10820    -999.25
 6100.00000   50.74660   21.85020  -75.17660   30.25600   56.11010   39.15990    8.82020    -999.25
 6150.00000   47.63720   24.69590  -62.97790   25.50900   58.83340   47.77510    9.84910    -999.25
 6200.00000   44.34800   24.39110  -62.89050   33.66580   62.54590   64.49080   10.44320    -999.25
 6250.00000   24.82640   44.85010  -83.50100   55.69240   55.38410   14.54050    9.36540    -999.25
 6300.00000  396.92170    2.88040 -110.31830   10.24610   58.69740   49.57750    9.82150    -999.25
 6350.00000   24.40580   43.32460 -126.82070   73.41820   53.28160   19.98760    9.24080    -999.25
 6400.00000   35.61480   30.54360 -161.80350   74.71920   56.03930   24.19590    9.02110    -999.25
 6450.00000   27.10440   36.23680 -164.52540   76.18100   54.24300   20.45010    9.15030    -999.25
 6500.00000  367.46880    2.88310  -64.51500    5.43700   67.10850   69.02720   10.67140    -999.25
 6550.00000  223.65340    4.72460  -59.56260    8.90140   68.39450   86.99710   10.43930    -999.25
 6600.00000   86.29510   11.96510  -58.16980   15.86950   62.76740   72.70250   10.19400    -999.25
 6650.00000   10.90470   94.63570  -68.18130   50.60280   53.83110   14.04940   11.15400    -999.25
 6700.00000    1.44270  160.09170  -56.84200   84.31490   55.62520   13.61900   11.22870    -999.25
 6750.00000   29.11520   33.58850  -45.55940   42.10610   59.21580   46.03940    8.67990    -999.25
 6800.00000   25.92480   38.78710  -57.31820   36.81930   56.18190   45.27230    9.74440    -999.25
 6850.00000   19.35260   50.24570  -57.68250   50.03940   56.03410   36.31310    9.13840    -999.25
 6900.00000   16.97410   51.20530  -57.79550   51.85980   55.31390   30.27030    9.53120    -999.25
 6950.00000   23.71950   41.71510  -43.21230   38.76170   57.50340   39.45010   10.54890    -999.25
 7000.00000   13.78640   67.68400  -37.26490   58.85750   60.49580   48.19700    8.77250    -999.25
 7050.00000  101.39390   10.19100  -49.26960   16.72940   79.24510  140.41800   12.34720    -999.25
 7100.00000   71.64870   15.26620  -52.11110   15.22000   95.17240  202.54380   11.94610    -999.25
 7150.00000    9.66180  107.10830  -84.93880   62.59970   53.69300   19.24760   10.95050    -999.25
 7200.00000    2.19740  268.87890 -106.66820   98.48490   50.67130   18.67720    9.88480    -999.25
 7250.00000    2.44710  269.05170 -105.41240   97.99710   49.31100   20.49990    9.83220    -999.25
 7300.00000   11.35160   81.73790 -132.07020   80.98180   50.04150   13.11200    9.67030    -999.25
 7350.00000    8.86230  122.98750 -108.03070   80.74360   50.74510   17.36420    9.20810    -999.25
 7400.00000   16.09820   67.33890 -162.21870   86.36890   54.75940   14.70580    8.51020    -999.25
 7450.00000   33.76630   29.61520 -178.79700   78.08270   51.36900   12.14690    9.73460    -999.25
 7500.00000   12.38640   84.95850 -152.85310   71.97480   50.69180   12.67560    9.65270    -999.25
 7550.00000   20.84190   46.97450 -149.38130   77.72530   52.46090   15.29380    9.27650    -999.25
 7600.00000    5.03020  160.29120 -125.44980   77.56430   49.73730   17.36560    9.23340    -999.25
 7650.00000    7.95000  161.50510 -117.32920   85.79210   49.37710   19.80980    9.68000    -999.25
 7700.00000   16.99590   61.27510 -158.16580   81.02980   53.94720   13.69800    9.00240    -999.25
 7750.00000    8.12190  146.61490 -165.44580   98.55330   50.18970   18.11180   10.37340    -999.25
 7800.00000   19.47480   49.29420 -167.48970   81.38790   53.79370   13.97910    8.48180    -999.25
 7850.00000    5.99550  181.42090 -112.49630  102.94810   49.70960   21.02660    9.37410    -999.25
 7900.00000   61.56760   17.32690  -83.18310   21.95970   53.76050   34.25950   10.21040    -999.25
 7950.00000   13.94750   84.52260 -125.94570   76.97020   51.05780   27.65300   10.25480    -999.25
 8000.00000   15.31490   48.61890 -100.79130   43.25460   52.18440   30.73880   11.05990    -999.25
 8050.00000   57.34070   18.44770  -87.21800   23.37270   54.37080   29.82070   10.45510    -999.25
 8100.00000   12.22330   95.00710  -41.95390   61.40950   52.62220   31.48490   11.08280    -999.25
 8150.00000   34.87020   31.09540  -27.49590   28.56860   55.43970   43.92540   12.21980    -999.25
 8200.00000   38.14590   29.26640  -26.12560   29.84060   59.53910   53.61170   11.46570    -999.25
 8250.00000   76.19880   14.39430  -27.94360   16.96310   62.68010   70.06180   11.50230    -999.25
 8300.00000  224.34030    4.93750  -29.89760    4.99660   80.10320  103.71340   15.48480    -999.25
 8350.00000  159.58620    6.81820  -22.55630    7.55890   72.09920   64.62130   13.52710    -999.25
 8400.00000   82.92140   13.04890  -25.16570   14.73340   65.55530   62.13390   12.25720    -999.25
 8450.00000  121.25660    8.79150  -26.41770   11.13990   72.40320   76.93690   12.70940    -999.25
 8500.00000  124.07560    8.62040  -29.79720    9.56320   73.87230   71.51640   12.39220    -999.25
 8550.00000  110.06440    9.99010  -24.93050   11.73670   71.15330   57.71110   12.48820    -999.25
 8600.00000   32.33550   29.66040  -35.34720   19.31340   57.42020   38.14280   11.29640    -999.25
 8650.00000  267.01980    4.10470  -37.43370    4.92670   75.15910   93.64500   15.23880    -999.25
 8700.00000  202.56640    5.17130  -27.30260    5.89420   75.94290   86.44390   14.87810    -999.25
 8750.00000   96.15730   11.25270  -26.80440   13.78710   66.26130   63.28450   11.10160    -999.25
 8800.00000  140.86210    7.69510  -32.74140    9.56110   76.02630   80.97460   12.52080    -999.25
 8850.00000  114.77190    9.41250  -30.03060   11.68450   70.03370   83.17730   11.58070    -999.25
 8900.00000   92.28280   12.00220  -36.20270   14.40980   65.60880   82.14860   10.65960    -999.25
 8950.00000  180.85880    6.03000  -48.49710    7.41570   86.41040   97.10720   14.89500    -999.25
 9000.00000  172.91790    6.20620  -50.25520    7.78130   82.91010   97.98010   15.59010    -999.25
