~Version ---------------------------------------------------
VERS.      2.0 : CWLS log ASCII Standard -VERSION 2.0
WRAP.       NO : One line per depth step
CREA. 11/20/17 : LAS Creation Date
~Well ------------------------------------------------------
STRT.FT                            1200.0 : START DEPTH
STOP.FT                           11350.0 : STOP DEPTH
STEP.FT                          50.00000 : STEP LENGTH
NULL.                             -999.25 : NULL VALUE
COMP.       AMOCO CANADA PETROLEUM CO LTD : COMPANY
WELL. AMOCO MOBIL L-2 WAHIGAN 10-16-64-23 : WELL
FLD .                                     : FIELD
LOC .                                     : LOCATION
CTRY.                              CANADA : COUNTRY
SRVC.                             Unknown : SERVICE COMPANY
DATE.                         06-Feb-1976 : LOGDATE
PROV.                             Alberta : PROVINCE
UWI .                    100101606423W500 : UNIQUE WELL ID
SLAT.WGS84                       54.53986 : SURFACE LATITUDE
SLON.WGS84                      -117.4124 : SURFACE LONGITUDE
~Curve Information -----------------------------------------
DEPT    .FT    : Depth Curve
ACED    .US/F  : ACOUSTIC TIME FROM SONIC LOG [ADJ. TO RESISTIVITY LOG]
CALDED  .IN    : CALIPER FROM DENSITY LOG
CALSED  .IN    : CALIPER FROM SONIC LOG [ADJ. TO RESISTIVITY LOG]
CALWS   .IN    : CALIPER [CALDED]
CONDWS  .MMHO  : CONDUCTIVITY [1000/DRESWS]
CORRED  .G/C3  : DENSITY CORRECTION FROM DENSITY LOG [ADJ. TO RESISTIVITY LOG]
DCORWS  .G/C3  : DENSITY CORRECTION [CORRED]
DENWS   .G/C3  : FORMATION BULK DENSITY [RHOBED]
DPHILSED.V/V   : DENSITY POROSITY LIMESTONE [M=2.71, F=1.00] FROM DENSITY LOG [ADJ. TO RESISTIVITY LOG]
DPHISSED.V/V   : DENSITY POROSITY SANDSTONE [M=2.65, F=1.00]FROM DENSITY LOG [ADJ. TO RESISTIVITY LOG]
DPOLSWS .V/V   : DENSITY POROSITY LIMESTONE [CALC. FROM DENWS, M=2.71, F=1.00]
DRESWS  .OHMM  : DEEP RESISTIVITY [ILDED]
DTWS    .US/F  : COMPRESSIONAL SONIC [ACED]
GRDED   .GAPI  : GAMMA RAY FROM DENSITY LOG
GRSED   .GAPI  : GAMMA RAY FROM SONIC LOG [ADJ. TO RESISTIVITY LOG]
GRWS    .GAPI  : GAMMA RAY [GRSED SPL. TO GRDED @ 11348']
ILDED   .OHMM  : DEEP INDUCTION LOG RESISTIVITY FROM RESISTIVITY LOG
ILMED   .OHMM  : MEDIUM INDUCTION LOG RESISTIVITY FROM RESISTIVITY LOG
MRESWS  .OHMM  : MEDIUM RESISTIVITY [ILMED]
NPHILSED.V/V   : NEUTRON POROSITY LIMESTONE FROM DENSITY LOG [ADJ. TO RESISTIVITY LOG]
NPHISSED.V/V   : NEUTRON POROSITY SANDSTONE FROM DENSITY LOG [ADJ. TO RESISTIVITY LOG]
NPOLSWS .V/V   : NEUTRON POROSITY LIMESTONE [NPHISSED MATRIX CONVERSION FOR LIMESTONE & SPL. TO NPHILSED @ 6845']
RHOBED  .G/C3  : BULK DENSITY FROM DENSITY LOG [ADJ. TO RESISTIVITY LOG]
SFLED   .OHMM  : SPHERICALLY FOCUSED RESISTIVITY FROM RESISTIVITY LOG
SPRED   .MV    : SPONTANEOUS POTENTIAL FROM RESISTIVITY LOG
SPWS    .MV    : SPONTANEOUS POTENTIAL [BASELINE 0 MV, SPRED]
SRESWS  .OHMM  : SHALLOW RESISTIVITY [SFLED]
~Params ----------------------------------------------------
PD  .                     GL : PERMANENT DATUM
EPD .FT               2628.5 : ELEVATION PERMANENT DATUM
LMF .                     KB : LOG MEASURED FROM
DAPD.FT                 13.5 : FEET ABOVE PERMANENT DATUM
DMF .                     KB : DRILLING MEASURED FROM
EKB .FT                 2642 : KELLY BUSHING
EGL .FT               2628.5 : GROUND LEVEL
DATE.               02/06/76 : RUN DATE
RUN .                      1 : RUN NUMBER
DD  .FT                11378 : DEPTH DRILLER
DL  .FT                11410 : DEPTH LOGGER
BLI .FT                11408 : BOTTOM LOG INTERVAL
TLI .FT                 1219 : TOP LOG INTERVAL
CS  .IN                9.625 : CASING SIZE
CBD .FT                 1208 : CASING BOTTOM DRILLER
CBL .FT                 1219 : CASING BOTTOM LOGGER
BS  .IN                 8.75 : BIT SIZE
BSD .FT                11378 : BIT SIZE AT DEPTH
DFT .           MUD GEL CHEM : DRILLING FLUID TYPE
DFD .                    9.3 : DRILLING FLUID DENSITY
DFV .                    135 : DRILLING FLUID VISCOSITY
DFPH.                     10 : DRILLING FLUID PH
DFL .                    8.1 : DRILLING FLUID LOSS
MSS .                   CIRC : MUD SAMPLE SOURCE
RMS .OHMM                3.5 : RESISTIVITY MUD SAMPLE
MST .DEGF                 67 : MUD SAMPLE TEMPERATURE
RMF .OHMM                3.5 : RESISTIVITY MUD FILTRATE SAMPLE
MFST.DEGF                 62 : MUD FILTRATE SAMPLE TEMPERATURE
RMC .OHMM                2.8 : RESISTIVITY MUD CAKE
MCST.DEGF                 67 : MUD CAKE SAMPLE TEMPERATURE
MFSS.                   MEAS : MUD FILTRATE SAMPLE SOURCE
MCSS.                   MEAS : MUD CAKE SAMPLE SOURCE
RMB .OHMM               1.21 : RESISTIVITY MUD AT BHT
TCS .HRS                   7 : TIME CIRCULATED STOPPED
LUN .                   6155 : LOGGING UNIT NUMBER
LUL .                    EDM : LOGGING UNIT LOCATION
ENGI.                    GAU : RECORDING ENGINEER
WITN.                  KAREL : WITNESSED BY
CLNT.                A2DTECH : CLIENT CODE
ORIG.            2" 5" PRINT : ORIGIN OF DATA
UWI .       100101606423W500 : UNIQUE WELL ID
DICO. A2D Technologies, Inc. : DIGITIZING COMPANY
~Other -----------------------------------------------------
~ASCII -----------------------------------------------------
# ...
 5100.00000   84.71810   13.26100   11.82370   13.26100  181.23820    0.16850    0.16850    1.83080    -999.25    0.51050    0.51420    5.51760   84.71810  146.62150   93.48700   93.48700    5.51760    5.25560    5.25560    -999.25    0.44640    0.40640    1.83080    7.03220  -60.85430   -7.88430    7.03220
 5150.00000   86.56450   14.66130   12.03590   14.66130  185.55970    0.09740    0.09740    2.59030    -999.25    0.03640    0.07000    5.38910   86.56450  149.16470  101.65040  101.65040    5.38910    5.70790    5.70790    -999.25    0.40850    0.36850    2.59030    6.93180  -58.75460   -6.15170    6.93180
 5200.00000  102.32230   14.51820   11.08370   14.51820  219.33350    0.21630    0.21630    2.60690    -999.25    0.02690    0.06030    4.56180  102.32230  217.01010  139.15440  139.15440    4.56180    4.90180    4.90180    -999.25    0.43260    0.39260    2.60690    5.70490  -59.34190   -7.10850    5.70490
 5250.00000  106.93260   14.52100   10.94160   14.52100  373.25970    0.20360    0.20360    2.55270    -999.25    0.05990    0.09200    2.67910  106.93260  158.70850  104.65210  104.65210    2.67910    2.90360    2.90360    -999.25    0.45470    0.41480    2.55270    3.85930  -61.00820   -9.14180    3.85930
 5300.00000   87.44700   14.41620   11.37670   14.41620  191.78030    0.24230    0.24230    2.67770    -999.25   -0.00030    0.01890    5.21430   87.44700  150.06290   96.39170   96.39170    5.21430    5.43230    5.43230    -999.25    0.34990    0.30990    2.67770    5.94350  -59.60260   -8.10330    5.94350
 5350.00000   88.50900   12.97710   11.57960   12.97710  152.80010    0.13550    0.13550    2.58630    -999.25    0.03990    0.07240    6.54450   88.50900  149.43480  103.02960  103.02960    6.54450    7.00380    7.00380    -999.25    0.33780    0.29780    2.58630    7.97810  -61.53010  -10.40030    7.97810
 5400.00000   85.09350   10.04720    9.75630   10.04720  107.13520    0.10260    0.10260    2.53310    -999.25    0.07210    0.10350    9.33400   85.09350  157.78230  120.26670  120.26670    9.33400    9.85140    9.85140    -999.25    0.33410    0.29410    2.53310   10.58950  -82.62140  -31.85870   10.58950
 5450.00000   75.50880   10.20730    9.55260   10.20730   78.31280    0.08920    0.08920    2.53050    -999.25    0.07390    0.10500   12.77180   75.50880  115.44720   87.94230   87.94230   12.77180   15.02380   15.02380    -999.25    0.25040    0.21040    2.53050   18.10890  -83.22950  -32.83630   18.10890
 5500.00000   79.31430   10.82480   10.49440   10.82480  119.18100    0.15350    0.15350    2.45090    -999.25    0.12570    0.15150    8.39060   79.31430  116.75250   89.82690   89.82690    8.39060    9.17500    9.17500    -999.25    0.30650    0.26650    2.45090   13.06740  -63.60840  -13.58230   13.06740
 5550.00000   79.17160   10.47240    9.23920   10.47240   78.33430    0.17720    0.17720    2.53120    -999.25    0.07320    0.10460   12.76580   79.17160  101.09560   75.64870   75.64870   12.76580   15.00650   15.00650    -999.25    0.28830    0.24830    2.53120   15.85210  -95.73210  -46.07300   15.85210
 5600.00000   75.74010   10.62660    9.59240   10.62660   44.87830    0.06910    0.06910    2.50560    -999.25    0.11220    0.11950   22.28250   75.74010   79.65970   56.58260   56.58260   22.28250   27.83930   27.83930    -999.25    0.25820    0.21820    2.50560   35.55330  -73.64120  -24.35160   35.55330
 5650.00000   76.56600   10.82500    9.33490   10.82500   59.41840    0.12760    0.12760    2.52090    -999.25    0.07830    0.11060   16.82980   76.56600   82.34550   55.05020   55.05020   16.82980   20.26230   20.26230    -999.25    0.24110    0.20110    2.52090   22.64100  -64.71350  -15.79100   22.64100
 5700.00000   82.16400   11.98520   11.31030   11.98520  136.01180    0.11840    0.11840    2.59520    -999.25    0.03600    0.06710    7.35240   82.16400  132.50140   85.52120   85.52120    7.35240    7.82320    7.82320    -999.25    0.33470    0.29470    2.59520    8.54070  -54.56950   -6.01650    8.54070
 5750.00000  110.93420   11.38120   11.29040   11.38120  115.29240    0.14070    0.14070    1.84860    -999.25    0.43020    0.50370    8.67360  110.93420  114.28850   80.38290   80.38290    8.67360    9.08350    9.08350    -999.25    0.48780    0.44850    1.84860   22.17020  -50.51810   -2.33220   22.17020
 5800.00000   75.61500   11.48950   10.24720   11.48950   75.33860    0.08770    0.08770    2.61320    -999.25    0.02510    0.05660   13.27340   75.61500  122.93340   81.28780   81.28780   13.27340   13.80580   13.80580    -999.25    0.30840    0.26840    2.61320   18.82910  -67.59850  -19.77970   18.82910
 5850.00000  109.71330   12.86430   10.91840   12.86430  101.66420    0.12170    0.12170    1.85830    -999.25    0.48810    0.49810    9.83630  109.71330  100.64870   62.62150   62.62150    9.83630   11.24160   11.24160    -999.25    0.43810    0.39810    1.85830   52.01410  -34.64640   12.80290   52.01410
 5900.00000   70.01170   11.43940   10.51490   11.43940  101.33460    0.05210    0.05210    2.60580    -999.25    0.02790    0.06090    9.86830   70.01170  101.22730   64.32640   64.32640    9.86830   11.54720   11.54720    -999.25    0.22070    0.18070    2.60580   17.04900  -35.57550   11.50680   17.04900
 5950.00000   75.09410   11.10190   10.41610   11.10190   82.63040    0.09010    0.09010    2.45010    -999.25    0.12460    0.15200   12.10720   75.09410   96.64610   67.10730   67.10730   12.10720   15.85960   15.85960    -999.25    0.32040    0.28040    2.45010   21.21280  -28.39950   18.31330   21.21280
 6000.00000   72.79600   11.33430   10.21640   11.33430   76.34700    0.20010    0.20010    2.36070    -999.25    0.18100    0.20430   13.09810   72.79600  118.37940   76.64430   76.64430   13.09810   14.24510   14.24510    -999.25    0.33410    0.29410    2.36070   18.60820  -38.52030    7.82540   18.60820
 6050.00000   85.69380   11.42290   11.00570   11.42290   77.45990    0.10290    0.10290    2.50440    -999.25    0.08900    0.12020   12.90990   85.69380  104.24410   78.80170   78.80170   12.90990   14.84150   14.84150    -999.25    0.45600    0.41610    2.50440   15.80410  -41.99140    3.98720   15.80410
 6100.00000   73.55920   11.07140   10.22720   11.07140   52.89520    0.15390    0.15390    2.60230    -999.25    0.03100    0.06300   18.90530   73.55920   77.41070   56.88030   56.88030   18.90530   17.35410   17.35410    -999.25    0.30900    0.26900    2.60230   19.61360  -87.24760  -41.63850   19.61360
 6150.00000   73.58690   10.93830   10.37090   10.93830   90.91820    0.08680    0.08680    2.58130    -999.25    0.04330    0.07530   10.99890   73.58690   88.39600   60.48230   60.48230   10.99890   13.94040   13.94040    -999.25    0.27900    0.23900    2.58130   20.79370  -79.99300  -34.75100   20.79370
 6200.00000   62.41690   10.75070    9.89560   10.75070   74.64700    0.09510    0.09510    2.57230    -999.25    0.04880    0.08050   13.40290   62.41690   86.23310   60.58130   60.58130   13.40290   18.19090   18.19090    -999.25    0.26240    0.22240    2.57230   34.73960  -70.12570  -25.25320   34.73960
 6250.00000   65.33090   10.84730    9.99380   10.84730   57.60630    0.07820    0.07820    2.64800    -999.25    0.00420    0.03630   17.35920   65.33090  109.05380   74.51040   74.51040   17.35920   20.76540   20.76540    -999.25    0.26580    0.22580    2.64800   51.74230  -55.47370  -10.96820   51.74230
 6300.00000   74.71240   11.06660   10.41040   11.06660   83.14760    0.22410    0.22410    2.73020    -999.25    0.00010   -0.01180   12.02680   74.71240  123.82550   86.92770   86.92770   12.02680   12.75450   12.75450    -999.25    0.31820    0.27820    2.73020   16.08750  -62.49330  -18.35490   16.08750
 6350.00000   69.45210   11.19640   10.11890   11.19640   52.30670    0.08040    0.08040    2.60870    -999.25    0.02530    0.05920   19.11800   69.45210   94.41730   67.44520   67.44520   19.11800   20.40650   20.40650    -999.25    0.23600    0.19600    2.60870   21.97350  -63.86960  -20.10070   21.97350
