~Version ---------------------------------------------------
VERS.      2.0 : CWLS log ASCII Standard -VERSION 2.0
WRAP.       NO : One line per depth step
CREA. 08/31/17 : LAS Creation Date
~Well ------------------------------------------------------
STRT.FT                        1050.0 : START DEPTH
STOP.FT                       10000.0 : STOP DEPTH
STEP.FT                      50.00000 : STEP LENGTH
NULL.                         -999.25 : NULL VALUE
COMP.     SAMEDAN OIL OF CANADA, INC. : COMPANY
WELL. SAMEDAN ET AL GROAT 11-26-58-14 : WELL
FLD .                              WC : FIELD
LOC .                                 : LOCATION
CTRY.                          CANADA : COUNTRY
SRVC.                    Schlumberger : SERVICE COMPANY
DATE.                     02-Sep-1971 : LOGDATE
PROV.                         Alberta : PROVINCE
UWI .                100112605814W500 : UNIQUE WELL ID
SLAT.WGS84              54.0443223027 : SURFACE LATITUDE
SLON.WGS84            -115.9745953407 : SURFACE LONGITUDE
~Curve Information -----------------------------------------
DEPT  .FT    : Depth Curve
CALSED.IN    : CALIPER FROM SONIC LOG
CALWS .IN    : CALIPER [CALSED]
CONDWS.MMHO  : CONDUCTIVITY [1000/DRESWS]
DRESWS.OHMM  : DEEP RESISTIVITY [ILDED]
DTED  .US/F  : DELTA-T (INTERVAL TRANSIT TIME) FROM SONIC LOG [DEPTH ADJ TO LL8]
DTWS  .US/F  : COMPRRESSIONAL SONIC [DTED]
GRSED .GAPI  : GAMMA RAY FROM SONIC LOG
GRWS  .GAPI  : GAMMA RAY [GRSED]
ILDED .OHMM  : DEEP INDUCTION FROM RESISTIVIY LOG
ILMED .OHMM  : MEDIUM INDUCTION  FROM RESISTIVIY LOG
LL8ED .OHMM  : LATEROLOG 8  FROM RESISTIVIY LOG
MRESWS.OHMM  : MEDIUM RESISTIVITY [ILMED]
SPRED .MV    : SPONTANEOUS POTENTIAL  FROM RESISTIVIY LOG
SPWS  .MV    : SPONTANEOUS POTENTIAL [BASELINE 0 MV, SPRED]
SRESWS.OHMM  : SHALLOW RESISTIVITY [LL8ED]
~Params ----------------------------------------------------
PD  .                     GL : PERMANENT DATUM
EPD .FT               3086.5 : ELEVATION PERMANENT DATUM
LMF .                     KB : LOG MEASURED FROM
DAPD.FT                   18 : FEET ABOVE PERMANENT DATUM
DMF .                     KB : DRILLING MEASURED FROM
EKB .FT               3104.5 : KELLY BUSHING
EGL .FT               3086.5 : GROUND LEVEL
DATE.               09/02/71 : RUN DATE
RUN .                      1 : RUN NUMBER
DD  .FT                10023 : DEPTH DRILLER
DL  .FT                10020 : DEPTH LOGGER
BLI .FT                10014 : BOTTOM LOG INTERVAL
TLI .FT                 1042 : TOP LOG INTERVAL
CBD .FT                 1043 : CASING BOTTOM DRILLER
CBL .FT                 1042 : CASING BOTTOM LOGGER
BS  .IN                 8.75 : BIT SIZE
BSD .FT                10023 : BIT SIZE AT DEPTH
DFT .                    GEL : DRILLING FLUID TYPE
DFD .                    9.1 : DRILLING FLUID DENSITY
DFV .                    145 : DRILLING FLUID VISCOSITY
DFPH.                    9.5 : DRILLING FLUID PH
DFL .                     88 : DRILLING FLUID LOSS
MSS .               FLOWLINE : MUD SAMPLE SOURCE
RMS .OHMM               1.22 : RESISTIVITY MUD SAMPLE
MST .DEGF                 82 : MUD SAMPLE TEMPERATURE
RMF .OHMM                1.0 : RESISTIVITY MUD FILTRATE SAMPLE
MFST.DEGF                 82 : MUD FILTRATE SAMPLE TEMPERATURE
TCS .HRS                 2.5 : TIME CIRCULATED STOPPED
LUN .                   7636 : LOGGING UNIT NUMBER
LUL .                    EDM : LOGGING UNIT LOCATION
ENGI.            LEITH KEOWN : RECORDING ENGINEER
WITN.           MASON MCLEOD : WITNESSED BY
CLNT.                A2DTECH : CLIENT CODE
ORIG.            2" 5" PRINT : ORIGIN OF DATA
UWI .       100112605814W500 : UNIQUE WELL ID
DICO. A2D Technologies, Inc. : DIGITIZING COMPANY
~Other -----------------------------------------------------
~ASCII -----------------------------------------------------
# ...
 7950.00000    9.50640    9.50640    0.51430 1944.49110   47.67710   47.67710   12.29900   12.29900 1944.49110  520.89410  264.18080  520.89410 -167.77090  -89.12240  264.18080
 8000.00000    8.32260    8.32260    6.84110  146.17560   51.22850   51.22850    9.46880    9.46880  146.17560  117.14420  110.71890  117.14420 -175.89560  -96.73980  110.71890
 8050.00000    9.10860    9.10860   23.19860   43.10600   48.53850   48.53850   14.43360   14.43360   43.10600   65.39550  345.52190   65.39550 -163.16540  -83.50240  345.52190
 8100.00000    9.17440    9.17440  106.38520    9.39980   63.45920   63.45920   98.71020   98.71020    9.39980    9.84870   10.33020    9.84870 -112.36610  -32.19250   10.33020
 8150.00000    8.31030    8.31030   35.40560   28.24410   50.95090   50.95090   19.93080   19.93080   28.24410   57.64940   92.64380   57.64940 -174.32660  -93.64570   92.64380
 8200.00000    9.84630    9.84630    0.76440 1308.16990   48.68230   48.68230   16.62620   16.62620 1308.16990  110.99520  157.36610  110.99520 -164.95010  -83.75870  157.36610
 8250.00000    9.23640    9.23640    0.58950 1696.43970   48.48300   48.48300   17.48760   17.48760 1696.43970  132.64720   76.68320  132.64720 -153.08730  -71.38860   76.68320
 8300.00000    8.91670    8.91670    6.89250  145.08550   53.16680   53.16680   33.79800   33.79800  145.08550   99.87610   89.23050   99.87610 -102.48050  -20.27460   89.23050
 8350.00000    8.97030    8.97030    0.49720 2011.20040   53.36800   53.36800   27.54760   27.54760 2011.20040  124.11300  103.36180  124.11300  -89.39340   -6.85710  103.36180
 8400.00000    9.11420    9.11420   23.47520   42.59820   59.69040   59.69040   46.52940   46.52940   42.59820   23.16850   21.39560   23.16850  -89.67130   -7.13500   21.39560
 8450.00000    9.18330    9.18330   68.09990   14.68430   64.58700   64.58700   57.32730   57.32730   14.68430   10.10010   11.42190   10.10010  -87.99420   -5.45790   11.42190
 8500.00000    8.99130    8.99130   63.59870   15.72360   63.32930   63.32930   53.70660   53.70660   15.72360   11.25250   13.16160   11.25250  -87.67570   -5.13940   13.16160
 8550.00000    9.05630    9.05630   65.42750   15.28410   63.65310   63.65310   54.72390   54.72390   15.28410   12.07670   13.43100   12.07670  -90.75710   -8.22080   13.43100
 8600.00000   15.47830   15.47830  225.20490    4.44040   86.51100   86.51100   77.37160   77.37160    4.44040    3.10430    3.85120    3.10430  -95.43630  -12.90000    3.85120
 8650.00000   14.56160   14.56160  144.69270    6.91120   76.50450   76.50450   72.97430   72.97430    6.91120    6.25480    7.52670    6.25480  -74.51910    8.01720    7.52670
 8700.00000    8.81440    8.81440   33.13660   30.17810   54.08250   54.08250   36.93540   36.93540   30.17810   25.55900   55.24860   25.55900  -87.84490   -5.30860   55.24860
 8750.00000   11.60840   11.60840  155.70500    6.42240   77.74270   77.74270   73.67560   73.67560    6.42240    5.84630    6.89580    5.84630  -80.02580    2.51050    6.89580
 8800.00000   10.61900   10.61900  148.93810    6.71420   73.86290   73.86290   68.36770   68.36770    6.71420    6.12770    7.56460    6.12770  -73.90130    8.63500    7.56460
 8850.00000    8.78490    8.78490   66.22380   15.10030   65.30260   65.30260   77.81010   77.81010   15.10030   13.84910   15.88780   13.84910  -89.12610   -6.58980   15.88780
 8900.00000    9.01590    9.01590   84.67190   11.81030   64.33710   64.33710   67.44580   67.44580   11.81030   10.48160   12.52960   10.48160  -92.26700   -9.73070   12.52960
 8950.00000    9.02150    9.02150   70.08250   14.26890   66.07440   66.07440   78.41270   78.41270   14.26890   11.97770   13.59500   11.97770  -90.80640   -8.27010   13.59500
 9000.00000    9.12310    9.12310   87.81170   11.38800   68.23580   68.23580   67.80070   67.80070   11.38800    9.20460   10.80020    9.20460  -90.25550   -8.14700   10.80020
 9050.00000    8.93280    8.93280   94.48220   10.58400   68.39200   68.39200   75.16860   75.16860   10.58400    9.07080   11.15750    9.07080  -88.62500   -7.24700   11.15750
 9100.00000    8.84070    8.84070   92.39160   10.82350   68.76070   68.76070   94.45840   94.45840   10.82350   10.17610   12.71710   10.17610  -88.21150   -7.56890   12.71710
 9150.00000    9.10260    9.10260  136.95250    7.30180   74.79760   74.79760  104.26940  104.26940    7.30180    7.91750    9.36960    7.91750  -89.23530   -9.32330    9.36960
 9200.00000    9.35320    9.35320  141.31880    7.07620   76.16880   76.16880  103.77070  103.77070    7.07620    7.52750    8.72610    7.52750  -87.74600   -8.56940    8.72610
 9250.00000    8.85100    8.85100  140.06780    7.13940   71.77010   71.77010   92.03970   92.03970    7.13940    7.67930    8.89740    7.67930  -85.55760   -7.11160    8.89740
 9300.00000    8.85580    8.85580  141.82590    7.05090   72.34810   72.34810   88.68500   88.68500    7.05090    7.44170    9.19840    7.44170  -84.04950   -6.33400    9.19840
 9350.00000    8.76570    8.76570  103.31330    9.67930   69.96680   69.96680   98.35160   98.35160    9.67930   10.71400   13.14040   10.71400  -83.60460   -6.62450   13.14040
 9400.00000    8.78310    8.78310    9.69440  103.15230   51.70100   51.70100   24.25730   24.25730  103.15230  162.16850  146.63980  162.16850  -80.74460   -4.49510  146.63980
 9450.00000    8.83720    8.83720   10.93960   91.41070   60.94530   60.94530   58.90890   58.90890   91.41070   81.68640   78.42660   81.68640  -79.22370   -3.70960   78.42660
 9500.00000    8.71920    8.71920   69.19790   14.45130   74.08560   74.08560  100.39900  100.39900   14.45130   12.67340   16.22310   12.67340  -82.14610   -7.36250   16.22310
 9550.00000    8.79500    8.79500    2.38690  418.95180   49.25480   49.25480   10.33430   10.33430  418.95180  888.01400  663.02310  888.01400 -109.62060  -35.11100  663.02310
 9600.00000    8.78010    8.78010    2.44460  409.06790   48.58020   48.58020    9.70010    9.70010  409.06790  465.35530 1777.09170  465.35530 -128.88520  -54.48730 1777.09170
 9650.00000    8.84640    8.84640    1.99440  501.39180   48.34480   48.34480    9.19440    9.19440  501.39180  463.52260  785.99680  463.52260 -125.39560  -51.10860  785.99680
 9700.00000    8.92550    8.92550    2.11120  473.66740   48.66430   48.66430   10.36630   10.36630  473.66740  310.19710 1990.37510  310.19710 -132.31020  -58.13480 1990.37510
 9750.00000    8.84710    8.84710    3.53730  282.70140   49.16420   49.16420    7.64710    7.64710  282.70140  145.05680  152.61620  145.05680 -160.87350  -86.80900  152.61620
 9800.00000    8.83810    8.83810    2.29810  435.14520   48.63130   48.63130    8.48800    8.48800  435.14520  202.29640  261.11870  202.29640 -161.72910  -87.77550  261.11870
 9850.00000    8.84750    8.84750    2.40070  416.53830   49.00140   49.00140   10.64220   10.64220  416.53830 1165.11830 1972.97970 1165.11830 -143.69750  -69.85560 1972.97970
 9900.00000    8.95980    8.95980    1.95770  510.79260   51.68020   51.68020   11.84700   11.84700  510.79260  275.11400 1756.33630  275.11400 -133.46040  -59.72940 1756.33630
 9950.00000    8.92530    8.92530   32.77930   30.50710   58.67260   58.67260   89.73240   89.73240   30.50710   28.90610   72.59490   28.90610  -85.96680  -12.34740   72.59490
 10000.00000    8.78540    8.78540   28.54760   35.02920   60.11550   60.11550    -999.25    -999.25   35.02920   36.77220   53.45560   36.77220 -117.85630  -44.25810   53.45560
