~Version ---------------------------------------------------
VERS.      2.0 : CWLS log ASCII Standard -VERSION 2.0
WRAP.       NO : One line per depth step
CREA. 11/07/17 : LAS Creation Date
~Well ------------------------------------------------------
STRT.FT                         300.0 : START DEPTH
STOP.FT                        5850.0 : STOP DEPTH
STEP.FT                      50.00000 : STEP LENGTH
NULL.                         -999.25 : NULL VALUE
COMP.                    PETRO-CANADA : COMPANY
WELL. PACIFIC ET AL UTIKUMA 2-22-81-8 : WELL
FLD .                                 : FIELD
LOC .                                 : LOCATION
CTRY.                          CANADA : COUNTRY
SRVC.          Schlumberger of Canada : SERVICE COMPANY
DATE.                     19-Jan-1966 : LOGDATE
PROV.                         Alberta : PROVINCE
UWI .                100022208108W500 : UNIQUE WELL ID
SLAT.WGS84              56.0307680892 : SURFACE LATITUDE
SLON.WGS84            -115.1588226971 : SURFACE LONGITUDE
~Curve Information -----------------------------------------
DEPT  .FT    : Depth Curve
CALWS .IN    : CALIPER [MCALED]
CILDED.MMHO  : CONDUCTIVITY FROM IEL LOG
CONDWS.MMHO  : CONDUCTIVITY [1000/DRESWS]
DRESWS.OHMM  : DEEP RESISTIVITY [ILDED]IF ILDED<5;1000/CILDED;ELSE ILDED
DTED  .US/F  : DELTA TIME FROM SONIC LOG
DTWS  .US/F  : DELTA TIME [DTED]
GRSED .GAPI  : GAMMA RAY FROM SONIC LOG [DEPTH ADJ TO IEL LOG]
GRWS  .GAPI  : GAMMA RAY [GRSED]
ILDED .OHMM  : INDUCTION LOG DEEP RESISTIVITY
MCALED.IN    : CALIPER FROM MICROLOG
SNED  .OHMM  : 16 INCH SHORT NORMAL RESISTIVITY FROM IEL LOG
SPRED .MV    : SPONTANEOUS POTENTIAL FROM IEL LOG
SPWS  .MV    : SPONTANEOUS POTENTIAL [BASELINE 0 MV] [SPRED REVERSED IN SOME AREAS]
SRESWS.OHMM  : SHALLOW RESISTIVITY [SNED]
~Params ----------------------------------------------------
PD  .                     GL : PERMANENT DATUM
EPD .FT               2148.3 : ELEVATION PERMANENT DATUM
LMF .                     KB : LOG MEASURED FROM
DAPD.FT                 13.7 : FEET ABOVE PERMANENT DATUM
EKB .FT                 2162 : KELLY BUSHING
EGL .FT               2148.3 : GROUND LEVEL
DATE.               01/19/66 : RUN DATE
RUN .                      1 : RUN NUMBER
DD  .FT                 5855 : DEPTH DRILLER
DL  .FT                 5855 : DEPTH LOGGER
BLI .FT                 5854 : BOTTOM LOG INTERVAL
TLI .FT                  658 : TOP LOG INTERVAL
CBD .FT                  657 : CASING BOTTOM DRILLER
CBL .FT                  658 : CASING BOTTOM LOGGER
BS  .IN                7.875 : BIT SIZE
BSD .FT                 5855 : BIT SIZE AT DEPTH
DFT .                    GEL : DRILLING FLUID TYPE
DFD .                   10.1 : DRILLING FLUID DENSITY
DFV .                    115 : DRILLING FLUID VISCOSITY
DFPH.                     11 : DRILLING FLUID PH
DFL .                     10 : DRILLING FLUID LOSS
RMS .OHMM                 10 : RESISTIVITY MUD SAMPLE
MST .DEGF                 61 : MUD SAMPLE TEMPERATURE
RMF .OHMM               0.73 : RESISTIVITY MUD FILTRATE SAMPLE
MFST.DEGF                 59 : MUD FILTRATE SAMPLE TEMPERATURE
RMC .OHMM               1.21 : RESISTIVITY MUD CAKE
MCST.DEGF                 63 : MUD CAKE SAMPLE TEMPERATURE
RMB .OHMM                0.5 : RESISTIVITY MUD AT BHT
TCS .HRS                   2 : TIME CIRCULATED STOPPED
LUN .                   2548 : LOGGING UNIT NUMBER
LUL .                     SL : LOGGING UNIT LOCATION
ENGI.               PICKFORD : RECORDING ENGINEER
WITN.                 CHETIN : WITNESSED BY
CLNT.                A2DTECH : CLIENT CODE
ORIG.            2" 5" PRINT : ORIGIN OF DATA
UWI .       100022208108W500 : UNIQUE WELL ID
DICO. A2D Technologies, Inc. : DIGITIZING COMPANY
~Other -----------------------------------------------------
~ASCII -----------------------------------------------------
# ...
 2750.00000    9.21360   26.25360   22.76690   43.92350   53.95260   53.95260   12.89360   12.89360   43.92350    9.21360   70.08220  -98.98430  -36.41530   70.08220
 2800.00000    8.75690   32.26670   28.61710   34.94410   53.87600   53.87600   12.54600   12.54600   34.94410    8.75690   67.44060 -112.80710  -46.57810   67.44060
 2850.00000    8.25310   58.21740   55.32680   18.07450   58.71940   58.71940   12.32860   12.32860   18.07450    8.25310   56.11320 -116.07170  -46.16440   56.11320
 2900.00000    8.58920   20.31750   15.40180   64.92740   54.79920   54.79920    9.94500    9.94500   64.92740    8.58920   78.97680  -89.09720  -16.32150   78.97680
 2950.00000    7.78160   39.87270   37.70000   26.52660   54.92190   54.92190   15.27530   15.27530   26.52660    7.78160   72.15630 -113.62250  -40.54750   72.15630
 3000.00000    8.34990   19.25870   14.02690   71.29170   52.72940   52.72940   12.94780   12.94780   71.29170    8.34990   74.64880  -85.93040  -12.55900   74.64880
 3050.00000    8.45600   25.12860   22.08960   45.27020   53.71780   53.71780   11.24450   11.24450   45.27020    8.45600   79.97530 -105.54560  -31.87640   79.97530
 3100.00000    8.12740   17.19220   11.92870   83.83240   51.62500   51.62500   10.42300   10.42300   83.83240    8.12740   91.33730  -96.24640  -22.27780   91.33730
 3150.00000    8.06810   22.31710   16.24240   61.56730   55.69320   55.69320   12.37220   12.37220   61.56730    8.06810   92.23830 -103.35520  -29.09030   92.23830
 3200.00000    8.11980   16.05530   11.33720   88.24420   51.35510   51.35510    9.61570    9.61570   88.24420    8.11980  100.63820  -97.02910  -22.46500  100.63820
 3250.00000    7.96710   19.07860   14.46280   69.14310   51.93400   51.93400   12.27950   12.27950   69.14310    7.96710  113.23470 -106.31860  -31.45810  113.23470
 3300.00000    8.41190   14.42570   10.27370   97.33590   52.46910   52.46910   11.43230   11.43230   97.33590    8.41190   72.07170  -98.26140  -23.10300   72.07170
 3350.00000    8.44430   13.42470    9.44170  106.18210   48.85000   48.85000    7.48890    7.48890  106.18210    8.44430  112.49710 -104.56580  -29.10810  112.49710
 3400.00000    8.53630   26.09420   21.52360   46.46060   52.85390   52.85390   11.77190   11.77190   46.46060    8.53630   90.15950 -126.26290  -50.50890   90.15950
 3450.00000   10.31730  192.33840  194.02590    5.15430   87.62240   87.62240   81.78560   81.78560    5.15430   10.31730    6.89370  -79.06990   -1.93390    6.89370
 3500.00000    7.99640   43.34660   42.60030   23.47400   51.08860   51.08860   13.82070   13.82070   23.47400    7.99640   49.85000 -125.90120  -38.21060   49.85000
 3550.00000    8.12400   58.19300   55.82100   17.91440   51.35540   51.35540   11.17300   11.17300   17.91440    8.12400   42.51390 -139.75460  -41.45620   42.51390
 3600.00000    8.09080   81.00570   79.31630   12.60770   53.92830   53.92830   63.46050   63.46050   12.60770    8.09080   24.04310 -130.23810  -19.29700   24.04310
 3650.00000    7.97380   41.18490   34.28580   29.16660   53.45010   53.45010   37.28580   37.28580   29.16660    7.97380   50.47060 -140.53010  -15.77470   50.47060
 3700.00000    7.86230   38.60490   34.31880   29.14080   50.33480   50.33480   25.17810   25.17810   29.14080    7.86230   55.77740 -149.02370  -10.31510   55.77740
 3750.00000    7.89020   31.09340   28.56580   35.00690   49.75150   49.75150   11.99260   11.99260   35.00690    7.89020   72.71830    -999.25    -999.25   72.71830
 3800.00000    8.08140  118.63990  102.51680    9.75450   62.75540   62.75540   45.46530   45.46530    9.75450    8.08140   18.77730 -122.57640   25.81740   18.77730
 3850.00000    8.22510  115.34270  118.61720    8.43110   72.19270   72.19270   62.57870   62.57870    8.43110    8.22510   11.96340 -108.11840   29.76540   11.96340
 3900.00000    8.69270  200.65620  200.65620    4.98360   83.24500   83.24500   70.95430   70.95430    4.63770    8.69270    5.74870 -114.03840   13.43990    5.74870
 3950.00000    8.87780  211.51860  211.51860    4.72780   84.72690   84.72690   58.22490   58.22490    4.65160    8.87780    6.25670 -110.68350   17.57600    6.25670
 4000.00000    8.22590  172.63800  180.97580    5.52560   74.34040   74.34040   59.56610   59.56610    5.52560    8.22590    7.90240 -115.33680   14.40600    7.90240
 4050.00000   10.57840  399.48000  399.48000    2.50330  101.14490  101.14490   84.20730   84.20730    2.25590   10.57840    2.97670 -125.43570    5.79780    2.97670
 4100.00000   10.59760  435.95830  435.95830    2.29390  107.19150  107.19150   91.23840   91.23840    1.97770   10.59760    2.47400 -128.20410    4.52740    2.47400
 4150.00000   10.07960  282.84280  282.84280    3.53550   97.96850   97.96850   78.81890   78.81890    3.23200   10.07960    3.88240 -125.10840    9.10640    3.88240
 4200.00000   10.01130  326.61780  326.61780    3.06240   91.00270   91.00270   80.28170   80.28170    2.99610   10.01130    3.92190 -124.42090    7.95480    3.92190
 4250.00000    8.15470  130.48180  132.86920    7.52620   77.36660   77.36660   64.61520   64.61520    7.52620    8.15470   11.35490 -107.01750   -4.91520   11.35490
 4300.00000    8.01630   69.22850   66.81370   14.96700   66.01920   66.01920   31.73450   31.73450   14.96700    8.01630   20.99990 -120.19570  -28.40330   20.99990
 4350.00000    8.28380  155.86290  156.04090    6.40860   76.58620   76.58620   54.99120   54.99120    6.40860    8.28380    8.99830 -115.82030  -34.38940    8.99830
 4400.00000    8.05030   64.40450   61.99090   16.13140   60.05250   60.05250   23.56800   23.56800   16.13140    8.05030   21.50970 -124.59370  -53.42120   21.50970
 4450.00000    8.27570  169.38400  179.86670    5.56030   78.56580   78.56580   65.76410   65.76410    5.56030    8.27570    7.99070 -103.26260  -42.45160    7.99070
 4500.00000    8.12500  119.21620  121.22390    8.24920   70.05920   70.05920   57.14620   57.14620    8.24920    8.12500   12.10730 -102.21350  -51.66090   12.10730
 4550.00000    8.67690  176.57050  182.08970    5.49180   78.64610   78.64610   63.98450   63.98450    5.49180    8.67690    7.59420  -41.34270   -1.10000    7.59420
 4600.00000   11.28040  346.39650  346.39650    2.88740   95.45370   95.45370   80.87970   80.87970    2.67820   11.28040    3.77790  -50.52680    8.36820    3.77790
 4650.00000   10.37230  212.62830  212.62830    4.70300   85.02600   85.02600   67.02260   67.02260    4.40690   10.37230    5.95570  -44.03780   14.85720    5.95570
 4700.00000   11.03300  383.51470  383.51470    2.60760  101.76110  101.76110   82.93030   82.93030    2.43960   11.03300    3.46080  -52.76500    5.93440    3.46080
 4750.00000    8.08560  129.34310  131.57720    7.60010   74.67270   74.67270   64.06780   64.06780    7.60010    8.08560   11.92630  -28.41870   27.99010   11.92630
 4800.00000   10.28400  347.56400  347.56400    2.87720   98.46130   98.46130   85.96460   85.96460    3.11870   10.28400    3.96600  -48.79550    5.31130    3.96600
 4850.00000    9.47430  245.52800  245.52800    4.07470   84.47360   84.47360   75.70140   75.70140    4.36190    9.47430    6.48080  -38.72340   13.06980    6.48080
 4900.00000    9.06820  288.22820  288.22820    3.46950   88.38770   88.38770   79.26200   79.26200    3.65870    9.06820    4.50310  -46.96740    2.53540    4.50310
 4950.00000    8.19840   87.56000   86.84640   11.51680   68.98030   68.98030   46.74810   46.74810   11.51680    8.19840   15.67350  -27.66240   14.89590   15.67350
 5000.00000    8.04150   32.06390   30.32130   32.98010   55.00490   55.00490   21.31160   21.31160   32.98010    8.04150   40.59680  -30.88820   -9.94900   40.59680
 5050.00000    8.18740   93.83920   95.11220   10.51390   69.60750   69.60750   48.27480   48.27480   10.51390    8.18740   14.03020  -21.41740   -2.58080   14.03020
 5100.00000    8.12250  153.76770  153.21500    6.52680   75.87010   75.87010   76.48830   76.48830    6.52680    8.12250   10.24560  -25.40510   -6.17480   10.24560
 5150.00000    8.13650  127.44700  127.12940    7.86600   72.82220   72.82220   65.17790   65.17790    7.86600    8.13650   11.91910  -25.21650   -1.07250   11.91910
