~Version ---------------------------------------------------
VERS. 2.0 : CWLS log ASCII Standard -VERSION 2.0
WRAP.  NO : ONE LINE PER DEPTH STEP
~Well ------------------------------------------------------
STRT.F                        1050.0 : START DEPTH
STOP.F                       10150.0 : STOP DEPTH
STEP.F                      50.00000 : STEP LENGTH
NULL.                        -999.25 : NULL VALUE
COMP.           CHEVRON STANDARD LTD : COMPANY
WELL. CHEVRON GULF FOXCK 12-35-61-18 : WELL
FLD .                      FOX CREEK : FIELD
LOC .                                : LOCATION
CTRY.                         CANADA : COUNTRY
SRVC.                   Schlumberger : SERVICE COMPANY
DATE.                    30-Mar-1976 : LOGDATE
PROV.                        Alberta : PROVINCE
UWI .               100123506118W500 : UNIQUE WELL ID
SLAT.WGS84                  54.32239 : SURFACE LATITUDE
SLON.WGS84                 -116.5968 : SURFACE LONGITUDE
~Curve Information -----------------------------------------
DEPT   .F    0   1   0  0 : 1 MEASURED DEPTH
SPR    .MV   07 010 01 00 : SPONTANEOUS POTENTIAL FROM RESISTIVITY LOG
ILD    .OHMM 07 120 46 00 : INDUCTION DEEP RESISTIVITY
ILM    .OHMM 07 120 44 00 : INDUCTION MEDIUM RESISTIVITY
LL8    .OHMM 07 220 08 00 : LATEROLOG 8
CALD   .IN   45 280 60 00 : CALIPER FROM DENSITY LOG
DCOR   .G/C3 45 356 01 00 : DENSITY CORRECTION
GRD    .GAPI 45 310 01 00 : GAMMA RAY FROM DENSITY LOG
TEND   .LB   45 635 00 00 : TENSION FROM DENSITY LOG
RHOB   .G/C3 45 350 01 00 : BULK DENSITY
DPHI_SS.DEC  45 890 12 00 : DENSITY POROSITY SANDSTONE
NPHI_SS.DEC  42 890 03 00 : NEUTRON POROSITY SANDSTONE
DPHI_LS.DEC  45 890 10 00 : DENSITY POROSITY LIMESTONE
NPHI_LS.DEC  42 890 01 00 : NEUTRON POROSITY LIMESTONE
GRS    .GAPI 60 310 01 00 : GAMMA RAY FROM SONIC LOG
TENS   .LB   60 635 00 00 : TENSION FROM SONIC LOG
CALS   .IN   60 280 50 00 : CALIPER FROM SONIC LOG
DT     .US/F 60 500 00 00 : DELTA-T (INTERVAL TRANSIT TIME)
~Params ----------------------------------------------------
PD  .                     GL : PERMANENT DATUM
EPD .FT               2712.6 : ELEVATION PERMANENT DATUM
LMF .                     KB : LOG MEASURED FROM
DAPD.FT                 16.4 : FEET ABOVE PERMANENT DATUM
DMF .                     KB : DRILLING MEASURED FROM
EKB .FT                 2729 : KELLY BUSHING
EDF .FT               2712.6 : DRILLING FLOOR
DATE.               03/30/76 : RUN DATE
RUN .                      1 : RUN NUMBER
DD  .FT                10180 : DEPTH DRILLER
DL  .FT                10178 : DEPTH LOGGER
BLI .FT                10176 : BOTTOM LOG INTERVAL
TLI .FT                 1117 : TOP LOG INTERVAL
CBD .FT                 1117 : CASING BOTTOM DRILLER
CBL .FT              1116.91 : CASING BOTTOM LOGGER
BS  .IN                 8.75 : BIT SIZE
BSD .FT                10180 : BIT SIZE AT DEPTH
DFT .               GEL CHEM : DRILLING FLUID TYPE
DFD .                    9.6 : DRILLING FLUID DENSITY
DFV .                    110 : DRILLING FLUID VISCOSITY
DFPH.                   10.5 : DRILLING FLUID PH
DFL .                      9 : DRILLING FLUID LOSS
RMF .OHMM               1.22 : RESISTIVITY MUD FILTRATE SAMPLE
MFST.DEGF                 68 : MUD FILTRATE SAMPLE TEMPERATURE
TCS .HRS                   3 : TIME CIRCULATED STOPPED
LUN .                   7691 : LOGGING UNIT NUMBER
LUL .                    WCT : LOGGING UNIT LOCATION
ENGI.                 KOVACS : RECORDING ENGINEER
WITN.            WONG MCLEOD : WITNESSED BY
CLNT.                A2DTECH : CLIENT CODE
ORIG.            2" 5" PRINT : ORIGIN OF DATA
UWI .       100123506118W500 : UNIQUE WELL ID
DICO. A2D Technologies, Inc. : DIGITIZING COMPANY
~Other -----------------------------------------------------
~ASCII -----------------------------------------------------
# ...
 3100.00000  -38.75170    5.15200    4.76150    6.40890    -999.25    -999.25    -999.25    -999.25    -999.25    -999.25    -999.25    -999.25    -999.25   57.70180  508.04050    9.43700   96.06550
 3150.00000  -66.56850   18.13170   14.97880   21.56230    -999.25    -999.25    -999.25    -999.25    -999.25    -999.25    -999.25    -999.25    -999.25   41.50550  937.46420    8.46630   78.74610
 3200.00000  -40.78440    9.13340    8.85580    9.58680    -999.25    -999.25    -999.25    -999.25    -999.25    -999.25    -999.25    -999.25    -999.25   64.56420 3197.48830    9.69930   88.02790
 3250.00000  -40.19320    6.77010    7.09710    7.75960    -999.25    -999.25    -999.25    -999.25    -999.25    -999.25    -999.25    -999.25    -999.25   69.80000 8486.12500    9.55630   88.85020
 3300.00000  -39.05930    5.19150    5.35540    5.62630    -999.25    -999.25    -999.25    -999.25    -999.25    -999.25    -999.25    -999.25    -999.25   74.45060 7079.46630    9.99030   94.93040
 3350.00000  -40.77090    7.08180    6.84500    6.53330    -999.25    -999.25    -999.25    -999.25    -999.25    -999.25    -999.25    -999.25    -999.25   91.17610 7063.96970    9.39080   91.65960
 3400.00000  -41.07560    8.21230    7.87320    7.78000    -999.25    -999.25    -999.25    -999.25    -999.25    -999.25    -999.25    -999.25    -999.25   90.56260 6809.59130    9.50650   87.80400
 3450.00000  -41.26440    7.76380    8.00430    8.25260    -999.25    -999.25    -999.25    -999.25    -999.25    -999.25    -999.25    -999.25    -999.25   87.12210    -999.25   10.18500   89.50140
 3500.00000  -39.66030    6.66970    6.87750    8.01190    -999.25    -999.25    -999.25    -999.25    -999.25    -999.25    -999.25    -999.25    -999.25  107.73420   10.36650    9.73950   92.87580
 3550.00000  -41.26220   12.08840   12.78300   15.36300    -999.25    -999.25    -999.25    -999.25    -999.25    -999.25    -999.25    -999.25    -999.25  101.15060 3221.87790    9.54230   80.90870
 3600.00000  -39.23800    9.53260   10.34590   10.82360    -999.25    -999.25    -999.25    -999.25    -999.25    -999.25    -999.25    -999.25    -999.25   94.26940 3516.47410    9.87320   84.50260
 3650.00000  -40.79300    7.57380    7.80870    8.25920    -999.25    -999.25    -999.25    -999.25    -999.25    -999.25    -999.25    -999.25    -999.25   95.58190 3433.83060    9.89770   86.99350
 3700.00000  -39.74210    6.54880    6.75220    7.13560    -999.25    -999.25    -999.25    -999.25    -999.25    -999.25    -999.25    -999.25    -999.25  101.93520 3875.51710   10.11110   86.80150
 3750.00000  -40.36490   10.10630   10.44430   11.01480    -999.25    -999.25    -999.25    -999.25    -999.25    -999.25    -999.25    -999.25    -999.25   85.48050 5407.98290   10.06110   81.56450
 3800.00000  -41.06920   10.08300   10.58540   10.11710    -999.25    -999.25    -999.25    -999.25    -999.25    -999.25    -999.25    -999.25    -999.25   75.98020 7970.16890   10.28430   81.98450
 3850.00000  -38.43660    7.68080    7.92250    8.80500    -999.25    -999.25    -999.25    -999.25    -999.25    -999.25    -999.25    -999.25    -999.25   98.67970  322.74900   10.15150   85.41770
 3900.00000  -38.20010    6.60430    6.81510    7.43410    -999.25    -999.25    -999.25    -999.25    -999.25    -999.25    -999.25    -999.25    -999.25  103.90890  138.89970   11.06650   87.04610
 3950.00000  -38.67520    6.04100    6.25900    6.43570    -999.25    -999.25    -999.25    -999.25    -999.25    -999.25    -999.25    -999.25    -999.25  102.29380 2553.16360   11.09400   89.15670
 4000.00000  -37.47800    7.30020    7.52820    7.53420    -999.25    -999.25    -999.25    -999.25    -999.25    -999.25    -999.25    -999.25    -999.25  101.34920 4338.03320   11.10100   87.72100
 4050.00000  -37.03890    6.96380    7.18920    7.59610    -999.25    -999.25    -999.25    -999.25    -999.25    -999.25    -999.25    -999.25    -999.25  103.85850 4053.66750   10.49130   87.98270
 4100.00000  -37.44190    8.34700    8.60650    8.92590    -999.25    -999.25    -999.25    -999.25    -999.25    -999.25    -999.25    -999.25    -999.25  102.81630 7266.52440   10.04430   84.10840
 4150.00000  -36.80990    7.96770    8.29680    8.69620    -999.25    -999.25    -999.25    -999.25    -999.25    -999.25    -999.25    -999.25    -999.25  102.33030  737.77640    9.07890   88.19130
 4200.00000  -34.58480    7.66960    7.90770    8.17650    -999.25    -999.25    -999.25    -999.25    -999.25    -999.25    -999.25    -999.25    -999.25   98.61250 1002.75910    9.57810   87.04420
 4250.00000  -34.28950    7.64070    8.00310    8.89010    -999.25    -999.25    -999.25    -999.25    -999.25    -999.25    -999.25    -999.25    -999.25  105.12380 2303.81690    9.82890   85.89790
 4300.00000  -32.80520    6.60680    6.81230    7.83470    -999.25    -999.25    -999.25    -999.25    -999.25    -999.25    -999.25    -999.25    -999.25  106.32200 2964.19140    9.69540   85.41390
 4350.00000  -33.16530    6.90160    7.11830    8.28420    -999.25    -999.25    -999.25    -999.25    -999.25    -999.25    -999.25    -999.25    -999.25  106.83530 6181.58250   10.25480   90.33050
 4400.00000  -33.20730    8.39410    8.65400   10.02250    -999.25    -999.25    -999.25    -999.25    -999.25    -999.25    -999.25    -999.25    -999.25  117.35770 1703.43400   10.10250   92.45630
 4450.00000  -32.06100    7.99390    8.24150    9.79180    -999.25    -999.25    -999.25    -999.25    -999.25    -999.25    -999.25    -999.25    -999.25  116.44820  245.87990   10.71590   93.37660
 4500.00000  -31.14300    9.76620   10.13320   12.86900   10.34770    0.02670  124.33650 4557.10060    2.51430    0.09840    0.38050    -999.25    -999.25  131.47150  571.54160    9.95810   94.42270
 4550.00000  -30.78140   12.09350   12.54220   18.73940   10.30800    0.03870  135.56240 1958.78940    2.52390    0.06110    0.32290    -999.25    -999.25  129.51450 2904.59990    9.56730   87.85800
 4600.00000  -29.18490   15.01290   16.26900   24.76340   10.02360    0.01860  156.87740 2374.32010    2.43540    0.13640    0.40490    -999.25    -999.25  155.45100 1898.24190    9.26710   99.30540
 4650.00000  -28.52810    6.75980    6.97850    8.47870   10.43290    0.11240  119.03230 4113.41940    2.46140    0.10720    0.40220    -999.25    -999.25  119.46130    -999.25   10.26170   95.13980
 4700.00000  -30.03940    5.01470    5.23000    5.64330   11.05070    0.19090   98.84000 3991.83790    2.30430    0.22820    0.30930    -999.25    -999.25   96.27180  278.00950   10.12110   93.73100
 4750.00000  -27.97990    5.90020    6.08460    7.62320   11.05850    0.05540  104.51350 4333.04150    2.52590    0.05160    0.30450    -999.25    -999.25  101.53510 1080.71030    9.98070   84.24660
 4800.00000  -28.27320    6.27770    6.49900    7.38240   11.19950    0.03500  103.66790 1883.95680    2.50810    0.10440    0.27910    -999.25    -999.25  102.43740 1119.05660   10.12670   85.38410
 4850.00000  -26.84320    5.74820    5.92820    6.69440   12.15620    0.05920  110.56120 2391.66260    2.56850    0.03480    0.31040    -999.25    -999.25  102.12770    -999.25   10.24690   86.66810
 4900.00000  -28.49770    7.94150    8.19810    7.48390   12.52470    0.14020  102.81200 3788.73490    2.51830    0.03800    0.25920    -999.25    -999.25   99.27500    -999.25   10.38820   77.60080
 4950.00000  -25.89430    4.87380    5.02470    5.69130   14.20940    0.06320  109.57750 4189.72510    2.47600    0.12470    0.32870    -999.25    -999.25  108.57310 1100.74890   10.97160   87.51460
 5000.00000  -88.70510    4.30640    4.44400    5.08030   15.11930    0.05370  107.42360 4781.64400    2.52550    0.09470    0.31040    -999.25    -999.25  101.95130  249.57650   12.18320   88.92110
 5050.00000  -87.34120    4.73380    4.88090    5.92990   15.00060    0.05410  131.08620 4115.24170    2.51890    0.05100    0.31320    -999.25    -999.25  118.73060 3876.52810   10.45510   88.25980
 5100.00000  -85.64080    2.40430    2.47880    3.21180   13.65810    0.05770   98.18240  967.62890    2.38880    0.14550    0.39190    -999.25    -999.25   86.29790 3322.65840   12.17150   95.79990
