~Version ---------------------------------------------------
VERS.      2.0 : CWLS log ASCII Standard -VERSION 2.0
WRAP.       NO : ONE LINE PER DEPTH STEP
CREA. 09/18/13 : LAS CREATION DATE
~Well ------------------------------------------------------
STRT.M                        450.0 : START DEPTH
STOP.M                       3000.0 : STOP DEPTH
STEP.M                     50.00000 : STEP LENGTH
NULL.                       -999.25 : NULL VALUE
COMP.              HOME OIL COMPANY : COMPANY
WELL. HOME ET AL KAYBOB 12-36-64-19 : WELL
FLD .                               : FIELD
LOC .                               : LOCATION
CTRY.                        CANADA : COUNTRY
SRVC.                  Schlumberger : SERVICE COMPANY
DATE.                   24-Jan-1987 : LOGDATE
PROV.                       Alberta : PROVINCE
UWI .              100123606419W500 : UNIQUE WELL ID
SLAT.WGS84                 54.58338 : SURFACE LATITUDE
SLON.WGS84                -116.7452 : SURFACE LONGITUDE
~Curve Information -----------------------------------------
DEPT    .M      : DEPTH METERS
CALDED  .MM     : CALIPER FROM DENSITY LOG [DEP ADJ TO GRRED]
CALRED  .MM     : CALIPER FROM RESISTIVITY LOG
CALSED  .MM     : CALIPER FROM SONIC LOG [DEP ADJ TO GRRED]
CALWS   .MM     : CALIPER [401 CALRED 814 CALDED 2213 CALRED]
CONDWS  .MMHO   : CONDUCTIVITY [1000/DRESWS]
DCORWS  .KG/M3  : DENSITY CORRECTION [DRHOED]
DENWS   .KG/M3  : BULK DENSITY [M=2710 F=1000] [CAL FR DPOLSWS]
DPHILSED.V/V    : DENSITY POROSITY [M=2710 F=1000] FROM DENSITY LOG [DEP ADJ TO GRRED]
DPHISSED.V/V    : DENSITY POROSITY [M=2650 F=1000] FROM DENSITY LOG [DEP ADJ TO GRRED]
DPOLSWS .V/V    : DENSITY POROSITY [M=2710 F=1000] [422 DPOLSCAL [DPHISSED IS CONVERTED] 1700 DPHILSED]
DRESWS  .OHMM   : DEEP RESISTIVITY [IDPHED]
DRHOED  .KG/M3  : DENSITY CORRECTION FROM DENSITY LOG [DEP ADJ TO GRRED]
DTED    .US/M   : DELTA TIME FROM SONIC LOG [DEP ADJ TO GRRED]
DTWS    .US/M   : DELTA TIME [DTED]
GRDED   .GAPI   : GAMMA RAY FROM DENSITY LOG [DEP ADJ TO GRRED]
GRRED   .GAPI   : GAMMA RAY FROM RESISTIVITY LOG
GRSED   .GAPI   : GAMMA RAY FROM SONIC LOG [DEP ADJ TO GRRED]
GRWS    .GAPI   : GAMMA RAY [401 GRSED 421 GRRED 2985 GRDED]
IDPHED  .OHMM   : INDUCTION DEEP PHASE RESISTIVITY
IMPHED  .OHMM   : INDUCTION MEDIUM PHASE RESISTIVITY
MRESWS  .OHMM   : MEDIUM RESISTIVITY [IMPHED]
MSFLED  .OHMM   : MICROSPHERICALLY FOCUSED LOG RESISTIVITY
NPHILSED.V/V    : NEUTRON POROSITY LIMESTONE FROM DENSITY LOG [DEP ADJ TO GRRED]
NPHISSED.V/V    : NEUTRON POROSITY SANDSTONE FROM DENSITY LOG [DEP ADJ TO GRRED]
NPOLSWS .V/V    : NEUTRON POROSITY LIMESTONE [420 NPOLSCAL [NPHISSED IS CONV. USING PWL MODU] 1700 NPHILSED]
PEFED   .B/E    : PHOTOELECTRIC FACTOR FROM DENSITY LOG [DEP ADJ TO GRRED]
PEFWS   .B/E    : PHOTOELECTRIC FACTOR [PEFED]
RHOBED  .KG/M3  : BULK DENSITY FROM DENSITY LOG [DEP ADJ TO GRRED]
SPRED   .MV     : SPONTANEOUS POTENTIAL FROM RESISTIVITY LOG [SHIFT IS REMOVED; RESCALED BELOW 1398M]
SPWS    .MV     : SPONTANEOUS POTENTIAL [BASELINE 0 MV] [SPRED]
TENDED  .N      : TENSION FROM DENSITY LOG [DEP ADJ TO GRRED]
TENRED  .N      : TENSION FROM RESISTIVITY LOG
TENSED  .N      : TENSION FROM SONIC LOG  [DEP ADJ TO GRRED]
~Params ----------------------------------------------------
PD  .                         GL : PERMANENT DATUM
EPD .M                     755.7 : ELEVATION PERMANENT DATUM
LMF .                         KB : LOG MEASURED FROM
DAPD.M                       7.1 : FEET ABOVE PERMANENT DATUM
DMF .                         KB : DRILLING MEASURED FROM
EKB .M                     762.8 : KELLY BUSHING
EDF .M                     762.7 : DRILLING FLOOR
EGL .M                     755.7 : GROUND LEVEL
DATE.                   01/24/87 : RUN DATE
RUN .                          1 : RUN NUMBER
DD  .M                      3015 : DEPTH DRILLER
DL  .M                      3012 : DEPTH LOGGER
BLI .M                      3010 : BOTTOM LOG INTERVAL
TLI .M                       422 : TOP LOG INTERVAL
CS  .MM                    244.5 : CASING SIZE
CBD .M                       422 : CASING BOTTOM DRILLER
CBL .M                       422 : CASING BOTTOM LOGGER
BS  .MM                      222 : BIT SIZE
BSD .M                      3015 : BIT SIZE AT DEPTH
DFT .                        GEL : DRILLING FLUID TYPE
DFD .                       1150 : DRILLING FLUID DENSITY
DFV .                        100 : DRILLING FLUID VISCOSITY
DFPH.                       10.5 : DRILLING FLUID PH
DFL .                          9 : DRILLING FLUID LOSS
MSS .                   FLOWLINE : MUD SAMPLE SOURCE
RMS .OHMM                   2.48 : RESISTIVITY MUD SAMPLE
MST .DEGC                     22 : MUD SAMPLE TEMPERATURE
RMF .OHMM                   2.22 : RESISTIVITY MUD FILTRATE SAMPLE
MFST.DEGC                     23 : MUD FILTRATE SAMPLE TEMPERATURE
RMC .OHMM                  0.888 : RESISTIVITY MUD CAKE
MCST.DEGC                     90 : MUD CAKE SAMPLE TEMPERATURE
MFSS.                      PRESS : MUD FILTRATE SAMPLE SOURCE
MCSS.                      PRESS : MUD CAKE SAMPLE SOURCE
RMB .OHMM                   0.97 : RESISTIVITY MUD AT BHT
TCS .HRS                    1500 : TIME CIRCULATED STOPPED
TLAB.HRS                    2300 : TIME LOGGER AT BOTTOM
LUN .                       8154 : LOGGING UNIT NUMBER
LUL .                        EDM : LOGGING UNIT LOCATION
ENGI.                       CHAN : RECORDING ENGINEER
WITN.                     MILLER : WITNESSED BY
CLNT.                    A2DTECH : CLIENT CODE
ORIG. 6.5"/100M 16.5"/100M PRINT : ORIGIN OF DATA
UWI .           100123606419W500 : UNIQUE WELL ID
DICO.     A2D Technologies, Inc. : DIGITIZING COMPANY
~Other -----------------------------------------------------
~ASCII -----------------------------------------------------
# ...
 1550.00000  294.42850  311.54880  311.67360  294.42850  134.47190   17.67360 2493.08500    -999.25    0.09510    0.12690    7.43650   17.67360  239.44920  239.44920   52.66350   49.95380   50.22690   49.95380    7.43650    7.63130    7.63130   27.93160    -999.25    0.35280    0.30920    2.93450    2.93450 2497.16140  -14.98750  -20.64000 12234.84960 13520.56050 13590.21290
 1600.00000  275.70760  274.76010  275.14040  275.70760  115.49880   -7.24650 2598.52000    -999.25    0.03120    0.06520    8.65810   -7.24650  245.46550  245.46550   75.01900   73.93860   74.42780   73.93860    8.65810    8.84570    8.84570   14.02780    -999.25    0.30330    0.25930    3.21960    3.21960 2594.37180    1.59140   -5.69930 12542.93750 13450.98930 13552.47950
 1650.00000  268.83950  268.40140  268.23470  268.83950   41.07400   -0.79150 2606.27500    -999.25    0.02650    0.06070   24.34630   -0.79150  226.44870  226.44870   64.76920   75.62700   76.30340   75.62700   24.34630   25.06670   25.06670   66.55990    -999.25    0.24980    0.20590    2.84630    2.84630 2607.77220    4.97760   -3.95140 12807.37210 14195.66890 14148.32320
 1700.00000  350.39790  348.49580  347.59380  350.39790  190.53060   83.10040 1825.00000    0.42400    0.50000    0.51750    5.24850   83.10040  266.52360  266.52360   73.58020   78.96730   79.14520   78.96730    5.24850    4.69120    4.69120    2.94090    0.30040    0.39470    0.35170    2.55950    2.55950 1827.72790    5.45560   -6.31570 12870.03030 14138.40630 14201.43360
 1750.00000  238.49620  245.49320  245.39130  238.49620    1.64650   14.38730 2483.42500    0.13250    0.09370    0.13250  607.33850   14.38730  236.91340  236.91340   27.17610   28.95070   28.39540   28.95070  607.33850  353.86370  353.86370  392.75600    0.24810    0.24630    0.24810    3.01110    3.01110 2487.75050   -4.41550  -20.97710 12874.38570 14451.62300 14630.32520
 1800.00000  266.99230  268.64790  269.20530  266.99230   75.27850   -0.54070 2645.02000    0.03800   -0.00700    0.03800   13.28400   -0.54070  209.98990  209.98990   67.40990   70.82740   71.62020   70.82740   13.28400   13.69250   13.69250   24.03390    0.15510    0.16500    0.15510    2.94050    2.94050 2652.51320   -3.67520  -25.02700 13326.87500 14657.34860 14722.69340
 1850.00000  224.83560  254.76260  253.63360  224.83560  135.01110   80.64270 2584.48600    0.07340    0.04660    0.07340    7.40680   80.64270  180.81730  180.81730   19.55190   15.39540   15.22290   15.39540    7.40680   12.12950   12.12950   66.48220    0.15500    0.19170    0.15500    2.59370    2.59370 2576.71260  -42.79180  -68.93390 13178.86430 14981.86430 14815.09670
 1900.00000  265.66180  255.70480  255.42160  265.66180  117.18110   79.25550 2624.67100    0.04990    -999.25    0.04990    8.53380   79.25550  172.90850  172.90850   27.34240   28.59120   28.55750   28.59120    8.53380   14.57680   14.57680   54.82060    0.11610    -999.25    0.11610    3.96520    3.96520 2645.91330  -29.45190  -60.38430 14226.43950 15538.33200 15459.62700
 1950.00000  260.58750  254.30210  253.98980  260.58750   33.52180   43.34450 2708.63200    0.00080    -999.25    0.00080   29.83130   43.34450  164.62740  164.62740   11.83220   11.96800   11.64240   11.96800   29.83130   58.03410   58.03410  167.27020    0.01440    -999.25    0.01440    4.90180    4.90180 2696.63180  -41.95020  -77.67300 14458.79200 15291.36520 15467.82130
 2000.00000  301.05110  297.31710  297.16550  301.05110  282.59760   -2.07910 2656.81900    0.03110    -999.25    0.03110    3.53860   -2.07910  216.47360  216.47360   65.08290   65.16980   64.93160   65.16980    3.53860    3.94050    3.94050    6.37290    0.19240    -999.25    0.19240    3.35460    3.35460 2659.62620   -4.03080  -44.54390 14826.97070 15760.10940 15760.68070
 2050.00000  314.90190  300.73950  299.26570  314.90190   27.73310  166.74730 2612.70100    0.05690    -999.25    0.05690   36.05800  166.74730  170.54820  170.54820   17.87770   17.57470   17.71710   17.57470   36.05800   66.07470   66.07470  226.00880    0.03430    -999.25    0.03430    3.91120    3.91120 2612.20580  -20.00180  -65.30520 14798.46780 16134.65530 16141.60840
 2100.00000  236.12970  234.77120  234.99800  236.12970    4.93900    2.30570 2694.43900    0.00910    -999.25    0.00910  202.46880    2.30570  172.88840  172.88840   25.70960   25.20680   25.37630   25.20680  202.46880  266.63840  266.63840  385.42710    0.02080    -999.25    0.02080    4.35770    4.35770 2693.39530   -9.27530  -59.36900 15382.86040 16400.15820 16394.76760
 2150.00000  261.04860  257.95220  257.93420  261.04860   20.97570   -8.80480 2685.03400    0.01460    -999.25    0.01460   47.67420   -8.80480  185.97510  185.97510   40.53070   45.82330   45.50130   45.82330   47.67420   51.46970   51.46970  110.56120    0.06050    -999.25    0.06050    4.51890    4.51890 2681.09990    8.55990  -46.32410 15426.17480 16719.92770 16704.51170
 2200.00000  281.56030  273.50890  273.97300  281.56030    1.03480   -0.29920 2672.20900    0.02210    -999.25    0.02210  966.32860   -0.29920  162.28300  162.28300   16.70010   18.11440   18.01280   18.11440  966.32860 1235.12190 1235.12190  180.02090    0.00900    -999.25    0.00900    5.30300    5.30300 2663.25660   -1.22780  -60.90200 15716.52930 16908.41990 16965.54690
 2250.00000  231.76810  317.61750  318.19130  317.61750    2.38540    5.56390 2660.06800    0.02920    -999.25    0.02920  419.21520    5.56390  162.64990  162.64990   12.63270   11.65850   11.56790   11.65850  419.21520  313.25590  313.25590   94.62690    0.00780    -999.25    0.00780    4.69280    4.69280 2656.27780  -17.32420  -81.78870 15517.22360 17000.76560 17101.74610
 2300.00000  223.96060  299.75910  300.56150  299.75910    6.74300   -6.23160 2719.57600   -0.00560    -999.25   -0.00560  148.30270   -6.23160  163.05890  163.05890   10.26150   11.13870   11.03680   11.13870  148.30270  240.65160  240.65160   38.52500    0.00840    -999.25    0.00840    4.16590    4.16590 2718.05520  -38.26640 -107.52130 15736.05660 17450.56250 17508.51170
 2350.00000  316.92780  323.66610  323.87420  323.66610    0.54130  196.51380 2648.95300    0.03570    -999.25    0.03570 1847.41660  196.51380  171.35140  171.35140   17.06660   17.95050   17.81340   17.95050 1847.41660 1896.47740 1896.47740   46.73520    0.02360    -999.25    0.02360    4.55760    4.55760 2651.50950  -23.45670  -97.50180 16324.74320 17719.31640 17648.00390
 2400.00000  253.89860  262.82320  263.16140  262.82320   67.67910  100.09400 2599.53400    0.06460    -999.25    0.06460   14.77560  100.09400  177.60120  177.60120   12.23040   11.10960   10.91560   11.10960   14.77560   20.29130   20.29130  191.04240    0.06740    -999.25    0.06740    5.23340    5.23340 2586.17580  -51.62740 -130.46280 16635.18550 17735.95510 18021.00980
 2450.00000  232.63510  289.96730  291.75750  289.96730   14.31370    3.89240 2758.22200   -0.02820    -999.25   -0.02820   69.86320    3.89240  163.74630  163.74630   17.37040   18.59860   18.53800   18.59860   69.86320   67.15290   67.15290   33.15690    0.08730    -999.25    0.08730    2.82030    2.82030 2767.97050   -6.71250  -90.33820 16897.34960 18031.98440 18082.41410
 2500.00000  322.98340  328.03080  327.47690  328.03080   50.75760  193.90550 2346.45400    0.21260    -999.25    0.21260   19.70150  193.90550  214.81950  214.81950   68.55730   65.62190   65.37690   65.62190   19.70150   20.31210   20.31210    9.69800    0.21600    -999.25    0.21600    3.33200    3.33200 2363.30200   94.48040    6.06440 17194.91210 18654.49220 18616.55660
 2550.00000  237.63400  239.49720  238.63260  239.49720   28.06340   -5.00660 2688.28300    0.01270    -999.25    0.01270   35.63360   -5.00660  184.83400  184.83400   34.06050   42.23140   41.74730   42.23140   35.63360   38.50050   38.50050   85.87030    0.08460    -999.25    0.08460    4.47380    4.47380 2685.99120   42.43010  -50.77620 17416.41410 18596.25980 18660.07620
 2600.00000  405.10060  419.45340  419.34440  419.45340  235.59900  190.45130 2135.09800    0.33620    -999.25    0.33620    4.24450  190.45130  259.19190  259.19190   75.85510   77.89610   77.88880   77.89610    4.24450    4.10930    4.10930    2.74940    0.37700    -999.25    0.37700    2.40050    2.40050 2129.44510    6.50010  -91.49650 17736.14840 18801.44530 18856.16990
