~Version ---------------------------------------------------
VERS.      2.0 : CWLS log ASCII Standard -VERSION 2.0
WRAP.       NO : One line per depth step
CREA. 08/29/14 : LAS Creation Date
~Well ------------------------------------------------------
STRT.FT                             850.0 : START DEPTH
STOP.FT                            9900.0 : STOP DEPTH
STEP.FT                          50.00000 : STEP LENGTH
NULL.                             -999.25 : NULL VALUE
COMP.         BLUEMOUNT RESOURCES LIMITED : COMPANY
WELL. BLUEMOUNT ET AL GOODWIN 11-31-58-13 : WELL
FLD .                                     : FIELD
LOC .                                     : LOCATION
CTRY.                              CANADA : COUNTRY
SRVC.              Schlumberger of Canada : SERVICE COMPANY
DATE.                         07-Apr-1973 : LOGDATE
PROV.                             Alberta : PROVINCE
UWI .                    100113105813W500 : UNIQUE WELL ID
SLAT.WGS84                       54.06009 : SURFACE LATITUDE
SLON.WGS84                      -115.9256 : SURFACE LONGITUDE
~Curve Information -----------------------------------------
DEPT   .FT                : Depth Curve
CALD   .IN   45 280 60 00 : CALIPER FROM DENSITY LOG
CALS   .IN   60 280 50 00 : CALIPER FROM SONIC LOG
CILD   .MMHO 07 110 46 00 : INDUCTION DEEP CONDUCTIVITY
DPHI_LS.DEC  45 890 10 00 : DENSITY POROSITY LIMESTONE
DRHO   .G/C3 45 356 01 00 : BULK DENSITY CORRECTION
DT     .US/F 60 500 00 00 : DELTA-T (INTERVAL TRANSIT TIME)
GRD    .GAPI 45 310 01 00 : GAMMA RAY FROM DENSITY LOG
GRS    .GAPI 60 310 01 00 : GAMMA RAY FROM SONIC LOG
ILD    .OHMM 07 120 46 00 : INDUCTION DEEP RESISTIVITY
ILM    .OHMM 07 120 44 00 : INDUCTION MEDIUM RESISTIVITY
LL8    .OHMM 07 220 08 00 : LATEROLOG 8
NPHI_LS.DEC  42 890 01 00 : NEUTRON POROSITY LIMESTONE
RHOB   .G/C3 45 350 01 00 : BULK DENSITY
SPR    .MV   07 010 01 00 : SPONTANEOUS POTENTIAL FROM RESISTIVITY LOG
~Params ----------------------------------------------------
PD  .                     GL : PERMANENT DATUM
EPD .FT                 3069 : ELEVATION PERMANENT DATUM
LMF .                     KB : LOG MEASURED FROM
DAPD.FT                   17 : FEET ABOVE PERMANENT DATUM
EKB .FT                 3087 : KELLY BUSHING
EGL .FT                 3069 : GROUND LEVEL
DATE.               04/07/73 : RUN DATE
RUN .                      1 : RUN NUMBER
DD  .FT                 9938 : DEPTH DRILLER
DL  .FT                 9940 : DEPTH LOGGER
BLI .FT                 9935 : BOTTOM LOG INTERVAL
TLI .FT                 1025 : TOP LOG INTERVAL
CBD .FT                 1025 : CASING BOTTOM DRILLER
CBL .FT                 1030 : CASING BOTTOM LOGGER
BS  .IN                 8.75 : BIT SIZE
BSD .FT                 9938 : BIT SIZE AT DEPTH
DFT .               GEL CHEM : DRILLING FLUID TYPE
DFD .                    9.5 : DRILLING FLUID DENSITY
DFV .                     92 : DRILLING FLUID VISCOSITY
DFPH.                      9 : DRILLING FLUID PH
DFL .                     10 : DRILLING FLUID LOSS
MSS .             CALCULATED : MUD SAMPLE SOURCE
TCS .HRS                   5 : TIME CIRCULATED STOPPED
LUN .                   7667 : LOGGING UNIT NUMBER
LUL .                    EDM : LOGGING UNIT LOCATION
ENGI.                  LEWIS : RECORDING ENGINEER
WITN.              TUDDENHAM : WITNESSED BY
CLNT.                A2DTECH : CLIENT CODE
ORIG.            2" 5" PRINT : ORIGIN OF DATA
UWI .       100113105813W500 : UNIQUE WELL ID
DICO. A2D Technologies, Inc. : DIGITIZING COMPANY
~Other -----------------------------------------------------
~ASCII -----------------------------------------------------
# ...
 8200.00000    9.45620    8.95430    -999.25   -0.06080    0.05480   51.72460   37.03240   37.53730   67.61080  176.79990   99.11730    0.05660    2.81050  -79.39400
 8250.00000    9.47020    8.89330    -999.25   -0.04940    0.08930   51.75670   26.26770   31.05330  209.05410 1686.21880  256.20630    0.02300    2.81500 -103.84210
 8300.00000    9.54700    8.94140    -999.25   -0.04340    0.07430   53.33480   33.91620   42.73200   25.26350   32.92150   37.10650    0.05980    2.76010  -66.14920
 8350.00000    9.51240    8.88660    -999.25   -0.04880    0.06450   54.55780   44.18200   48.48470   15.69430   20.36950   22.23850    0.09110    2.79080  -47.64790
 8400.00000   10.13310    8.90570    -999.25   -0.03230    0.06340   56.48330   50.81690   55.06630    9.32860   10.11720   13.59480    0.12840    2.76420  -96.10040
 8450.00000   10.24380    8.89540    -999.25   -0.02910    0.04590   56.93170   61.49990   61.46710    8.14400    9.46420   12.29350    0.13340    2.73310 -172.63940
 8500.00000   14.27660   12.73650    -999.25    0.04730    0.22570   63.85590   93.10180   95.75330    3.71790    3.39400    4.99090    0.32660    2.63050 -104.33910
 8550.00000   14.70490   11.97250    -999.25    0.12870    0.31120   61.79070   74.53980   89.78130    5.15000    5.64190    6.66420    0.36840    2.41690 -130.79400
 8600.00000    9.43220    8.88250    -999.25   -0.06180    0.13660   57.60900   70.45050   68.89780   13.64460   14.66470   17.33620    0.10880    2.79900 -102.70400
 8650.00000   11.52460   10.69450    -999.25    0.15280    0.30590   62.04210   74.08950   79.13660    5.59540    5.99940    9.23110    0.26540    2.43160  -73.62170
 8700.00000   14.32110   12.03550    -999.25    0.05890    0.31220   62.28020   78.43840   78.47500    5.95100    5.65060    8.18810    0.27770    2.57660 -121.40620
 8750.00000    9.22480    8.82880    -999.25   -0.02880    0.18510   57.63340   79.58760   80.13970   11.98010   14.35910   19.40480    0.13840    2.78260 -123.04470
 8800.00000   10.68740    9.16830    -999.25    0.00870    0.29620   59.41470   90.53680   94.18310    7.06390    7.44530   10.21570    0.19090    2.73690  -64.14650
 8850.00000    9.25390    8.85740    -999.25   -0.04640    0.08890   61.59040   75.96720   90.40620    9.86910   11.36910   14.84870    0.18150    2.80310  -69.47010
 8900.00000    9.21270    8.81180    -999.25   -0.09020    0.09620   60.26750   58.58540   60.12340   16.28570   21.89540   27.58580    0.11940    2.82870 -111.03690
 8950.00000    9.26250    8.84230    -999.25   -0.08390    0.11450   62.83930   77.82410   71.02080   10.22430   13.00690   15.23410    0.15660    2.84190  -43.50350
 9000.00000    9.33600    8.82330    -999.25   -0.05170    0.08430   63.43760   84.99350   96.63820    9.19710   10.49800   14.75810    0.17900    2.79500    0.77480
 9050.00000    9.72640    8.95130    -999.25   -0.06200    0.24570   65.51760  103.42790  101.74310    7.34280    7.73410   11.67130    0.20880    2.77920   44.57600
 9100.00000   10.19890    9.16890    -999.25   -0.02190    0.13450   65.77350   88.33750  104.50700    6.68420    7.81330   11.85000    0.23520    2.75410   71.28100
 9150.00000    9.31850    8.86650    -999.25   -0.10040    0.19420   56.78660   90.40990   91.48420    7.22470    8.11080   10.75240    0.19220    2.88380    3.83740
 9200.00000    9.34940    8.83230    -999.25   -0.04760    0.05060   62.45210   87.61360   83.54830    9.41120   10.40410   14.55800    0.17660    2.78810 -141.86230
 9250.00000    9.67110    8.84250    -999.25   -0.03110    0.22810   62.80130   67.94350   97.19990    8.96790   11.09310   19.31390    0.19220    2.75640 -112.58350
 9300.00000    9.20270    8.84270    -999.25   -0.02240    0.08790   58.94300  127.82460  115.78460   51.85720  402.49850  827.15620    0.06830    2.76510 -132.15660
 9350.00000    9.20800    8.84780    -999.25   -0.03680    0.05770   56.89550   45.54610   44.71700   41.55160   99.93560   65.29180    0.06040    2.75290 -133.84240
 9400.00000    9.11740    8.80540    -999.25    0.00050    0.09300   64.77980   90.20600   95.73710   41.26350  102.40390   91.82270    0.17070    2.69860  -54.54720
 9450.00000    9.20540    8.85800    -999.25   -0.06000    0.05630   50.10160   44.02540   43.74410   93.28950 1629.76260 1661.67920    0.04230    2.77240 -130.80630
 9500.00000    9.14180    8.83490    -999.25   -0.05650    0.08030   52.39090   11.69190   11.94710 1605.78020 2132.89750 1606.89480    0.00610    2.82110 -121.12770
 9550.00000    9.19000    8.92660    -999.25   -0.05760    0.08880   52.66730   11.21330   12.77200 1599.05490 2270.36060 1867.72720    0.00590    2.82270 -123.83610
 9600.00000    9.03040    8.79730    -999.25   -0.07230    0.07940   52.41830   13.75990   15.95300 1706.45290 2119.65820 1898.12830    0.00180    2.82740  -68.93000
 9650.00000    9.03480    8.81700    -999.25   -0.05170    0.07160   50.55060   19.25050   18.87520 1734.96020 2208.82470 1951.93710    0.00300    2.80720   -1.21790
 9700.00000    9.21770    8.78670    -999.25   -0.06390    0.04400   49.09330    8.22620   11.18010 1707.50990    -999.25 1911.68430    0.00110    2.82640  -97.38530
 9750.00000    9.59360    8.80110    -999.25   -0.06440    0.22130   50.44790   15.65940   12.69800 1806.66420 2265.38790 2011.36830    0.00660    2.78960 -150.68370
 9800.00000    9.20060    9.18610    -999.25   -0.04660    0.15250   53.52050   10.66790   14.70830 1733.88230 2221.76710 1636.92970    0.00460    2.79970 -145.32140
 9850.00000    9.02390    8.74890    -999.25   -0.08570    0.03090   55.14070   67.31350   71.56640   48.94460   85.18870  136.10880    0.07840    2.81590 -178.34920
 9900.00000    8.07610    8.55780    -999.25   -0.01160    0.02360   55.45360  112.96180    -999.25   50.47370  121.75580   98.06420    0.12920    2.70350 -127.24770
