~Version ---------------------------------------------------
VERS.      2.0 : CWLS log ASCII Standard -VERSION 2.0
WRAP.       NO : One line per depth step
CREA. 12/01/17 : LAS Creation Date
~Well ------------------------------------------------------
STRT.FT                           700.0 : START DEPTH
STOP.FT                          9400.0 : STOP DEPTH
STEP.FT                        50.00000 : STEP LENGTH
NULL.                           -999.25 : NULL VALUE
COMP.         ATLANTIC REFINING COMPANY : COMPANY
WELL. ATLANTIC BASELINE LAKE 6-29-59-13 : WELL
FLD .                                   : FIELD
LOC .                                   : LOCATION
CTRY.                            CANADA : COUNTRY
SRVC.            Schlumberger of Canada : SERVICE COMPANY
DATE.                       11-Jan-1962 : LOGDATE
PROV.                           Alberta : PROVINCE
UWI .                  100062905913W500 : UNIQUE WELL ID
SLAT.WGS84                     54.12799 : SURFACE LATITUDE
SLON.WGS84                    -115.9169 : SURFACE LONGITUDE
~Curve Information -----------------------------------------
DEPT  .FT         : Depth Curve
CALSED.IN         : CALIPER FROM SONIC LOG
CALWS .IN         : CALIPER [CALSED]
CILDED.MMHO       : INDUCTION DEEP CONDUCTIVITY FROM RESISTIVITY LOG
CONDWS.MMHO       : CONDUCTIVITY [1000/DRESWS]
DRESWS.OHMM       : DEEP RESISTIVITY [ CALC. FROM 1000/CILDED, IF ILDED<2, ILDED]
DT1ED .US/F       : DELTA TIME SPACING 3' PICKUP SPAN 1' FROM SONIC LOG
DTED  .US/F       : DELTA TIME SPACING 3' PICKUP SPAN 3' FROM SONIC LOG
DTWS  .US/F       : COMPRESTIONAL SONIC [DTED]
GRSED .UgRa-Eq/T  : GAMMA RAY FROM SONIC LOG
GRWS  .GAPI       : GAMMA RAY [GRSED*16.5]
ILDED .OHMM       : INDUCTION DEEP RESISTIVITY FROM RESISTIVITY LOG
SNED  .OHMM       : SHORT NORMAL RESISTIVITY FROM RESISTIVITY LOG
SPRED .MV         : SPONTANEOUS POTENTIAL FROM RESISTIVITY LOG
SPWS  .MV         : SPONTANEOUS POTENTIAL [BASELINE 0 MV, SPRED]
SRESWS.OHMM       : SHALLOW RESISTIVITY [SNED]
~Params ----------------------------------------------------
PD  .                     GL : PERMANENT DATUM
EPD .FT                 2681 : ELEVATION PERMANENT DATUM
LMF .                     KB : LOG MEASURED FROM
DAPD.FT                   13 : FEET ABOVE PERMANENT DATUM
EKB .FT                 2694 : KELLY BUSHING
EGL .FT                 2681 : GROUND LEVEL
DATE.               01/11/62 : RUN DATE
RUN .                      2 : RUN NUMBER
DD  .FT                 9422 : DEPTH DRILLER
DL  .FT                 9407 : DEPTH LOGGER
BLI .FT                 9406 : BOTTOM LOG INTERVAL
TLI .FT                 8800 : TOP LOG INTERVAL
CBD .FT                  978 : CASING BOTTOM DRILLER
BS  .IN                 8.75 : BIT SIZE
BSD .FT                 9422 : BIT SIZE AT DEPTH
DFT .           GEL OIL EMUL : DRILLING FLUID TYPE
DFD .                    9.3 : DRILLING FLUID DENSITY
DFV .                     90 : DRILLING FLUID VISCOSITY
DFPH.                    7.6 : DRILLING FLUID PH
DFL .                      7 : DRILLING FLUID LOSS
RMS .OHMM                2.5 : RESISTIVITY MUD SAMPLE
MST .DEGF                 70 : MUD SAMPLE TEMPERATURE
RMF .OHMM                1.5 : RESISTIVITY MUD FILTRATE SAMPLE
MFST.DEGF                 74 : MUD FILTRATE SAMPLE TEMPERATURE
RMC .OHMM                1.8 : RESISTIVITY MUD CAKE
MCST.DEGF                 74 : MUD CAKE SAMPLE TEMPERATURE
RMB .OHMM                1.0 : RESISTIVITY MUD AT BHT
TCS .HRS                   2 : TIME CIRCULATED STOPPED
LUN .                   1576 : LOGGING UNIT NUMBER
LUL .                     DV : LOGGING UNIT LOCATION
ENGI.                NORQUAY : RECORDING ENGINEER
WITN.                WALTERS : WITNESSED BY
CLNT.                A2DTECH : CLIENT CODE
ORIG.            2" 5" PRINT : ORIGIN OF DATA
UWI .       100062905913W500 : UNIQUE WELL ID
DICO. A2D Technologies, Inc. : DIGITIZING COMPANY
~Other -----------------------------------------------------
IEL-SONIC LOGS RUN
~ASCII -----------------------------------------------------
# ...
 3000.00000    9.35840    9.35840  196.38100  221.74420    4.50970    -999.25  104.71620  104.71620    4.41800   72.89700    4.50970    6.25450  -58.57690   -2.24680    6.25450
 3050.00000   10.01450   10.01450  181.65960  196.40190    5.09160    -999.25   98.30630   98.30630    4.69420   77.45430    5.09160    6.27290  -58.36210   -2.92040    6.27290
 3100.00000    9.70250    9.70250  172.32450  186.37590    5.36550    -999.25   92.45190   92.45190    4.52750   74.70370    5.36550    6.33640  -56.31160   -1.75830    6.33640
 3150.00000   10.35760   10.35760  194.11510  216.49240    4.61910    -999.25  102.29500  102.29500    4.87590   80.45230    4.61910    6.39920  -55.88590   -1.62210    6.39920
 3200.00000   10.57020   10.57020  135.41350  135.88530    7.35920    -999.25   92.22600   92.22600    5.84900   96.50850    7.35920    7.81600  -60.48500   -6.40580    7.81600
 3250.00000   11.54310   11.54310  150.00630  156.45780    6.39150    -999.25   91.32810   91.32810    5.69200   93.91800    6.39150    7.40930  -60.72690   -6.83070    7.40930
 3300.00000   10.57490   10.57490  141.12470  141.05370    7.08950    -999.25   93.07960   93.07960    5.30890   87.59690    7.08950    8.20420  -59.65160   -5.93910    8.20420
 3350.00000   10.96790   10.96790  167.95450  180.55100    5.53860    -999.25  100.80030  100.80030    6.47430  106.82600    5.53860    7.54510  -57.41590   -3.88720    7.54510
 3400.00000    9.19790    9.19790   96.19890   89.39510   11.18630    -999.25   90.36520   90.36520    6.95360  114.73440   11.18630   14.80580  -55.41620   -2.07130   14.80580
 3450.00000    9.69020    9.69020  129.26690  128.40710    7.78780    -999.25   96.57810   96.57810    6.47550  106.84580    7.78780    9.90110  -54.72110   -1.83340    9.90110
 3500.00000    9.38000    9.38000  122.46840  120.36590    8.30800    -999.25   92.34710   92.34710    5.83330   96.24950    8.30800   10.21920  -55.33530   -3.24000   10.21920
 3550.00000   11.21180   11.21180  133.81230  133.24980    7.50470    -999.25   89.75990   89.75990    5.22420   86.19930    7.50470    8.10440  -57.30840   -6.00940    8.10440
 3600.00000   11.11020   11.11020  127.38510  126.03820    7.93410    -999.25   93.80790   93.80790    6.03050   99.50320    7.93410    8.63350  -57.20370   -6.70100    8.63350
 3650.00000    9.97510    9.97510  145.56270  141.80980    7.05170    -999.25   97.59710   97.59710    6.40510  105.68420    7.05170    8.18770  -55.11790   -5.41160    8.18770
 3700.00000   10.53130   10.53130  162.46610  171.03000    5.84730    -999.25   97.07670   97.07670    6.46920  106.74100    5.84730    7.51600  -53.82450   -4.91850    7.51600
 3750.00000   10.89610   10.89610  156.15780  160.99430    6.21140    -999.25   92.78390   92.78390    6.20560  102.39240    6.21140    7.56710  -52.78730   -4.67360    7.56710
 3800.00000   10.53950   10.53950  145.69820  146.46860    6.82740    -999.25   92.95490   92.95490    4.89380   80.74770    6.82740    7.68520  -52.75070   -5.43330    7.68520
 3850.00000   10.38730   10.38730  135.68950  134.55870    7.43170    -999.25  100.82500  100.82500    5.98390   98.73440    7.43170    8.28150  -51.20380   -4.68270    8.28150
 3900.00000   11.00830   11.00830  157.54200  158.65210    6.30310    -999.25   97.17610   97.17610    6.72590  110.97740    6.30310    7.16690  -51.76110   -6.03630    7.16690
 3950.00000    9.63280    9.63280  117.35140  111.58510    8.96350    -999.25   91.49040   91.49040    6.08370  100.38020    8.96350   10.03600  -49.83690   -4.91250   10.03600
 4000.00000    9.78680    9.78680  112.02380  110.63660    9.03860    -999.25   79.89780   79.89780    5.72540   94.46910    9.03860   10.21720  -49.10960   -4.97750   10.21720
 4050.00000   10.31650   10.31650  129.43990  126.29930    7.91770    -999.25   87.41870   87.41870    6.50970  107.41010    7.91770    8.92020  -48.82920   -5.49340    8.92020
 4100.00000   10.24340   10.24340  132.78080  130.97230    7.63520    -999.25   90.38240   90.38240    5.95590   98.27230    7.63520    9.30960  -47.68470   -5.14520    9.30960
 4150.00000    9.91010    9.91010  130.17530  128.53970    7.77970    -999.25   90.17140   90.17140    6.32320  104.33280    7.77970   10.30480  -46.25880   -4.51560   10.30480
 4200.00000   10.27070   10.27070  121.86680  120.85030    8.27490    -999.25   95.09820   95.09820    6.52850  107.72110    8.27490   10.91400  -44.35530   -3.41240   10.91400
 4250.00000   10.51370   10.51370  126.73960  123.55140    8.09380    -999.25   98.32430   98.32430    7.27750  120.07880    8.09380   11.21140  -43.17830   -3.02770   11.21140
 4300.00000   10.06570   10.06570  122.41050  120.34850    8.30920    -999.25   96.55880   96.55880    7.14850  117.95030    8.30920   11.89060  -42.66170   -3.30740   11.89060
 4350.00000    9.17920    9.17920  103.81640   99.19060   10.08160    -999.25   96.92180   96.92180    8.09150  133.50980   10.08160   15.42200  -41.19370   -2.63570   15.42200
 4400.00000    9.68620    9.68620  119.71880  117.62910    8.50130    -999.25   95.03130   95.03130    7.36930  121.59350    8.50130   13.14190  -40.11220   -2.35060   13.14190
 4450.00000   10.01550   10.01550  145.88940  146.25430    6.83990    -999.25   93.12950   93.12950    6.17250  101.84630    6.83990    9.75010  -45.23670   -8.09480    9.75010
 4500.00000   10.12840   10.12840  165.11980  176.67530    5.66010    -999.25   91.88610   91.88610    5.98080   98.68320    5.66010    8.17910  -48.77410  -11.85430    8.17910
 4550.00000    9.10230    9.10230  130.28640  129.17890    7.74120    -999.25   80.69680   80.69680    5.49010   90.58670    7.74120   10.21260  -51.08520  -14.38860   10.21260
 4600.00000   11.40770   11.40770  200.35070  219.38000    4.55830    -999.25   90.56390   90.56390    6.09810  100.61860    4.55830    6.35090  -45.60720   -9.13380    6.35090
 4650.00000   11.52660   11.52660  133.48380  132.92040    7.52330    -999.25   87.14590   87.14590    5.22150   86.15470    7.52330    9.76500  -45.50010   -9.24980    9.76500
 4700.00000   13.58380   13.58380  206.85430  211.14480    4.73610    -999.25   97.60740   97.60740    6.15730  101.59630    4.73610    6.07230  -43.89540   -7.86940    6.07230
 4750.00000   10.25100   10.25100  151.47920  146.07500    6.84580    -999.25   91.63890   91.63890    7.76670  128.15060    6.84580    8.99120  -42.11540   -6.31150    8.99120
 4800.00000   11.35680   11.35680  626.47890  626.47890    1.59620    -999.25  105.10020  105.10020    5.70770   94.17700    1.59720    2.63900  -40.38220   -4.80150    2.63900
 4850.00000   10.97010   10.97010  251.23050  257.17520    3.88840    -999.25   95.61180   95.61180    5.63090   92.90980    3.88840    4.90030  -40.71370   -5.35620    4.90030
 4900.00000   10.04190   10.04190  253.42630  251.09860    3.98250    -999.25  102.12600  102.12600    5.86800   96.82200    3.98250    5.22040  -39.90690   -4.22370    5.22040
 4950.00000    8.06400    8.06400   75.89870   67.67680   14.78320    -999.25   74.66820   74.66820    3.30790   54.58030   14.78320   23.46650  -87.99740  -51.60350   23.46650
 5000.00000   10.09250   10.09250   90.35870   83.33890   11.99920    -999.25   77.00210   77.00210    2.78280   45.91620   11.99920   18.40900  -72.90130  -35.80380   18.40900
 5050.00000   10.39100   10.39100  219.98820  219.55340    4.55470    -999.25  111.72970  111.72970    4.64290   76.60780    4.55470    5.22830  -44.12540   -6.32070    5.22830
 5100.00000    9.86650    9.86650   95.68820   89.60330   11.16030    -999.25   87.52340   87.52340    4.11620   67.91730   11.16030   16.34210  -46.57170   -8.05980   16.34210
 5150.00000   11.86680   11.86680   94.92060   91.19930   10.96500    -999.25   73.62360   73.62360    4.51270   74.45950   10.96500   15.48700  -44.97470   -5.75570   15.48700
 5200.00000    9.97810    9.97810  110.12840  104.74230    9.54740    -999.25   78.85430   78.85430    3.56450   58.81430    9.54740   22.38560  -77.58430  -37.65460   22.38560
 5250.00000   10.24130   10.24130  107.34820  103.44790    9.66670    -999.25   87.39390   87.39390    5.44990   89.92340    9.66670   12.78640  -45.70930   -5.82960   12.78640
