~Version ---------------------------------------------------
VERS.      2.0 : CWLS log ASCII Standard -VERSION 2.0
WRAP.       NO : One line per depth step
CREA. 01/03/18 : LAS Creation Date
~Well ------------------------------------------------------
STRT.FT                      800.0 : START DEPTH
STOP.FT                     8150.0 : STOP DEPTH
STEP.FT                   50.00000 : STEP LENGTH
NULL.                      -999.25 : NULL VALUE
COMP.          TOTAL PETROLEUM LTD : COMPANY
WELL. TOTAL PCP KINAKIN 16-27-63-9 : WELL
FLD .                              : FIELD
LOC .                              : LOCATION
CTRY.                       CANADA : COUNTRY
SRVC.                 Schlumberger : SERVICE COMPANY
DATE.                  08-Mar-1974 : LOGDATE
PROV.                      Alberta : PROVINCE
UWI .             100162706309W500 : UNIQUE WELL ID
SLAT.WGS84                54.48436 : SURFACE LATITUDE
SLON.WGS84               -115.2648 : SURFACE LONGITUDE
~Curve Information -----------------------------------------
DEPT    .FT    : Depth Curve
CALDED  .IN    : CALIPER CNFD (ADJ TO RES.)
CALSED  .IN    : CALIPER SONIC (ADJ TO RES.)
CALWS   .IN    : CALIPER [CALSED]
CONDWS  .MMHO  : CONDUCTIVITY (1000/DRESWS)
DCORWS  .G/C3  : DENSITY CORRECTION (DRHOED)
DENWS   .G/C3  : BULK DENSITY  (RHOBED)
DPHILSED.V/V   : DENSITY POROSITY LIMESTONE (ADJ TO RES.)
DPHISSED.V/V   : DENSITY POROSITY SANDSTONE (ADJ TO RES.)
DPOLSWS .V/V   : DENSITY POROSITY (M=2.71 F=1.00 FROM DENWS)
DRESWS  .OHMM  : DEEP RESISTIVITY (ILDED)
DRHOED  .G/C3  : DENSITY CORRECTION
DTED    .US/F  : DELTA TIME
DTWS    .US/F  : DELTA TIME (DTED)
GRDED   .GAPI  : GAMMA RAY CNFD (ADJ TO RES.)
GRSED   .GAPI  : GAMMA RAY SONIC (ADJ TO RES.)
GRWS    .GAPI  : GAMMA RAY (GRSED)
ILDED   .OHMM  : DEEP INDUCTION RESISTIVITY
ILMED   .OHMM  : MEDIUM INDUCTION RESISTIVITY
LL8ED   .OHMM  : LATEROLOG-8 RESISTIVITY
MRESWS  .OHMM  : MEDIUM RESISTIVITY (ILMED)
NPHILSED.V/V   : NEUTRON POROSITY LIMESTONE (ADJ TO RES.)
NPHISSED.V/V   : NEUTRON POROSITY SANDSTONE (ADJ TO RES.)
NPOLSWS .V/V   : NEUTRON POROSITY LIMESTONE (NPHISSED CONVERTED TO LS/NPHILSED @ 4396')
RHOBED  .G/C3  : BULK DENSITY
SPRED   .MV    : Spontaneous Potential  DIL
SPWS    .MV    : SPONTANEOUS POTENTIAL BASELINE 0 MV (SPRED)
SRESWS  .OHMM  : SHALLOW RESISTIVITY (LL8ED)
~Params ----------------------------------------------------
PD  .                     GL : PERMANENT DATUM
EPD .FT               2924.5 : ELEVATION PERMANENT DATUM
LMF .                     KB : LOG MEASURED FROM
DAPD.FT                 13.5 : FEET ABOVE PERMANENT DATUM
EKB .FT                 2938 : KELLY BUSHING
EGL .FT               2924.5 : GROUND LEVEL
DATE.               03/08/74 : RUN DATE
RUN .                      1 : RUN NUMBER
DD  .FT                 8170 : DEPTH DRILLER
DL  .FT                 8169 : DEPTH LOGGER
BLI .FT                 8163 : BOTTOM LOG INTERVAL
TLI .FT                  836 : TOP LOG INTERVAL
CBD .FT                  835 : CASING BOTTOM DRILLER
BS  .IN                 8.75 : BIT SIZE
BSD .FT                 8170 : BIT SIZE AT DEPTH
DFT .               GEL CHEM : DRILLING FLUID TYPE
DFD .                    9.0 : DRILLING FLUID DENSITY
DFV .                     78 : DRILLING FLUID VISCOSITY
DFPH.                     10 : DRILLING FLUID PH
DFL .                    7.8 : DRILLING FLUID LOSS
MSS .             CALCULATED : MUD SAMPLE SOURCE
RMF .OHMM               1.34 : RESISTIVITY MUD FILTRATE SAMPLE
MFST.DEGF                 62 : MUD FILTRATE SAMPLE TEMPERATURE
RMB .OHMM               0.64 : RESISTIVITY MUD AT BHT
TCS .HRS                   3 : TIME CIRCULATED STOPPED
LUN .                   7692 : LOGGING UNIT NUMBER
LUL .                    EDM : LOGGING UNIT LOCATION
ENGI.                   WOON : RECORDING ENGINEER
WITN.              MACKENZIE : WITNESSED BY
CLNT.                A2DTECH : CLIENT CODE
ORIG.            2" 5" PRINT : ORIGIN OF DATA
UWI .       100162706309W500 : UNIQUE WELL ID
DICO. A2D Technologies, Inc. : DIGITIZING COMPANY
~Other -----------------------------------------------------
~ASCII -----------------------------------------------------
# ...
 6000.00000    -999.25    8.25560    8.25560   45.82320    -999.25    -999.25    -999.25    -999.25    -999.25   21.82300    -999.25   50.56960   50.56960    -999.25   10.58740   10.58740   21.82300   46.85180  210.26690   46.85180    -999.25    -999.25    -999.25    -999.25 -162.24980 -125.54760  210.26690
 6050.00000    -999.25    8.80910    8.80910    3.95570    -999.25    -999.25    -999.25    -999.25    -999.25  252.79950    -999.25   50.47930   50.47930    -999.25   12.49370   12.49370  252.79950  346.60440  871.39460  346.60440    -999.25    -999.25    -999.25    -999.25  -79.44790  -43.62120  871.39460
 6100.00000    -999.25    9.42040    9.42040  277.28480    -999.25    -999.25    -999.25    -999.25    -999.25    3.60640    -999.25   62.29450   62.29450    -999.25   68.73670   68.73670    3.60640    3.69940    3.97060    3.69940    -999.25    -999.25    -999.25    -999.25  -76.77560  -41.82430    3.97060
 6150.00000    -999.25    8.43960    8.43960   57.52520    -999.25    -999.25    -999.25    -999.25    -999.25   17.38370    -999.25   54.24090   54.24090    -999.25   38.66550   38.66550   17.38370   24.49830   49.04740   24.49830    -999.25    -999.25    -999.25    -999.25 -116.49050  -82.41460   49.04740
 6200.00000    -999.25    8.59190    8.59190   18.95610    -999.25    -999.25    -999.25    -999.25    -999.25   52.83690    -999.25   49.63540   49.63540    -999.25   36.53900   36.53900   52.83690   71.11560   88.51530   71.11560    -999.25    -999.25    -999.25    -999.25 -113.06070  -79.86470   88.51530
 6250.00000    -999.25    8.61740    8.61740   28.37150    -999.25    -999.25    -999.25    -999.25    -999.25   35.24670    -999.25   51.48830   51.48830    -999.25   19.28750   19.28750   35.24670   47.26270   73.06860   47.26270    -999.25    -999.25    -999.25    -999.25  -98.18090  -65.85590   73.06860
 6300.00000    -999.25    8.69960    8.69960  145.69830    -999.25    -999.25    -999.25    -999.25    -999.25    6.86350    -999.25   57.69590   57.69590    -999.25   47.07540   47.07540    6.86350    7.08150    8.44860    7.08150    -999.25    -999.25    -999.25    -999.25  -82.13800  -50.68840    8.44860
 6350.00000    -999.25    8.82550    8.82550   57.71710    -999.25    -999.25    -999.25    -999.25    -999.25   17.32590    -999.25   61.05380   61.05380    -999.25   55.52080   55.52080   17.32590   18.62770   20.02080   18.62770    -999.25    -999.25    -999.25    -999.25  -35.77200   -5.19790   20.02080
 6400.00000    -999.25   12.36170   12.36170  179.19860    -999.25    -999.25    -999.25    -999.25    -999.25    5.58040    -999.25   76.00470   76.00470    -999.25   82.08180   82.08180    5.58040    5.06120    7.18720    5.06120    -999.25    -999.25    -999.25    -999.25  -44.31500  -14.54370    7.18720
 6450.00000    -999.25   12.48400   12.48400  163.72240    -999.25    -999.25    -999.25    -999.25    -999.25    6.10790    -999.25   74.21340   74.21340    -999.25   69.99630   69.99630    6.10790    6.24440    7.28060    6.24440    -999.25    -999.25    -999.25    -999.25  -38.45320   -9.38800    7.28060
 6500.00000    -999.25   12.65970   12.65970  218.87590    -999.25    -999.25    -999.25    -999.25    -999.25    4.56880    -999.25   79.81910   79.81910    -999.25   80.78550   80.78550    4.56880    4.76050    5.85720    4.76050    -999.25    -999.25    -999.25    -999.25  -32.55530   -4.18910    5.85720
 6550.00000    -999.25    8.74530    8.74530  108.31190    -999.25    -999.25    -999.25    -999.25    -999.25    9.23260    -999.25   67.94320   67.94320    -999.25   62.81950   62.81950    9.23260    9.94490   12.53730    9.94490    -999.25    -999.25    -999.25    -999.25  -31.47520   -3.81160   12.53730
 6600.00000    -999.25   11.60750   11.60750  292.88580    -999.25    -999.25    -999.25    -999.25    -999.25    3.41430    -999.25   85.94460   85.94460    -999.25  104.52610  104.52610    3.41430    3.55310    4.51730    3.55310    -999.25    -999.25    -999.25    -999.25  -47.83780  -20.87680    4.51730
 6650.00000    -999.25    8.58750    8.58750  145.18850    -999.25    -999.25    -999.25    -999.25    -999.25    6.88760    -999.25   70.55390   70.55390    -999.25   81.12830   81.12830    6.88760    7.32460    8.39600    7.32460    -999.25    -999.25    -999.25    -999.25  -36.22280   -9.96440    8.39600
 6700.00000    -999.25    9.17440    9.17440  122.44470    -999.25    -999.25    -999.25    -999.25    -999.25    8.16690    -999.25   73.23070   73.23070    -999.25   94.18830   94.18830    8.16690    9.88680   10.80110    9.88680    -999.25    -999.25    -999.25    -999.25  -35.92810  -10.37580   10.80110
 6750.00000    -999.25   14.56210   14.56210  259.64580    -999.25    -999.25    -999.25    -999.25    -999.25    3.85140    -999.25   83.47950   83.47950    -999.25   77.59610   77.59610    3.85140    3.46660    4.72760    3.46660    -999.25    -999.25    -999.25    -999.25  -46.20270  -21.34940    4.72760
 6800.00000    -999.25   11.82800   11.82800  267.96720    -999.25    -999.25    -999.25    -999.25    -999.25    3.73180    -999.25   83.67140   83.67140    -999.25   91.19330   91.19330    3.73180    3.53850    4.72280    3.53850    -999.25    -999.25    -999.25    -999.25  -42.46180  -18.31110    4.72280
 6850.00000    -999.25   13.26660   13.26660  212.35030    -999.25    -999.25    -999.25    -999.25    -999.25    4.70920    -999.25   83.35970   83.35970    -999.25   79.60440   79.60440    4.70920    4.09090    5.37080    4.09090    -999.25    -999.25    -999.25    -999.25  -46.28340  -22.83530    5.37080
 6900.00000    -999.25   14.03550   14.03550  191.99390    -999.25    -999.25    -999.25    -999.25    -999.25    5.20850    -999.25   81.23760   81.23760    -999.25   79.27670   79.27670    5.20850    5.08460    5.75100    5.08460    -999.25    -999.25    -999.25    -999.25  -37.81680  -15.07130    5.75100
 6950.00000    -999.25   12.81800   12.81800  297.60190    -999.25    -999.25    -999.25    -999.25    -999.25    3.36020    -999.25   90.18630   90.18630    -999.25   96.95830   96.95830    3.36020    3.17210    4.67060    3.17210    -999.25    -999.25    -999.25    -999.25  -43.69680  -21.65730    4.67060
 7000.00000    -999.25    9.07880    9.07880  100.83080    -999.25    -999.25    -999.25    -999.25    -999.25    9.91760    -999.25   68.29380   68.29380    -999.25   76.82290   76.82290    9.91760   10.76580   13.61670   10.76580    -999.25    -999.25    -999.25    -999.25  -27.42130   -6.08100   13.61670
 7050.00000    -999.25   11.14880   11.14880  204.94740    -999.25    -999.25    -999.25    -999.25    -999.25    4.87930    -999.25   80.25620   80.25620    -999.25   77.20830   77.20830    4.87930    5.25780    6.88100    5.25780    -999.25    -999.25    -999.25    -999.25  -43.19880  -22.56100    6.88100
 7100.00000    -999.25    8.73850    8.73850  103.25140    -999.25    -999.25    -999.25    -999.25    -999.25    9.68510    -999.25   67.68280   67.68280    -999.25   64.05130   64.05130    9.68510   10.65230   14.74210   10.65230    -999.25    -999.25    -999.25    -999.25  -25.28290   -5.34770   14.74210
 7150.00000    -999.25   12.60840   12.60840  237.29860    -999.25    -999.25    -999.25    -999.25    -999.25    4.21410    -999.25   82.75480   82.75480    -999.25   96.09470   96.09470    4.21410    4.32040    5.57500    4.32040    -999.25    -999.25    -999.25    -999.25  -55.77050  -36.53790    5.57500
 7200.00000    -999.25   11.80990   11.80990  248.41570    -999.25    -999.25    -999.25    -999.25    -999.25    4.02590    -999.25   84.58090   84.58090    -999.25  103.10070  103.10070    4.02590    4.15850    5.77790    4.15850    -999.25    -999.25    -999.25    -999.25  -41.47580  -22.94930    5.77790
 7250.00000    -999.25    9.29180    9.29180  173.42440    -999.25    -999.25    -999.25    -999.25    -999.25    5.76620    -999.25   74.19400   74.19400    -999.25   73.05250   73.05250    5.76620    6.89710    9.55100    6.89710    -999.25    -999.25    -999.25    -999.25  -29.81990  -11.99250    9.55100
