~Version ---------------------------------------------------
VERS.      2.0 : CWLS log ASCII Standard -VERSION 2.0
WRAP.       NO : One line per depth step
CREA. 11/22/17 : LAS Creation Date
~Well ------------------------------------------------------
STRT.FT                         900.0 : START DEPTH
STOP.FT                        8350.0 : STOP DEPTH
STEP.FT                      50.00000 : STEP LENGTH
NULL.                         -999.25 : NULL VALUE
COMP.         QUINTANA EXPLORATION CO : COMPANY
WELL. QUINTANA ET AL SNIPE 6-23-72-18 : WELL
FLD .                                 : FIELD
LOC .                                 : LOCATION
CTRY.                          CANADA : COUNTRY
SRVC.          Schlumberger of Canada : SERVICE COMPANY
DATE.                     22-Mar-1977 : LOGDATE
PROV.                         Alberta : PROVINCE
UWI .                100062307218W500 : UNIQUE WELL ID
SLAT.WGS84                   55.24794 : SURFACE LATITUDE
SLON.WGS84                  -116.6597 : SURFACE LONGITUDE
~Curve Information -----------------------------------------
DEPT    .FT    : Depth Curve
CALDED  .IN    : CALIPER FROM DENSITY LOG
CALSED  .IN    : CALIPER FROM SONIC LOG
CALWS   .IN    : CALIPER [CALSED]
CONDWS  .MMHO  : CONDUCTIVITY [1000/DRESWS]
DCORWS  .G/C3  : DENSITY CORRECTION [DRHOED]
DENWS   .G/C3  : FORMATION BULK DENSITY [CALC FROM DPOLSWS, M=2.71, F=1.00]
DPHILSED.V/V   : DENSITY POROSITY LIMESTONE [M=2.71, F=1.00] FROM DENSITY LOG
DPHISSED.V/V   : DENSITY POROSITY SANDSTONE [M=2.65, F=1.00] FROM DENSITY LOG
DPOLSWS .V/V   : DENSITY POROSITY LIMESTONE [DPHISSED CONVERTED TO LS, SPL TO DPHILSED @1274M & SPL TO CALC FROM RHOBED, SEE the Other Information]
DRESWS  .OHMM  : DEEP RESISTIVITY [ILDED]
DRHOED  .G/C3  : DENSITY CORRECTION FROM DENSITY LOG
DTED    .US/F  : DELTA TIME FROM SONIC LOG
DTWS    .US/F  : COMPRESSIONAL SONIC [DTED]
GRDED   .GAPI  : GAMMA RAY FROM DENSITY LOG
GRSED   .GAPI  : GAMMA RAY FROM SONIC LOG
GRWS    .GAPI  : GAMMA RAY [GRSED SPL. TO GRDED @ 964'-8333']
ILDED   .OHMM  : DEEP INDUCTION FROM RESISTIVITY LOG
ILMED   .OHMM  : MEDIUM INDUCTION FROM RESISTIVITY LOG
LL8ED   .OHMM  : 8 INCH LATEROLOG RESISTIVITY FROM RESISTIVITY LOG
MRESWS  .OHMM  : MEDIUM RESISTIVITY [ILMED]
NPHILSED.V/V   : NEUTRON POROSITY LIMESTONE FROM DENSITY LOG
NPHISSED.V/V   : NEUTRON POROSITY SANDSTONE FROM DENSITY LOG
NPOLSWS .V/V   : NEUTRON POROSITY LIMESTONE [NPHISSED MATRIX CONVERSION FOR LIMESTONE & SPL. TO NPHILSED @ 4200']
RHOBED  .G/C3  : BULK DENSITY FROM DENSITY LOG
SPRED   .MV    : SPONTANEOUS POTENTIAL FROM RESISTIVITY LOG
SPWS    .MV    : SPONTANEOUS POTENTIAL [BASELINE 0 MV, SPRED]
SRESWS  .OHMM  : SHALLOW RESISTIVITY [LL8ED]
~Params ----------------------------------------------------
PD  .                     GL : PERMANENT DATUM
EPD .FT                 2330 : ELEVATION PERMANENT DATUM
LMF .                     KB : LOG MEASURED FROM
DAPD.FT                    7 : FEET ABOVE PERMANENT DATUM
EKB .FT                 2347 : KELLY BUSHING
EGL .FT                 2330 : GROUND LEVEL
DATE.               03/22/77 : RUN DATE
RUN .                      1 : RUN NUMBER
DD  .FT                 8390 : DEPTH DRILLER
DL  .FT                 8389 : DEPTH LOGGER
BLI .FT                 8383 : BOTTOM LOG INTERVAL
TLI .FT                  615 : TOP LOG INTERVAL
CBD .FT                  918 : CASING BOTTOM DRILLER
CBL .FT                  916 : CASING BOTTOM LOGGER
BS  .IN                 8.75 : BIT SIZE
BSD .FT                 8390 : BIT SIZE AT DEPTH
DFT .               GEL CHEM : DRILLING FLUID TYPE
DFD .                    9.3 : DRILLING FLUID DENSITY
DFV .                     76 : DRILLING FLUID VISCOSITY
DFPH.                    9.0 : DRILLING FLUID PH
DFL .                    6.0 : DRILLING FLUID LOSS
MSS .               FLOWLINE : MUD SAMPLE SOURCE
RMS .OHMM               3.18 : RESISTIVITY MUD SAMPLE
MST .DEGF                 68 : MUD SAMPLE TEMPERATURE
RMF .OHMM               2.96 : RESISTIVITY MUD FILTRATE SAMPLE
MFST.DEGF                 70 : MUD FILTRATE SAMPLE TEMPERATURE
RMB .OHMM               1.48 : RESISTIVITY MUD AT BHT
TCS .HRS                 1.5 : TIME CIRCULATED STOPPED
LUN .                   7802 : LOGGING UNIT NUMBER
LUL .                    EDM : LOGGING UNIT LOCATION
ENGI.              CERANTOLA : RECORDING ENGINEER
WITN.                  SKOKO : WITNESSED BY
CLNT.                A2DTECH : CLIENT CODE
ORIG.            2" 5" PRINT : ORIGIN OF DATA
UWI .       100062307218W500 : UNIQUE WELL ID
DICO. A2D Technologies, Inc. : DIGITIZING COMPANY
~Other -----------------------------------------------------
DPOLSWS.(@5685'-5705',7139'-7303', 7342'-7345',7375'-7378',7539'-7552' & 7884'-7890']
DIL-CNFD-BCS LOG RUN
RHOB & DRHO HAVE BEEN VERIFIED FROM 2" SECTION
NEUTRON CONVERSION [CNL (NPHI)] USING SCHLUMBERGER CHART
~ASCII -----------------------------------------------------
  900.00000    -999.25    -999.25    -999.25    -999.25    -999.25    -999.25    -999.25    -999.25    -999.25    -999.25    -999.25    -999.25    -999.25    -999.25   48.57540   48.57540    -999.25    -999.25    -999.25    -999.25    -999.25    -999.25    -999.25    -999.25    -999.25    -999.25    -999.25
  950.00000   15.00620   13.62950   13.62950  227.06110    0.21810    2.17050    -999.25    0.29060    0.31550    4.40410    0.21810  132.57940  132.57940   83.75790   75.98150   75.98150    4.40410    4.86810    5.84400    4.86810    -999.25    0.47910    0.43840    2.17050  -39.55380   -3.49790    5.84400
 1000.00000   15.37000   14.12250   14.12250  245.39880    0.10460    2.03570    -999.25    0.37230    0.39430    4.07500    0.10460  123.44540  123.44540   71.57430   65.59760   71.57430    4.07500    4.18370    5.92600    4.18370    -999.25    0.47560    0.43480    2.03570  -43.39880   -4.90680    5.92600
 1050.00000   14.59810   10.83860   10.83860  201.69020    0.19990    1.92390    -999.25    0.44010    0.45970    4.95810    0.19990  133.17520  133.17520  100.02490  102.97390  100.02490    4.95810    5.30290    6.22680    5.30290    -999.25    0.53440    0.49640    1.90790  -47.05130   -4.99540    6.22680
 1100.00000   15.37000    9.36180    9.36180  170.91100    0.14110    1.96220    -999.25    0.41690    0.43730    5.85100    0.14110  124.95700  124.95700  121.09440  127.81200  121.09440    5.85100    6.06350    6.69880    6.06350    -999.25    0.55360    0.51670    1.98940  -49.22890   -3.60910    6.69880
 1150.00000   15.37000   11.18480   11.18480  188.11140    0.18140    1.85700    -999.25    0.48060    0.49880    5.31600    0.18140  135.20660  135.20660  133.68130  125.88940  133.68130    5.31600    5.50270    6.47390    5.50270    -999.25    0.53590    0.49790    1.85040  -51.14930   -2.85320    6.47390
 1200.00000   15.37000    8.45060    8.45060  201.38150    0.18240    1.91960    -999.25    0.44260    0.46220    4.96570    0.18240  135.61260  135.61260  149.33580  137.34660  149.33580    4.96570    5.26490    6.54380    5.26490    -999.25    0.51390    0.47470    1.89670  -46.69560   -4.51010    6.54380
 1250.00000   15.37000   10.29950   10.29950  205.59630    0.17450    2.01460    -999.25    0.38510    0.40670    4.86390    0.17450  132.26010  132.26010  216.77100  248.19200  216.77100    4.86390    5.12970    6.87570    5.12970    -999.25    0.56900    0.53300    2.01460  -42.76050   -1.06370    6.87570
 1300.00000   15.37000    9.71000    9.71000  164.83150    0.12660    1.83230    -999.25    0.49560    0.51330    6.06680    0.12660  116.28360  116.28360  121.26270  120.47820  121.26270    6.06680    6.30580    7.14360    6.30580    -999.25    0.53930    0.50150    1.80400  -50.96370   -5.70230    7.14360
 1350.00000   15.37000   12.16730   12.16730  160.21020    0.10370    1.67800    -999.25    0.58910    0.60350    6.24180    0.10370  146.72980  146.72980   89.87500   96.11980   89.87500    6.24180    5.89270    6.86110    5.89270    -999.25    0.64180    0.61070    1.68200  -51.13110   -3.78790    6.86110
 1400.00000   15.37000   12.44760   12.44760  164.92400    0.08710    1.70060    -999.25    0.57540    0.59030    6.06340    0.08710  138.63040  138.63040  118.01250  127.01110  118.01250    6.06340    5.71870    6.58510    5.71870    -999.25    0.57080    0.53490    1.63900  -53.89710   -4.47210    6.58510
 1450.00000   15.37000   14.23970   14.23970  154.30190    0.07400    1.80300    -999.25    0.51340    0.53040    6.48080    0.07400  129.68090  129.68090  129.84100  129.46120  129.84100    6.48080    6.12100    7.08630    6.12100    -999.25    0.60270    0.56890    1.78050  -53.75440   -2.24760    7.08630
 1500.00000   15.02390   14.55470   14.55470  202.40870    0.10910    1.70290    -999.25    0.57400    0.58890    4.94050    0.10910  118.43420  118.43420  125.98520  126.24130  125.98520    4.94050    5.65680    6.45630    5.65680    -999.25    0.57250    0.53670    1.65840  -54.81860   -1.83960    6.45630
 1550.00000   15.15150   14.11020   14.11020  151.44860    0.07540    1.91670    -999.25    0.44450    0.46390    6.60290    0.07540  164.50460  164.50460  108.89430  100.38940  108.89430    6.60290    6.25190    6.94720    6.25190    -999.25    0.57070    0.53470    1.90340  -60.22130   -7.02730    6.94720
 1600.00000   15.37000   14.66030   14.66030  155.31330    0.07090    1.66230    -999.25    0.59860    0.61270    6.43860    0.07090  122.52270  122.52270  110.91190  109.58670  110.91190    6.43860    6.69960    7.12510    6.69960    -999.25    0.64550    0.61470    1.62740  -61.44950   -8.04050    7.12510
 1650.00000   14.55190   14.56670   14.56670  160.11020    0.16810    1.74250    -999.25    0.55000    0.56580    6.24570    0.16810  131.71950  131.71950  112.65900  114.68320  112.65900    6.24570    5.73140    7.00340    5.73140    -999.25    0.65250    0.62220    1.71150  -60.50780   -6.88380    7.00340
 1700.00000   14.86420   13.98610   13.98610  192.89380    0.14640    1.93440    -999.25    0.43370    0.45360    5.18420    0.14640  127.19290  127.19290  140.42580  145.04820  140.42580    5.18420    4.85500    6.71890    4.85500    -999.25    0.51350    0.47440    1.92220  -59.12860   -5.28960    6.71890
 1750.00000   14.93990    9.73890    9.73890  191.87970    0.12950    1.95950    -999.25    0.41850    0.43890    5.21160    0.12950  128.33140  128.33140  137.55040  133.20990  137.55040    5.21160    4.95150    6.89460    4.95150    -999.25    0.59140    0.55680    1.93610  -57.88360   -4.39230    6.89460
 1800.00000   13.40920   11.09480   11.09480  203.86940    0.14420    1.97020    -999.25    0.41200    0.43260    4.90510    0.14420  133.37640  133.37640  138.56150  139.31910  138.56150    4.90510    4.69620    6.86100    4.69620    -999.25    0.51510    0.47600    1.95120  -57.46460   -4.60170    6.86100
 1850.00000   12.28050   11.48810   11.48810  193.66710    0.21800    2.19250    -999.25    0.27730    0.30270    5.16350    0.21800  129.57170  129.57170  210.70910  189.30890  210.70910    5.16350    5.51930    8.07380    5.51930    -999.25    0.49690    0.45700    2.19250  -54.38420   -1.95130    8.07380
 1900.00000   12.20010   11.94680   11.94680  183.12670    0.15570    2.06740    -999.25    0.35310    0.37580    5.46070    0.15570  115.01470  115.01470  128.92770  109.03880  128.92770    5.46070    4.61710    5.98470    4.61710    -999.25    0.54080    0.50310    2.06740  -57.19780   -5.59600    5.98470
 1950.00000    9.65370    9.53420    9.53420   88.26130    0.03390    2.45150    -999.25    0.12030    0.15120   11.33000    0.03390   72.20960   72.20960  104.04440   89.60410  104.04440   11.33000   20.69140   49.69510   20.69140    -999.25    0.22890    0.18510    2.45150  -61.89610  -11.19440   49.69510
 2000.00000   12.20820   10.26960   10.26960  217.47640    0.19790    2.01230    -999.25    0.38650    0.40800    4.59820    0.19790  116.25970  116.25970  143.87770  128.95490  143.87770    4.59820    4.76350    5.49180    4.76350    -999.25    0.47370    0.43280    2.01230  -52.69520   -2.89370    5.49180
 2050.00000   12.68060    9.98560    9.98560  258.65860    0.20930    2.00930    -999.25    0.38830    0.40980    3.86610    0.20930  124.01530  124.01530  146.98080  149.13990  146.98080    3.86610    3.56490    4.72430    3.56490    -999.25    0.53030    0.49200    2.00930  -52.24500   -3.34360    4.72430
 2100.00000   13.98520    9.57380    9.57380  237.42820    0.18340    1.96410    -999.25    0.41570    0.43620    4.21180    0.18340  112.76860  112.76860  136.81730  131.42000  136.81730    4.21180    3.98810    4.84280    3.98810    -999.25    0.48180    0.44120    1.93190  -50.57090   -2.56970    4.84280
 2150.00000   13.88450    9.42350    9.42350  209.89880    0.19040    1.98610    -999.25    0.40240    0.42330    4.76420    0.19040  107.91780  107.91780  132.03780  116.82020  132.03780    4.76420    4.50380    5.19390    4.50380    -999.25    0.47250    0.43160    1.97740  -51.69540   -4.59430    5.19390
