~Version ---------------------------------------------------
VERS.      2.0 : CWLS log ASCII Standard -VERSION 2.0
WRAP.       NO : One line per depth step
CREA. 11/20/17 : LAS Creation Date
~Well ------------------------------------------------------
STRT.FT                300.0 : START DEPTH
STOP.FT               8300.0 : STOP DEPTH
STEP.FT             50.00000 : STEP LENGTH
NULL.                -999.25 : NULL VALUE
COMP.   IMPERIAL OIL LIMITED : COMPANY
WELL. IMP FREEMAN 10-31-63-7 : WELL
FLD .                        : FIELD
LOC .                        : LOCATION
CTRY.                 CANADA : COUNTRY
SRVC. Schlumberger of Canada : SERVICE COMPANY
DATE.            16-Oct-1958 : LOGDATE
PROV.                Alberta : PROVINCE
UWI .       100103106307W500 : UNIQUE WELL ID
SLAT.WGS84          54.49585 : SURFACE LATITUDE
SLON.WGS84         -115.0433 : SURFACE LONGITUDE
~Curve Information -----------------------------------------
DEPT  .FT     : Depth Curve
CALWS .IN     : CALIPER [MCALED]
CILDED.MMHO   : CONDUCTIVITY FROM RESISTIVITY LOG
CONDWS.MMHO   : CONDUCTIVITY [1000/DRESWS]
DRESWS.OHMM   : DEEP RESISTIVITY [1000/CILDED IF ILDED <=6.5, ILDED]
GRNED .UR/HR  : GAMMA RAY FROM GRN LOG [ADJ.TO RESISTIVITY LOG]
GRWS  .GAPI   : GAMMA RAY [GRNED*15]
ILDED .OHMM   : DEEP INDUCTION FROM RESISTIVITY LOG
MCALED.IN     : MICRO CALIPER FROM MICRO LOG [ADJ.TO RESISTIVITY LOG]
NEUTED.SNU    : NEUTRON FROM GRN LOG [ADJ.TO RESISTIVITY LOG]
NEUTWS.SNU    : NEUTRON [NEUTED]
SNED  .OHMM   : SHORT NORMAL 16" FROM RESISTIVITY LOG
SPRED .MV     : SPONTANEOUS POTENTIAL FROM RESISTIVITY LOG
SPWS  .MV     : SPONTANEOUS POTENTIAL [BASELINE 0 MV, SPRED]
SRESWS.OHMM   : SHALLOW RESISTIVITY [SNED]
~Params ----------------------------------------------------
LMF .                     KB : LOG MEASURED FROM
DMF .                     KB : DRILLING MEASURED FROM
EKB .FT                 2612 : KELLY BUSHING
DATE.               10/16/58 : RUN DATE
RUN .                      1 : RUN NUMBER
TCS .HRS                   4 : TIME CIRCULATED STOPPED
ENGI.                  GOETZ : RECORDING ENGINEER
WITN.                 WILSON : WITNESSED BY
CLNT.                A2DTECH : CLIENT CODE
ORIG.            2" 5" PRINT : ORIGIN OF DATA
UWI .       100103106307W500 : UNIQUE WELL ID
DICO. A2D Technologies, Inc. : DIGITIZING COMPANY
~Other -----------------------------------------------------
IEL-GRN-ML LOG RUN.
STUCK IN HOLE ON FIRST ATTEMPT, SURFACE SP DISTURBANCE.
GRNED, NEUTED DIG IN 2" SCALE @ TOP TO 6700'
GRNED MULTIPLED WITH 15 AS PER SPEC. (TYPE T (SCINTILLATION)
NEUTRON UNITS KEEPT AS 100 STU AS MENTIONED IN PRINT
~ASCII -----------------------------------------------------
  300.00000    -999.25    -999.25    -999.25    -999.25    1.09860   16.47900    -999.25    -999.25    8.25720    8.25720    -999.25    -999.25    -999.25    -999.25
  350.00000    -999.25    -999.25    -999.25    -999.25    1.03490   15.52350    -999.25    -999.25    8.90260    8.90260    -999.25    -999.25    -999.25    -999.25
  400.00000    -999.25    -999.25    -999.25    -999.25    1.04900   15.73500    -999.25    -999.25    7.56020    7.56020    -999.25    -999.25    -999.25    -999.25
  450.00000    -999.25    -999.25    -999.25    -999.25    1.04760   15.71400    -999.25    -999.25    8.23310    8.23310    -999.25    -999.25    -999.25    -999.25
  500.00000    -999.25    -999.25    -999.25    -999.25    0.98810   14.82150    -999.25    -999.25    8.15990    8.15990    -999.25    -999.25    -999.25    -999.25
  550.00000    -999.25    -999.25    -999.25    -999.25    1.07410   16.11150    -999.25    -999.25    7.77970    7.77970    -999.25    -999.25    -999.25    -999.25
  600.00000    -999.25    -999.25    -999.25    -999.25    1.08020   16.20300    -999.25    -999.25    8.51070    8.51070    -999.25    -999.25    -999.25    -999.25
  650.00000    -999.25  300.83840  300.83840    3.32400    1.67860   25.17900    3.88900    -999.25    8.15250    8.15250    4.15070  -32.61160   -3.19760    4.15070
  700.00000    -999.25  354.16630  354.16630    2.82350    1.47640   22.14600    3.39470    -999.25    8.94120    8.94120    3.88870  -33.58690   -4.74750    3.88870
  750.00000    -999.25  207.61160  207.61160    4.81670    1.35850   20.37750    5.36950    -999.25   11.45660   11.45660    5.30110  -35.64640   -7.38170    5.30110
  800.00000    -999.25  179.09600  179.09600    5.58490    1.30930   19.63950    5.73020    -999.25   12.27470   12.27470    6.09930  -31.12710   -3.69370    6.09930
  850.00000    -999.25  164.15610  164.15610    6.09180    1.27920   19.18800    6.40680    -999.25   10.63480   10.63480    7.17090  -29.56610   -6.18940    7.17090
  900.00000    -999.25  210.47020  210.47020    4.75130    1.43410   21.51150    5.33030    -999.25   11.00560   11.00560    4.98440  -31.51910   -9.27070    4.98440
  950.00000    -999.25  299.04900  299.04900    3.34390    1.42170   21.32550    3.93210    -999.25   10.90470   10.90470    4.12000  -29.26580   -7.50730    4.12000
 1000.00000    -999.25  303.70190  303.70190    3.29270    1.37970   20.69550    3.82190    -999.25    9.66920    9.66920    4.16090  -30.19000   -8.92150    4.16090
 1050.00000    -999.25  100.26090   92.89070   10.78860    1.08770   16.31550   10.78860    -999.25   16.49090   16.49090   11.43980  -26.87720   -5.75980   11.43980
 1100.00000    -999.25  216.04790  216.04790    4.62860    1.33180   19.97700    5.18370    -999.25   10.96250   10.96250    5.39860  -34.27320  -12.69590    5.39860
 1150.00000    -999.25   43.10780   27.99540   35.72010    1.04020   15.60300   35.72010    -999.25   22.87780   22.87780   17.15990  -32.88660  -10.85170   17.15990
 1200.00000    -999.25  225.16440  225.16440    4.44120    1.29160   19.37400    5.09820    -999.25   10.54450   10.54450    5.30410  -34.79390  -12.30130    5.30410
 1250.00000    -999.25  229.58680  229.58680    4.35570    1.18130   17.71950    4.91770    -999.25    9.56250    9.56250    5.46250  -34.77250  -11.82230    5.46250
 1300.00000    -999.25  251.62180  251.62180    3.97450    1.25860   18.87900    4.52750    -999.25    8.74570    8.74570    4.98550  -32.72180   -9.31630    4.98550
 1350.00000    -999.25  245.02740  245.02740    4.08120    1.23020   18.45300    4.57210    -999.25    9.04170    9.04170    4.80480  -31.34470   -7.47920    4.80480
 1400.00000    -999.25  201.93340  201.93340    4.95210    1.25660   18.84900    5.21270    -999.25   11.08940   11.08940    5.53540  -34.47170  -10.14860    5.53540
 1450.00000    -999.25  287.99150  287.99150    3.47230    1.31880   19.78200    4.00390    -999.25    8.47300    8.47300    4.31010  -32.82590   -8.04510    4.31010
 1500.00000    -999.25  216.14220  216.14220    4.62660    1.16770   17.51550    5.00790    -999.25   10.00330   10.00330    6.04240  -38.05500  -12.81660    6.04240
 1550.00000    -999.25  276.24460  276.24460    3.62030    1.26880   19.03200    4.16900    -999.25    8.69040    8.69040    4.47460  -31.01140   -5.31770    4.47460
 1600.00000    -999.25  188.59680  188.59680    5.30230    1.17170   17.57550    5.84000    -999.25   11.10720   11.10720    6.34110  -38.79310  -12.63950    6.34110
 1650.00000    -999.25  276.45850  276.45850    3.61720    1.38350   20.75250    4.18330    -999.25    8.22940    8.22940    4.67440  -31.30860   -4.69730    4.67440
 1700.00000    -999.25  140.32070  129.94270    7.69570    1.06040   15.90600    7.69570    -999.25   11.43630   11.43630    7.49940  -39.85750  -12.78850    7.49940
 1750.00000    -999.25  262.21820  262.21820    3.81360    1.25080   18.76200    4.38430    -999.25    9.94850    9.94850    5.13250  -34.74820   -7.22170    5.13250
 1800.00000    -999.25  228.61270  228.61270    4.37420    1.30780   19.61700    4.58080    -999.25   12.05070   12.05070    4.87800  -33.72590   -5.74400    4.87800
 1850.00000    -999.25  200.77260  200.77260    4.98080    1.51030   22.65450    5.20720    -999.25   12.44160   12.44160    5.67690  -32.84580   -4.40400    5.67690
 1900.00000    -999.25  259.06940  259.06940    3.86000    1.46700   22.00500    4.39610    -999.25   11.56660   11.56660    4.67310  -30.27370   -1.45180    4.67310
 1950.00000    -999.25  301.53100  301.53100    3.31640    1.69040   25.35600    3.86020    -999.25   10.62300   10.62300    4.37360  -30.22690   -1.05980    4.37360
 2000.00000    -999.25  204.24290  204.24290    4.89610    1.71180   25.67700    5.57940    -999.25   11.29890   11.29890    5.15080  -30.33460   -0.82210    5.15080
 2050.00000    -999.25  253.30920  253.30920    3.94800    1.76540   26.48100    4.36360    -999.25    9.65680    9.65680    5.00150  -31.91050   -2.05450    5.00150
 2100.00000    -999.25  261.66660  261.66660    3.82170    1.92360   28.85400    4.36000    -999.25   10.41550   10.41550    4.74810  -31.70250   -1.49950    4.74810
 2150.00000    -999.25  145.83060  138.85610    7.20170    1.83310   27.49650    7.20170    -999.25    8.66190    8.66190    7.60160  -33.38560   -2.77600    7.60160
 2200.00000    -999.25  185.48620  185.48620    5.39120    1.72100   25.81500    5.93600    -999.25    7.55950    7.55950    5.59740  -32.62600   -1.59260    5.59740
 2250.00000    -999.25  208.11480  208.11480    4.80500    1.60670   24.10050    5.62900    -999.25    7.68490    7.68490    5.32390  -32.66360   -1.37990    5.32390
 2300.00000    -999.25  232.20980  232.20980    4.30650    1.72580   25.88700    4.65240    -999.25    7.95390    7.95390    5.07070  -34.30780   -2.82380    5.07070
 2350.00000    -999.25  173.55830  173.55830    5.76180    1.69640   25.44600    6.30180    -999.25    7.05750    7.05750    6.02400  -34.34040   -2.65410    6.02400
 2400.00000    -999.25  137.87580  134.41580    7.43960    1.55700   23.35500    7.43960    -999.25    8.93830    8.93830    7.04490  -35.33570   -3.44810    7.04490
 2450.00000    -999.25  181.78620  181.78620    5.50100    1.61220   24.18300    6.05610    -999.25    8.50480    8.50480    5.81930  -32.65340   -0.67920    5.81930
 2500.00000    -999.25  211.62960  211.62960    4.72520    1.77030   26.55450    5.10390    -999.25    8.41420    8.41420    5.42990  -33.56450   -1.59030    5.42990
 2550.00000    -999.25  175.31660  175.31660    5.70490    1.57980   23.69700    6.25530    -999.25    8.41470    8.41470    6.14950  -33.26470   -1.29050    6.14950
 2600.00000    -999.25  198.31650  198.31650    5.04240    1.69800   25.47000    5.78550    -999.25    8.82440    8.82440    5.43770  -33.63160   -1.65730    5.43770
 2650.00000    -999.25  214.89100  214.89100    4.65350    1.81320   27.19800    5.18340    -999.25    8.94520    8.94520    5.33110  -33.13490   -1.16060    5.33110
 2700.00000    -999.25  241.28830  241.28830    4.14440    1.80890   27.13350    4.63790    -999.25    8.67020    8.67020    4.89960  -31.43900    0.53530    4.89960
