~Version ---------------------------------------------------
VERS.      2.0 : CWLS log ASCII Standard -VERSION 2.0
WRAP.       NO : One line per depth step
CREA. 08/01/17 : LAS Creation Date
~Well ------------------------------------------------------
STRT.FT                            1050.0 : START DEPTH
STOP.FT                           10000.0 : STOP DEPTH
STEP.FT                          50.00000 : STEP LENGTH
NULL.                             -999.25 : NULL VALUE
COMP.               UNOCAL CANADA LIMITED : COMPANY
WELL. UNION LL&E SHINING BANK 11-24-56-14 : WELL
FLD .                                  WC : FIELD
LOC .                                     : LOCATION
CTRY.                              CANADA : COUNTRY
SRVC.                        Schlumberger : SERVICE COMPANY
DATE.                         03-Aug-1971 : LOGDATE
PROV.                             Alberta : PROVINCE
UWI .                    100112405614W500 : UNIQUE WELL ID
SLAT.WGS84                  53.8561852475 : SURFACE LATITUDE
SLON.WGS84                -115.9502838878 : SURFACE LONGITUDE
~Curve Information -----------------------------------------
DEPT  .FT    : Depth Curve
CALSED.IN    : CALIPER FROM BCS LOG
CALWS .IN    : CALIPER [CALSED]
CILDED.MMHO  : DEEP INDUCTION CONDUCTIVITY FROM DIL LOG
CONDWS.MMHO  : CONDUCTIVITY [1000/DRESWS]
DRESWS.OHMM  : DEEP RESISTIVITY [1000/CILDED IF ILDED<4, ILDED]
DTED  .US/F  : DELTA-T (INTERVAL TRANSIT TIME) FROM BCS LOG
DTWS  .US/F  : COMPRESSIONAL  SONIC [DTED]
GRSED .GAPI  : GAMMA RAY FROM BCS LOG
GRWS  .GAPI  : GAMMA RAY [GRSED]
ILDED .OHMM  : DEEP INDUCTION RESISTIVITY FROM DIL LOG
ILMED .OHMM  : INDUCTION MEDIUM RESISTIVITY FROM DIL LOG
LL8ED .OHMM  : LATEROLOG 8 FROM DIL LOG
MRESWS.OHMM  : MEDIUM RESISTIVITY [ILMED]
SPRED .MV    : SPONTANEOUS POTENTIAL FROM DIL LOG
SPWS  .MV    : SPONTANEOUS POTENTIAL [BASELINE 0 MV, SPRED]
SRESWS.OHMM  : SHALLOW RESISTIVITY [LL8ED]
~Params ----------------------------------------------------
PD  .                     GL : PERMANENT DATUM
EPD .FT                 2733 : ELEVATION PERMANENT DATUM
LMF .                     KB : LOG MEASURED FROM
DAPD.FT                15.25 : FEET ABOVE PERMANENT DATUM
EKB .FT              2748.25 : KELLY BUSHING
EGL .FT                 2733 : GROUND LEVEL
DATE.                      1 : RUN DATE
RUN .               08/03/71 : RUN NUMBER
DD  .FT                10035 : DEPTH DRILLER
DL  .FT                10039 : DEPTH LOGGER
BLI .FT                10033 : BOTTOM LOG INTERVAL
TLI .FT                 1030 : TOP LOG INTERVAL
CBD .FT                 1030 : CASING BOTTOM DRILLER
CBL .FT                 1030 : CASING BOTTOM LOGGER
BS  .IN                 8.75 : BIT SIZE
BSD .FT                10035 : BIT SIZE AT DEPTH
DFT .                    GEL : DRILLING FLUID TYPE
DFD .                    9.5 : DRILLING FLUID DENSITY
DFV .                     85 : DRILLING FLUID VISCOSITY
DFPH.                     10 : DRILLING FLUID PH
DFL .                     10 : DRILLING FLUID LOSS
MSS .               FLOWLINE : MUD SAMPLE SOURCE
RMS .OHMM               1.45 : RESISTIVITY MUD SAMPLE
MST .DEGF                 84 : MUD SAMPLE TEMPERATURE
RMF .OHMM               1.21 : RESISTIVITY MUD FILTRATE SAMPLE
MFST.DEGF                 82 : MUD FILTRATE SAMPLE TEMPERATURE
RMB .OHMM               0.59 : RESISTIVITY MUD AT BHT
TCS .HRS                   4 : TIME CIRCULATED STOPPED
LUN .                   5628 : LOGGING UNIT NUMBER
LUL .                    EDM : LOGGING UNIT LOCATION
ENGI.                 ZANUSS : RECORDING ENGINEER
WITN.       HARRIS LEVLINLLE : WITNESSED BY
CLNT.                A2DTECH : CLIENT CODE
ORIG.            2" 5" PRINT : ORIGIN OF DATA
UWI .       100112405614W500 : UNIQUE WELL ID
DICO. A2D Technologies, Inc. : DIGITIZING COMPANY
~Other -----------------------------------------------------
GR & DT HAVE BEEN TAKEN FROM 1" @CSG. TO 5480'.
SP & RESISTIVITY CURVES HAVE BEEN TAKEN IN 1" SECTION @CSG.  TO 2556' & 3846' TO 5480'.
~ASCII -----------------------------------------------------
 1050.00000   10.57390   10.57390  374.29950  374.29350    2.67170  140.69410  140.69410   74.49450   74.49450    2.84500    -999.25    4.14180    -999.25 -131.93650   -2.05650    4.14180
 1100.00000   10.10370   10.10370   72.49930   76.55680   13.07090   95.86260   95.86260   50.34030   50.34030   13.07090    -999.25   10.83350    -999.25 -145.12280  -11.97820   10.83350
 1150.00000   10.19100   10.19100  261.67100  232.71510    4.29710  105.69820  105.69820   69.00000   69.00000    4.29710    -999.25    5.06530    -999.25 -137.37410   -3.00430    5.06530
 1200.00000   10.14890   10.14890  240.69090  224.94790    4.45910  105.98400  105.98400   74.86660   74.86660    4.45910    -999.25    6.44500    -999.25 -137.85640   -3.06130    6.44500
 1250.00000   10.28350   10.28350  167.06950  167.07880    5.98520  111.72960  111.72960   85.10770   85.10770    5.98520    -999.25    7.17250    -999.25 -136.69240   -1.69540    7.17250
 1300.00000   10.01050   10.01050  222.04180  221.67540    4.51110   98.29150   98.29150   76.94350   76.94350    4.51110    -999.25    5.12300    -999.25 -138.15300   -2.95420    5.12300
 1350.00000    9.66620    9.66620  172.78150  172.95580    5.78210   94.35170   94.35170   60.10710   60.10710    5.78210    -999.25    6.08290    -999.25 -137.46510   -2.06320    6.08290
 1400.00000   10.16240   10.16240  188.14670  187.92400    5.32130   97.50710   97.50710   74.64920   74.64920    5.32130    -999.25    5.71410    -999.25 -138.04010   -3.06970    5.71410
 1450.00000    9.65820    9.65820  104.23430  101.81150    9.82570   85.97270   85.97270   59.66830   59.66830    9.82570    -999.25    9.33960    -999.25 -140.93020   -6.49080    9.33960
 1500.00000    9.87280    9.87280  128.25680  128.31370    7.79340   93.06370   93.06370   78.08760   78.08760    7.79340    -999.25    8.13460    -999.25 -141.36990   -7.45800    8.13460
 1550.00000   10.04660   10.04660  101.45550  100.94990    9.90590   92.93060   92.93060   60.04980   60.04980    9.90590    -999.25    9.42410    -999.25 -139.00180   -5.61740    9.42410
 1600.00000   10.00960   10.00960  276.50330  276.50290    3.61660  101.00710  101.00710   78.28910   78.28910    3.94400    -999.25    5.14010    -999.25 -135.82040   -2.96700    5.14010
 1650.00000   10.27210   10.27210  229.66650  217.90770    4.58910  106.91980  106.91980   72.40320   72.40320    4.58910    -999.25    5.42770    -999.25 -134.48690   -2.16100    5.42770
 1700.00000   10.44150   10.44150  297.99740  297.99810    3.35790  130.05480  130.05480   68.72430   68.72430    3.48180    -999.25    4.73540    -999.25 -133.15420   -1.35930    4.73540
 1750.00000   10.22600   10.22600  291.56160  291.56220    3.42980   99.91350   99.91350   87.24060   87.24060    3.83250    -999.25    4.49310    -999.25 -133.56270   -2.25520    4.49310
 1800.00000   10.02720   10.02720   73.45770   76.47190   13.07670   69.25590   69.25590   50.07730   50.07730   13.07670    -999.25   12.88090    -999.25 -136.20960   -5.32290   12.88090
 1850.00000   10.23160   10.23160  264.57780  244.23190    4.09500  102.41170  102.41170   69.20600   69.20600    4.09500    -999.25    5.01240    -999.25 -133.18430   -2.72110    5.01240
 1900.00000    9.75890    9.75890  191.69140  178.77890    5.59350   92.18410   92.18410   70.50560   70.50560    5.59350    -999.25    6.54170    -999.25 -133.47140   -3.42900    6.54170
 1950.00000    9.83460    9.83460  205.45570  204.16470    4.89900   89.60500   89.60500   67.62820   67.62820    4.89900    -999.25    5.82400    -999.25 -132.30480   -2.68590    5.82400
 2000.00000   10.00080   10.00080  213.71410  217.15060    4.60510   91.35420   91.35420   68.52570   68.52570    4.60510    -999.25    5.89930    -999.25 -133.40010   -4.20200    5.89930
 2050.00000    9.99980    9.99980  236.12980  236.11080    4.23530  101.96850  101.96850   69.66020   69.66020    4.23530    -999.25    5.49380    -999.25 -131.79850   -2.71110    5.49380
 2100.00000    9.96390    9.96390  321.28620  321.28870    3.11270  100.53070  100.53070   81.02370   81.02370    3.33160    -999.25    4.52890    -999.25 -131.26000   -2.17260    4.52890
 2150.00000    9.96320    9.96320  239.69780  239.57830    4.17400   90.13370   90.13370   74.08770   74.08770    4.17400    -999.25    5.87100    -999.25 -131.11820   -2.03080    5.87100
 2200.00000    9.99280    9.99280  240.01920  224.96870    4.44510   98.60170   98.60170   73.51300   73.51300    4.44510    -999.25    6.03250    -999.25 -132.09140   -3.00400    6.03250
 2250.00000   10.36980   10.36980  226.88990  224.82520    4.44790  136.64320  136.64320   74.75240   74.75240    4.44790    -999.25    6.66660    -999.25 -132.13470   -3.04730    6.66660
 2300.00000   10.02570   10.02570  186.79060  182.21910    5.48790   90.06010   90.06010   69.64200   69.64200    5.48790    -999.25    6.02780    -999.25 -131.02650   -1.93910    6.02780
 2350.00000   10.52330   10.52330  348.56310  348.55970    2.86890  106.70310  106.70310   80.44410   80.44410    3.18500    -999.25    5.09380    -999.25 -131.36540   -2.37100    5.09380
 2400.00000   10.52080   10.52080  241.02850  235.46030    4.24700   98.26080   98.26080   75.69740   75.69740    4.24700    -999.25    6.27680    -999.25 -131.21630   -2.59370    6.27680
 2450.00000    9.84760    9.84760   46.66470   48.44750   20.64090   82.78460   82.78460   74.41570   74.41570   20.64090    -999.25   19.58550    -999.25 -132.41400   -4.16570   19.58550
 2500.00000    9.96580    9.96580  364.92960  364.92350    2.74030   95.10350   95.10350   84.35740   84.35740    3.06760    -999.25    5.00460    -999.25 -129.50930   -1.63290    5.00460
 2550.00000   10.09590   10.09590  184.20990  178.43440    5.60430   86.67320   86.67320   74.99280   74.99280    5.60430    -999.25    7.95050    -999.25 -128.81900   -1.31450    7.95050
 2600.00000    9.81100    9.81100    -999.25  163.29100    6.15810   85.25040   85.25040   60.12280   60.12280    6.15810    6.82110    5.62570    6.82110 -132.76220   -7.05820    5.62570
 2650.00000   10.13880   10.13880    -999.25  246.40250    4.05840   96.17660   96.17660   70.08580   70.08580    4.05840    4.31470    4.52550    4.31470 -128.08490   -2.70390    4.52550
 2700.00000   10.48260   10.48260    -999.25  244.33990    4.09270  107.64550  107.64550   68.09440   68.09440    3.87410    4.38430    4.04190    4.38430 -127.11190   -1.34960    4.04190
 2750.00000   10.00320   10.00320    -999.25  204.02330    4.90140   92.19940   92.19940   70.79560   70.79560    4.90140    5.10570    4.69900    5.10570 -128.79310   -5.11950    4.69900
 2800.00000    9.80270    9.80270    -999.25  215.33620    4.64390   85.19150   85.19150   56.06030   56.06030    4.64390    4.89580    5.98700    4.89580 -128.35740   -4.90850    5.98700
 2850.00000    9.81330    9.81330    -999.25  175.86140    5.69100   83.35080   83.35080   64.84260   64.84260    5.69100    6.07940    6.94480    6.07940 -126.69440   -1.74180    6.94480
 2900.00000   10.00400   10.00400    -999.25  205.41050    4.86830   88.28950   88.28950   65.86950   65.86950    4.86830    5.08040    5.86230    5.08040 -127.91250   -3.39490    5.86230
 2950.00000    9.89280    9.89280    -999.25   70.95210   14.09410   87.42350   87.42350   41.45620   41.45620   14.09410   14.65910   15.41910   14.65910 -135.42770  -11.09600   15.41910
 3000.00000   10.47640   10.47640    -999.25  206.97930    4.83140   89.06610   89.06610   66.66330   66.66330    4.83140    5.31200    5.34920    5.31200 -126.22630   -1.97350    5.34920
 3050.00000   10.07590   10.07590    -999.25   77.70790   12.86870   83.63880   83.63880   44.55070   44.55070   12.86870   13.49610   13.95210   13.49610 -133.48600   -9.93770   13.95210
 3100.00000   10.42820   10.42820    -999.25  224.80290    4.44840   90.29670   90.29670   60.61990   60.61990    4.44840    4.65040    5.04550    4.65040 -126.00410   -3.16500    5.04550
 3150.00000   10.55770   10.55770    -999.25  229.65280    4.35440   98.29800   98.29800   54.27220   54.27220    4.35440    4.70810    4.99840    4.70810 -125.71170   -1.80280    4.99840
