~Version ---------------------------------------------------
VERS.      2.0 : CWLS log ASCII Standard -VERSION 2.0
WRAP.       NO : One line per depth step
CREA. 09/30/14 : LAS Creation Date
~Well ------------------------------------------------------
STRT.M                           450.0 : START DEPTH
STOP.M                          4850.0 : STOP DEPTH
STEP.M                        50.00000 : STEP LENGTH
NULL.                          -999.25 : NULL VALUE
COMP. AQUITAINE COMPANY OF CANADA LTD. : COMPANY
WELL.           AQUIT BRAZR 6-29-45-14 : WELL
FLD .                                  : FIELD
LOC .                                  : LOCATION
CTRY.                           CANADA : COUNTRY
SRVC.                     Schlumberger : SERVICE COMPANY
DATE.                      21-Jun-1979 : LOGDATE
PROV.                          Alberta : PROVINCE
UWI .                 100062904514W500 : UNIQUE WELL ID
SLAT.WGS84                    52.90648 : SURFACE LATITUDE
SLON.WGS84                   -115.9986 : SURFACE LONGITUDE
~Curve Information -----------------------------------------
DEPT    .M      : DEPTH METER
CALDED  .MM     : CALIPER FROM DENSITY LOG [ADJ. TO RESITIVITY LOG]
CALSED  .MM     : CALIPER FROM SONIC LOG
CALWS   .MM     : CALIPER [CALSED SPL. TO CALDED @ 4866M]
CILDED  .MMHO   : CONDUCTIVITY FROM RESISTIVITY LOG
CONDWS  .MMHO   : CONDUCTIVITY [1000/DRESWS]
DCORED  .KG/M3  : DENSITY CORRECTION FROM DENSITY LOG [ADJ. TO DPHILSED/DPHISSED/RESITIVITY LOG]
DCORWS  .KG/M3  : DENSITY CORRECTION [DCORED]
DENWS   .KG/M3  : FORMATION BULK DENSITY [CALC. FROM DPOLSWS, M=2710, F=1000]
DPHILSED.V/V    : DENSITY POROSITY LIMESTONE [M=2710,F=1000] FROM DENSITY LOG [ADJ. TO RESITIVITY LOG]
DPHISSED.V/V    : DENSITY POROSITY SANDSTONE [M=2650,F=1000] FROM DENSITY LOG [ADJ. TO RESITIVITY LOG]
DPOLSWS .V/V    : DENSITY POROSITY LIMESTONE [DPHISSED CONVERTED TO LIMESTONE MATRIX, M=2710 F=1000 SPL.TO DPHILSED @ 3170.2M]
DRESWS  .OHMM   : DEEP RESISTIVITY [ILDED]
DTED    .US/M   : DELTA TIME FROM SONIC LOG
DTWS    .US/M   : COMPRESSIONAL SONIC [DTED]
GRDED   .GAPI   : GAMMA RAY FROM DENSITY LOG [ADJ. TO RESITIVITY LOG]
GRSED   .GAPI   : GAMMA RAY FROM SONIC LOG
GRWS    .GAPI   : GAMM RAY [GRSED SPL. TO GRDED FROM 2911M-2941.8M &  4860.7M-BOTTOM] GRWS (+20 API ) IN CSG. FROM 2927M-2942M
ILDED   .OHMM   : DEEP INDUCTION LOG RESISTIVITY FROM RESISTIVITY LOG
ILMED   .OHMM   : MEDIUM INDUCTION LOG RESISTIVITY FROM RESISTIVITY LOG
MRESWS  .OHMM   : MEDIUM RESISTIVITY [ILMED]
NPHILSED.V/V    : NEUTRON POROSITY LIMESTONE FROM DENSITY LOG [ADJ. TO RESITIVITY LOG]
NPHISSED.V/V    : NEUTRON POROSITY SANDSTONE FROM DENSITY LOG [ADJ. TO RESITIVITY LOG]
NPOLSWS .V/V    : NEUTRON POROSITY LIMESTONE [NPHISSED MATRIX (SLB) CONVERSION FOR LIMESTONE, SPL.TO NPHILSED @ 3170.1M]
RHOBED  .KG/M3  : BULK DENSITY FROM DENSITY LOG [ADJ. TO DPHILSED/DPHISSED/RESITIVITY LOG]
SFLED   .OHMM   : SPHERICALLY FOCUSED LOG RESISTIVITY FROM RESISTIVITY LOG
SPRED   .MV     : SPONTANEOUS POTENTIAL FROM RESISTIVITY LOG
SPWS    .MV     : SPONTANEOUS POTENTIAL [BASELINE 0 MV, SPRED]
SRESWS  .OHMM   : SHALLOW RESISTIVITY [SFLED]
~Params ----------------------------------------------------
PD  .                         GL : PERMANENT DATUM
EPD .M                    1146.6 : ELEVATION PERMANENT DATUM
LMF .                         KB : LOG MEASURED FROM
DAPD.M                       8.7 : FEET ABOVE PERMANENT DATUM
DMF .                         KB : DRILLING MEASURED FROM
EKB .M                    1155.3 : KELLY BUSHING
EGL .M                    1146.6 : GROUND LEVEL
DATE.                   06/21/79 : RUN DATE
RUN .                          2 : RUN NUMBER
DD  .M                    4891.6 : DEPTH DRILLER
DL  .M                      4879 : DEPTH LOGGER
BLI .M                      4881 : BOTTOM LOG INTERVAL
TLI .M                    2941.5 : TOP LOG INTERVAL
CBD .M                      2944 : CASING BOTTOM DRILLER
CBL .M                    2941.5 : CASING BOTTOM LOGGER
BS  .M                     215.9 : BIT SIZE
BSD .M                    4891.6 : BIT SIZE AT DEPTH
DFT .                   GEL CHEM : DRILLING FLUID TYPE
DFD .                       1020 : DRILLING FLUID DENSITY
DFV .                        100 : DRILLING FLUID VISCOSITY
DFPH.                       10.5 : DRILLING FLUID PH
DFL .                          8 : DRILLING FLUID LOSS
MSS .                   FLOWLINE : MUD SAMPLE SOURCE
RMS .OHMM                   1.26 : RESISTIVITY MUD SAMPLE
MST .DEGC                   26.7 : MUD SAMPLE TEMPERATURE
RMF .OHMM                   0.62 : RESISTIVITY MUD FILTRATE SAMPLE
MFST.DEGC                   25.6 : MUD FILTRATE SAMPLE TEMPERATURE
RMC .OHMM                   1.21 : RESISTIVITY MUD CAKE
MCST.DEGC                   17.8 : MUD CAKE SAMPLE TEMPERATURE
MFSS.                      PRESS : MUD FILTRATE SAMPLE SOURCE
MCSS.                      PRESS : MUD CAKE SAMPLE SOURCE
RMB .OHMM                   0.41 : RESISTIVITY MUD AT BHT
TCS .HRS                    1800 : TIME CIRCULATED STOPPED
TLAB.HRS                     600 : TIME LOGGER AT BOTTOM
LUN .                       8123 : LOGGING UNIT NUMBER
LUL .                         RD : LOGGING UNIT LOCATION
ENGI.            PARROTT PIERACC : RECORDING ENGINEER
WITN.                   WILLIAMS : WITNESSED BY
CLNT.                    A2DTECH : CLIENT CODE
ORIG. 6.5"/100M 16.5"/100M PRINT : ORIGIN OF DATA
UWI .           100062904514W500 : UNIQUE WELL ID
DICO.     A2D Technologies, Inc. : DIGITIZING COMPANY
~Other -----------------------------------------------------
DIL-BHC TOOLS RUN IN COMBO. & CNLD TOOLS RUN
ALL DIL-BHC TOOLS FROM TOP TO 1500M FROM 2" SCALE SECTION
~ASCII -----------------------------------------------------
  450.00000    -999.25    -999.25    -999.25    -999.25    -999.25    -999.25    -999.25    -999.25    -999.25    -999.25    -999.25    -999.25    -999.25    -999.25    -999.25   48.77370   48.77370    -999.25    -999.25    -999.25    -999.25    -999.25    -999.25    -999.25    -999.25    -999.25    -999.25    -999.25
  500.00000    -999.25  320.36580  320.36580   72.67070   73.47000    -999.25    -999.25    -999.25    -999.25    -999.25    -999.25   13.61100  274.23820  274.23820    -999.25   76.35470   76.35470   13.61100    -999.25    -999.25    -999.25    -999.25    -999.25    -999.25   10.69220 -267.34130  -16.57530   10.69220
  550.00000    -999.25  324.69060  324.69060  219.47610  221.31730    -999.25    -999.25    -999.25    -999.25    -999.25    -999.25    4.51840  312.24760  312.24760    -999.25   85.17840   85.17840    4.51840    -999.25    -999.25    -999.25    -999.25    -999.25    -999.25    4.23670 -260.20160   -8.41100    4.23670
  600.00000    -999.25  334.25560  334.25560   68.32000   67.12450    -999.25    -999.25    -999.25    -999.25    -999.25    -999.25   14.89770  279.72720  279.72720    -999.25   69.09900   69.09900   14.89770    -999.25    -999.25    -999.25    -999.25    -999.25    -999.25   11.44980 -265.03850  -12.27380   11.44980
  650.00000    -999.25  356.41920  356.41920   72.87790   75.20890    -999.25    -999.25    -999.25    -999.25    -999.25    -999.25   13.29630  338.90550  338.90550    -999.25   85.65710   85.65710   13.29630    -999.25    -999.25    -999.25    -999.25    -999.25    -999.25   11.96460 -265.86340  -12.39700   11.96460
  700.00000    -999.25  334.09620  334.09620   86.51760   87.41870    -999.25    -999.25    -999.25    -999.25    -999.25    -999.25   11.43920  320.58970  320.58970    -999.25   94.18060   94.18060   11.43920    -999.25    -999.25    -999.25    -999.25    -999.25    -999.25   22.70970 -255.72680   -1.55870   22.70970
  750.00000    -999.25  332.89310  332.89310   81.73270   82.19970    -999.25    -999.25    -999.25    -999.25    -999.25    -999.25   12.16550  327.47890  327.47890    -999.25  105.89200  105.89200   12.16550    -999.25    -999.25    -999.25    -999.25    -999.25    -999.25   13.01430 -275.36120  -20.49130   13.01430
  800.00000    -999.25  342.89410  342.89410   47.34160   48.47640    -999.25    -999.25    -999.25    -999.25    -999.25    -999.25   20.62860  248.56890  248.56890    -999.25   62.60700   62.60700   20.62860    -999.25    -999.25    -999.25    -999.25    -999.25    -999.25   17.52400 -294.16360  -38.59200   17.52400
  850.00000    -999.25  335.79470  335.79470  126.91070  126.67050    -999.25    -999.25    -999.25    -999.25    -999.25    -999.25    7.89450  265.31130  265.31130    -999.25   63.39630   63.39630    7.89450    -999.25    -999.25    -999.25    -999.25    -999.25    -999.25   10.99970 -261.72720   -5.45390   10.99970
  900.00000    -999.25  330.52910  330.52910  100.09920  100.22950    -999.25    -999.25    -999.25    -999.25    -999.25    -999.25    9.97710  262.99470  262.99470    -999.25   84.74990   84.74990    9.97710    -999.25    -999.25    -999.25    -999.25    -999.25    -999.25    9.03090 -268.84350  -12.59590    9.03090
  950.00000    -999.25  333.90080  333.90080  118.82370  119.09580    -999.25    -999.25    -999.25    -999.25    -999.25    -999.25    8.39660  281.07420  281.07420    -999.25   96.07970   96.07970    8.39660    -999.25    -999.25    -999.25    -999.25    -999.25    -999.25    7.24570 -271.52050  -15.34830    7.24570
 1000.00000    -999.25  333.22020  333.22020  152.86620  152.53900    -999.25    -999.25    -999.25    -999.25    -999.25    -999.25    6.55570  286.17190  286.17190    -999.25  120.46820  120.46820    6.55570    -999.25    -999.25    -999.25    -999.25    -999.25    -999.25    5.89520 -262.85860   -6.76180    5.89520
 1050.00000    -999.25  323.01830  323.01830  106.96430  106.94620    -999.25    -999.25    -999.25    -999.25    -999.25    -999.25    9.35050  259.57310  259.57310    -999.25   75.09650   75.09650    9.35050    -999.25    -999.25    -999.25    -999.25    -999.25    -999.25    8.58750 -272.21940  -16.19800    8.58750
 1100.00000    -999.25  322.97540  322.97540  112.66810  112.72050    -999.25    -999.25    -999.25    -999.25    -999.25    -999.25    8.87150  260.66660  260.66660    -999.25   82.35580   82.35580    8.87150    -999.25    -999.25    -999.25    -999.25    -999.25    -999.25    8.44440 -263.53740   -7.59150    8.44440
 1150.00000    -999.25  313.10570  313.10570   65.88620   64.20300    -999.25    -999.25    -999.25    -999.25    -999.25    -999.25   15.57560  253.22070  253.22070    -999.25   87.60100   87.60100   15.57560    -999.25    -999.25    -999.25    -999.25    -999.25    -999.25   11.80570 -286.94460  -31.07410   11.80570
 1200.00000    -999.25  322.74330  322.74330  117.93480  117.86620    -999.25    -999.25    -999.25    -999.25    -999.25    -999.25    8.48420  258.58760  258.58760    -999.25   93.79160   93.79160    8.48420    -999.25    -999.25    -999.25    -999.25    -999.25    -999.25    7.39950 -261.90410   -6.10900    7.39950
 1250.00000    -999.25  326.48900  326.48900  127.55210  125.64080    -999.25    -999.25    -999.25    -999.25    -999.25    -999.25    7.95920  349.97630  349.97630    -999.25  103.55420  103.55420    7.95920    -999.25    -999.25    -999.25    -999.25    -999.25    -999.25    6.42170 -273.60460  -17.88490    6.42170
 1300.00000    -999.25  338.84500  338.84500  168.55260  168.36150    -999.25    -999.25    -999.25    -999.25    -999.25    -999.25    5.93960  305.37320  305.37320    -999.25   88.10790   88.10790    5.93960    -999.25    -999.25    -999.25    -999.25    -999.25    -999.25    5.11560 -268.14500  -12.41970    5.11560
 1350.00000    -999.25  313.59820  313.59820  190.52190  190.64690    -999.25    -999.25    -999.25    -999.25    -999.25    -999.25    5.24530  298.61940  298.61940    -999.25   90.99540   90.99540    5.24530    -999.25    -999.25    -999.25    -999.25    -999.25    -999.25    4.00870 -262.37930   -6.41040    4.00870
 1400.00000    -999.25  298.89590  298.89590  111.55010  111.48270    -999.25    -999.25    -999.25    -999.25    -999.25    -999.25    8.97000  312.48420  312.48420    -999.25   96.21470   96.21470    8.97000    -999.25    -999.25    -999.25    -999.25    -999.25    -999.25    7.31830 -267.47710  -11.26470    7.31830
 1450.00000    -999.25  329.95600  329.95600  112.10050  111.92940    -999.25    -999.25    -999.25    -999.25    -999.25    -999.25    8.93420  270.55570  270.55570    -999.25   75.17730   75.17730    8.93420    -999.25    -999.25    -999.25    -999.25    -999.25    -999.25    6.76790 -269.98500  -13.52910    6.76790
 1500.00000  310.34270  318.96210  318.96210    -999.25  131.12170   34.94010   34.94010 2431.70500    -999.25    0.13230    0.16270    7.62650  272.49400  272.49400   93.03030   89.11010   89.11010    7.62650    7.75270    7.75270    -999.25    0.33660    0.29280 2428.47020    8.63500 -261.88230   -5.18280    8.63500
 1550.00000  342.20090  329.99040  329.99040    -999.25  121.82050   38.85540   38.85540 2518.33000    -999.25    0.07980    0.11210    8.20880  279.32110  279.32110  105.80130   96.29040   96.29040    8.20880    7.89380    7.89380    -999.25    0.31400    0.27010 2518.76030    7.56100 -263.13140   -6.18840    7.56100
 1600.00000  305.12620  316.54870  316.54870    -999.25  206.99650   57.12460   57.12460 2291.12500    -999.25    0.21750    0.24500    4.83100  320.48080  320.48080  144.60010  134.81160  134.81160    4.83100    4.89470    4.89470    -999.25    0.38670    0.34360 2290.84860    4.94830 -262.83970   -5.65310    4.94830
 1650.00000  354.44210  335.72380  335.72380    -999.25   75.63840   26.42040   26.42040 2582.68000    -999.25    0.04080    0.07450   13.22080  227.85910  227.85910   67.69440   62.35460   62.35460   13.22080   13.64250   13.64250    -999.25    0.16860    0.12570 2587.51780   14.02800 -262.60860   -5.17850   14.02800
