~Version ---------------------------------------------------
VERS. 2.0 : CWLS log ASCII Standard -VERSION 2.0
WRAP.  NO : ONE LINE PER DEPTH STEP
~Well ------------------------------------------------------
STRT.M                        300.0 : START DEPTH
STOP.M                       1700.0 : STOP DEPTH
STEP.M                     50.00000 : STEP LENGTH
NULL.                       -999.25 : NULL VALUE
COMP.            ARC RESOURCES LTD. : COMPANY
WELL. WINCAN ET AL NIPISI 2-20-79-7 : WELL
FLD .                        NIPISI : FIELD
LOC .                               : LOCATION
CTRY.                        CANADA : COUNTRY
SRVC.                 Dresser Atlas : SERVICE COMPANY
DATE.                   08-Mar-1981 : LOGDATE
PROV.                       Alberta : PROVINCE
UWI .              100022007907W500 : UNIQUE WELL ID
SLAT.WGS84            55.8562888706 : SURFACE LATITUDE
SLON.WGS84          -115.0543712889 : SURFACE LONGITUDE
~Curve Information -----------------------------------------
DEPT  .M     : DEPTH METERS
RHOB  .K/M3  : BULK DENSITY FROM DENSITY LOG
CORR  .K/M3  : DENSITY CORRECTION
NPHISS.V/V   : NEUTRON POROSITY SANDSTONE
DPHISS.V/V   : DENSITY POROSITY SANDSTONE
NPHILS.V/V   : NEUTRON POROSITY LIMESTONE
DPHILS.V/V   : DENSITY POROSITY LIMESTONE
ILD   .OHMM  : INDUCTION LOG DEEP RESISTIVITY
SPR   .MV    : SPONTANEOUS POTENTIAL FROM RESISTIVITY LOG
ILM   .OHMM  : INDUCTION LOG MEDIUM RESISTIVITY
SFL   .OHMM  : SPHERICALLY FOCUSED LOG RESISTIVITY
GRS   .GAPI  : GAMMA RAY FROM SONIC LOG
DT    .US/M  : DELTA-T (INTERVAL TRANSIT TIME)
HD    .MM    : HOLE DIAMETER
~Params ----------------------------------------------------
PD  .                         GL : PERMANENT DATUM
EPD .M                    650.73 : ELEVATION PERMANENT DATUM
LMF .                         KB : LOG MEASURED FROM
DAPD.M                       5.1 : FEET ABOVE PERMANENT DATUM
DMF .                         KB : DRILLING MEASURED FROM
EKB .M                    655.83 : KELLY BUSHING
EGL .M                    650.73 : GROUND LEVEL
DATE.                   03/08/81 : RUN DATE
RUN .                          1 : RUN NUMBER
DD  .M                      1710 : DEPTH DRILLER
DL  .M                    1708.8 : DEPTH LOGGER
BLI .M                    1708.2 : BOTTOM LOG INTERVAL
TLI .M                     183.7 : TOP LOG INTERVAL
CS  .MM                      219 : CASING SIZE
CBD .M                       183 : CASING BOTTOM DRILLER
CBL .M                     183.7 : CASING BOTTOM LOGGER
BS  .MM                      200 : BIT SIZE
BSD .M                      1710 : BIT SIZE AT DEPTH
DFT .               GEL CHEM MUD : DRILLING FLUID TYPE
DFD .                       1130 : DRILLING FLUID DENSITY
DFV .                         53 : DRILLING FLUID VISCOSITY
DFPH.                        9.5 : DRILLING FLUID PH
DFL .                         11 : DRILLING FLUID LOSS
MSS .                   FLOWLINE : MUD SAMPLE SOURCE
RMS .OHMM                    1.5 : RESISTIVITY MUD SAMPLE
MST .DEGC                   17.8 : MUD SAMPLE TEMPERATURE
RMF .OHMM                    1.1 : RESISTIVITY MUD FILTRATE SAMPLE
MFST.DEGC                   17.8 : MUD FILTRATE SAMPLE TEMPERATURE
RMC .OHMM                    1.7 : RESISTIVITY MUD CAKE
MCST.DEGC                   17.8 : MUD CAKE SAMPLE TEMPERATURE
MFSS.                       MEAS : MUD FILTRATE SAMPLE SOURCE
MCSS.                       MEAS : MUD CAKE SAMPLE SOURCE
RMB .OHMM                   0.94 : RESISTIVITY MUD AT BHT
TCS .HRS                       4 : TIME CIRCULATED STOPPED
LUN .                    HL 6241 : LOGGING UNIT NUMBER
LUL .               GRAND PRAIRE : LOGGING UNIT LOCATION
ENGI.                       GUNN : RECORDING ENGINEER
WITN.                     HAUNCH : WITNESSED BY
CLNT.                    A2DTECH : CLIENT CODE
ORIG. 6.5"/100M 16.5"/100M PRINT : ORIGIN OF DATA
UWI .           100022007907W500 : UNIQUE WELL ID
DICO.     A2D Technologies, Inc. : DIGITIZING COMPANY
~Other -----------------------------------------------------
~ASCII -----------------------------------------------------
  300.00000 1857.35640   56.67680    0.53050    0.51340    -999.25    -999.25    2.02350  -29.76110    2.15480    3.12460  103.58950  556.55110  355.42720
  350.00000 1739.43770   40.26090    0.52720    0.60000    -999.25    -999.25    1.62610  -28.15050    1.71740    2.70070   76.39220  628.87860  396.14120
  400.00000 2724.71900   66.83710    0.11150    0.00000    -999.25    -999.25   25.27390  -68.41360   97.40310  242.55780   54.11100  192.34380  227.81440
  450.00000 2266.93330   80.76600    0.43070    0.26620    -999.25    -999.25    3.56340  -52.04430    4.44710    4.63760   83.19600  390.72390  316.24700
  500.00000 2258.63620   71.13860    0.38100    0.26680    -999.25    -999.25    3.50740  -58.42400    4.62510    5.04920   70.38010  392.02100  344.50600
  550.00000 1843.39140   37.33830    0.45120    0.37300    -999.25    -999.25    5.04890  -49.25480    5.56840    5.28920   64.64940  434.44420  365.77210
  600.00000 2580.24760   19.01670    0.28100    0.04590    0.24310    0.05780   11.00100  -56.11250   16.54270   14.76180   56.21660  279.47810  280.60450
  650.00000 2631.07670   13.23080    -999.25    -999.25    0.15310    0.18220   10.93470  -45.80900   14.23660   16.07740   40.01060  221.92290  228.03600
  700.00000 2599.64530   15.37740    -999.25    -999.25    0.14660    0.05750    9.23240  -58.23250   11.37360   10.07100   34.06020  220.42320  238.45600
  750.00000    -999.25    -999.25    -999.25    -999.25    -999.25    -999.25    8.95880  -37.30460   10.96090   13.02570   36.79070  231.44580  227.28040
  800.00000    -999.25    -999.25    -999.25    -999.25    -999.25    -999.25   18.16380 -114.59330   33.41920   77.46520   28.03590  195.88680  253.87450
  850.00000    -999.25    -999.25    -999.25    -999.25    -999.25    -999.25   32.88440 -108.64040   51.10710  107.81300   25.00330  174.93730  223.97760
  900.00000    -999.25    -999.25    -999.25    -999.25    -999.25    -999.25   19.65960  -97.65690   25.09080   58.30030   17.63710  177.37060  216.07070
  950.00000    -999.25    -999.25    -999.25    -999.25    -999.25    -999.25   26.41990 -101.94080   38.35970   73.39950   20.92840  181.17980  226.10750
 1000.00000    -999.25    -999.25    -999.25    -999.25    -999.25    -999.25   66.46470 -123.11550  120.62880  175.75060   19.56580  165.50810  211.26830
 1050.00000    -999.25    -999.25    -999.25    -999.25    -999.25    -999.25   10.00190  -79.14150   12.21050   26.19320   60.30750  195.88520  196.13530
 1100.00000    -999.25    -999.25    -999.25    -999.25    -999.25    -999.25   11.10010  -62.97270   16.96570   14.58650   58.97620  196.12450  209.92920
 1150.00000    -999.25    -999.25    -999.25    -999.25    -999.25    -999.25   20.19650 -104.98520   29.27430  190.30900   55.47610  182.78620  187.83490
 1200.00000    -999.25    -999.25    -999.25    -999.25    -999.25    -999.25    3.53780  -55.34430    3.84940    5.58600   81.32970  265.84210  278.43530
 1250.00000    -999.25    -999.25    -999.25    -999.25    -999.25    -999.25    4.30920  -51.58760    5.38830    9.02310   74.74340  259.38830  256.00910
 1300.00000    -999.25    -999.25    -999.25    -999.25    -999.25    -999.25    6.36500  -39.97370    7.13470    7.86770   90.09660  249.12760  225.34010
 1350.00000    -999.25    -999.25    -999.25    -999.25    -999.25    -999.25    6.99380  -52.83700    9.76930    8.56250   65.51350  209.32270  228.69740
 1400.00000    -999.25    -999.25    -999.25    -999.25    -999.25    -999.25    6.61840  -44.81280    7.99490    7.61210   82.95320  235.45670  204.10910
 1450.00000    -999.25    -999.25    -999.25    -999.25    -999.25    -999.25    1.93480  -66.58290    2.12510    3.17650  116.06860  341.56720  303.88710
 1500.00000    -999.25    -999.25    -999.25    -999.25    -999.25    -999.25    3.89970  -72.55400    4.79920    4.85730   88.52660  263.96420  233.33810
 1550.00000    -999.25    -999.25    -999.25    -999.25    -999.25    -999.25   14.46940  -55.12100   14.27880   17.13570   42.89040  188.16900  199.15270
 1600.00000    -999.25    -999.25    -999.25    -999.25    -999.25    -999.25    7.49070  -45.18280    8.81670    9.04900   79.40620  225.02470  244.79930
 1650.00000    -999.25    -999.25    -999.25    -999.25    -999.25    -999.25    3.86720  -54.79790    4.41720    4.77260  117.54710  286.63840  216.83460
 1700.00000    -999.25    -999.25    -999.25    -999.25    -999.25    -999.25  104.93490  -66.73340   94.83960  612.32780   21.28450  154.02780  203.07700
