~Version ---------------------------------------------------
VERS.      2.0 : CWLS log ASCII Standard -VERSION 2.0
WRAP.       NO : One line per depth step
CREA. 08/01/17 : LAS Creation Date
~Well ------------------------------------------------------
STRT.FT                                     650.0 : START DEPTH
STOP.FT                                    9250.0 : STOP DEPTH
STEP.FT                                  50.00000 : STEP LENGTH
NULL.                                     -999.25 : NULL VALUE
COMP.                      CALIFORNIA STANDARD CO : COMPANY
WELL. CALIFORNIA STANDARD SOUTH MORNINGSIDE 14-20 : WELL
FLD .                                             : FIELD
LOC .                                             : LOCATION
CTRY.                                      CANADA : COUNTRY
SRVC.            Schlumberger Well Surveying Corp : SERVICE COMPANY
DATE.                                 10-Mar-1955 : LOGDATE
PROV.                                     Alberta : PROVINCE
UWI .                            100142004127W400 : UNIQUE WELL ID
SLAT.WGS84                               52.54859 : SURFACE LATITUDE
SLON.WGS84                              -113.8578 : SURFACE LONGITUDE
~Curve Information -----------------------------------------
DEPT   .FT         : Depth Curve
CALI1ED.IN         : CALIPER 1 FROM CALIPER LOG
CALIED .IN         : CALIPER FROM CALIPER LOG
CALWS  .IN         : CALIPER [CALIED]
CONDWS .MMHO       : CONDUCTIVITY [1000/DRESWS]
DRESWS .OHMM       : DEEP RESISTIVITY [LNED]
GRNED  .UgRa-Eq/T  : GAMMA RAY FROM GRN LOG
GRWS   .GAPI       : GAMMA RAY [GRNED*16.5 TO CONVERTED TO GAPI]
LATED  .OHMM       : LATERAL RESISTIVITY FROM EL LOG
LL7ED  .OHMM       : LATEROLOG-7 RESISTIVITY FROM MLL LOG
LNED   .OHMM       : LONG NORMAL RESISTIVITY FROM MLL LOG
MLLED  .OHMM       : MICRO-LATEROLOG RESISTIVITY
NEUTED .NAPI       : NEUTRON FROM GRN LOG
NEUTWS .NAPI       : NEUTRON [NEUTED]
SNED   .OHMM       : SHORT NORMAL RESISTIVITY FROM EL LOG
SPMED  .MV         : SPONTAEOUS POTENTIAL FROM MICRO LOG
SPR1ED .MV         : SPONTANEOUS POTENTIAL FROM MLL LOG
SPRED  .MV         : SPONTANEOUS POTENTIAL FROM EL LOG
SPWS   .MV         : SPONTANEOUS POTENTIAL [BASELINE 0 MV,SPRED]
SRESWS .OHMM       : SHALLOW RESISTIVIOTY [SNED]
~Params ----------------------------------------------------
PD  .                     KB : PERMANENT DATUM
EKB .FT                 3032 : KELLY BUSHING
DATE.               03/10/55 : RUN DATE
RUN .                      1 : RUN NUMBER
DD  .FT                 9259 : DEPTH DRILLER
DL  .FT                 9258 : DEPTH LOGGER
BLI .FT                 9259 : BOTTOM LOG INTERVAL
TLI .FT                 6326 : TOP LOG INTERVAL
CBD .FT                  623 : CASING BOTTOM DRILLER
CBL .FT                  624 : CASING BOTTOM LOGGER
BSD .FT                 6258 : BIT SIZE AT DEPTH
DFT .              LIME BASE : DRILLING FLUID TYPE
DFD .                   10.2 : DRILLING FLUID DENSITY
DFV .                     12 : DRILLING FLUID VISCOSITY
DFPH.                   12.5 : DRILLING FLUID PH
DFL .                    7.8 : DRILLING FLUID LOSS
RMS .OHMM               0.66 : RESISTIVITY MUD SAMPLE
MST .DEGF                 74 : MUD SAMPLE TEMPERATURE
RMB .OHMM                0.3 : RESISTIVITY MUD AT BHT
TCS .HRS                   4 : TIME CIRCULATED STOPPED
LUN .                   2741 : LOGGING UNIT NUMBER
LUL .                   STST : LOGGING UNIT LOCATION
ENGI.               JOHNKLAM : RECORDING ENGINEER
WITN.                 GEDDES : WITNESSED BY
CLNT.                A2DTECH : CLIENT CODE
ORIG.        2" 5" 25" PRINT : ORIGIN OF DATA
UWI .       100142004127W400 : UNIQUE WELL ID
DICO. A2D Technologies, Inc. : DIGITIZING COMPANY
~Other -----------------------------------------------------
~ASCII -----------------------------------------------------
# ...
 4350.00000    -999.25   10.47510   10.47510  113.81610    8.78610    -999.25    -999.25   10.73130    -999.25    8.78610    -999.25    -999.25    -999.25   10.20470    -999.25    -999.25 -177.32990   -4.80400   10.20470
 4400.00000    -999.25   10.31670   10.31670  107.25130    9.33890    -999.25    -999.25   10.48190    -999.25    9.32390    -999.25    -999.25    -999.25   10.89410    -999.25    -999.25 -177.38550   -4.85960   10.86500
 4450.00000    -999.25    9.45360    9.45360   91.27920   10.98750    -999.25    -999.25   12.68070    -999.25   10.95540    -999.25    -999.25    -999.25   11.43760    -999.25    -999.25 -177.63850   -5.11260   11.48280
 4500.00000    -999.25   10.24890   10.24890  101.23300    9.86460    -999.25    -999.25    9.62350    -999.25    9.87820    -999.25    -999.25    -999.25   11.04780    -999.25    -999.25 -177.72690   -5.20100   11.02360
 4550.00000    -999.25   10.14710   10.14710  102.14880    9.78470    -999.25    -999.25   10.07980    -999.25    9.78970    -999.25    -999.25    -999.25    9.99340    -999.25    -999.25 -177.73310   -5.20720    9.97480
 4600.00000    -999.25   10.06790   10.06790  104.66600    9.55420    -999.25    -999.25    9.60570    -999.25    9.55420    -999.25    -999.25    -999.25   11.11020    -999.25    -999.25 -176.06730   -3.54140   11.11020
 4650.00000    -999.25   10.63350   10.63350  129.16390    7.76270    -999.25    -999.25    8.61210    -999.25    7.74210    -999.25    -999.25    -999.25    9.24400    -999.25    -999.25 -175.82510   -3.29920    9.25190
 4700.00000    -999.25    9.78140    9.78140  101.69320    9.84220    -999.25    -999.25    9.17640    -999.25    9.83350    -999.25    -999.25    -999.25   11.84830    -999.25    -999.25 -174.61610   -2.09020   11.86810
 4750.00000    -999.25    7.75960    7.75960   38.46950   25.99460    -999.25    -999.25   14.13050    -999.25   25.99460    -999.25    -999.25    -999.25   25.81370    -999.25    -999.25 -177.67470   -5.19690   26.08500
 4800.00000    -999.25    7.65030    7.65030   61.02720   16.43920    -999.25    -999.25    9.55100    -999.25   16.38980    -999.25    -999.25    -999.25   17.22420    -999.25    -999.25 -174.49400   -2.14450   17.22420
 4850.00000    -999.25    8.03280    8.03280   55.42780   18.04150    -999.25    -999.25   21.38600    -999.25   18.04150    -999.25    -999.25    -999.25   21.21950    -999.25    -999.25 -173.97760   -1.75730   21.21950
 4900.00000    -999.25   10.58820   10.58820  100.09010    9.99100    -999.25    -999.25    9.03910    -999.25    9.99100    -999.25    -999.25    -999.25   11.58670    -999.25    -999.25 -174.77890   -2.67740   11.59030
 4950.00000    -999.25    7.75960    7.75960   41.07700   24.40330    -999.25    -999.25   21.38380    -999.25   24.34450    -999.25    -999.25    -999.25   28.88790    -999.25    -999.25 -175.86500   -3.87150   29.07520
 5000.00000    -999.25    8.08740    8.08740   72.26220   13.86470    -999.25    -999.25   15.50830    -999.25   13.83850    -999.25    -999.25    -999.25   19.59980    -999.25    -999.25 -173.77110   -1.88490   19.64910
 5050.00000    -999.25   10.19230   10.19230  134.78980    7.40920    -999.25    -999.25   11.90400    -999.25    7.41930    -999.25    -999.25    -999.25   10.80470    -999.25    -999.25 -173.15230   -1.37340   10.82280
 5100.00000    -999.25   10.90500   10.90500  248.53980    4.02350    -999.25    -999.25    4.33730    -999.25    4.02350    -999.25    -999.25    -999.25    5.10250    -999.25    -999.25 -174.83970   -3.16890    5.10250
 5150.00000    -999.25   12.05880   12.05880  283.31020    3.56040    -999.25    -999.25    3.38250    3.16870    3.52970    -999.25    -999.25    -999.25    4.21560    -999.25  -50.94000 -174.08430   -2.52080    4.23830
 5200.00000    -999.25   12.28510   12.28510  204.68730    4.88830    -999.25    -999.25    4.43420    4.19020    4.88550    3.48100    -999.25    -999.25    5.43650  -64.51810  -51.06020 -173.77110   -2.31560    5.43090
 5250.00000    -999.25    9.18030    9.18030   75.10550   13.36870    -999.25    -999.25   14.02190   10.05190   13.31460   15.30200    -999.25    -999.25   16.13500  -64.69880  -52.10910 -176.96760   -5.61940   16.23210
 5300.00000    -999.25   13.49550   13.49550  273.13870    3.66020    7.68560  126.81240    4.21030    3.71920    3.66120    3.31900  137.05220  134.62950    4.63100  -66.86750  -49.68000 -173.85010   -2.60930    4.63040
 5350.00000    -999.25   11.58370   11.58370  329.55440    3.03440    8.74150  144.23470    2.27750    2.70080    3.03440    2.67750  324.52450  324.52450    3.76360  -65.60240  -48.26190 -173.24220   -2.10940    3.76360
 5400.00000    -999.25   11.24430   11.24430  126.59190    7.89610    7.97040  131.51160    7.31740    4.55810    7.89940    3.39060  122.79650  125.20380    9.41910  -70.53370  -51.47750 -176.50870   -5.92840    9.66660
 5450.00000    -999.25   10.00000   10.00000   51.22290   19.32840    9.17060  151.31490  102.76660   15.67710   19.52250   20.63170  391.91400  400.35110   16.89190  -72.46990  -55.06310 -178.99080   -9.01580   16.94300
 5500.00000    -999.25    8.74320    8.74320   68.07350   14.71010    6.55830  108.21200   14.09270   14.85450   14.69000   19.66550  608.90480  598.43680   25.01020  -72.28930  -61.02000 -177.71920   -8.34540   25.35050
 5550.00000    -999.25    9.80880    9.80880   54.64540   18.30590    6.52320  107.63280   10.14190   15.47330   18.29980   34.20920  641.12150  640.90360   22.07510 -100.38710  -76.90350 -207.64560  -38.87310   22.03260
 5600.00000    -999.25    8.85250    8.85250   43.09750   23.20320    6.92860  114.32190   19.29020   24.37400   23.20320   15.89060  376.42270  376.42270   16.27200  -66.68680  -45.88020 -172.30630   -4.13900   16.27200
 5650.00000    -999.25    9.01640    9.01640   23.70100   42.14770    5.10190   84.18130   40.33680   32.34150   42.19230   34.85530  815.66020  810.39710   34.32180  -80.06020  -73.37250 -185.13360  -17.93180   34.23170
 5700.00000    -999.25    8.90710    8.90710   24.15670   41.22390    6.71460  110.79090  112.72640   19.20770   41.39640   35.12660  605.35880  607.84980   51.80180  -78.43370  -63.09950 -184.16920  -18.05730   50.15260
 5750.00000    -999.25    8.96180    8.96180   47.62270   20.44950    6.32450  104.35420   51.15690   43.07310   20.99840   36.30200  598.66940  600.99490   29.26380  -68.49400  -66.44200 -175.32210  -10.29290   28.80600
 5800.00000    -999.25   12.76020   12.76020  100.27060    9.97910    8.67680  143.16800    5.38530    7.66860    9.97310    4.70160  219.44730  222.41550    8.72100  -67.77110  -48.12870 -173.01590   -9.06940    8.71710
 5850.00000    -999.25    8.36070    8.36070   26.92130   37.14530    6.45770  106.55200   28.99060   25.59050   37.14530   28.30100  613.40170  613.40170   38.54660  -68.57140  -55.00720 -173.68070   -7.90710   38.54660
 5900.00000    -999.25    8.52460    8.52460   13.24770   75.21800    6.15800  101.60700   70.65040   54.67810   75.48500  136.82940  525.99790  527.56290   58.64840  -70.30120  -50.52100 -176.48190   -8.09960   58.73560
 5950.00000    -999.25    7.43170    7.43170   17.44630   57.48610    5.04340   83.21610   65.64390   47.38270   57.31860   38.11030  586.38690  590.33780   50.00000  -93.43370  -83.41410 -195.19440  -26.39560   50.36040
 6000.00000    -999.25    8.46990    8.46990   17.68580   56.83320    6.61470  109.14260   43.41550   44.90070   56.54240   43.88560  612.99900  615.82660   45.91620  -78.69160  -55.88000 -179.97770  -10.76510   45.71940
 6050.00000    -999.25    8.27870    8.27870   28.52000   35.35610    4.90450   80.92430   53.16900   19.66660   35.10730   29.82720  733.26510  741.14640   32.65770  -90.74870  -66.57550 -192.72470  -23.09830   32.51290
 6100.00000    -999.25    7.97810    7.97810    5.62860  177.66520    3.31800   54.74700  222.26310  106.75610  177.66520  209.66770 1113.93050 1113.93050   97.15870  -80.23440  -65.51940 -180.04140   -9.99850   97.15870
 6150.00000    -999.25    7.92350    7.92350    3.50530  284.75730    3.31800   54.74700  430.63970  192.33360  285.28040  185.80470 1160.59360 1173.27800  133.69370  -79.98680  -68.50250 -184.12390  -13.66720  133.51350
