~Version ---------------------------------------------------
VERS.      2.0 : CWLS log ASCII Standard -VERSION 2.0
WRAP.       NO : One line per depth step
CREA. 01/03/18 : LAS Creation Date
~Well ------------------------------------------------------
STRT.FT                      800.0 : START DEPTH
STOP.FT                     8150.0 : STOP DEPTH
STEP.FT                   50.00000 : STEP LENGTH
NULL.                      -999.25 : NULL VALUE
COMP.          TOTAL PETROLEUM LTD : COMPANY
WELL. TOTAL PCP KINAKIN 16-27-63-9 : WELL
FLD .                              : FIELD
LOC .                              : LOCATION
CTRY.                       CANADA : COUNTRY
SRVC.                 Schlumberger : SERVICE COMPANY
DATE.                  08-Mar-1974 : LOGDATE
PROV.                      Alberta : PROVINCE
UWI .             100162706309W500 : UNIQUE WELL ID
SLAT.WGS84                54.48436 : SURFACE LATITUDE
SLON.WGS84               -115.2648 : SURFACE LONGITUDE
~Curve Information -----------------------------------------
DEPT    .FT    : Depth Curve
CALDED  .IN    : CALIPER CNFD (ADJ TO RES.)
CALSED  .IN    : CALIPER SONIC (ADJ TO RES.)
CALWS   .IN    : CALIPER [CALSED]
CONDWS  .MMHO  : CONDUCTIVITY (1000/DRESWS)
DCORWS  .G/C3  : DENSITY CORRECTION (DRHOED)
DENWS   .G/C3  : BULK DENSITY  (RHOBED)
DPHILSED.V/V   : DENSITY POROSITY LIMESTONE (ADJ TO RES.)
DPHISSED.V/V   : DENSITY POROSITY SANDSTONE (ADJ TO RES.)
DPOLSWS .V/V   : DENSITY POROSITY (M=2.71 F=1.00 FROM DENWS)
DRESWS  .OHMM  : DEEP RESISTIVITY (ILDED)
DRHOED  .G/C3  : DENSITY CORRECTION
DTED    .US/F  : DELTA TIME
DTWS    .US/F  : DELTA TIME (DTED)
GRDED   .GAPI  : GAMMA RAY CNFD (ADJ TO RES.)
GRSED   .GAPI  : GAMMA RAY SONIC (ADJ TO RES.)
GRWS    .GAPI  : GAMMA RAY (GRSED)
ILDED   .OHMM  : DEEP INDUCTION RESISTIVITY
ILMED   .OHMM  : MEDIUM INDUCTION RESISTIVITY
LL8ED   .OHMM  : LATEROLOG-8 RESISTIVITY
MRESWS  .OHMM  : MEDIUM RESISTIVITY (ILMED)
NPHILSED.V/V   : NEUTRON POROSITY LIMESTONE (ADJ TO RES.)
NPHISSED.V/V   : NEUTRON POROSITY SANDSTONE (ADJ TO RES.)
NPOLSWS .V/V   : NEUTRON POROSITY LIMESTONE (NPHISSED CONVERTED TO LS/NPHILSED @ 4396')
RHOBED  .G/C3  : BULK DENSITY
SPRED   .MV    : Spontaneous Potential  DIL
SPWS    .MV    : SPONTANEOUS POTENTIAL BASELINE 0 MV (SPRED)
SRESWS  .OHMM  : SHALLOW RESISTIVITY (LL8ED)
~Params ----------------------------------------------------
PD  .                     GL : PERMANENT DATUM
EPD .FT               2924.5 : ELEVATION PERMANENT DATUM
LMF .                     KB : LOG MEASURED FROM
DAPD.FT                 13.5 : FEET ABOVE PERMANENT DATUM
EKB .FT                 2938 : KELLY BUSHING
EGL .FT               2924.5 : GROUND LEVEL
DATE.               03/08/74 : RUN DATE
RUN .                      1 : RUN NUMBER
DD  .FT                 8170 : DEPTH DRILLER
DL  .FT                 8169 : DEPTH LOGGER
BLI .FT                 8163 : BOTTOM LOG INTERVAL
TLI .FT                  836 : TOP LOG INTERVAL
CBD .FT                  835 : CASING BOTTOM DRILLER
BS  .IN                 8.75 : BIT SIZE
BSD .FT                 8170 : BIT SIZE AT DEPTH
DFT .               GEL CHEM : DRILLING FLUID TYPE
DFD .                    9.0 : DRILLING FLUID DENSITY
DFV .                     78 : DRILLING FLUID VISCOSITY
DFPH.                     10 : DRILLING FLUID PH
DFL .                    7.8 : DRILLING FLUID LOSS
MSS .             CALCULATED : MUD SAMPLE SOURCE
RMF .OHMM               1.34 : RESISTIVITY MUD FILTRATE SAMPLE
MFST.DEGF                 62 : MUD FILTRATE SAMPLE TEMPERATURE
RMB .OHMM               0.64 : RESISTIVITY MUD AT BHT
TCS .HRS                   3 : TIME CIRCULATED STOPPED
LUN .                   7692 : LOGGING UNIT NUMBER
LUL .                    EDM : LOGGING UNIT LOCATION
ENGI.                   WOON : RECORDING ENGINEER
WITN.              MACKENZIE : WITNESSED BY
CLNT.                A2DTECH : CLIENT CODE
ORIG.            2" 5" PRINT : ORIGIN OF DATA
UWI .       100162706309W500 : UNIQUE WELL ID
DICO. A2D Technologies, Inc. : DIGITIZING COMPANY
~Other -----------------------------------------------------
~ASCII -----------------------------------------------------
  800.00000    -999.25    -999.25    -999.25    -999.25    -999.25    -999.25    -999.25    -999.25    -999.25    -999.25    -999.25    -999.25    -999.25    -999.25   37.93880   37.93880    -999.25    -999.25    -999.25    -999.25    -999.25    -999.25    -999.25    -999.25    -999.25    -999.25    -999.25
  850.00000    -999.25    9.40080    9.40080  190.09240    -999.25    -999.25    -999.25    -999.25    -999.25    5.26060    -999.25  113.41430  113.41430    -999.25   62.11220   62.11220    5.26060    5.53710    4.79430    5.53710    -999.25    -999.25    -999.25    -999.25  -82.23020   -7.49650    4.79430
  900.00000    -999.25   10.04290   10.04290  262.61190    -999.25    -999.25    -999.25    -999.25    -999.25    3.80790    -999.25  120.68590  120.68590    -999.25   67.74370   67.74370    3.80790    3.51260    3.41700    3.51260    -999.25    -999.25    -999.25    -999.25  -86.82370   -8.34850    3.41700
  950.00000    -999.25    9.55010    9.55010  223.88560    -999.25    -999.25    -999.25    -999.25    -999.25    4.47050    -999.25  108.56070  108.56070    -999.25   58.26750   58.26750    4.47050    4.28590    7.90350    4.28590    -999.25    -999.25    -999.25    -999.25  -88.02260  -10.50760    7.90350
 1000.00000    -999.25   10.11000   10.11000  177.38990    -999.25    -999.25    -999.25    -999.25    -999.25    5.63730    -999.25  110.14800  110.14800    -999.25   81.33910   81.33910    5.63730    5.26340    5.38180    5.26340    -999.25    -999.25    -999.25    -999.25  -86.93820  -10.37380    5.38180
 1050.00000    -999.25   10.04450   10.04450  270.57010    -999.25    -999.25    -999.25    -999.25    -999.25    3.69590    -999.25  131.90810  131.90810    -999.25   91.83930   91.83930    3.69590    3.32400    3.83880    3.32400    -999.25    -999.25    -999.25    -999.25  -79.27570   -3.66670    3.83880
 1100.00000    -999.25   14.46460   14.46460  275.68720    -999.25    -999.25    -999.25    -999.25    -999.25    3.62730    -999.25  149.81500  149.81500    -999.25   62.46570   62.46570    3.62730    3.21600    4.36940    3.21600    -999.25    -999.25    -999.25    -999.25  -79.68270   -4.77730    4.36940
 1150.00000    -999.25   10.60480   10.60480  387.01190    -999.25    -999.25    -999.25    -999.25    -999.25    2.58390    -999.25  146.31270  146.31270    -999.25   73.86660   73.86660    2.58390    2.20780    2.45560    2.20780    -999.25    -999.25    -999.25    -999.25  -78.09640   -3.48360    2.45560
 1200.00000    -999.25   10.23250   10.23250  339.99950    -999.25    -999.25    -999.25    -999.25    -999.25    2.94240    -999.25  142.82360  142.82360    -999.25   88.47910   88.47910    2.94240    2.84660    2.77100    2.84660    -999.25    -999.25    -999.25    -999.25  -77.73710   -3.41830    2.77100
 1250.00000    -999.25   11.49130   11.49130  313.41090    -999.25    -999.25    -999.25    -999.25    -999.25    3.19070    -999.25  158.55670  158.55670    -999.25   73.06950   73.06950    3.19070    2.66100    2.95370    2.66100    -999.25    -999.25    -999.25    -999.25  -74.46550   -0.43780    2.95370
 1300.00000    -999.25    9.28540    9.28540  322.00930    -999.25    -999.25    -999.25    -999.25    -999.25    3.10550    -999.25  124.81170  124.81170    -999.25   70.15190   70.15190    3.10550    3.02970    3.19570    3.02970    -999.25    -999.25    -999.25    -999.25  -78.81950   -5.08440    3.19570
 1350.00000    -999.25    8.92550    8.92550  111.46780    -999.25    -999.25    -999.25    -999.25    -999.25    8.97120    -999.25  106.75950  106.75950    -999.25   57.79930   57.79930    8.97120    8.71520    7.37300    8.71520    -999.25    -999.25    -999.25    -999.25  -93.66890  -20.22640    7.37300
 1400.00000    -999.25    9.66420    9.66420  377.00280    -999.25    -999.25    -999.25    -999.25    -999.25    2.65250    -999.25  153.38850  153.38850    -999.25   78.57030   78.57030    2.65250    2.36580    2.63660    2.36580    -999.25    -999.25    -999.25    -999.25  -81.21260   -8.06270    2.63660
 1450.00000    -999.25   10.60040   10.60040  266.91200    -999.25    -999.25    -999.25    -999.25    -999.25    3.75080    -999.25  135.00100  135.00100    -999.25   61.84600   61.84600    3.75080    3.52610    3.75040    3.52610    -999.25    -999.25    -999.25    -999.25  -74.91640   -2.06060    3.75040
 1500.00000    -999.25   10.08770   10.08770  213.70720    -999.25    -999.25    -999.25    -999.25    -999.25    4.67930    -999.25  142.31730  142.31730    -999.25   61.01700   61.01700    4.67930    4.44020    4.01700    4.44020    -999.25    -999.25    -999.25    -999.25  -77.00430   -4.43950    4.01700
 1550.00000    -999.25    8.42060    8.42060  109.72850    -999.25    -999.25    -999.25    -999.25    -999.25    9.11340    -999.25  109.85680  109.85680    -999.25   56.33350   56.33350    9.11340    7.64620    7.98660    7.64620    -999.25    -999.25    -999.25    -999.25  -86.47870  -14.20650    7.98660
 1600.00000    -999.25    8.96550    8.96550   46.17810    -999.25    -999.25    -999.25    -999.25    -999.25   21.65530    -999.25   68.00330   68.00330    -999.25   48.59930   48.59930   21.65530   34.70470   38.90890   34.70470    -999.25    -999.25    -999.25    -999.25  -81.32310   -9.34350   38.90890
 1650.00000    -999.25    9.20040    9.20040   72.45750    -999.25    -999.25    -999.25    -999.25    -999.25   13.80120    -999.25   80.33260   80.33260    -999.25   43.26240   43.26240   13.80120   19.11160   23.37780   19.11160    -999.25    -999.25    -999.25    -999.25  -79.67770   -7.99070   23.37780
 1700.00000    -999.25    8.50280    8.50280   58.86840    -999.25    -999.25    -999.25    -999.25    -999.25   16.98740    -999.25  115.80050  115.80050    -999.25   44.48530   44.48530   16.98740   22.92110   14.54550   22.92110    -999.25    -999.25    -999.25    -999.25  -82.48870  -11.09570   14.54550
 1750.00000    -999.25    8.74590    8.74590   92.17950    -999.25    -999.25    -999.25    -999.25    -999.25   10.84840    -999.25  105.78500  105.78500    -999.25   52.17780   52.17780   10.84840   11.59060    9.87520   11.59060    -999.25    -999.25    -999.25    -999.25  -87.63190  -16.53000    9.87520
 1800.00000    -999.25   11.46960   11.46960  284.50310    -999.25    -999.25    -999.25    -999.25    -999.25    3.51490    -999.25  118.05110  118.05110    -999.25   71.23440   71.23440    3.51490    3.67900    3.86250    3.67900    -999.25    -999.25    -999.25    -999.25  -71.69340   -0.88410    3.86250
 1850.00000    -999.25   12.77500   12.77500  227.53650    -999.25    -999.25    -999.25    -999.25    -999.25    4.39490    -999.25  119.61280  119.61280    -999.25   66.66300   66.66300    4.39490    4.21850    4.38960    4.21850    -999.25    -999.25    -999.25    -999.25  -73.82100   -3.30430    4.38960
 1900.00000    -999.25    9.33050    9.33050  101.99920    -999.25    -999.25    -999.25    -999.25    -999.25    9.80400    -999.25   81.91640   81.91640    -999.25   46.12450   46.12450    9.80400   11.67920   13.62980   11.67920    -999.25    -999.25    -999.25    -999.25  -81.54410  -11.32000   13.62980
 1950.00000    -999.25    9.00710    9.00710  267.57540    -999.25    -999.25    -999.25    -999.25    -999.25    3.75010    -999.25  105.77520  105.77520    -999.25   49.61390   49.61390    3.75010    4.10410    4.57070    4.10410    -999.25    -999.25    -999.25    -999.25  -76.67230   -6.74220    4.57070
 2000.00000    -999.25   10.51060   10.51060  199.69250    -999.25    -999.25    -999.25    -999.25    -999.25    5.00770    -999.25  105.29870  105.29870    -999.25   55.24000   55.24000    5.00770    5.20150    5.54120    5.20150    -999.25    -999.25    -999.25    -999.25  -76.19810   -6.55910    5.54120
 2050.00000    -999.25   11.40860   11.40860  228.74400    -999.25    -999.25    -999.25    -999.25    -999.25    4.37170    -999.25  119.08000  119.08000    -999.25   64.63830   64.63830    4.37170    4.58850    4.26020    4.58850    -999.25    -999.25    -999.25    -999.25  -72.43220   -3.08580    4.26020
