~Version ---------------------------------------------------
VERS. 2.0 : CWLS log ASCII Standard -VERSION 2.0
WRAP.  NO : ONE LINE PER DEPTH STEP
~Well ------------------------------------------------------
STRT.F                             1500.0 : START DEPTH
STOP.F                            12250.0 : STOP DEPTH
STEP.F                           50.00000 : STEP LENGTH
NULL.                             -999.25 : NULL VALUE
COMP.            CHEVRON STANDARD LIMITED : COMPANY
WELL. CHEVRON NORCEN PL BRAZEAU 7-4-49-12 : WELL
FLD .                                     : FIELD
LOC .                                     : LOCATION
CTRY.                              CANADA : COUNTRY
SRVC.                        Schlumberger : SERVICE COMPANY
DATE.                         05-Jun-1978 : LOGDATE
PROV.                             Alberta : PROVINCE
UWI .                    100070404912W500 : UNIQUE WELL ID
SLAT.WGS84                       53.19691 : SURFACE LATITUDE
SLON.WGS84                      -115.6898 : SURFACE LONGITUDE
~Curve Information -----------------------------------------
DEPT   .F     : 
CALD   .IN    : CALIPER FROM DENSITY LOG
DCOR   .G/C3  : DENSITY CORRECTION
GRD    .GAPI  : GAMMA RAY FROM DENSITY LOG
RHOB   .G/C3  : BULK DENSITY
NPHI_SS.DEC   : NEUTRON POROSITY SANDSTONE
DPHI_SS.DEC   : DENSITY POROSITY SANDSTONE
NPHI_LS.DEC   : NEUTRON POROSITY LIMESTONE
DPHI_LS.DEC   : DENSITY POROSITY LIMESTONE
GRS    .GAPI  : GAMMA RAY FROM SONIC LOG
DT     .US/F  : DELTA TIME
CALS   .IN    : CALIPER FROM SONIC LOG
ILD    .OHMM  : DEEP INDUCTION RESISTIVITY
ILM    .OHMM  : INDUCTION MEDIUM RESISTIVITY
LL8    .OHMM  : LATEROLOG-8 RESISTIVITY
SPR    .MV    : SPONTANEOUS POTENTIAL FROM RESISTIVITY LOG
~Params ----------------------------------------------------
PD  .                     GL : PERMANENT DATUM
EPD .FT               3221.1 : ELEVATION PERMANENT DATUM
LMF .                     KB : LOG MEASURED FROM
DAPD.FT                 18.9 : FEET ABOVE PERMANENT DATUM
DMF .                     KB : DRILLING MEASURED FROM
EKB .FT                 3240 : KELLY BUSHING
EGL .FT               3221.1 : GROUND LEVEL
DATE.               06/05/78 : RUN DATE
RUN .                      1 : RUN NUMBER
DD  .FT                12300 : DEPTH DRILLER
DL  .FT                12303 : DEPTH LOGGER
BLI .FT                12297 : BOTTOM LOG INTERVAL
TLI .FT                 1518 : TOP LOG INTERVAL
CBD .FT                 1518 : CASING BOTTOM DRILLER
CBL .FT                 1518 : CASING BOTTOM LOGGER
BS  .IN                 8.75 : BIT SIZE
BSD .FT                12300 : BIT SIZE AT DEPTH
DFT .                    GEL : DRILLING FLUID TYPE
DFD .                     11 : DRILLING FLUID DENSITY
DFV .                     68 : DRILLING FLUID VISCOSITY
DFPH.                   10.5 : DRILLING FLUID PH
MSS .               FLOWLINE : MUD SAMPLE SOURCE
RMS .OHMM               3.34 : RESISTIVITY MUD SAMPLE
MST .DEGF                 68 : MUD SAMPLE TEMPERATURE
TCS .HRS                 350 : TIME CIRCULATED STOPPED
LUN .                   7802 : LOGGING UNIT NUMBER
LUL .                    EDM : LOGGING UNIT LOCATION
ENGI.            STEENBERGEN : RECORDING ENGINEER
WITN.             RICHARDSON : WITNESSED BY
CLNT.                A2DTECH : CLIENT CODE
ORIG.            2" 5" PRINT : ORIGIN OF DATA
UWI .       100070404912W500 : UNIQUE WELL ID
DICO. A2D Technologies, Inc. : DIGITIZING COMPANY
~Other -----------------------------------------------------
~ASCII -----------------------------------------------------
# ...
 8400.00000    9.53950    0.03070   22.19610    2.60180    0.06470    0.02970    -999.25    -999.25   22.29190   56.22710    8.80190  196.53230  287.80690  189.11370 -133.46170
 8450.00000    9.29570    0.05430   32.54960    2.68310    0.07870   -0.02360    -999.25    -999.25   29.41490   53.65920    8.71660 1369.39500 1321.08180  702.98180  -88.49860
 8500.00000   11.96520    0.13090   59.51920    2.54680    0.12180    0.03190    -999.25    -999.25   58.48370   60.15230    9.08090   17.99010   19.36510   18.20660  -97.39830
 8550.00000   12.05510    0.13940   35.26460    2.67940    -999.25    -999.25    0.05130    0.00500   36.38580   52.05290    9.36250   50.38380   47.41150   60.91230  -93.54170
 8600.00000    9.22390    0.02210   27.01170    2.68740    -999.25    -999.25    0.12800    0.01060   28.98540   53.40720    8.43420   10.96690   18.08170   45.13630 -175.08890
 8650.00000   10.63680    0.08900   15.48630    2.72350    -999.25    -999.25    0.00410   -0.00630   16.35710   48.67040    9.27670  139.29740  170.39280  875.56120 -172.28090
 8700.00000   11.35030    0.17900   84.68030    2.69880    -999.25    -999.25    0.09790    0.02400   78.92770   56.89010    9.24920   19.80790   23.41070   29.98470  -95.20300
 8750.00000   12.89030    0.07540   31.83790    2.49570    -999.25    -999.25    0.07120    0.13810   29.37350   55.46150    9.37480   23.07540   29.09170   30.93930 -127.34260
 8800.00000   11.49510    0.07060   23.63910    2.74130    -999.25    -999.25    0.00590   -0.00470   20.71290   49.83380    9.27090   57.53620   96.52390  347.39040  -93.72600
 8850.00000   11.11520    0.00910   14.49220    2.71090    -999.25    -999.25    0.00980    0.00980   17.03900   51.41310    9.40620   45.81540   62.22650  391.91390  -99.69120
 8900.00000   12.75970    0.14300   38.02220    2.61600    -999.25    -999.25    0.09610    0.03450   36.82790   63.25210    9.51980    6.71140    7.42370   16.11140 -114.33880
 8950.00000    9.89250    0.01870   36.19140    2.73170    -999.25    -999.25    0.01410   -0.03490   40.20430   52.25880    9.08780  103.35370  110.15930  174.33720  -65.10030
 9000.00000   10.14490    0.01990   35.63600    2.74660    -999.25    -999.25    0.02510   -0.01230   34.53360   53.83490    9.34440   44.62790   50.51300   71.80450  -59.44170
 9050.00000    9.82950   -0.00050   43.16460    2.69520    -999.25    -999.25    0.02640   -0.00370   44.36470   55.06400    9.08830  117.30380  133.22560  169.20370  -43.84680
 9100.00000    9.71980    0.01170   39.51970    2.71150    -999.25    -999.25    0.01250   -0.00310   38.95150   56.40700    9.05110  246.94110  491.58370  557.13720   -9.59100
 9150.00000    9.76870    0.01830  100.18080    2.69110    -999.25    -999.25    0.08000    0.00910  101.81910   61.86520    9.01490   89.89560  139.81170  149.16660    8.06480
 9200.00000   10.18900    0.16600   32.15360    2.69520    -999.25    -999.25    0.02460    0.00750   33.40690   52.36410    9.27340  686.34750  343.15120 1396.74170  -27.58420
 9250.00000   11.53470    0.07110   16.82670    2.58830    -999.25    -999.25    0.01400    0.09400   21.31990   50.33490    9.69550 1609.45420  758.80350  378.76710  -61.91580
 9300.00000   12.32970    0.03680   18.18160    2.57190    -999.25    -999.25    0.01320    0.07660   15.63270   50.25190    9.47330 1540.40260  203.14770  390.30040  -57.82240
 9350.00000    9.85120    0.07430   15.13770    2.91510    -999.25    -999.25    0.01500   -0.10570    9.93210   50.74720    8.95670  123.04060  162.94240  658.62160  -69.51570
 9400.00000    8.89720    0.05690   13.48820    2.67530    -999.25    -999.25    0.10550    0.01050   15.81160   51.48560    8.33900    7.70480   14.88190   68.73590  -87.30400
 9450.00000    9.90060    0.08580   22.58130    2.60090    -999.25    -999.25    0.04880    0.05620   25.96640   51.57710    9.29070   23.67250   32.02050   76.29520  -87.87910
 9500.00000   10.42370    0.09320   41.09490    2.70150    -999.25    -999.25    0.00110    0.00590   40.67420   48.50790    9.08470  108.82760  241.95960  262.03990  -80.41970
 9550.00000    9.79950    0.01820   20.71800    2.73220    -999.25    -999.25    0.01100   -0.02240   20.47540   48.85280    8.94840   69.76000  141.42510  349.65400  -94.47210
 9600.00000   12.88080    0.06230   18.58730    2.59230    -999.25    -999.25    0.01840    0.05630   21.17180   49.62310   10.15050  228.74280   98.74570  194.75800  -84.91410
 9650.00000   12.61770    0.08600   18.65290    2.68090    -999.25    -999.25    0.00800    0.01210   22.49190   48.97000    9.71750  128.51280  157.34870  319.74230  -92.10760
 9700.00000    9.28810    0.05500   18.63130    2.76870    -999.25    -999.25    0.04960   -0.04960   17.63110   48.41420    8.81360   52.36770   96.75620  227.07530 -113.46800
 9750.00000    9.98230    0.00850   12.40450    2.94480    -999.25    -999.25   -0.00170   -0.12140   14.76030   48.53140    9.32690 1276.07920 1774.48580 1481.36690  -75.13560
 9800.00000   10.99270    0.12530   17.09240    2.68890    -999.25    -999.25    0.03340   -0.01280   22.30690   48.70150    9.19630   36.16060  103.77350  225.53480 -121.67880
 9850.00000   10.87940    0.17030   30.55080    2.76670    -999.25    -999.25    0.01130   -0.08060   30.01410   47.76980    9.24050  148.47080  207.20640 1407.42830  -74.81990
 9900.00000   10.74670    0.09270   18.83410    2.71750    -999.25    -999.25    0.05540   -0.03760   19.64780   53.80320    9.15820  116.05670  219.51850  295.73590 -155.16990
 9950.00000   13.08370    0.11040   22.16020    2.60590    -999.25    -999.25    0.05600    0.08770   21.70110   51.15870    9.78930  138.48940  122.08270  246.28600 -128.72190
 10000.00000   12.43060    0.11390   28.77180    2.57460    -999.25    -999.25    0.03760    0.07590   26.11870   49.03040    9.32860  425.45030  185.82870  192.68410 -128.57380
 10050.00000   11.97790    0.19670   41.78050    2.69250    -999.25    -999.25    0.05610    0.02430   39.73940   52.21590    9.31160   60.08630   64.48760   94.84940 -132.99810
 10100.00000   10.61490    0.10910   78.27790    2.66210    -999.25    -999.25    0.10210    0.03280   84.51640   60.44630    9.25500   27.31580   31.47480   44.94270 -129.77160
 10150.00000   10.35440    0.00920   57.71700    2.71400    -999.25    -999.25    0.04770   -0.01260   58.13930   53.90840    9.22470   45.04250   62.57110   76.21720 -136.78000
 10200.00000   10.19680    0.00460   42.19510    2.72960    -999.25    -999.25    0.01900   -0.01930   39.21250   50.52530    9.15610   90.40320   98.65960  171.78300 -148.21430
 10250.00000   11.07690    0.09650   51.45200    2.70130    -999.25    -999.25    0.02130    0.01410   56.11780   54.34760    9.51500   22.86750   27.84520   62.17000 -115.56100
 10300.00000   11.97960    0.07770   38.26480    2.71760    -999.25    -999.25    0.00590   -0.01270   41.67950   52.35500    9.59090   61.11110   64.16620   67.12560 -114.48510
 10350.00000   11.50590    0.04800   31.58330    2.77280    -999.25    -999.25    0.00480   -0.02740   40.56840   51.42110    9.85870   42.66650   55.38390  123.77600 -178.21840
 10400.00000   13.73860    0.13460   80.56750    2.54370    -999.25    -999.25    0.19220    0.07110  101.84670   71.00190   10.65560    5.65580    6.13410    7.37390 -135.99730
 10450.00000    -999.25    -999.25    -999.25    -999.25    -999.25    -999.25    -999.25    -999.25   84.04440   70.93680   10.71870    5.55820    6.52240    7.97890 -135.00230
 10500.00000    -999.25    -999.25    -999.25    -999.25    -999.25    -999.25    -999.25    -999.25   76.29750   66.75150   10.57760    6.10340    7.03710    8.77320  -92.78370
 10550.00000    -999.25    -999.25    -999.25    -999.25    -999.25    -999.25    -999.25    -999.25  104.54150   73.58590   10.69370    5.24610    5.94680    7.30070  -49.82410
 10600.00000    -999.25    -999.25    -999.25    -999.25    -999.25    -999.25    -999.25    -999.25   97.24870   75.04830   10.78600    4.48600    4.93540    6.05250  -38.94730
 10650.00000    -999.25    -999.25    -999.25    -999.25    -999.25    -999.25    -999.25    -999.25   91.02460   68.37430   10.37910    7.10030    7.77280   10.40970    -999.25
