~Version ---------------------------------------------------
VERS.      2.0 : CWLS log ASCII Standard -VERSION 2.0
WRAP.       NO : One line per depth step
CREA. 11/17/17 : LAS Creation Date
~Well ------------------------------------------------------
STRT.FT                  300.0 : START DEPTH
STOP.FT                10400.0 : STOP DEPTH
STEP.FT               50.00000 : STEP LENGTH
NULL.                  -999.25 : NULL VALUE
COMP.    J M HUBER CORPORATION : COMPANY
WELL. HUBER ROSEVEAR 6-5-55-14 : WELL
FLD .                       WC : FIELD
LOC .                          : LOCATION
CTRY.                   CANADA : COUNTRY
SRVC.             Schlumberger : SERVICE COMPANY
DATE.              04-Sep-1976 : LOGDATE
PROV.                  Alberta : PROVINCE
UWI .         100060505514W500 : UNIQUE WELL ID
SLAT.WGS84            53.72293 : SURFACE LATITUDE
SLON.WGS84           -116.0453 : SURFACE LONGITUDE
~Curve Information -----------------------------------------
DEPT    .FT    : Depth Curve
CALDED  .IN    : CALIPER FROM DENSITY LOG [ADJ. TO RESISTIVITY LOG]
CALRED  .MV    : CALIPER FROM FROM DLL
CALSED  .IN    : CALIPER FROM SONIC LOG [ADJ. TO RESISTIVITY LOG]
CALWS   .IN    : CALIPER [CALSED]
CONDWS  .MMHO  : CONDUCTIVITY [1000/DRESWS]
DCORED  .G/C3  : DENSITY CORRECTION FROM DENSITY LOG [ADJ. TO RESISTIVITY LOG]
DCORWS  .G/C3  : DENSITY CORRECTION [DCORED]
DENWS   .G/C3  : FORMATION BULK DENSITY [RHOBED SPL. TO DPHISSED CONVERTED TO LIMESTONE MATRIX, M=2.71, F=1.00 (ASSUMED) FROM 5892'-5905']
DPHILSED.V/V   : DENSITY POROSITY LIMESTONE [M=2.71, F=1.00 (ASSUMED)] FROM DENSITY LOG [ADJ. TO RESISTIVITY LOG]
DPHISSED.V/V   : DENSITY POROSITY SANDSTONE [M=2.65, F=1.00 (ASSUMED)] FROM DENSITY LOG [ADJ. TO RESISTIVITY LOG]
DPOLSWS .V/V   : DENSITY POROSITY LIMESTONE [CALC. FROM DENWS, M=2.71, F=1.00 (ASSUMED)]
DRESWS  .OHMM  : DEEP RESISTIVITY [LLDED]
DTED    .US/F  : DELTA TIME FROM SONIC LOG [ADJ. TO RESISTIVITY LOG]
DTWS    .US/F  : COMPRESSIONAL SONIC [DTED]
GRDED   .GAPI  : GAMMA RAY FROM DENSITY LOG [ADJ. TO RESISTIVITY LOG]
GRSED   .GAPI  : GAMMA RAY FROM SONIC LOG [ADJ. TO RESISTIVITY LOG]
GRWS    .GAPI  : GAMMA RAY [GRSED]
LLDED   .OHMM  : DEEP LATEROLOG RESISTIVITY FROM RESISTIVITY LOG
LLSED   .OHMM  : SHALLOW LATEROLOG RESISTIVITY LOG
NPHILSED.V/V   : NEUTRON POROSITY LIMESTONE FROM DENSITY LOG [ADJ. TO RESISTIVITY LOG]
NPHISSED.V/V   : NEUTRON POROSITY SANDSTONE FROM DENSITY LOG [ADJ. TO RESISTIVITY LOG]
NPOLSWS .V/V   : NEUTRON POROSITY LIMESTONE [NPHISSED MATRIX (SCHLUMBERGER) CONVERSION FOR LIMESTONE, SPL.TO NPHILSED @ 7149']
RHOBED  .G/C3  : BULK DENSITY FROM DENSITY LOG [ADJ. TO RESISTIVITY LOG]
SPRED   .MV    : SPONTANEOUS POTENTIAL FROM RESISTIVITY LOG
SPWS    .MV    : SPONTANEOUS POTENTIAL [BASELINE 0 MV, SPRED*-1]
SRESWS  .OHMM  : SHALLOW RESISTIVITY [LLSED]
~Params ----------------------------------------------------
PD  .                     GL : PERMANENT DATUM
EPD .FT                 2650 : ELEVATION PERMANENT DATUM
LMF .                     KB : LOG MEASURED FROM
DAPD.FT                   16 : FEET ABOVE PERMANENT DATUM
EKB .FT                 2666 : KELLY BUSHING
EGL .FT                 2650 : GROUND LEVEL
DATE.               09/04/76 : RUN DATE
RUN .                      2 : RUN NUMBER
DD  .FT                10450 : DEPTH DRILLER
DL  .FT                10450 : DEPTH LOGGER
BLI .FT                10448 : BOTTOM LOG INTERVAL
TLI .FT                 8400 : TOP LOG INTERVAL
CBD .FT                 1105 : CASING BOTTOM DRILLER
BS  .IN                 8.75 : BIT SIZE
BSD .FT                10450 : BIT SIZE AT DEPTH
DFT .               GEL CHEM : DRILLING FLUID TYPE
DFD .                    9.6 : DRILLING FLUID DENSITY
DFV .                     82 : DRILLING FLUID VISCOSITY
DFPH.                     11 : DRILLING FLUID PH
DFL .                     15 : DRILLING FLUID LOSS
RMS .OHMM               0.28 : RESISTIVITY MUD SAMPLE
MST .DEGF                 62 : MUD SAMPLE TEMPERATURE
RMF .OHMM               0.23 : RESISTIVITY MUD FILTRATE SAMPLE
MFST.DEGF                 62 : MUD FILTRATE SAMPLE TEMPERATURE
RMB .OHMM               0.11 : RESISTIVITY MUD AT BHT
TCS .HRS                   1 : TIME CIRCULATED STOPPED
LUN .                   7730 : LOGGING UNIT NUMBER
LUL .                    EDM : LOGGING UNIT LOCATION
ENGI.         PIMM MACDONALD : RECORDING ENGINEER
WITN.                 TAYLOR : WITNESSED BY
CLNT.                A2DTECH : CLIENT CODE
ORIG.               5" PRINT : ORIGIN OF DATA
UWI .       100060505514W500 : UNIQUE WELL ID
DICO. A2D Technologies, Inc. : DIGITIZING COMPANY
~Other -----------------------------------------------------
DLL-CNFD-BHC TOOLS RUN
~ASCII -----------------------------------------------------
# ...
 4350.00000    -999.25    9.46270   10.83210   10.83210   96.36600    -999.25    -999.25    -999.25    -999.25    -999.25    -999.25   10.37710   87.94890   87.94890    -999.25  135.63470  135.63470   10.37710   11.11890    -999.25    -999.25    -999.25    -999.25  -29.75500   -2.02870   11.11890
 4400.00000    -999.25    9.43890   10.83510   10.83510   97.64480    -999.25    -999.25    -999.25    -999.25    -999.25    -999.25   10.24120   83.90410   83.90410    -999.25  130.56020  130.56020   10.24120    9.36730    -999.25    -999.25    -999.25    -999.25  -27.76200   -0.30770    9.36730
 4450.00000    -999.25    9.42560   10.88570   10.88570  102.42330    -999.25    -999.25    -999.25    -999.25    -999.25    -999.25    9.76340   77.89280   77.89280    -999.25  116.20610  116.20610    9.76340   10.37040    -999.25    -999.25    -999.25    -999.25  -23.25400    2.38210   10.37040
 4500.00000    -999.25    9.76060   10.69760   10.69760   83.50240    -999.25    -999.25    -999.25    -999.25    -999.25    -999.25   11.97570   77.20000   77.20000    -999.25  116.44420  116.44420   11.97570   12.62170    -999.25    -999.25    -999.25    -999.25  -25.80790   -1.23320   12.62170
 4550.00000    -999.25   10.05380   11.59310   11.59310   95.08140    -999.25    -999.25    -999.25    -999.25    -999.25    -999.25   10.51730   80.05530   80.05530    -999.25  122.22860  122.22860   10.51730   11.07960    -999.25    -999.25    -999.25    -999.25  -26.23790   -2.19900   11.07960
 4600.00000    -999.25   10.21910   11.46570   11.46570  112.49990    -999.25    -999.25    -999.25    -999.25    -999.25    -999.25    8.88890   82.43580   82.43580    -999.25  122.95160  122.95160    8.88890    9.30070    -999.25    -999.25    -999.25    -999.25  -24.07990   -0.57690    9.30070
 4650.00000    -999.25   10.45800   11.28160   11.28160  108.61300    -999.25    -999.25    -999.25    -999.25    -999.25    -999.25    9.20700   84.44110   84.44110    -999.25  127.02590  127.02590    9.20700    9.71170    -999.25    -999.25    -999.25    -999.25  -23.41400   -0.44670    9.71170
 4700.00000   13.18300   10.44270   11.67540   11.67540  111.30160    0.23090    0.23090    2.21970    -999.25    0.25940    0.28680    8.98460   82.11960   82.11960  108.85910  129.47770  129.47770    8.98460    9.41750    -999.25    0.30930    0.26530    2.21970  -23.36090   -0.92950    9.41750
 4750.00000   13.20060   10.12420   11.66460   11.66460  144.41890    0.16880    0.16880    2.00880    -999.25    0.39880    0.41010    6.92430   85.06750   85.06750  132.80230  135.97750  135.97750    6.92430    7.38550    -999.25    0.34660    0.30290    2.00880  -22.12200   -0.22640    7.38550
 4800.00000   13.13880    9.71130   10.77380   10.77380  100.41070    0.17070    0.17070    2.07740    -999.25    0.34770    0.36990    9.95910   79.11660   79.11660  119.51680  123.55890  123.55890    9.95910   10.59170    -999.25    0.27980    0.23580    2.07740  -22.02290   -0.66320   10.59170
 4850.00000   11.84590    9.42290   10.64500   10.64500   95.32620    0.13410    0.13410    1.92140    -999.25    0.43070    0.46120   10.49030   44.11890   44.11890  121.13430  126.05040  126.05040   10.49030   10.08510    -999.25    0.31780    0.27390    1.92140  -21.53590   -0.71210   10.08510
 4900.00000   11.52790    9.76640   10.80030   10.80030   78.61640    0.24200    0.24200    2.37980    -999.25    0.16650    0.19310   12.72000   77.40390   77.40390  114.67210  118.79570  118.79570   12.72000   13.29250    -999.25    0.23740    0.19360    2.37980  -22.85200   -2.56390   13.29250
 4950.00000   12.45860    9.83610   10.75600   10.75600   83.78860    0.23340    0.23340    2.19460    -999.25    0.28350    0.30140   11.93480   78.19200   78.19200  111.94730  128.50370  128.50370   11.93480   12.52810    -999.25    0.23270    0.18900    2.19460  -20.65700   -0.90480   12.52810
 5000.00000   13.22730    9.80790   10.87780   10.87780   99.16500    0.21820    0.21820    2.18700    -999.25    0.28380    0.30580   10.08420   79.69170   79.69170  132.06270  133.08900  133.08900   10.08420   11.02160    -999.25    0.26470    0.22070    2.18700  -19.63290   -4.73840   11.02160
 5050.00000   13.10500   10.15550   11.19970   11.19970  102.78130    0.16160    0.16160    2.01590    -999.25    0.38740    0.40590    9.72940   81.15810   81.15810  130.65010  130.36720  130.36720    9.72940   10.16890    -999.25    0.29630    0.25230    2.01590  -20.20490  -10.64830   10.16890
 5100.00000   13.00960    9.78310   10.75810   10.75810  115.92860    0.18230    0.18230    2.00370    -999.25    0.38430    0.41300    8.62600   85.46910   85.46910    -999.25  130.07010  130.07010    8.62600    9.02730    -999.25    0.33360    0.28980    2.00370   -6.05590   -1.06310    9.02730
 5150.00000    -999.25    9.68690   10.70220   10.70220  122.21350    -999.25    -999.25    -999.25    -999.25    -999.25    -999.25    8.18240   89.67130   89.67130    -999.25  130.26050  130.26050    8.18240    8.90930    -999.25    -999.25    -999.25    -999.25  -10.19790   -6.46900    8.90930
 5200.00000    -999.25    9.61170   10.07990   10.07990   67.95970    -999.25    -999.25    -999.25    -999.25    -999.25    -999.25   14.71460   86.42450   86.42450    -999.25  137.70360  137.70360   14.71460   15.47640    -999.25    -999.25    -999.25    -999.25  -19.78250  -17.31730   15.47640
 5250.00000    -999.25    9.68060   10.50020   10.50020   87.32100    -999.25    -999.25    -999.25    -999.25    -999.25    -999.25   11.45200   87.92760   87.92760    -999.25  139.01630  139.01630   11.45200   12.73520    -999.25    -999.25    -999.25    -999.25  -17.11990  -15.91860   12.73520
 5300.00000    -999.25    9.71320   10.49810   10.49810   85.91730    -999.25    -999.25    -999.25    -999.25    -999.25    -999.25   11.63910   88.43620   88.43620    -999.25  156.80190  156.80190   11.63910   13.52030    -999.25    -999.25    -999.25    -999.25   -3.20790   -3.27040   13.52030
 5350.00000    -999.25    9.43690   10.36580   10.36580   54.87120    -999.25    -999.25    -999.25    -999.25    -999.25    -999.25   18.22450   90.07880   90.07880    -999.25  161.06600  161.06600   18.22450   20.40000    -999.25    -999.25    -999.25    -999.25   -0.75090   -3.29280   20.40000
 5400.00000    -999.25    9.61180   10.05690   10.05690   57.23120    -999.25    -999.25    -999.25    -999.25    -999.25    -999.25   17.47300   88.06360   88.06360    -999.25  142.92190  142.92190   17.47300   21.15520    -999.25    -999.25    -999.25    -999.25  -15.12900  -21.18570   21.15520
 5450.00000    -999.25    9.76910   10.30130   10.30130   64.26780    -999.25    -999.25    -999.25    -999.25    -999.25    -999.25   15.55990   88.85690   88.85690    -999.25  141.13270  141.13270   15.55990   17.55140    -999.25    -999.25    -999.25    -999.25  -17.07090  -26.64260   17.55140
 5500.00000    -999.25    9.77330   10.40520   10.40520   48.46180    -999.25    -999.25    -999.25    -999.25    -999.25    -999.25   20.63480   87.22580   87.22580    -999.25  179.66800  179.66800   20.63480   24.37100    -999.25    -999.25    -999.25    -999.25    2.31210  -10.77450   24.37100
 5550.00000    -999.25   10.05230   11.23150   11.23150  125.34940    -999.25    -999.25    -999.25    -999.25    -999.25    -999.25    7.97770   83.23600   83.23600    -999.25  118.58400  118.58400    7.97770    8.57090    -999.25    -999.25    -999.25    -999.25   14.09910   -2.50240    8.57090
 5600.00000    -999.25   10.23830   10.90000   10.90000   87.22960    -999.25    -999.25    -999.25    -999.25    -999.25    -999.25   11.46400   74.81230   74.81230    -999.25  119.94430  119.94430   11.46400   12.60490    -999.25    -999.25    -999.25    -999.25   13.04010   -2.57700   12.60490
 5650.00000    -999.25   10.33030   11.09370   11.09370  123.78690    -999.25    -999.25    -999.25    -999.25    -999.25    -999.25    8.07840   80.64740   80.64740    -999.25  131.95290  131.95290    8.07840    8.83660    -999.25    -999.25    -999.25    -999.25   13.00310   -1.18460    8.83660
