~Version ---------------------------------------------------
VERS.      2.0 : CWLS log ASCII Standard -VERSION 2.0
WRAP.       NO : One line per depth step
CREA. 08/01/17 : LAS Creation Date
~Well ------------------------------------------------------
STRT.FT                           1450.0 : START DEPTH
STOP.FT                          10150.0 : STOP DEPTH
STEP.FT                         50.00000 : STEP LENGTH
NULL.                            -999.25 : NULL VALUE
COMP.               CHEVRON STANDARD LTD : COMPANY
WELL. CHEVRON GULF PASS CREEK 6-10-61-17 : WELL
FLD .                                    : FIELD
LOC .                                    : LOCATION
CTRY.                             CANADA : COUNTRY
SRVC.                       Schlumberger : SERVICE COMPANY
DATE.                        29-Nov-1977 : LOGDATE
PROV.                            Alberta : PROVINCE
UWI .                   100061006117W500 : UNIQUE WELL ID
SLAT.WGS84                      54.25885 : SURFACE LATITUDE
SLON.WGS84                     -116.4678 : SURFACE LONGITUDE
~Curve Information -----------------------------------------
DEPT    .FT    : Depth Curve
CALDED  .IN    : CALIPER FROM DENSITY LOG [ADJ TO GRSED]
CALSED  .IN    : CALIPER FROM SONIC LOG
CALWS   .IN    : CALIPER [CALSED]
CONDWS  .MMHO  : CONDUCTIVITY [1000/DRESWS]
DCORWS  .G/C3  : DENSITY CORRECTION [DRHOED]
DENWS   .G/C3  : BULK DENSITY RHOBED]
DPHILSED.V/V   : DENSITY POROSITY [M=2.71, F=1.00] FROM DENSITY LOG [ADJ TO GRSED]
DPHISSED.V/V   : DENSITY POROSITY [M=2.65, F=1.00] FROM DENSITY LOG [ADJ TO GRSED]
DPOLSWS .V/V   : DENSITY POROSITY [M=2.71, F=1.00] [CALCULATED FROM DENWS]
DRESWS  .OHMM  : DEEP RESISTIVITY [ILDED]
DRHOED  .G/C3  : DENSITY CORRECTION FROM DENSITY LOG[ADJ TO GRSED]
DTED    .US/F  : DELTA TIME FROM SONIC LOG
DTWS    .US/F  : DELTA TIME [DTED]
GRDED   .GAPI  : GAMMA RAY FROM DENSITY LOG[ADJ TO GRSED]
GRSED   .GAPI  : GAMMA RAY FROM SONIC LOG
GRWS    .GAPI  : GAMMA RAY [GRSED, CSG <1537']
ILDED   .OHMM  : INDUCTION LOG DEEP RESISTIVITY
ILMED   .OHMM  : INDUCTION LOG MEDIUM RESISTIVITY
LL8ED   .OHMM  : 8 INCH LATEROLOG RESISTIVITY
MRESWS  .OHMM  : MEDIUM RESISTIVITY [ILMED]
NPHILSED.V/V   : NEUTRON POROSITY LIMESTONE FROM DENSITY LOG [ADJ TO GRSED]
NPHISSED.V/V   : NEUTRON POROSITY SANDSTONE FROM DENSITY LOG [ADJ TO GRSED]
NPOLSWS .V/V   : NEUTRON POROSITY LIMESTONE [CONVERTED NPHISSED TO LIMESTONE SPL WITH NPHILSED @9598']
RHOBED  .G/C3  : BULK DENSITY FROM DENSITY LOG [ADJ TO GRSED]
SPRED   .MV    : SPONTANEOUS POTENTIAL FROM RESISTIVITY LOG
SPWS    .MV    : SPONTANEOUS POTENTIAL [BASELINE 0 MV] [SPRED]
SRESWS  .OHMM  : SHALLOW RESISTIVITY [LL8ED]
TENDED  .LBF   : TENSION FROM DENSITY LOG [ADJ TO GRSED]
TENSED  .LBF   : TENSION FROM SONIC LOG
~Params ----------------------------------------------------
PD  .                     GL : PERMANENT DATUM
LMF .                     GL : LOG MEASURED FROM
EKB .FT                 2726 : KELLY BUSHING
DATE.               11/29/77 : RUN DATE
RUN .                      1 : RUN NUMBER
DFD .                    9.7 : DRILLING FLUID DENSITY
DFV .                    145 : DRILLING FLUID VISCOSITY
DFPH.                    9.5 : DRILLING FLUID PH
DFL .                    7.6 : DRILLING FLUID LOSS
MSS .               FLOWLINE : MUD SAMPLE SOURCE
TCS .HRS                 7.5 : TIME CIRCULATED STOPPED
ENGI.              BIGG GUNN : RECORDING ENGINEER
WITN.               WILLIAMS : WITNESSED BY
CLNT.                A2DTECH : CLIENT CODE
ORIG.            2" 5" PRINT : ORIGIN OF DATA
UWI .       100061006117W500 : UNIQUE WELL ID
DICO. A2D Technologies, Inc. : DIGITIZING COMPANY
~Other -----------------------------------------------------
~ASCII -----------------------------------------------------
# ...
 6450.00000    -999.25    9.42420    9.42420    1.82210    -999.25    -999.25    -999.25    -999.25    -999.25  549.51070    -999.25   73.37090   73.37090    -999.25    -999.25    -999.25  549.51070 1470.89200 1557.42830 1470.89200    -999.25    -999.25    -999.25    -999.25  -70.79200  -45.38970 1557.42830    -999.25 2242.16250
 6500.00000    -999.25    9.91530    9.91530   64.00290    -999.25    -999.25    -999.25    -999.25    -999.25   15.62430    -999.25   63.19310   63.19310    -999.25   96.79570   96.79570   15.62430   17.35530   18.86590   17.35530    -999.25    -999.25    -999.25    -999.25  -53.39610  -28.38370   18.86590    -999.25 2316.73110
 6550.00000    -999.25    9.94220    9.94220   69.44830    -999.25    -999.25    -999.25    -999.25    -999.25   14.39920    -999.25   60.61940   60.61940    -999.25   88.42210   88.42210   14.39920   18.28430   21.16490   18.28430    -999.25    -999.25    -999.25    -999.25  -57.95730  -33.33670   21.16490    -999.25 2347.88340
 6600.00000    -999.25   10.21120   10.21120  107.53840    -999.25    -999.25    -999.25    -999.25    -999.25    9.29900    -999.25   59.12310   59.12310    -999.25   72.11810   72.11810    9.29900   11.01680   20.64310   11.01680    -999.25    -999.25    -999.25    -999.25  -66.24210  -42.01330   20.64310    -999.25 2395.46720
 6650.00000    -999.25   10.13320   10.13320  183.97230    -999.25    -999.25    -999.25    -999.25    -999.25    5.43560    -999.25   60.74290   60.74290    -999.25   56.94340   56.94340    5.43560    6.02720   11.58120    6.02720    -999.25    -999.25    -999.25    -999.25  -78.81370  -54.97670   11.58120    -999.25 2505.66980
 6700.00000    -999.25    9.86710    9.86710   49.94510    -999.25    -999.25    -999.25    -999.25    -999.25   20.03460    -999.25   54.47980   54.47980    -999.25   47.26010   47.26010   20.03460   25.76680   49.09660   25.76680    -999.25    -999.25    -999.25    -999.25  -60.87690  -37.43370   49.09660    -999.25 1318.34070
 6750.00000    -999.25    9.97150    9.97150   25.86450    -999.25    -999.25    -999.25    -999.25    -999.25   38.66300    -999.25   52.39840   52.39840    -999.25   42.96600   42.96600   38.66300   45.83960  126.40110   45.83960    -999.25    -999.25    -999.25    -999.25  -59.23830  -36.18500  126.40110    -999.25 1493.50080
 6800.00000    -999.25    9.76610    9.76610   36.17260    -999.25    -999.25    -999.25    -999.25    -999.25   27.64520    -999.25   52.85000   52.85000    -999.25   18.03680   18.03680   27.64520   48.56800  115.79750   48.56800    -999.25    -999.25    -999.25    -999.25 -124.56640 -101.90490  115.79750    -999.25 1542.99140
 6850.00000    -999.25   10.09920   10.09920   41.65820    -999.25    -999.25    -999.25    -999.25    -999.25   24.00490    -999.25   50.66670   50.66670    -999.25   16.87790   16.87790   24.00490   42.46710  244.73080   42.46710    -999.25    -999.25    -999.25    -999.25 -158.74380 -136.47410  244.73080    -999.25 1545.09370
 6900.00000    -999.25   10.09690   10.09690   33.68440    -999.25    -999.25    -999.25    -999.25    -999.25   29.68730    -999.25   50.74350   50.74350    -999.25   19.24610   19.24610   29.68730   73.23490  130.34810   73.23490    -999.25    -999.25    -999.25    -999.25  -72.92580  -51.04790  130.34810    -999.25 1683.35640
 6950.00000    -999.25   10.11250   10.11250  261.15830    -999.25    -999.25    -999.25    -999.25    -999.25    3.83010    -999.25   63.80020   63.80020    -999.25   70.43550   70.43550    3.83010    4.32830    5.17180    4.32830    -999.25    -999.25    -999.25    -999.25  -59.10110  -37.61700    5.17180    -999.25 1763.85910
 7000.00000    -999.25   10.03090   10.03090   95.39800    -999.25    -999.25    -999.25    -999.25    -999.25   10.48240    -999.25   59.50540   59.50540    -999.25   77.01460   77.01460   10.48240   12.27480   17.26220   12.27480    -999.25    -999.25    -999.25    -999.25  -40.97640  -19.88220   17.26220    -999.25 1882.57780
 7050.00000    -999.25   11.44780   11.44780  235.83790    -999.25    -999.25    -999.25    -999.25    -999.25    4.24020    -999.25   66.07310   66.07310    -999.25   70.21460   70.21460    4.24020    4.79030    8.38320    4.79030    -999.25    -999.25    -999.25    -999.25  -36.43040  -15.72800    8.38320    -999.25 1862.93570
 7100.00000    -999.25   10.52520   10.52520    7.29690    -999.25    -999.25    -999.25    -999.25    -999.25  137.04430    -999.25   51.55440   51.55440    -999.25   18.16400   18.16400  137.04430  170.27670  275.80870  170.27670    -999.25    -999.25    -999.25    -999.25  -30.90910  -10.59850  275.80870    -999.25 1924.58700
 7150.00000    -999.25    9.51320    9.51320    5.37640    -999.25    -999.25    -999.25    -999.25    -999.25  185.99700    -999.25   51.46840   51.46840    -999.25   26.38620   26.38620  185.99700  246.65640  383.00340  246.65640    -999.25    -999.25    -999.25    -999.25  -34.97350  -15.05470  383.00340    -999.25 1928.97080
 7200.00000    -999.25    9.29020    9.29020   15.70520    -999.25    -999.25    -999.25    -999.25    -999.25   63.67360    -999.25   53.65760   53.65760    -999.25   36.40470   36.40470   63.67360   71.01370  121.28860   71.01370    -999.25    -999.25    -999.25    -999.25  -37.28930  -17.76430  121.28860    -999.25 2072.90590
 7250.00000    -999.25    9.32620    9.32620   23.59240    -999.25    -999.25    -999.25    -999.25    -999.25   42.38650    -999.25   56.55040   56.55040    -999.25   49.47150   49.47150   42.38650   50.28650   65.72270   50.28650    -999.25    -999.25    -999.25    -999.25  -31.12740  -11.99230   65.72270    -999.25 2109.39580
 7300.00000    -999.25    9.27770    9.27770   17.30640    -999.25    -999.25    -999.25    -999.25    -999.25   57.78220    -999.25   54.74380   54.74380    -999.25   53.42230   53.42230   57.78220   61.88650   77.31720   61.88650    -999.25    -999.25    -999.25    -999.25  -44.01100  -25.26770   77.31720    -999.25 2120.00420
 7350.00000    -999.25    9.13340    9.13340    5.56630    -999.25    -999.25    -999.25    -999.25    -999.25  179.65130    -999.25   52.95010   52.95010    -999.25   38.10830   38.10830  179.65130  208.28290  239.77890  208.28290    -999.25    -999.25    -999.25    -999.25  -60.05920  -41.70770  239.77890    -999.25 2147.53520
 7400.00000    -999.25    9.11650    9.11650   12.74810    -999.25    -999.25    -999.25    -999.25    -999.25   78.44310    -999.25   56.78390   56.78390    -999.25   67.05370   67.05370   78.44310   84.78470  116.50720   84.78470    -999.25    -999.25    -999.25    -999.25  -43.23890  -25.27920  116.50720    -999.25 2238.29700
 7450.00000    -999.25    9.20830    9.20830    1.51370    -999.25    -999.25    -999.25    -999.25    -999.25  661.12460    -999.25   59.89510   59.89510    -999.25   73.14450   73.14450  661.12460 1387.33320 1084.39810 1387.33320    -999.25    -999.25    -999.25    -999.25  -72.97740  -55.41150 1084.39810    -999.25 2292.86680
 7500.00000    -999.25    9.41620    9.41620   32.31980    -999.25    -999.25    -999.25    -999.25    -999.25   30.94080    -999.25   75.78730   75.78730    -999.25  263.12150  263.12150   30.94080   36.41210   45.17620   36.41210    -999.25    -999.25    -999.25    -999.25  -25.38990   -8.21390   45.17620    -999.25 2416.74030
 7550.00000    -999.25    9.75120    9.75120    0.94560    -999.25    -999.25    -999.25    -999.25    -999.25 1057.54100    -999.25   49.47490   49.47490    -999.25   17.94620   17.94620 1057.54100  671.40440 1107.98400  671.40440    -999.25    -999.25    -999.25    -999.25 -107.78780  -91.00360 1107.98400    -999.25 2488.58900
 7600.00000    -999.25    9.45710    9.45710    0.64930    -999.25    -999.25    -999.25    -999.25    -999.25 1540.14040    -999.25   48.74770   48.74770    -999.25   17.50840   17.50840 1540.14040  868.71120  929.55960  868.71120    -999.25    -999.25    -999.25    -999.25 -105.38500  -88.99260  929.55960    -999.25 2523.71620
 7650.00000    -999.25    9.58220    9.58220    0.64730    -999.25    -999.25    -999.25    -999.25    -999.25 1544.85790    -999.25   48.98270   48.98270    -999.25   17.19910   17.19910 1544.85790  932.59160 1560.86670  932.59160    -999.25    -999.25    -999.25    -999.25 -123.59640 -107.59580 1560.86670    -999.25 2624.38080
