~Version ---------------------------------------------------
VERS.      2.0 : CWLS log ASCII Standard -VERSION 2.0
WRAP.       NO : One line per depth step
CREA. 08/01/17 : LAS Creation Date
~Well ------------------------------------------------------
STRT.FT                       650.0 : START DEPTH
STOP.FT                      8750.0 : STOP DEPTH
STEP.FT                    50.00000 : STEP LENGTH
NULL.                       -999.25 : NULL VALUE
COMP.   WHITEHALL CANADIAN OILS LTD : COMPANY
WELL. W.H. ET AL KEYSTONE 6-15-48-3 : WELL
FLD .                               : FIELD
LOC .                               : LOCATION
CTRY.                        CANADA : COUNTRY
SRVC.                  Schlumberger : SERVICE COMPANY
DATE.                   14-Sep-1959 : LOGDATE
PROV.                       Alberta : PROVINCE
UWI .              100061504803W500 : UNIQUE WELL ID
SLAT.WGS84                 53.13961 : SURFACE LATITUDE
SLON.WGS84                -114.3572 : SURFACE LONGITUDE
~Curve Information -----------------------------------------
DEPT   .FT     : Depth Curve
CALWS  .IN     : CALIPER [MCALED]
CILDED .MMHO   : INDUCTION DEEP CONDUCTIVITY FROM IEL
CONDWS .MMHO   : CONDUCTIVITY [1000/DRESWS]
DENED  .G/C3   : COMPENSATED BULK DENSITY FROM DENSITY LOG
DENWS  .G/C3   : BULK DENSITY [DENED]
DPOLSWS.V/V    : DENSITY POROSITY ASSUMED LIMESTONE [CALCULATED FROM DENWS M=2.71 F=1.00]
DRESWS .OHMM   : DEEP RESISTIVITY [ILDED]
GRNED  .UR/HR  : GAMMA RAY FROM GRN LOG [DEPTH ADJ. TO SPRED]
GRWS   .GAPI   : GAMMA RAY [GRNED*10.4]
ILDED  .OHMM   : INDUCTION DEEP RESISTIVITY FROM IEL
MCALED .IN     : MLT (MICROLOG)
NEUTED .CPS    : NEUTRON FROM GRN LOG [DEPTH ADJ. TO SPRED]
NEUTWS .CPS    : NEUTRON [NEUTED]
SNED   .OHMM   : 16" SHORT NORMAL RESISTIVITY FROM IEL
SPRED  .MV     : SPONTANEOUS POTENTIAL FROM IEL
SPWS   .MV     : SPONTANEOUS POTENTIAL [BASELINE 0 MV] [SPRED]
SRESWS .OHMM   : SHALLOW RESISTIVITY [SNED]
~Params ----------------------------------------------------
LMF .                     KB : LOG MEASURED FROM
DMF .                     KB : DRILLING MEASURED FROM
EKB .FT                 2828 : KELLY BUSHING
EGL .FT                 2815 : GROUND LEVEL
DATE.               09/14/59 : RUN DATE
RUN .                      2 : RUN NUMBER
DD  .FT                 8775 : DEPTH DRILLER
DL  .FT                 8774 : DEPTH LOGGER
BLI .FT                 8768 : BOTTOM LOG INTERVAL
TLI .FT                 5711 : TOP LOG INTERVAL
CBD .FT                 5711 : CASING BOTTOM DRILLER
CBL .FT                 5711 : CASING BOTTOM LOGGER
BS  .IN                6.125 : BIT SIZE
BSD .FT                 8775 : BIT SIZE AT DEPTH
DFT .               GYP BASE : DRILLING FLUID TYPE
DFD .                     11 : DRILLING FLUID DENSITY
DFV .                    110 : DRILLING FLUID VISCOSITY
DFPH.                      8 : DRILLING FLUID PH
DFL .                      8 : DRILLING FLUID LOSS
RMS .OHMM                1.6 : RESISTIVITY MUD SAMPLE
MST .DEGF                 60 : MUD SAMPLE TEMPERATURE
RMF .OHMM                1.0 : RESISTIVITY MUD FILTRATE SAMPLE
MFST.DEGF                 64 : MUD FILTRATE SAMPLE TEMPERATURE
RMC .OHMM                1.9 : RESISTIVITY MUD CAKE
MCST.DEGF                 64 : MUD CAKE SAMPLE TEMPERATURE
RMB .OHMM               0.68 : RESISTIVITY MUD AT BHT
TCS .HRS                   2 : TIME CIRCULATED STOPPED
LUN .                    157 : LOGGING UNIT NUMBER
LUL .                    TDV : LOGGING UNIT LOCATION
ENGI.                 GORITZ : RECORDING ENGINEER
WITN.               FRANKLIN : WITNESSED BY
CLNT.                A2DTECH : CLIENT CODE
ORIG.            2" 5" PRINT : ORIGIN OF DATA
UWI .       100061504803W500 : UNIQUE WELL ID
DICO. A2D Technologies, Inc. : DIGITIZING COMPANY
~Other -----------------------------------------------------
~ASCII -----------------------------------------------------
# ...
 4750.00000    9.53490   92.18430   88.53320    1.98770    1.98770    0.42240   11.29520    -999.25    -999.25   11.29520    9.53490    -999.25    -999.25   18.27010  -32.51470   -1.98320   18.27010
 4800.00000   12.27480  140.01570  151.23100    2.10470    2.10470    0.35400    6.61240    -999.25    -999.25    6.61240   12.27480    -999.25    -999.25   11.66400  -34.51350   -3.82150   11.66400
 4850.00000   10.95020  264.58290  319.25420    2.27340    2.27340    0.25530    3.13230    -999.25    -999.25    3.13230   10.95020    -999.25    -999.25    5.73180  -37.06970   -5.90220    5.73180
 4900.00000   11.54280  313.89420  454.42150    2.44010    2.44010    0.15780    2.20060    -999.25    -999.25    2.20060   11.54280    -999.25    -999.25    4.66690  -36.39980   -4.75670    4.66690
 4950.00000   10.48620  165.90690  182.24560    2.33360    2.33360    0.22010    5.48710    5.42450   56.41480    5.48710   10.48620  218.43000  218.43000    8.39110  -35.11430   -2.99570    8.39110
 5000.00000    8.71620   29.09370   24.44650    1.82770    1.82770    0.51600   40.90570    2.48380   25.83150   40.90570    8.71620  639.24820  639.24820   68.35920  -93.23780  -60.64370   68.35920
 5050.00000   10.66080  237.44210  289.16780    2.10830    2.10830    0.35190    3.45820    -999.25    -999.25    3.45820   10.66080  215.79670  215.79670    5.94620  -36.11930   -3.04960    5.94620
 5100.00000   11.02470  312.42760  420.04450    2.10110    2.10110    0.35610    2.38070    -999.25    -999.25    2.38070   11.02470    -999.25    -999.25    4.43520  -39.56530   -6.64100    4.43520
 5150.00000    9.68550  111.86500  114.04330    1.93420    1.93420    0.45370    8.76860    -999.25    -999.25    8.76860    9.68550    -999.25    -999.25   12.58300  -37.36710   -5.97040   12.58300
 5200.00000    9.51660   84.08280   81.82640    2.00560    2.00560    0.41190   12.22100    -999.25    -999.25   12.22100    9.51660    -999.25    -999.25   17.27590  -42.62160  -12.75240   17.27590
 5250.00000    9.62090   78.92230   78.50530    2.10420    2.10420    0.35430   12.73800    -999.25    -999.25   12.73800    9.62090    -999.25    -999.25   21.15180  -30.59590   -2.25430   21.15180
 5300.00000    9.66990   69.88930   62.88990    2.01290    2.01290    0.40770   15.90080    -999.25    -999.25   15.90080    9.66990    -999.25    -999.25   23.46170  -34.72760   -7.91350   23.46170
 5350.00000    9.60070   91.43850   90.78690    1.87770    1.87770    0.48670   11.01480    -999.25    -999.25   11.01480    9.60070    -999.25    -999.25   18.34220  -27.78180   -2.49530   18.34220
 5400.00000    9.47760   43.81540   42.12050    2.26890    2.26890    0.25800   23.74140    -999.25    -999.25   23.74140    9.47760    -999.25    -999.25   30.49730  -52.17300  -28.41400   30.49730
 5450.00000    9.50450   57.66090   54.53510    1.87630    1.87630    0.48750   18.33680    -999.25    -999.25   18.33680    9.50450    -999.25    -999.25   26.19720  -33.97490  -11.74350   26.19720
 5500.00000    9.45890   50.10300   42.84890    1.93120    1.93120    0.45540   23.33780    -999.25    -999.25   23.33780    9.45890    -999.25    -999.25   28.26170  -51.16850  -30.46460   28.26170
 5550.00000   10.01610   93.53490   89.84560    2.08700    2.08700    0.36430   11.13020    -999.25    -999.25   11.13020   10.01610    -999.25    -999.25   15.23260  -53.46720  -34.29090   15.23260
 5600.00000    9.81850   76.50980   76.54800    2.02410    2.02410    0.40110   13.06370    -999.25    -999.25   13.06370    9.81850    -999.25    -999.25   22.70990  -23.66930   -6.02050   22.70990
 5650.00000    9.38320   56.42090   52.09280    1.97580    1.97580    0.42940   19.19650    -999.25    -999.25   19.19650    9.38320    -999.25    -999.25   25.89980  -22.35950   -6.23830   25.89980
 5700.00000    9.25210   17.86310   13.33250    1.76850    1.76850    0.55060   75.00480    -999.25    -999.25   75.00480    9.25210    -999.25    -999.25  221.60620  -41.97870  -27.38500  221.60620
 5750.00000    -999.25    7.94850    4.79400    -999.25    -999.25    -999.25  208.59360    -999.25    -999.25  208.59360    -999.25    -999.25    -999.25  151.55830  -14.93830   -1.79380  151.55830
 5800.00000    -999.25   19.15920   20.05100    -999.25    -999.25    -999.25   49.87270    -999.25    -999.25   49.87270    -999.25    -999.25    -999.25   75.01790  -14.07430   -1.58690   75.01790
 5850.00000    -999.25   32.08250   29.34160    -999.25    -999.25    -999.25   34.08130    -999.25    -999.25   34.08130    -999.25    -999.25    -999.25   51.21070  -15.20150   -3.37120   51.21070
 5900.00000    -999.25   29.55170   29.86560    -999.25    -999.25    -999.25   33.48330    -999.25    -999.25   33.48330    -999.25    -999.25    -999.25   50.58640  -13.12440   -1.95120   50.58640
 5950.00000    -999.25   34.87260   32.04170    -999.25    -999.25    -999.25   31.20930    -999.25    -999.25   31.20930    -999.25    -999.25    -999.25   41.11400  -16.13160   -5.61550   41.11400
 6000.00000    -999.25   17.33420   15.53990    -999.25    -999.25    -999.25   64.35050    -999.25    -999.25   64.35050    -999.25    -999.25    -999.25   65.94080  -13.60080   -3.74170   65.94080
 6050.00000    -999.25   14.67500   14.19050    -999.25    -999.25    -999.25   70.46970    -999.25    -999.25   70.46970    -999.25    -999.25    -999.25   73.83440  -13.05040   -3.84840   73.83440
 6100.00000    -999.25   20.62030   19.95320    -999.25    -999.25    -999.25   50.11730    -999.25    -999.25   50.11730    -999.25    -999.25    -999.25   65.83250  -11.98140   -3.43650   65.83250
 6150.00000    -999.25   21.08110   20.03530    -999.25    -999.25    -999.25   49.91190    4.05870   42.21050   49.91190    -999.25 2169.85860 2169.85860   64.88350  -11.92550   -4.03770   64.88350
 6200.00000    -999.25   30.27440   27.75040    -999.25    -999.25    -999.25   36.03550    4.30100   44.73040   36.03550    -999.25 2094.92530 2094.92530   51.80620   -9.33400   -2.10330   51.80620
 6250.00000    -999.25   23.08820   20.98240    -999.25    -999.25    -999.25   47.65890    1.96010   20.38500   47.65890    -999.25 1802.89170 1802.89170   85.23390  -21.08470  -13.21940   85.23390
 6300.00000    -999.25   16.42170   15.85900    -999.25    -999.25    -999.25   63.05560    1.96540   20.44020   63.05560    -999.25 1863.53740 1863.53740  112.90910  -21.17770  -12.48470  112.90910
 6350.00000    -999.25   16.18410   15.18990    -999.25    -999.25    -999.25   65.83320    1.22700   12.76080   65.83320    -999.25 1724.39110 1724.39110   67.02400  -23.60020  -14.07960   67.02400
 6400.00000    -999.25   94.62170   89.61780    -999.25    -999.25    -999.25   11.15850    1.95180   20.29870   11.15850    -999.25 2076.95680 2076.95680   57.61550  -34.44500  -24.09680   57.61550
 6450.00000    -999.25   24.72470   22.47270    -999.25    -999.25    -999.25   44.49840    1.48720   15.46690   44.49840    -999.25 1603.23690 1603.23690   62.26360  -27.62980  -16.45390   62.26360
 6500.00000    -999.25   48.30170   44.66900    -999.25    -999.25    -999.25   22.38690    1.07590   11.18940   22.38690    -999.25 1247.96420 1247.96420   67.56450  -35.77100  -23.76750   67.56450
 6550.00000    -999.25   17.62760   16.72630    -999.25    -999.25    -999.25   59.78620    1.39160   14.47260   59.78620    -999.25 2073.71360 2073.71360  123.13680  -29.67020  -16.83910  123.13680
 6600.00000    -999.25   11.65790    9.29770    -999.25    -999.25    -999.25  107.55310    1.58230   16.45590  107.55310    -999.25 1956.78450 1956.78450  140.67890  -31.00600  -17.34720  140.67890
 6650.00000    -999.25   14.96320   11.12540    -999.25    -999.25    -999.25   89.88420    1.54590   16.07740   89.88420    -999.25 2043.41640 2043.41640  105.27510  -30.52220  -16.03580  105.27510
 6700.00000    -999.25   13.34960   11.19930    -999.25    -999.25    -999.25   89.29150    2.62180   27.26670   89.29150    -999.25 2903.97390 2903.97390  224.86560  -24.62620   -9.31220  224.86560
 6750.00000    -999.25   22.68380   20.93850    -999.25    -999.25    -999.25   47.75890    3.11780   32.42510   47.75890    -999.25 2307.16750 2307.16750   72.07620  -24.25980   -8.11810   72.07620
