~Version ---------------------------------------------------
VERS.      2.0 : CWLS log ASCII Standard -VERSION 2.0
WRAP.       NO : One line per depth step
CREA. 08/31/17 : LAS Creation Date
~Well ------------------------------------------------------
STRT.FT                         1000.0 : START DEPTH
STOP.FT                        10100.0 : STOP DEPTH
STEP.FT                       50.00000 : STEP LENGTH
NULL.                          -999.25 : NULL VALUE
COMP.             PETROFINA CANADA LTD : COMPANY
WELL. FINA AMOCO HB PASS CK 6-33-62-17 : WELL
FLD .                                  : FIELD
LOC .                                  : LOCATION
CTRY.                           CANADA : COUNTRY
SRVC.                     Schlumberger : SERVICE COMPANY
DATE.                      14-Feb-1977 : LOGDATE
PROV.                          Alberta : PROVINCE
UWI .                 100063306217W500 : UNIQUE WELL ID
SLAT.WGS84                    54.40414 : SURFACE LATITUDE
SLON.WGS84                   -116.4922 : SURFACE LONGITUDE
~Curve Information -----------------------------------------
DEPT    .FT    : Depth Curve
CALDED  .IN    : CALIPER FROM CNFD LOG
CALSED  .IN    : CALIPER FROM BCS LOG [ADJ.TO GRDED]
CALWS   .IN    : CALIPER [CALSED]
CILDED  .MMHO  : CONDUCTIVITY FROM DIL-LAT LOG
CONDWS  .MMHO  : CONDUCTIVITY [CILDED SPL.TO 1000/ILDED @ 1035.5' TO 1151.5' & 4943' TO 10143']
DCORED  .G/C3  : DENSITY CORRECTION FROM CNFD LOG
DCORWS  .G/C3  : DENSITY CORRECTION [DCORED]
DENWS   .G/C3  : FORMATION BULK DENSITY [RHOBED]
DPHILSED.V/V   : DENSITY POROSITY LIMESTONE [M=2.71, F=1.0] FROM CNFD LOG [ADJ.TO RHOBED]
DPHISSED.V/V   : DENSITY POROSITY SANDSTONE [M=2.65, F=1.0] FROM CNFD LOG [ADJ.TO RHOBED]
DPOLSWS .V/V   : DENSITY POROSITY LIMESTONE [CALCULATED FROM DENWS, M=2.71, F=1.0]
DRESWS  .OHMM  : DEEP RESISTIVITY [1000/CONDWS, IF ILDED <=4 THEN ILDED]
DTED    .US/F  : DELTA-T FROM BCS LOG [ADJ.TO GRDED]
DTWS    .US/F  : COMPRESSIONAL SONIC [DTED]
GRDED   .GAPI  : GAMMA RAY FROM CNFD LOG
GRSED   .GAPI  : GAMMA RAY FROM SONIC LOG [ADJ.TO GRDED]
GRWS    .GAPI  : GAMMA RAY [GRSED]
ILDED   .OHMM  : DEEP INDUCTION FROM DIL-LAT LOG
ILMED   .OHMM  : MEDIUM INDUCTION FROM DIL-LAT LOG
LL8ED   .OHMM  : LATEROLOG 8 FROM DIL-LAT LOG
MRESWS  .OHMM  : MEDIUM RESISTIVITY [ILMED]
NPHILSED.V/V   : NEUTRON POROSITY LIMESTONE FROM CNFD LOG [ADJ.TO RHOBED]
NPHISSED.V/V   : NEUTRON POROSITY SANDSTONE FROM CNFD LOG [ADJ.TO RHOBED]
NPOLSWS .V/V   : NEUTRON POROSITY LIMESTONE [NPHISSED CONVERTED TO LIMESTONE MATRIX & SPL.TO NPHILSED @ 6299.5']
RHOBED  .G/C3  : FORMATION BULK DENSITY FROM CNFD LOG
SPHIED  .V/V   : SONIC POROSITY [DTM=55.6, DTF=189 & DTM=45.5 @ 6250 TO TD] FROM BCS LOG [ADJ.TO GRDED]
SPOWS   .V/V   : SONIC POROSITY [SPHIED]
SPRED   .MV    : SPONTANEOUS POTENTIAL FROM DIL-LAT LOG
SPWS    .MV    : SPONTANEOUS POTENTIAL [BASELINE 0 MV, SPRED]
SRESWS  .OHMM  : SHALLOW RESISTIVITY [LL8ED]
~Params ----------------------------------------------------
PD  .                     GL : PERMANENT DATUM
EPD .FT                 2942 : ELEVATION PERMANENT DATUM
LMF .                     KB : LOG MEASURED FROM
DAPD.FT                13.15 : FEET ABOVE PERMANENT DATUM
DMF .                     KB : DRILLING MEASURED FROM
EKB .FT              2955.15 : KELLY BUSHING
EGL .FT               2942.0 : GROUND LEVEL
DATE.               02/14/77 : RUN DATE
RUN .                      1 : RUN NUMBER
DD  .FT                10160 : DEPTH DRILLER
DL  .FT                10155 : DEPTH LOGGER
BLI .FT                10149 : BOTTOM LOG INTERVAL
TLI .FT                 1027 : TOP LOG INTERVAL
CBD .FT                 1028 : CASING BOTTOM DRILLER
CBL .FT                 1027 : CASING BOTTOM LOGGER
BS  .IN                 8.75 : BIT SIZE
BSD .FT                10160 : BIT SIZE AT DEPTH
DFT .               GEL CHEM : DRILLING FLUID TYPE
DFD .                    9.0 : DRILLING FLUID DENSITY
DFV .                     93 : DRILLING FLUID VISCOSITY
DFPH.                   11.0 : DRILLING FLUID PH
DFL .                    5.6 : DRILLING FLUID LOSS
RMF .OHMM               2.08 : RESISTIVITY MUD FILTRATE SAMPLE
MFST.DEGF                 70 : MUD FILTRATE SAMPLE TEMPERATURE
RMC .OHMM               0.94 : RESISTIVITY MUD CAKE
MCST.DEGF                 70 : MUD CAKE SAMPLE TEMPERATURE
RMB .OHMM               0.85 : RESISTIVITY MUD AT BHT
TCS .HRS                 3.5 : TIME CIRCULATED STOPPED
LUN .                   7803 : LOGGING UNIT NUMBER
LUL .                     DC : LOGGING UNIT LOCATION
ENGI.                   WATT : RECORDING ENGINEER
WITN.                 NELSON : WITNESSED BY
CLNT.                A2DTECH : CLIENT CODE
ORIG.            2" 5" PRINT : ORIGIN OF DATA
UWI .       100063306217W500 : UNIQUE WELL ID
DICO. A2D Technologies, Inc. : DIGITIZING COMPANY
~Other -----------------------------------------------------
~ASCII -----------------------------------------------------
# ...
 4600.00000    -999.25    9.41880    9.41880  224.83760  224.83760    -999.25    -999.25    -999.25    -999.25    -999.25    -999.25    4.44830   92.94530   92.94530    -999.25  158.03940  158.03940    4.44830    -999.25    4.88650    -999.25    -999.25    -999.25    -999.25    -999.25    0.28260    0.28260  -62.53590   -3.54620    4.88650
 4650.00000    -999.25    9.40510    9.40510  190.55710  190.55710    -999.25    -999.25    -999.25    -999.25    -999.25    -999.25    5.27720   91.56570   91.56570    -999.25  148.35010  148.35010    5.27720    -999.25    6.37400    -999.25    -999.25    -999.25    -999.25    -999.25    0.28490    0.28490  -60.38110   -2.05650    6.37400
 4700.00000    -999.25    9.35450    9.35450  193.48300  193.48300    -999.25    -999.25    -999.25    -999.25    -999.25    -999.25    5.40980   86.55260   86.55260    -999.25  153.58420  153.58420    5.40980    -999.25    6.23020    -999.25    -999.25    -999.25    -999.25    -999.25    0.24140    0.24140  -62.43590   -4.77980    6.23020
 4750.00000    -999.25    9.33050    9.33050  193.14630  193.14630    -999.25    -999.25    -999.25    -999.25    -999.25    -999.25    5.19550   87.51230   87.51230    -999.25  153.18660  153.18660    5.19550    -999.25    6.13680    -999.25    -999.25    -999.25    -999.25    -999.25    0.24530    0.24530  -59.12420   -1.90010    6.13680
 4800.00000    -999.25    9.51230    9.51230  149.10120  149.10120    -999.25    -999.25    -999.25    -999.25    -999.25    -999.25    7.02350   81.98550   81.98550    -999.25  136.04610  136.04610    7.02350    -999.25    7.76930    -999.25    -999.25    -999.25    -999.25    -999.25    0.20190    0.20190  -61.60440   -4.29640    7.76930
 4850.00000    -999.25    9.81370    9.81370  171.29790  171.29790    -999.25    -999.25    -999.25    -999.25    -999.25    -999.25    6.10460   84.25020   84.25020    -999.25  141.51210  141.51210    6.10460    -999.25    7.01130    -999.25    -999.25    -999.25    -999.25    -999.25    0.21620    0.21620  -61.04760   -3.59460    7.01130
 4900.00000    -999.25   10.38540   10.38540  236.95690  236.95690    -999.25    -999.25    -999.25    -999.25    -999.25    -999.25    4.58400   90.70910   90.70910    -999.25  140.72060  140.72060    4.58400    -999.25    5.29880    -999.25    -999.25    -999.25    -999.25    -999.25    0.26670    0.26670  -60.16120   -2.56320    5.29880
 4950.00000    -999.25    9.43570    9.43570    -999.25  195.98990    -999.25    -999.25    -999.25    -999.25    -999.25    -999.25    5.10270   94.26570   94.26570    -999.25  161.79100  161.79100    5.10270    5.14110    6.71750    5.14110    -999.25    -999.25    -999.25    -999.25    0.29490    0.29490  -62.56410   -4.86170    6.71750
 5000.00000   13.58950   10.27910   10.27910    -999.25  428.81650    0.21310    0.21310    2.26380    -999.25    0.23340    0.26090    2.33200  101.41060  101.41060    -999.25  166.20470  166.20470    2.33200    2.45620    3.46840    2.45620    -999.25    0.38570    0.34260    2.26380    0.34730    0.34730  -59.48810   -1.78070    3.46840
 5050.00000   13.53160    9.80000    9.80000    -999.25  363.34570    0.13190    0.13190    2.39860    -999.25    0.15550    0.18210    2.75220   97.17490   97.17490  162.78270  143.15070  143.15070    2.75220    2.79160    3.32950    2.79160    -999.25    0.38510    0.34190    2.39860    0.31650    0.31650  -59.90310   -2.19080    3.32950
 5100.00000   12.68130   10.17220   10.17220    -999.25  264.80950    0.09940    0.09940    2.50540    -999.25    0.09390    0.11960    3.77630   88.16390   88.16390  158.84850  138.59940  138.59940    3.77630    3.83320    4.67280    3.83320    -999.25    0.31770    0.27380    2.50540    0.24820    0.24820  -60.64270   -2.92540    4.67280
 5150.00000   10.10850    9.44660    9.44660    -999.25  178.75660    0.23970    0.23970    2.42500    -999.25    0.14860    0.16670    5.59420   83.01590   83.01590  151.43980  141.97260  141.97260    5.59420    6.06180    8.05010    6.06180    -999.25    0.32890    0.28510    2.42500    0.20920    0.20920  -61.81750   -4.09520    8.05010
 5200.00000   10.26680    9.67620    9.67620    -999.25  115.49190    0.26300    0.26300    2.53920    -999.25    0.07190    0.09990    8.66020   74.91090   74.91090  111.68380  114.63730  114.63730    8.66020    8.88430   10.31180    8.88430    -999.25    0.20930    0.16570    2.53920    0.14770    0.14770  -65.22410   -7.49690   10.31180
 5250.00000   10.44070    9.65550    9.65550    -999.25  161.94070    0.12270    0.12270    2.59370    -999.25    0.03870    0.06800    6.17510   75.05640   75.05640  122.13230  115.74230  115.74230    6.17510    6.72680    9.92210    6.72680    -999.25    0.33520    0.29140    2.59370    0.14860    0.14860  -62.42490   -4.69270    9.92210
 5300.00000   10.72930    9.60520    9.60520    -999.25   98.32450    0.13180    0.13180    2.52580    -999.25    0.07860    0.10770   10.17040   77.80590   77.80590  129.48420  124.46920  124.46920   10.17040    9.71310   13.09570    9.71310    -999.25    0.29630    0.25230    2.52580    0.17080    0.17080  -64.87260   -7.31370   13.09570
 5350.00000   10.22250    9.52190    9.52190    -999.25  102.35000    0.04150    0.04150    2.58040    -999.25    0.04490    0.07580    9.77040   77.26410   77.26410  117.23790  118.34530  118.34530    9.77040   11.62690   12.10960   11.62690    -999.25    0.25540    0.21150    2.58040    0.16620    0.16620  -64.80080   -7.50710   12.10960
 5400.00000   10.76160   10.01820   10.01820    -999.25  107.75980    0.18640    0.18640    2.23770    -999.25    0.28280    0.27620    9.27990   84.99230   84.99230  118.95260  106.14460  106.14460    9.27990    9.48490   20.49630    9.48490    -999.25    0.41310    0.37050    2.23770    0.22040    0.22040  -60.65880   -3.63020   20.49630
 5450.00000   10.18220    9.63010    9.63010    -999.25  112.26600    0.03750    0.03750    2.55370    -999.25    0.05080    0.09140    8.90910   69.45470   69.45470   77.57620   72.90160   72.90160    8.90910    9.31810   12.12090    9.31810    -999.25    0.19560    0.15220    2.55370    0.10650    0.10650  -79.85300  -23.09090   12.12090
 5500.00000    9.86490    9.54650    9.54650    -999.25  122.18520    0.05970    0.05970    2.52400    -999.25    0.07850    0.10880    8.18430   75.41940   75.41940  104.35590  102.38080  102.38080    8.18430    8.72500   12.78150    8.72500    -999.25    0.26110    0.21710    2.52400    0.15180    0.15180  -84.72090  -27.56420   12.78150
 5550.00000   10.45300    9.61390    9.61390    -999.25  108.70390    0.05060    0.05060    2.56090    -999.25    0.06910    0.08720    9.19930   74.90030   74.90030  102.03130   94.33490   94.33490    9.19930    9.52140   11.77150    9.52140    -999.25    0.25080    0.20690    2.56090    0.14590    0.14590  -63.00900   -5.27330   11.77150
 5600.00000   10.23190    9.47020    9.47020    -999.25  133.09020    0.14980    0.14980    2.48040    -999.25    0.10030    0.13430    7.51370   78.45540   78.45540   87.47020   87.21750   87.21750    7.51370    7.80090   10.16950    7.80090    -999.25    0.28350    0.23950    2.48040    0.17450    0.17450  -74.11540  -14.90680   10.16950
 5650.00000   10.06750    9.55880    9.55880    -999.25  125.28190    0.10540    0.10540    2.56960    -999.25    0.05360    0.08210    7.98200   76.21390   76.21390  107.87920  109.86260  109.86260    7.98200    8.68790    9.87110    8.68790    -999.25    0.30000    0.25600    2.56960    0.15740    0.15740  -70.98770  -12.89030    9.87110
 5700.00000    9.67610    9.19140    9.19140    -999.25  116.11320    0.04760    0.04760    2.49740    -999.25    0.09490    0.12430    8.61930   70.11520   70.11520   89.76100   82.54140   82.54140    8.61930    8.77660   13.31700    8.77660    -999.25    0.22820    0.18450    2.49740    0.11090    0.11090  -72.38610  -17.67440   13.31700
 5750.00000    9.57390    9.24250    9.24250    -999.25  993.54200    0.11290    0.11290    2.35310    -999.25    0.19430    0.20870    1.00650   97.85770   97.85770  115.02800  108.25300  108.25300    1.00650    1.00920    4.80070    1.00920    -999.25    0.41890    0.37640    2.35310    0.32520    0.32520  -69.58010  -18.68280    4.80070
