~Version ---------------------------------------------------
VERS.      2.0 : CWLS log ASCII Standard -VERSION 2.0
WRAP.       NO : One line per depth step
CREA. 08/31/17 : LAS Creation Date
~Well ------------------------------------------------------
STRT.FT                       1300.0 : START DEPTH
STOP.FT                      12650.0 : STOP DEPTH
STEP.FT                     50.00000 : STEP LENGTH
NULL.                        -999.25 : NULL VALUE
COMP.           PETROFINA CANADA LTD : COMPANY
WELL. FINA AMOCO HB MAYBERNE 10-11-5 : WELL
FLD .                                : FIELD
LOC .                                : LOCATION
CTRY.                         CANADA : COUNTRY
SRVC.                   Schlumberger : SERVICE COMPANY
DATE.                    03-Apr-1977 : LOGDATE
PROV.                        Alberta : PROVINCE
UWI .               100101105718W500 : UNIQUE WELL ID
SLAT.WGS84                  53.91479 : SURFACE LATITUDE
SLON.WGS84                 -116.5629 : SURFACE LONGITUDE
~Curve Information -----------------------------------------
DEPT    .FT    : Depth Curve
CALDED  .IN    : DIFFERENTIAL CALIPER FROM DENSITY LOG
CALSED  .IN    : CALIPER FROM SONIC LOG [ADJ. TO GRED]
CALWS   .IN    : CALIPER [CALSED]
CONDWS  .MMHO  : CONDCUTIVITY [1000/DRESWS]
DCORED  .G/C3  : DENSITY CORRECTION FROM DENSITY LOG
DCORWS  .G/C3  : DENSITY CORRECTION [DRHOED]
DENWS   .G/C3  : FORMATION BULK DENSITY [RHOBED]
DPHILSED.V/V   : DENSITY POROSITY LIME [M=2.71, F=1.0] FROM DENSITY LOG [ADJ. TO RHOBED]
DPHISSED.V/V   : DENSITY POROSITY SAND [M=2.65, F=1.0] FROM DENSITY LOG [ADJ, TO RHOBED]
DPOLSWS .V/V   : DENSITY POROSITY LIME [CALC FROM DENWS, M=2.71, F=1.0]
DRESWS  .OHMM  : DEEP RESISTIVITY [ILDED]
DTED    .US/F  : DELTA-T FROM SONIC LOG [ADJ. TO GRDED]
DTWS    .US/F  : COMPRESSIONAL SONIC [DTED]
GRDED   .GAPI  : GAMMA RAY FROM DENSITY LOG
GRSED   .GAPI  : GAMMA RAY FROM SONIC LOG
GRWS    .GAPI  : GAMMA RAY [GRSED]
ILDED   .OHMM  : DEEP INDUCTION RESISTIVITY FROM RESISTIVITY LOG
ILMED   .OHMM  : MEDIUM INDUCTION RESISTIVITY FROM RESISTIVITY LOG
LL8ED   .OHMM  : LATEROLOG-8 RESISTIVITY FROM RESISTIVITY LOG
MRESWS  .OHMM  : MEDIUM RESISTIVITY [ILMED]
NPHILSED.V/V   : NEUTRON POROSITY LIME FROM DENSITY LOG [ADJ. TO RHOBED]
NPOLSWS .V/V   : NEUTRON POROSITY LIME [SS CONVERTS TO LS. SPL. TO LS @ 8849']
NPORSSED.V/V   : NEUTRON POROSITY SAND FROM DENSITY LOG [ADJ. TO RHOBED]
RHOBED  .G/C3  : DENSITY FORMATION DENSITY FROM DENSITY LOG
SPHIED  .V/V   : SONIC POROSITY [DTM=189, DTF=55.6] FROM SONIC LOG [ADJ. TO GRDED]
SPRED   .MV    : SPONTANEOUS POTENTIAL FROM RESISTIVITY LOG
SPWS    .MV    : SPONTANEOUS POTENTIAL [BASELINE 0 MV, SPRED]
SRESWS  .OHMM  : SHALLOW RESISTIVITY [LL8ED]
~Params ----------------------------------------------------
PD  .                     GL : PERMANENT DATUM
EPD .FT                 4315 : ELEVATION PERMANENT DATUM
LMF .                     KB : LOG MEASURED FROM
DAPD.FT                   17 : FEET ABOVE PERMANENT DATUM
EKB .FT                 4322 : KELLY BUSHING
EGL .FT                 4315 : GROUND LEVEL
DATE.               04/03/77 : RUN DATE
RUN .                      1 : RUN NUMBER
DD  .FT                12670 : DEPTH DRILLER
DL  .FT                12672 : DEPTH LOGGER
BLI .FT                12669 : BOTTOM LOG INTERVAL
TLI .FT                 1324 : TOP LOG INTERVAL
CBD .FT                 1327 : CASING BOTTOM DRILLER
CBL .FT                 1324 : CASING BOTTOM LOGGER
BS  .IN                 8.75 : BIT SIZE
BSD .FT                12670 : BIT SIZE AT DEPTH
DFT .               GEL CHEM : DRILLING FLUID TYPE
DFD .                      9 : DRILLING FLUID DENSITY
DFV .                    130 : DRILLING FLUID VISCOSITY
DFPH.                     10 : DRILLING FLUID PH
MSS .               FLOWLINE : MUD SAMPLE SOURCE
RMS .OHMM                3.2 : RESISTIVITY MUD SAMPLE
MST .DEGF                 56 : MUD SAMPLE TEMPERATURE
RMF .OHMM               2.94 : RESISTIVITY MUD FILTRATE SAMPLE
MFST.DEGF                 62 : MUD FILTRATE SAMPLE TEMPERATURE
RMB .OHMM               0.88 : RESISTIVITY MUD AT BHT
TCS .HRS                   4 : TIME CIRCULATED STOPPED
LUN .                   7667 : LOGGING UNIT NUMBER
LUL .                    EDM : LOGGING UNIT LOCATION
ENGI.          CAMPBELL BIGG : RECORDING ENGINEER
WITN.         SANDERS DAVIES : WITNESSED BY
CLNT.                A2DTECH : CLIENT CODE
ORIG.            2" 5" PRINT : ORIGIN OF DATA
UWI .       100101105718W500 : UNIQUE WELL ID
DICO. A2D Technologies, Inc. : DIGITIZING COMPANY
~Other -----------------------------------------------------
~ASCII -----------------------------------------------------
# ...
 5050.00000   10.97350    9.49050    9.49050  188.93900    0.20200    0.20200    2.21550    -999.25    0.26210    0.28920    5.29390   86.10410   86.10410   73.21600   84.29420   84.29420    5.29390    5.66770    5.90020    5.66770    -999.25    0.28940    0.33320    2.21550    0.24730  -20.74960   -4.24000    5.90020
 5100.00000    9.57560    9.85300    9.85300  195.75070    0.16040    0.16040    1.92820    -999.25    0.42850    0.45720    5.10860   97.32290   97.32290   74.27030   75.30720   75.30720    5.10860    5.47410    5.54240    5.47410    -999.25    0.46770    0.50930    1.92820    0.32510  -20.02340   -2.40890    5.54240
 5150.00000   10.31260    9.43290    9.43290  164.90490    0.16060    0.16060    1.92980    -999.25    0.42830    0.45630    6.06520   84.66470   84.66470   76.70290   72.71150   72.71150    6.06520    6.64750    6.17520    6.64750    -999.25    0.35920    0.40210    1.92980    0.28470  -20.02030   -1.30640    6.17520
 5200.00000    8.87980    9.28020    9.28020  202.67540    0.17030    0.17030    2.34820    -999.25    0.18490    0.21160    4.93400   89.03110   89.03110   78.02590   73.46240   73.46240    4.93400    5.67800    4.59900    5.67800    -999.25    0.38870    0.43090    2.34820    0.20350  -20.37200   -0.55310    4.59900
 5250.00000   10.51210   10.40710   10.40710  193.45980    0.06810    0.06810    2.38130    -999.25    0.15670    0.19230    5.17430  101.62640  101.62640   66.42930   65.08780   65.08780    5.17430    5.51880    4.73920    5.51880    -999.25    0.39300    0.43510    2.38130    0.32220  -20.79260    0.00000    4.73920
 5300.00000   11.10470   10.03460   10.03460  171.52320    0.05860    0.05860    2.38880    -999.25    0.15390    0.18780    5.83510   91.55140   91.55140   77.89950   79.78650   79.78650    5.83510    6.45530    5.09960    6.45530    -999.25    0.32730    0.37070    2.38880    0.25800  -24.77500   -2.76820    5.09960
 5350.00000   10.51030    9.60660    9.60660  159.33390    0.05440    0.05440    2.42420    -999.25    0.14160    0.16710    6.28460   89.90840   89.90840   80.52010   73.63570   73.63570    6.28460    6.69820    6.05860    6.69820    -999.25    0.34960    0.39260    2.42420    0.26000  -20.99580    0.00000    6.05860
 5400.00000   10.57440    9.92430    9.92430  158.04820    0.03880    0.03880    2.42990    -999.25    0.13540    0.16380    6.35210   87.51370   87.51370   73.19000   65.17230   65.17230    6.35210    7.39310    7.85820    7.39310    -999.25    0.29150    0.33530    2.42990    0.24240  -23.78690   -0.35570    7.85820
 5450.00000   11.02110    9.93160    9.93160  150.48510    0.01840    0.01840    2.43200    -999.25    0.13270    0.16260    6.64550   81.54060   81.54060   79.04470   75.00480   75.00480    6.64550    7.74100    7.46490    7.74100    -999.25    0.30950    0.35310    2.43200    0.19710  -22.88640   -0.29550    7.46490
 5500.00000   10.79790    9.99040    9.99040  101.36800    0.01530    0.01530    2.46170    -999.25    0.12540    0.14520    9.88950   71.92880   71.92880   69.62300   65.27320   65.27320    9.88950   12.29480   14.45520   12.29480    -999.25    0.22470    0.26870    2.46170    0.11720  -27.91820   -6.15930   14.45520
 5550.00000   10.29410    9.81090    9.81090   88.99830    0.02310    0.02310    2.44770    -999.25    0.12750    0.15340   11.23620   78.16790   78.16790   60.42810   62.59630   62.59630   11.23620   13.22970   11.05590   13.22970    -999.25    0.24220    0.28620    2.44770    0.16300  -37.34670  -16.41980   11.05590
 5600.00000   10.91760   10.37980   10.37980  126.09030    0.01900    0.01900    2.50200    -999.25    0.09350    0.12170    7.93300   75.17260   75.17260   66.30060   64.12780   64.12780    7.93300   10.66470   15.14870   10.66470    -999.25    0.19830    0.24210    2.50200    0.13210  -22.51550   -2.42880   15.14870
 5650.00000   11.31990   10.93260   10.93260  101.31020   -0.00640   -0.00640    2.52900    -999.25    0.07620    0.10590    9.87300   76.18330   76.18330   79.44440   75.30090   75.30090    9.87300   12.28760   11.93300   12.28760    -999.25    0.21670    0.26070    2.52900    0.15800  -23.37520   -3.28870   11.93300
 5700.00000   12.17760   11.71140   11.71140  113.91380    0.04320    0.04320    2.49090    -999.25    0.10110    0.12810    8.77860   81.51970   81.51970   93.31210   92.78030   92.78030    8.77860   10.27970   10.94780   10.27970    -999.25    0.27230    0.31620    2.49090    0.19170  -21.25700   -0.81560   10.94780
 5750.00000   13.28950   10.00960   10.00960  124.87390    0.00200    0.00200    2.56910    -999.25    0.05140    0.08240    8.00820   80.70650   80.70650  116.90620  111.66200  111.66200    8.00820    9.31630    8.86490    9.31630    -999.25    0.23270    0.27670    2.56910    0.18590  -22.90640   -2.11360    8.86490
 5800.00000   13.63120   10.08840   10.08840  122.48220    0.02630    0.02630    2.56500    -999.25    0.05380    0.08480    8.16450   81.26880   81.26880  108.49810  114.85010  114.85010    8.16450    9.58680    9.12810    9.58680    -999.25    0.21790    0.26180    2.56500    0.18070  -24.26000   -3.11600    9.12810
 5850.00000   12.64240   11.58330   11.58330  107.02260    0.03460    0.03460    2.54020    -999.25    0.06870    0.09930    9.34390   79.72720   79.72720  110.62460  118.35810  118.35810    9.34390   11.15140   10.85270   11.15140    -999.25    0.22780    0.27170    2.54020    0.18280  -24.42270   -3.85510   10.85270
 5900.00000   11.62450   10.59050   10.59050  126.80430    0.02710    0.02710    2.57620    -999.25    0.04520    0.07820    7.89020   84.13790   84.13790  114.13490  129.85700  129.85700    7.89020    9.17100    9.97520    9.17100    -999.25    0.26980    0.31370    2.57620    0.20980  -21.50310   -1.52040    9.97520
 5950.00000   10.47900    9.95310    9.95310  102.72510    0.03630    0.03630    2.47480    -999.25    0.11250    0.13760    9.73470   88.83530   88.83530  139.32650  146.88490  146.88490    9.73470   11.69100   13.29410   11.69100    -999.25    0.32600    0.36940    2.47480    0.25230  -21.93050   -2.53540   13.29410
 6000.00000   11.29910    9.84140    9.84140   84.81550    0.09900    0.09900    2.45610    -999.25    0.11660    0.14850   11.79030   81.02240   81.02240  111.47560  120.32020  120.32020   11.79030   14.05100   15.02290   14.05100    -999.25    0.27290    0.31680    2.45610    0.17280  -20.58490   -1.77170   15.02290
 6050.00000   12.56700   10.28200   10.28200  111.55150    0.02980    0.02980    2.45060    -999.25    0.12230    0.15170    8.96450   83.55190   83.55190  115.73590  124.78120  124.78120    8.96450   10.11370   10.82130   10.11370    -999.25    0.26550    0.30940    2.45060    0.19680  -20.51870   -2.28730   10.82130
 6100.00000   12.88010    9.94910    9.94910  118.58170    0.04630    0.04630    2.38160    -999.25    0.16700    0.19200    8.43320   82.82720   82.82720  119.18030  122.32300  122.32300    8.43320   10.03440    9.59830   10.03440    -999.25    0.25720    0.30120    2.38160    0.19070  -21.83770   -4.19410    9.59830
 6150.00000   12.85970   10.01870   10.01870  144.15340    0.03420    0.03420    2.41650    -999.25    0.15090    0.17160    6.93720   81.15480   81.15480  114.43710  116.55170  116.55170    6.93720    8.04280    7.86600    8.04280    -999.25    0.26430    0.30830    2.41650    0.19870  -21.32460   -4.06120    7.86600
 6200.00000   12.56910    9.98020    9.98020  123.34840    0.09850    0.09850    2.40290    -999.25    0.15070    0.17960    8.10880   77.95580   77.95580  111.44450  109.59310  109.59310    8.10880    9.46980    8.37110    9.46980    -999.25    0.25060    0.29460    2.40290    0.18300  -22.25460   -4.82630    8.37110
 6250.00000   13.96360   10.14460   10.14460  134.87520    0.18200    0.18200    1.97710    -999.25    0.39800    0.42860    7.41440   80.56080   80.56080  114.40970  115.63500  115.63500    7.41440    8.89480    8.18700    8.89480    -999.25    0.25950    0.30350    1.97710    0.17920  -22.25300   -4.66140    8.18700
