~Version ---------------------------------------------------
VERS.      2.0 : CWLS log ASCII Standard -VERSION 2.0
WRAP.       NO : One line per depth step
CREA. 11/17/17 : LAS Creation Date
~Well ------------------------------------------------------
STRT.FT                            800.0 : START DEPTH
STOP.FT                           7700.0 : STOP DEPTH
STEP.FT                         50.00000 : STEP LENGTH
NULL.                            -999.25 : NULL VALUE
COMP.       CANADIAN HOMESTEAD OILS LTD. : COMPANY
WELL. HOMESTEAD SHELL ENILDA 11-14-71-14 : WELL
FLD .                                    : FIELD
LOC .                                    : LOCATION
CTRY.                             CANADA : COUNTRY
SRVC.             Schlumberger of Canada : SERVICE COMPANY
DATE.                        20-Mar-1970 : LOGDATE
PROV.                            Alberta : PROVINCE
UWI .                   100111407114W500 : UNIQUE WELL ID
SLAT.WGS84                      55.15191 : SURFACE LATITUDE
SLON.WGS84                     -116.0425 : SURFACE LONGITUDE
~Curve Information -----------------------------------------
DEPT    .FT    : Depth Curve
CALSED  .IN    : CALIPER FROM SONIC LOG [ADJ. TO RESISTIVITY LOG]
CALWS   .IN    : CALIPER [CALSED]
CONDWS  .MMHO  : CONDUCTIVITY [1000/DRESWS]
DRESWS  .OHMM  : DEEP RESISTIVITY [ILDED]
DTED    .US/F  : DELTA-T FROM SONIC LOG [ADJ. TO RESISTIVITY LOG]
DTWS    .US/F  : SPONTANEOUS POTENTIAL [BASELINE 0MV, SPRED]
GRSED   .GAPI  : GAMMA RAY FROM SONIC LOG [ADJ. TO RESISTIVITY LOG]
GRWS    .GAPI  : GAMMA RAY [GRSED]
ILDED   .OHMM  : DEEP INDUCTION RESISTIVITY FROM RESISTIVITY LOG
ILMED   .OHMM  : MEDIUM INDUCTION RESISTIVITY FROM RESISTIVITY LOG
LL8ED   .OHMM  : LATEROLOG 8 FROM RESISTIVITY LOG
MRESWS  .OHMM  : MEDIUM RESISTIVITY [ILMED]
SPHILSED.V/V   : SONIC POROSITY LIMESTONE [DTM=47.6,DTF=189(ASSUMED)] FROM SONIC LOG [ADJ. TO RESISTIVITY LOG]
SPHISSED.V/V   : SONIC POROSITY SANDSTONE [DTM=55.6,DTF=189(ASSUMED)] FROM SONIC LOG [ADJ. TO RESISTIVITY LOG]
SPOWS   .V/V   : SONIC POROSITY [SPHISSED SPL. TO SPHILSED @ 3620']
SPRED   .MV    : SPONTANEOUS POTENTIAL FROM RESISTIVITY LOG
SPWS    .MV    : SPONTANEOUS POTENTIAL [BASELINE 0MV, SPRED]
SRESWS  .OHMM  : SHALLOW RESISTIVITY [LL8ED]
~Params ----------------------------------------------------
PD  .                     GL : PERMANENT DATUM
EPD .FT                 2409 : ELEVATION PERMANENT DATUM
LMF .                     KB : LOG MEASURED FROM
DAPD.FT                   13 : FEET ABOVE PERMANENT DATUM
EKB .FT                 2422 : KELLY BUSHING
EGL .FT                 2409 : GROUND LEVEL
DATE.               03/20/70 : RUN DATE
RUN .                      1 : RUN NUMBER
DD  .FT                 7744 : DEPTH DRILLER
DL  .FT                 7741 : DEPTH LOGGER
BLI .FT                 7739 : BOTTOM LOG INTERVAL
TLI .FT                  792 : TOP LOG INTERVAL
CBD .FT                  791 : CASING BOTTOM DRILLER
CBL .FT                  792 : CASING BOTTOM LOGGER
BS  .IN                 8.75 : BIT SIZE
BSD .FT                 7744 : BIT SIZE AT DEPTH
DFT .               GEL CHEM : DRILLING FLUID TYPE
DFD .                    9.8 : DRILLING FLUID DENSITY
DFV .                    120 : DRILLING FLUID VISCOSITY
DFPH.                     10 : DRILLING FLUID PH
DFL .                     10 : DRILLING FLUID LOSS
MSS .               FLOWLINE : MUD SAMPLE SOURCE
RMS .OHMM               1.55 : RESISTIVITY MUD SAMPLE
MST .DEGF                 67 : MUD SAMPLE TEMPERATURE
RMB .OHMM               2.79 : RESISTIVITY MUD AT BHT
TCS .HRS                   4 : TIME CIRCULATED STOPPED
LUN .                   7014 : LOGGING UNIT NUMBER
LUL .                     RD : LOGGING UNIT LOCATION
ENGI.                 HEGSON : RECORDING ENGINEER
WITN.                  FOOTE : WITNESSED BY
CLNT.                A2DTECH : CLIENT CODE
ORIG.            2" 5" PRINT : ORIGIN OF DATA
UWI .       100111407114W500 : UNIQUE WELL ID
DICO. A2D Technologies, Inc. : DIGITIZING COMPANY
~Other -----------------------------------------------------
DI-LL-BHC LOG RUN
~ASCII -----------------------------------------------------
# ...
 6650.00000   14.25100   14.25100  436.07190    2.29320   79.26570   79.26570   72.32230   72.32230    2.29320    2.30770    3.62810    2.30770    0.22850    -999.25    0.22850  -67.32310  -11.95200    3.62810
 6700.00000    9.42560    9.42560  113.57960    8.80440   64.95310   64.95310   51.34150   51.34150    8.80440    8.13820   10.18720    8.13820    0.12710    -999.25    0.12710  -55.83230   -1.52420   10.18720
 6750.00000    9.82250    9.82250  149.81270    6.67500   70.58260   70.58260   60.77390   60.77390    6.67500    5.94900    7.93210    5.94900    0.16500    -999.25    0.16500  -64.10480  -10.83880    7.93210
 6800.00000    9.25940    9.25940  115.54420    8.65470   65.56460   65.56460   55.72610   55.72610    8.65470    7.56640   10.67760    7.56640    0.13100    -999.25    0.13100  -54.78900   -2.53400   10.67760
 6850.00000   11.23340   11.23340  206.71410    4.83760   75.08140   75.08140   61.64170   61.64170    4.83760    4.46220    5.81710    4.46220    0.19540    -999.25    0.19540  -66.63970  -15.40240    5.81710
 6900.00000   10.49770   10.49770  208.47670    4.79670   76.33900   76.33900   67.84400   67.84400    4.79670    4.30230    5.59590    4.30230    0.20670    -999.25    0.20670  -69.86940  -19.64310    5.59590
 6950.00000   13.24990   13.24990  317.07780    3.15380   83.21430   83.21430   74.84210   74.84210    3.15380    2.93890    4.05110    2.93890    0.25370    -999.25    0.25370  -67.91210  -18.70350    4.05110
 7000.00000   12.38180   12.38180  341.99730    2.92400   89.37340   89.37340   92.40260   92.40260    2.92400    2.69770    3.66440    2.69770    0.29720    -999.25    0.29720  -70.80760  -22.61000    3.66440
 7050.00000    9.23100    9.23100  101.35510    9.86630   72.76390   72.76390  127.41530  127.41530    9.86630    9.01680   12.68740    9.01680    0.18210    -999.25    0.18210  -50.45580   -3.26920   12.68740
 7100.00000    9.11450    9.11450   64.14120   15.59060   60.67700   60.67700   43.56310   43.56310   15.59060   13.30510   18.16280   13.30510    0.09040    -999.25    0.09040  -50.51340   -3.77910   18.16280
 7150.00000   14.38410   14.38410  321.19230    3.11340   87.38730   87.38730   83.45960   83.45960    3.11340    2.95450    4.08080    2.95450    0.26650    -999.25    0.26650  -73.91730  -27.37570    4.08080
 7200.00000    9.37860    9.37860   34.99210   28.57790   62.71690   62.71690   62.35020   62.35020   28.57790   24.05650   63.52520   24.05650    0.10250    -999.25    0.10250  -49.23790   -2.89020   63.52520
 7250.00000    9.60180    9.60180  126.18460    7.92490   66.41000   66.41000   53.94700   53.94700    7.92490    7.00400    8.46780    7.00400    0.13630    -999.25    0.13630  -55.04660   -8.89150    8.46780
 7300.00000    9.96210    9.96210   80.40330   12.43730   58.35870   58.35870   44.83250   44.83250   12.43730   10.18770   16.05080   10.18770    0.07640    -999.25    0.07640  -50.75150   -4.78910   16.05080
 7350.00000    9.23000    9.23000  134.34900    7.44330   72.32760   72.32760   53.51110   53.51110    7.44330    6.83410    7.18440    6.83410    0.17530    -999.25    0.17530  -54.49200   -8.72350    7.18440
 7400.00000    9.10520    9.10520   77.64820   12.87860   57.65780   57.65780   48.25240   48.25240   12.87860   10.73780   23.78500   10.73780    0.07560    -999.25    0.07560  -50.40130   -4.82540   23.78500
 7450.00000    9.02790    9.02790  120.00050    8.33330   66.73710   66.73710   63.38640   63.38640    8.33330    7.22400   10.07540    7.22400    0.13790    -999.25    0.13790  -47.42390   -2.04190   10.07540
 7500.00000    9.12190    9.12190  133.00880    7.51830   69.22540   69.22540   70.62450   70.62450    7.51830    6.36480    9.28800    6.36480    0.15630    -999.25    0.15630  -47.82010   -2.63080    9.28800
 7550.00000    9.08290    9.08290   89.59770   11.16100   63.64920   63.64920   53.64790   53.64790   11.16100    9.81790   13.55310    9.81790    0.11480    -999.25    0.11480  -48.78420   -3.78750   13.55310
 7600.00000    8.92260    8.92260   19.05750   52.47290   53.02730   53.02730   16.19590   16.19590   52.47290   46.25900   92.64500   46.25900    0.03740    -999.25    0.03740 -104.05920  -59.10940   92.64500
 7650.00000    8.94540    8.94540   12.50670   79.95740   50.41100   50.41100   33.84330   33.84330   79.95740   80.85720  134.86650   80.85720    0.01800    -999.25    0.01800  -87.22620  -42.27640  134.86650
 7700.00000    8.85540    8.85540 1190.19280    0.84020   72.98410   72.98410  166.64000  166.64000    0.84020    0.61230    2.16230    0.61230    0.18330    -999.25    0.18330 -141.04540  -96.09560    2.16230
