~Version ---------------------------------------------------
VERS.      2.0 : CWLS log ASCII Standard -VERSION 2.0
WRAP.       NO : One line per depth step
CREA. 12/14/17 : LAS Creation Date
~Well ------------------------------------------------------
STRT.FT                          1300.0 : START DEPTH
STOP.FT                         13000.0 : STOP DEPTH
STEP.FT                        50.00000 : STEP LENGTH
NULL.                           -999.25 : NULL VALUE
COMP.            AMERADA PETROLEUM CORP : COMPANY
WELL. AMERADA HB CR DR SUNDRE 4-16-33-5 : WELL
FLD .                           WILDCAL : FIELD
LOC .                                   : LOCATION
CTRY.                            CANADA : COUNTRY
SRVC.                      Schlumberger : SERVICE COMPANY
DATE.                       14-Sep-1963 : LOGDATE
PROV.                           Alberta : PROVINCE
UWI .                  100041603305W500 : UNIQUE WELL ID
SLAT.WGS84                     51.82557 : SURFACE LATITUDE
SLON.WGS84                    -114.6593 : SURFACE LONGITUDE
~Curve Information -----------------------------------------
DEPT  .FT    : Depth Curve
CALSED.IN    : CALIPER FROM SONIC LOG, DEPTH ADJUSTED WITH [ILDED]
CALWS .IN    : CALIPER [CALSED]
CILDED.MMHO  : CONDUCTIVITY FROM RESISTIVITY LOG
CONDWS.MMHO  : CONDUCTIVITY [1000/DRESWS]
DRESWS.OHMM  : DEEP RESISTIVITY [ILDED] IF DRESWS<1;1000/CONDWS
DTED  .US/F  : DELTA TIME FROM SONIC LOG, DEPTH ADJUSTED WITH [ILDED]
DTWS  .US/F  : DELTA TIME [DTED]
GRSED .GAPI  : GAMMA RAY FROM SONIC LOG, DEPTH ADJUSTED WITH [ILDED]
GRWS  .GAPI  : GAMMA RAY [GRSED]
ILDED .OHMM  : INDUCTION LOG DEEP RESISTIVITY
SNED  .OHMM  : 16 INCH SHORT NORMAL RESISTIVITY FROM IEL
SPRED .MV    : SPONTANEOUS POTENTIAL FROM RESISTIVITY LOG
SPWS  .MV    : SPONTANEOUS POTENTIAL [BASELINE 0 MV] [SPRED]
SRESWS.OHMM  : SHALLOW RESISTIVITY [SNED]
~Params ----------------------------------------------------
PD  .                     GL : PERMANENT DATUM
EPD .FT                 3748 : ELEVATION PERMANENT DATUM
LMF .                     KB : LOG MEASURED FROM
DAPD.FT                   15 : FEET ABOVE PERMANENT DATUM
EKB .FT                 3763 : KELLY BUSHING
EGL .FT                 3748 : GROUND LEVEL
DATE.               09/14/63 : RUN DATE
RUN .                      3 : RUN NUMBER
DD  .FT                13033 : DEPTH DRILLER
DL  .FT                13033 : DEPTH LOGGER
BLI .FT                13032 : BOTTOM LOG INTERVAL
TLI .FT                12190 : TOP LOG INTERVAL
BS  .IN                 8.75 : BIT SIZE
BSD .FT                13033 : BIT SIZE AT DEPTH
DFT .                    GEL : DRILLING FLUID TYPE
DFD .                     10 : DRILLING FLUID DENSITY
DFV .                    255 : DRILLING FLUID VISCOSITY
DFPH.                     11 : DRILLING FLUID PH
DFL .                    5.8 : DRILLING FLUID LOSS
RMS .OHMM               1.42 : RESISTIVITY MUD SAMPLE
MST .DEGF                 56 : MUD SAMPLE TEMPERATURE
RMF .OHMM               0.91 : RESISTIVITY MUD FILTRATE SAMPLE
MFST.DEGF                 57 : MUD FILTRATE SAMPLE TEMPERATURE
RMC .OHMM               1.56 : RESISTIVITY MUD CAKE
MCST.DEGF                 58 : MUD CAKE SAMPLE TEMPERATURE
RMB .OHMM               0.42 : RESISTIVITY MUD AT BHT
TCS .HRS                   2 : TIME CIRCULATED STOPPED
LUN .                   4508 : LOGGING UNIT NUMBER
LUL .                     RD : LOGGING UNIT LOCATION
ENGI.                   LYNN : RECORDING ENGINEER
WITN.                MERRETT : WITNESSED BY
CLNT.                A2DTECH : CLIENT CODE
ORIG.            2" 5" PRINT : ORIGIN OF DATA
UWI .       100041603305W500 : UNIQUE WELL ID
DICO. A2D Technologies, Inc. : DIGITIZING COMPANY
~Other -----------------------------------------------------
~ASCII -----------------------------------------------------
# ...
 6200.00000   12.28430   12.28430  113.52700  111.68570    8.95370   87.97760   87.97760   90.64090   90.64090    8.95370   10.98740  -20.03620   -7.80000   10.98740
 6250.00000    -999.25    -999.25  104.99940  103.05670    9.70340    -999.25    -999.25    -999.25    -999.25    9.70340   11.45990  -19.85850   -7.81510   11.45990
 6300.00000    -999.25    -999.25   88.61050   85.47300   11.69960    -999.25    -999.25    -999.25    -999.25   11.69960   14.25910  -23.24270  -11.39200   14.25910
 6350.00000    -999.25    -999.25   67.90710   66.67510   14.99810    -999.25    -999.25    -999.25    -999.25   14.99810   17.15370  -24.08910  -12.43110   17.15370
 6400.00000    -999.25    -999.25   66.77090   65.12240   15.35570    -999.25    -999.25    -999.25    -999.25   15.35570   16.96660  -22.69810  -11.23280   16.96660
 6450.00000    -999.25    -999.25   63.01510   60.74190   16.46310    -999.25    -999.25    -999.25    -999.25   16.46310   17.96350  -21.38950  -10.11690   17.96350
 6500.00000    -999.25    -999.25   68.98180   68.19930   14.66290    -999.25    -999.25    -999.25    -999.25   14.66290   16.51050  -23.18570  -12.10580   16.51050
 6550.00000    -999.25    -999.25   59.28200   59.59900   16.77880    -999.25    -999.25    -999.25    -999.25   16.77880   18.99410  -22.26330  -11.37620   18.99410
 6600.00000    -999.25    -999.25   66.12530   66.33240   15.07560    -999.25    -999.25    -999.25    -999.25   15.07560   18.23540  -23.34510  -12.65070   18.23540
 6650.00000    -999.25    -999.25   63.09610   63.96810   15.63280    -999.25    -999.25    -999.25    -999.25   15.63280   20.57180  -20.86290  -10.36120   20.57180
 6700.00000    -999.25    -999.25   44.96470   43.84290   22.80870    -999.25    -999.25    -999.25    -999.25   22.80870   28.13090  -20.93050  -10.62150   28.13090
 6750.00000    -999.25    -999.25   59.05140   56.63090   17.65820    -999.25    -999.25    -999.25    -999.25   17.65820   23.05720  -20.98040  -10.86410   23.05720
 6800.00000    -999.25    -999.25   67.64540   66.70090   14.99230    -999.25    -999.25    -999.25    -999.25   14.99230   18.70600  -21.33720  -11.41360   18.70600
 6850.00000    -999.25    -999.25  105.08890  102.51570    9.75460    -999.25    -999.25    -999.25    -999.25    9.75460   12.55800  -22.09600  -12.36520   12.55800
 6900.00000    -999.25    -999.25   85.23070   82.90910   12.06140    -999.25    -999.25    -999.25    -999.25   12.06140   14.04970  -22.72710  -13.18900   14.04970
 6950.00000    -999.25    -999.25   99.78980   95.08780   10.51660    -999.25    -999.25    -999.25    -999.25   10.51660   12.21880  -24.48800  -15.14260   12.21880
 7000.00000    -999.25    -999.25   83.43810   81.38290   12.28760    -999.25    -999.25    -999.25    -999.25   12.28760   14.29090  -25.14280  -15.99010   14.29090
 7050.00000    -999.25    -999.25  102.93980  101.47960    9.85420    -999.25    -999.25    -999.25    -999.25    9.85420   11.51140  -23.83160  -14.87160   11.51140
 7100.00000    -999.25    -999.25   96.41630   93.64520   10.67860    -999.25    -999.25    -999.25    -999.25   10.67860   12.17910  -21.49190  -12.72460   12.17910
 7150.00000    -999.25    -999.25   72.25740   70.49800   14.18480    -999.25    -999.25    -999.25    -999.25   14.18480   16.23410  -22.37880  -13.80420   16.23410
 7200.00000    -999.25    -999.25   77.11170   75.22250   13.29390    -999.25    -999.25    -999.25    -999.25   13.29390   15.48910  -21.07280  -12.69100   15.48910
 7250.00000    -999.25    -999.25  118.60510  116.24390    8.60260    -999.25    -999.25    -999.25    -999.25    8.60260   10.96140  -22.38940  -14.20030   10.96140
 7300.00000    -999.25    -999.25  140.92180  136.08770    7.34820    -999.25    -999.25    -999.25    -999.25    7.34820    9.02890  -25.28130  -17.28490    9.02890
 7350.00000   11.92300   11.92300  116.78950  116.17780    8.60750    -999.25    -999.25    -999.25    -999.25    8.60750   10.10070  -27.24090  -19.43720   10.10070
 7400.00000   12.29850   12.29850  103.37190  102.15970    9.78860   80.60720   80.60720  122.85400  122.85400    9.78860   11.29880  -30.88420  -23.27320   11.29880
 7450.00000   11.02710   11.02710   84.52350   82.92080   12.05970   68.18440   68.18440  120.26470  120.26470   12.05970   13.50350  -30.06380  -22.64550   13.50350
 7500.00000   10.72060   10.72060   51.98270   50.22650   19.90980   71.17960   71.17960  106.36320  106.36320   19.90980   22.88930  -30.43450  -23.20900   22.88930
 7550.00000   11.06980   11.06980   74.77970   72.92780   13.71220   75.90540   75.90540  117.45150  117.45150   13.71220   15.63950  -28.01700  -20.98420   15.63950
 7600.00000   11.65540   11.65540  101.09080   97.40040   10.26690    -999.25    -999.25    -999.25    -999.25   10.26690   11.90180  -29.39300  -22.55290   11.90180
 7650.00000    -999.25    -999.25   84.67190   82.20780   12.16430    -999.25    -999.25    -999.25    -999.25   12.16430   14.30000  -29.36820  -22.72080   14.30000
 7700.00000    -999.25    -999.25   84.67660   81.31270   12.29820    -999.25    -999.25    -999.25    -999.25   12.29820   13.98620  -29.46310  -23.00840   13.98620
 7750.00000    -999.25    -999.25   88.81780   87.36980   11.44560    -999.25    -999.25    -999.25    -999.25   11.44560   13.66460  -28.76100  -22.49900   13.66460
 7800.00000    -999.25    -999.25   92.85930   89.75610   11.14130    -999.25    -999.25    -999.25    -999.25   11.14130   13.42240  -28.46190  -22.39270   13.42240
 7850.00000    -999.25    -999.25   92.56870   89.48390   11.17520    -999.25    -999.25    -999.25    -999.25   11.17520   13.27760  -27.38110  -21.50460   13.27760
 7900.00000    -999.25    -999.25   80.70340   77.54520   12.89570    -999.25    -999.25    -999.25    -999.25   12.89570   16.52750  -24.35660  -18.67280   16.52750
 7950.00000    -999.25    -999.25   46.28460   42.22900   23.68040    -999.25    -999.25    -999.25    -999.25   23.68040   30.25640  -21.01060  -15.51950   30.25640
 8000.00000    -999.25    -999.25   38.81440   35.06270   28.52030    -999.25    -999.25    -999.25    -999.25   28.52030   34.26090  -26.73750  -21.43910   34.26090
 8050.00000    -999.25    -999.25   46.41870   42.82510   23.35080    -999.25    -999.25    -999.25    -999.25   23.35080   28.24250  -25.07090  -19.96520   28.24250
 8100.00000    -999.25    -999.25   55.42640   53.74730   18.60560    -999.25    -999.25    -999.25    -999.25   18.60560   27.46410  -25.13640  -20.22340   27.46410
 8150.00000    -999.25    -999.25   87.52260   85.08320   11.75320    -999.25    -999.25    -999.25    -999.25   11.75320   14.99000  -25.23440  -20.51420   14.99000
 8200.00000    -999.25    -999.25   71.17070   71.14650   14.05550    -999.25    -999.25    -999.25    -999.25   14.05550   18.52490  -23.11710  -18.58960   18.52490
 8250.00000    -999.25    -999.25   48.56320   45.75210   21.85690    -999.25    -999.25    -999.25    -999.25   21.85690   23.56720  -23.41820  -19.08340   23.56720
 8300.00000    -999.25    -999.25   58.41830   54.48790   18.35270    -999.25    -999.25    -999.25    -999.25   18.35270   20.37380  -22.67600  -18.53390   20.37380
 8350.00000   12.20540   12.20540   61.46030   60.57520   16.50840   85.88540   85.88540  166.67670  166.67670   16.50840   20.98220  -20.16280  -16.21340   20.98220
 8400.00000   11.72420   11.72420   85.45510   85.00290   11.76430   75.77470   75.77470  165.09870  165.09870   11.76430   18.27610  -20.14270  -16.38600   18.27610
 8450.00000   11.10150   11.10150   18.97550   14.21400   70.35320   75.90240   75.90240  110.85800  110.85800   70.35320   62.50150  -37.94050  -34.37660   62.50150
 8500.00000   10.78350   10.78350   27.05180   21.20140   47.16660   61.53990   61.53990  121.94220  121.94220   47.16660   39.14270  -16.49490  -13.12370   39.14270
 8550.00000   11.04220   11.04220   27.77400   23.87150   41.89100   65.32210   65.32210  126.57270  126.57270   41.89100   44.43850  -14.35260  -11.17410   44.43850
 8600.00000   10.98810   10.98810   40.81590   32.55230   30.71980   55.37900   55.37900  114.61220  114.61220   30.71980   29.79070  -15.92510  -12.93930   29.79070
