~Version ---------------------------------------------------
VERS.      2.0 : CWLS log ASCII Standard -VERSION 2.0
WRAP.       NO : One line per depth step
CREA. 11/10/17 : LAS Creation Date
~Well ------------------------------------------------------
STRT.FT                        1050.0 : START DEPTH
STOP.FT                       11950.0 : STOP DEPTH
STEP.FT                      50.00000 : STEP LENGTH
NULL.                         -999.25 : NULL VALUE
COMP.        CHEVRON STANDARD LIMITED : COMPANY
WELL. SOBC AMERADA N SIMON 11-6-67-26 : WELL
FLD .                                 : FIELD
LOC .                                 : LOCATION
CTRY.                          CANADA : COUNTRY
SRVC.          Schlumberger of Canada : SERVICE COMPANY
DATE.                     28-Mar-1967 : LOGDATE
PROV.                         Alberta : PROVINCE
UWI .                100110606726W500 : UNIQUE WELL ID
SLAT.WGS84                   54.77215 : SURFACE LATITUDE
SLON.WGS84                  -117.9555 : SURFACE LONGITUDE
~Curve Information -----------------------------------------
DEPT  .FT    : Depth Curve
CALSED.IN    : CALIPER FROM BHC LOG [DEPTH ADJ. TO LL8ED]
CALWS .IN    : CALIPER [TOP MCALED 8838' CALSED TD]
CONDWS.MMHO  : CONDUCTIVITY [1000/DRESWS]
DRESWS.OHMM  : DEEP RESISTIVITY [ILDED]
DTED  .US/F  : DELTA TIME FROM BHC LOG  [DEPTH ADJ. TO LL8ED]
DTWS  .US/F  : DELTA TIME [DTED]
GRSED .GAPI  : GAMMA RAY FROM BHC LOG [DEPTH ADJ. TO LL8ED]
GRWS  .GAPI  : GAMMA RAY [GRSED]
ILDED .OHMM  : INDUCTION LOG DEEP RESISTIVITY FROM DIL LOG
ILMED .OHMM  : INDUCTION LOG MEDIUM RESISTIVITY FROM DIL LOG
LL8ED .OHMM  : LATEROLOG 8 RESISTIVITY FROM DIL LOG
MCALED.IN    : CALIPER MICROLOG FROM MLC LOG [DEPTH ADJ. TO CALSED]
MRESWS.OHMM  : MEDIUM RESISTIVITY [ILMED]
SPRED .MV    : SPONTANEOUS POTENTIAL FROM DIL LOG
SRESWS.OHMM  : SHALLOW RESISTIVITY [LL8ED]
~Params ----------------------------------------------------
PD  .                     GL : PERMANENT DATUM
EPD .FT               2588.1 : ELEVATION PERMANENT DATUM
LMF .                     KB : LOG MEASURED FROM
DAPD.FT                 15.9 : FEET ABOVE PERMANENT DATUM
DMF .                     KB : DRILLING MEASURED FROM
EKB .FT               2604.0 : KELLY BUSHING
EGL .FT               2588.1 : GROUND LEVEL
DATE.               03/28/67 : RUN DATE
RUN .                      2 : RUN NUMBER
DD  .FT                11983 : DEPTH DRILLER
DL  .FT                11980 : DEPTH LOGGER
BLI .FT                11976 : BOTTOM LOG INTERVAL
TLI .FT                 8850 : TOP LOG INTERVAL
CBD .FT                 8849 : CASING BOTTOM DRILLER
CBL .FT                 8850 : CASING BOTTOM LOGGER
BS  .IN                  8.5 : BIT SIZE
BSD .FT                11983 : BIT SIZE AT DEPTH
DFT .               GEL CHEM : DRILLING FLUID TYPE
DFD .                   11.6 : DRILLING FLUID DENSITY
DFV .                     70 : DRILLING FLUID VISCOSITY
DFPH.                   11.0 : DRILLING FLUID PH
MSS .                   CIRC : MUD SAMPLE SOURCE
RMS .OHMM               0.78 : RESISTIVITY MUD SAMPLE
MST .DEGF                 58 : MUD SAMPLE TEMPERATURE
RMF .OHMM               0.47 : RESISTIVITY MUD FILTRATE SAMPLE
MFST.DEGF                 66 : MUD FILTRATE SAMPLE TEMPERATURE
RMC .OHMM               0.63 : RESISTIVITY MUD CAKE
MCST.DEGF                 62 : MUD CAKE SAMPLE TEMPERATURE
RMB .OHMM               0.25 : RESISTIVITY MUD AT BHT
TCS .HRS                 2.5 : TIME CIRCULATED STOPPED
LUN .                   2547 : LOGGING UNIT NUMBER
LUL .                    EDM : LOGGING UNIT LOCATION
ENGI.                   BIGG : RECORDING ENGINEER
WITN.                HOVDEBO : WITNESSED BY
CLNT.                A2DTECH : CLIENT CODE
ORIG.            2" 5" PRINT : ORIGIN OF DATA
UWI .       100110606726W500 : UNIQUE WELL ID
DICO. A2D Technologies, Inc. : DIGITIZING COMPANY
~Other -----------------------------------------------------
~ASCII -----------------------------------------------------
# ...
 10250.00000    9.82670    9.82670   19.35900   51.65550   51.17320   51.17320    7.16820    7.16820   51.65550   63.21290  242.84520   10.63350   63.21290 -173.68880  242.84520
 10300.00000    9.77290    9.77290    8.50160  117.62550   50.06400   50.06400   10.61190   10.61190  117.62550  233.83580  269.29610    9.99270  233.83580 -127.70560  269.29610
 10350.00000    9.09300    9.09300   61.24490   16.32790   64.45890   64.45890   57.65320   57.65320   16.32790   31.34270   61.36540    9.36230   31.34270  -90.33850   61.36540
 10400.00000   10.42310   10.42310   77.89740   12.83740  107.49660  107.49660   58.28560   58.28560   12.83740    3.36520 1116.76050   11.33620    3.36520 -105.55370 1116.76050
 10450.00000    9.05460    9.05460   11.23010   89.04610   51.16080   51.16080   30.70710   30.70710   89.04610  395.28470  545.67660    9.19180  395.28470 -105.42010  545.67660
 10500.00000    9.16560    9.16560    8.16950  122.40590   49.74010   49.74010   17.23100   17.23100  122.40590 2970.51150 2893.14210    9.29090 2970.51150 -113.86470 2893.14210
 10550.00000    9.25620    9.25620    9.04880  110.51220   50.36020   50.36020   15.37680   15.37680  110.51220  227.52940 2988.17920    9.39400  227.52940 -132.55640 2988.17920
 10600.00000    9.39320    9.39320    8.43140  118.60430   49.85500   49.85500    8.28720    8.28720  118.60430  478.66560  437.03120    9.40150  478.66560 -134.40050  437.03120
 10650.00000    9.04570    9.04570   12.43960   80.38870   50.62760   50.62760   30.55770   30.55770   80.38870  298.93870  587.01940    9.20030  298.93870 -124.58140  587.01940
 10700.00000    9.56330    9.56330    8.06400  124.00800   50.99250   50.99250   16.85310   16.85310  124.00800  465.76750  353.70480   10.23400  465.76750 -132.70390  353.70480
 10750.00000    9.02680    9.02680   10.49210   95.30970   54.34550   54.34550   26.34160   26.34160   95.30970  940.76350  640.15430    9.23950  940.76350 -108.48150  640.15430
 10800.00000    9.06090    9.06090   23.49970   42.55370   55.49790   55.49790   27.77140   27.77140   42.55370   74.25540  837.62050    9.24690   74.25540  -71.99880  837.62050
 10850.00000    9.05820    9.05820   27.54650   36.30230   54.57710   54.57710   29.26810   29.26810   36.30230   59.57670   94.70480    9.21470   59.57670  -54.77520   94.70480
 10900.00000   13.03340   13.03340  419.02370    2.38650   85.83440   85.83440   68.86710   68.86710    2.38650    2.53690    1.37040   11.42890    2.53690  -47.47050    1.37040
 10950.00000   11.15880   11.15880  333.67260    2.99700   80.03810   80.03810   66.68870   66.68870    2.99700    2.89670    1.66120   10.66570    2.89670  -65.96150    1.66120
 11000.00000   10.17320   10.17320  231.04830    4.32810   71.87350   71.87350   58.75890   58.75890    4.32810    3.94040    2.49430   10.19680    3.94040 -124.97950    2.49430
 11050.00000   12.68850   12.68850  365.65750    2.73480   83.25270   83.25270   60.21640   60.21640    2.73480    2.60740    1.58280   11.91990    2.60740 -206.52720    1.58280
 11100.00000    9.24110    9.24110  215.28990    4.64490   66.70700   66.70700   48.29300   48.29300    4.64490    5.54310    4.53200    9.75070    5.54310 -210.32950    4.53200
 11150.00000    9.13950    9.13950  156.32330    6.39700   64.81050   64.81050   55.99110   55.99110    6.39700    6.67990    6.16990    9.58920    6.67990 -208.48340    6.16990
 11200.00000    9.23740    9.23740  255.78060    3.90960   73.26220   73.26220   74.19990   74.19990    3.90960    4.31050    3.24150    9.67100    4.31050 -160.24730    3.24150
 11250.00000    9.27050    9.27050  248.76240    4.01990   73.39300   73.39300   70.69730   70.69730    4.01990    4.40350    3.13440    9.68500    4.40350  -94.39500    3.13440
 11300.00000    9.12530    9.12530  278.41190    3.59180   75.63660   75.63660   67.88630   67.88630    3.59180    3.81050    3.00230    9.68620    3.81050  -20.80910    3.00230
 11350.00000    9.01990    9.01990  202.78220    4.93140   69.95060   69.95060   63.47930   63.47930    4.93140    5.19660    4.18300    9.58530    5.19660  -10.78820    4.18300
 11400.00000    9.22210    9.22210  228.00340    4.38590   73.57600   73.57600   68.83990   68.83990    4.38590    4.65990    3.69540    9.65320    4.65990  -49.47180    3.69540
 11450.00000    9.50890    9.50890  310.01500    3.22560   81.37960   81.37960   89.84760   89.84760    3.22560    3.35890    2.17060    9.94060    3.35890  -97.97370    2.17060
 11500.00000    9.05620    9.05620   55.03790   18.16930   79.83310   79.83310  115.45560  115.45560   18.16930   21.02630   24.90290    9.59610   21.02630  -71.36010   24.90290
 11550.00000    9.40950    9.40950  242.11900    4.13020   81.76550   81.76550   83.97340   83.97340    4.13020    4.33980    3.10820   10.03270    4.33980 -118.47010    3.10820
 11600.00000    9.19220    9.19220   84.69120   11.80760   59.71620   59.71620   39.32960   39.32960   11.80760   12.19950   12.91880    9.60100   12.19950 -118.03210   12.91880
 11650.00000    9.81150    9.81150  200.95250    4.97630   69.84450   69.84450   57.09200   57.09200    4.97630    5.32470    4.99920   10.65070    5.32470 -193.40530    4.99920
 11700.00000    9.14090    9.14090   20.37160   49.08780   54.58980   54.58980   25.37600   25.37600   49.08780   75.58430   95.05330    9.68210   75.58430 -158.64680   95.05330
 11750.00000    9.19640    9.19640   37.82430   26.43800   58.78800   58.78800   41.00760   41.00760   26.43800   30.12930   46.43270    9.70830   30.12930  -78.28590   46.43270
 11800.00000    9.03290    9.03290    8.54300  117.05490   49.19830   49.19830   21.81620   21.81620  117.05490  267.26540 2995.25810    9.68710  267.26540  -95.37380 2995.25810
 11850.00000    9.18680    9.18680   10.77290   92.82580   51.34680   51.34680   16.60220   16.60220   92.82580  219.90770  405.47490    9.60010  219.90770  -92.08080  405.47490
 11900.00000    8.81180    8.81180   23.46950   42.60850   55.80330   55.80330   46.06130   46.06130   42.60850   59.66000  174.62640    9.62160   59.66000  -87.90770  174.62640
 11950.00000    9.03070    9.03070   33.25620   30.06960   58.88430   58.88430    -999.25    -999.25   30.06960   43.22350   75.22930    9.55760   43.22350 -136.10330   75.22930
