~Version ---------------------------------------------------
VERS.      2.0 : CWLS log ASCII Standard -VERSION 2.0
WRAP.       NO : One line per depth step
CREA. 11/20/17 : LAS Creation Date
~Well ------------------------------------------------------
STRT.FT                          1100.0 : START DEPTH
STOP.FT                         10200.0 : STOP DEPTH
STEP.FT                        50.00000 : STEP LENGTH
NULL.                           -999.25 : NULL VALUE
COMP.          CHEVRON STANDARD LIMITED : COMPANY
WELL. CHEVRON GULF E KAYBOB 12-25-62-18 : WELL
FLD .                                   : FIELD
LOC .                                   : LOCATION
CTRY.                            CANADA : COUNTRY
SRVC.                      Schlumberger : SERVICE COMPANY
DATE.                       18-Aug-1973 : LOGDATE
PROV.                           Alberta : PROVINCE
UWI .                  100122506218W500 : UNIQUE WELL ID
SLAT.WGS84                     54.39495 : SURFACE LATITUDE
SLON.WGS84                    -116.5696 : SURFACE LONGITUDE
~Curve Information -----------------------------------------
DEPT  .FT    : Depth Curve
CALSED.IN    : CALIPER FROM SONIC LOG [ADJ. TO RESISTIVITY LOG]
CALWS .IN    : CALIPER [CALSED]
CONDWS.MMHO  : CONDUCTIVITY [1000/DRESWS]
DRESWS.OHMM  : DEEP RESISTIVITY [ILDED]
DTED  .US/F  : DELTA TIME FROM SONIC LOG [ADJ. TO RESISTIVITY LOG]
DTWS  .US/F  : COMPRESSIONAL SONIC [DTED]
GRSED .GAPI  : GAMMA RAY FROM SONIC LOG ADJ. TO RESISTIVITY LOG]
GRWS  .GAPI  : GAMMA RAY [GRSED]
ILDED .OHMM  : DEEP INDUCTION LOG RESISTIVITY FROM RESISTIVITY LOG
ILMED .OHMM  : MEDIUM INDUCTION LOG MEDIUM RESISTIVITY FROM RESISTIVITY LOG
LL8ED .OHMM  : 8 INCH LATEROLOG RESISTIVITY FROM RESISTIVITY LOG
MRESWS.OHMM  : MEDIUM RESISTIVITY [ILMED]
SPRED .MV    : SPONTANEOUS POTENTIAL FROM RESISTIVITY LOG
SPWS  .MV    : SPONTANEOUS POTENTIAL [BASELINE 0 MV SPRED]
SRESWS.OHMM  : SHALLOW RESISTIVITY [LL8ED]
~Params ----------------------------------------------------
PD  .                     GL : PERMANENT DATUM
EPD .FT               2847.5 : ELEVATION PERMANENT DATUM
LMF .                     KB : LOG MEASURED FROM
DAPD.FT                   14 : FEET ABOVE PERMANENT DATUM
EKB .FT               2861.5 : KELLY BUSHING
EGL .FT               2847.5 : GROUND LEVEL
DATE.               08/18/73 : RUN DATE
RUN .                      1 : RUN NUMBER
DD  .FT                10235 : DEPTH DRILLER
DL  .FT                10238 : DEPTH LOGGER
BLI .FT                10232 : BOTTOM LOG INTERVAL
TLI .FT                 1119 : TOP LOG INTERVAL
CBD .FT                 1119 : CASING BOTTOM DRILLER
CBL .FT                 1119 : CASING BOTTOM LOGGER
BS  .IN                 8.75 : BIT SIZE
BSD .FT                10235 : BIT SIZE AT DEPTH
DFT .              BENEX GEL : DRILLING FLUID TYPE
DFD .                    9.3 : DRILLING FLUID DENSITY
DFV .                    100 : DRILLING FLUID VISCOSITY
DFPH.                      9 : DRILLING FLUID PH
DFL .                    8.4 : DRILLING FLUID LOSS
MSS .                   CIRC : MUD SAMPLE SOURCE
RMS .OHMM               2.62 : RESISTIVITY MUD SAMPLE
MST .DEGF                 46 : MUD SAMPLE TEMPERATURE
RMF .OHMM                2.1 : RESISTIVITY MUD FILTRATE SAMPLE
MFST.DEGF                 56 : MUD FILTRATE SAMPLE TEMPERATURE
RMC .OHMM               1.99 : RESISTIVITY MUD CAKE
MCST.DEGF                 64 : MUD CAKE SAMPLE TEMPERATURE
RMB .OHMM               0.65 : RESISTIVITY MUD AT BHT
TCS .HRS                   3 : TIME CIRCULATED STOPPED
LUN .                   7636 : LOGGING UNIT NUMBER
LUL .                    EDM : LOGGING UNIT LOCATION
ENGI.                  IBSEN : RECORDING ENGINEER
WITN.                   GOLL : WITNESSED BY
CLNT.                A2DTECH : CLIENT CODE
ORIG.            2" 5" PRINT : ORIGIN OF DATA
UWI .       100122506218W500 : UNIQUE WELL ID
DICO. A2D Technologies, Inc. : DIGITIZING COMPANY
~Other -----------------------------------------------------
DIL-BHC LOG RUN
~ASCII -----------------------------------------------------
# ...
 8000.00000    9.76640    9.76640    1.90930  523.75350   50.02760   50.02760   16.73560   16.73560  523.75350  384.51260  720.00710  384.51260 -161.51160 -126.85260  720.00710
 8050.00000    9.67630    9.67630    3.46430  288.86320   50.38600   50.38600   19.52660   19.52660  288.86320  272.13490  244.15690  272.13490 -162.19960 -128.34130  244.15690
 8100.00000    9.66850    9.66850    1.83840  543.96310   50.40040   50.40040   19.25040   19.25040  543.96310  316.47980  531.66890  316.47980 -151.78910 -118.73950  531.66890
 8150.00000    9.59340    9.59340    1.92500  519.47310   48.99510   48.99510   17.84790   17.84790  519.47310  538.72020 1066.97600  538.72020 -172.94700 -140.70210 1066.97600
 8200.00000    9.78630    9.78630    2.44830  408.44770   49.50680   49.50680   23.71670   23.71670  408.44770  333.71800  651.30280  333.71800 -165.24930 -133.80910  651.30280
 8250.00000    8.89830    8.89830    9.41320  106.23400   49.35100   49.35100   11.19720   11.19720  106.23400  215.35420  268.13330  215.35420 -188.97830 -158.34290  268.13330
 8300.00000    9.17050    9.17050   64.01310   15.73890   54.82290   54.82290   47.04210   47.04210   15.73890   24.28590   50.14610   24.28590 -153.18290 -123.34810   50.14610
 8350.00000    8.87920    8.87920   49.71070   20.11640   53.13880   53.13880   29.09210   29.09210   20.11640   23.15510   70.90130   23.15510 -176.01470 -146.98870   70.90130
 8400.00000    9.63900    9.63900    9.81500  101.88440   48.38460   48.38460   20.28860   20.28860  101.88440  149.07360  265.19840  149.07360 -173.60780 -145.38650  265.19840
 8450.00000    9.70070    9.70070    8.96640  111.52710   50.38990   50.38990   31.28810   31.28810  111.52710  104.29720   87.09310  104.29720 -182.93220 -155.51560   87.09310
 8500.00000    9.04990    9.04990   11.22810   89.06240   51.94620   51.94620   32.01690   32.01690   89.06240  124.39070  246.73120  124.39070  -99.59570  -72.98380  246.73120
 8550.00000    9.26480    9.26480    4.55250  219.74050   51.09990   51.09990   34.53720   34.53720  219.74050  278.17370  400.05440  278.17370  -72.02120  -46.21000  400.05440
 8600.00000    9.31540    9.31540    4.77080  209.60680   51.99390   51.99390   25.48460   25.48460  209.60680  304.51280  349.87480  304.51280  -64.84690  -39.84440  349.87480
 8650.00000    9.27850    9.27850    5.26390  189.97470   51.46590   51.46590   23.99750   23.99750  189.97470  301.91530  310.56050  301.91530  -71.73900  -47.54130  310.56050
 8700.00000    9.86750    9.86750   32.10430   31.14850   56.67450   56.67450   46.16900   46.16900   31.14850   39.74150   42.73670   39.74150  -92.15790  -68.76490   42.73670
 8750.00000   10.53880   10.53880   63.67200   15.70550   60.42110   60.42110   50.61320   50.61320   15.70550   19.60000   23.15680   19.60000 -102.21110  -79.62280   23.15680
 8800.00000    9.75170    9.75170   54.79840   18.24920   57.56680   57.56680   48.00820   48.00820   18.24920   22.80990   28.39660   22.80990 -111.18540  -89.39780   28.39660
 8850.00000    9.45280    9.45280   76.60310   13.05430   61.77740   61.77740   55.68220   55.68220   13.05430   16.05550   21.44530   16.05550 -112.43790  -91.45900   21.44530
 8900.00000    9.16640    9.16640   52.77880   18.94700   58.16240   58.16240   42.48790   42.48790   18.94700   23.74200   35.23070   23.74200 -114.33430  -94.16010   35.23070
 8950.00000   10.68410   10.68410  103.72910    9.64050   69.45130   69.45130   73.73190   73.73190    9.64050   13.52750   13.57340   13.52750 -121.29380 -101.92430   13.57340
 9000.00000    9.31980    9.31980  104.26990    9.59050   65.45680   65.45680   74.69440   74.69440    9.59050   12.67490   16.63680   12.67490 -111.69290  -93.12810   16.63680
 9050.00000    9.71370    9.71370  124.59040    8.02630   67.32410   67.32410   70.61920   70.61920    8.02630    9.61690   13.70820    9.61690 -110.45790  -92.69380   13.70820
 9100.00000   13.86440   13.86440  235.66010    4.24340   79.15350   79.15350   87.22610   87.22610    4.24340    4.96640    6.71300    4.96640 -121.52430 -104.56900    6.71300
 9150.00000   13.36080   13.36080  192.65600    5.19060   77.01940   77.01940   74.68940   74.68940    5.19060    6.03770    7.56180    6.03770 -115.09310  -98.94250    7.56180
 9200.00000    9.59480    9.59480   66.67780   14.99750   61.48380   61.48380   62.62790   62.62790   14.99750   19.29270   27.74970   19.29270  -94.32150  -78.97560   27.74970
 9250.00000   10.01980   10.01980   89.79000   11.13710   65.63910   65.63910   79.44770   79.44770   11.13710   13.67870   17.72040   13.67870 -100.19210  -85.65090   17.72040
 9300.00000    9.63400    9.63400  103.12940    9.69670   66.57670   66.57670   84.47780   84.47780    9.69670   12.03500   16.14330   12.03500 -103.68310  -89.94250   16.14330
 9350.00000   11.24120   11.24120  146.47510    6.82710   72.46410   72.46410   90.84090   90.84090    6.82710    8.02610   10.34150    8.02610 -114.31260 -101.38080   10.34150
 9400.00000    9.64520    9.64520  118.00250    8.47440   71.31830   71.31830  103.64840  103.64840    8.47440    9.91660   13.08840    9.91660  -99.49660  -87.36950   13.08840
 9450.00000    9.33040    9.33040  113.05310    8.84540   65.49420   65.49420   71.67930   71.67930    8.84540   11.03060   14.84600   11.03060  -91.13560  -79.81320   14.84600
 9500.00000    9.55420    9.55420  148.88040    6.71680   72.39160   72.39160   92.05840   92.05840    6.71680    8.23480   11.20800    8.23480  -90.52000  -80.00240   11.20800
 9550.00000    8.82210    8.82210    4.71950  211.91660   64.53240   64.53240   83.68640   83.68640  211.91660  327.68720  384.15090  327.68720  -46.34440  -39.65270  384.15090
 9600.00000    8.91780    8.91780    0.74700 1338.64330   73.60680   73.60680  148.65410  148.65410 1338.64330 1446.90410 1516.44080 1446.90410  -31.05060  -33.33240 1516.44080
 9650.00000    8.84800    8.84800    1.77530  563.27070   69.87760   69.87760  119.08930  119.08930  563.27070 1338.96590  699.57240 1338.96590  -33.18930  -44.39990  699.57240
 9700.00000    9.03250    9.03250   31.95910   31.29000   64.70290   64.70290   75.03050   75.03050   31.29000   41.16190   66.60040   41.16190  -64.48520  -84.62470   66.60040
 9750.00000    8.92140    8.92140    2.92730  341.61670   55.06650   55.06650   40.63320   40.63320  341.61670 1335.50830 1501.68880 1335.50830  -30.18490  -59.25320 1501.68880
 9800.00000    8.94020    8.94020   32.13610   31.11880   58.78200   58.78200   60.03370   60.03370   31.11880   50.88750   63.31250   50.88750   -5.50310  -30.08080   63.31250
 9850.00000    8.62560    8.62560    1.51680  659.29440   48.46450   48.46450   18.01330   18.01330  659.29440 1491.42080 1373.71240 1491.42080  -72.55160  -91.55710 1373.71240
 9900.00000    8.61560    8.61560    8.95790  111.63350   50.14330   50.14330   11.90360   11.90360  111.63350  132.16480  222.03250  132.16480 -129.04470 -142.50580  222.03250
 9950.00000    8.55180    8.55180   17.67070   56.59070   51.02240   51.02240   10.51250   10.51250   56.59070   77.84470  365.30250   77.84470 -123.44590 -131.36260  365.30250
 10000.00000    8.67050    8.67050   37.76610   26.47880   51.23950   51.23950   16.89630   16.89630   26.47880   34.15380  177.22870   34.15380 -135.11510 -137.48740  177.22870
 10050.00000    8.63950    8.63950    1.72310  612.03630   48.00890   48.00890   20.25100   20.25100  612.03630  787.44810  988.35100  787.44810  -94.67300  -91.52860  988.35100
 10100.00000    8.76320    8.76320    0.71590 1396.74780   49.23630   49.23630   22.34380   22.34380 1396.74780 1490.04100 1590.35210 1490.04100  -43.72850  -35.01200 1590.35210
 10150.00000    8.70910    8.70910   17.68720   56.53800   52.14660   52.14660   82.07120   82.07120   56.53800   82.16610  227.43040   82.16610  -15.64700   -1.39960  227.43040
 10200.00000    8.59710    8.59710   25.35070   39.44660   57.31290   57.31290   83.80070   83.80070   39.44660   40.55190  102.93570   40.55190  -60.54140  -45.81920  102.93570
