~Version ---------------------------------------------------
VERS.      2.0 : CWLS log ASCII Standard -VERSION 2.0
WRAP.       NO : One line per depth step
CREA. 07/27/17 : LAS Creation Date
~Well ------------------------------------------------------
STRT.FT                            1000.0 : START DEPTH
STOP.FT                            9950.0 : STOP DEPTH
STEP.FT                          50.00000 : STEP LENGTH
NULL.                             -999.25 : NULL VALUE
COMP.        HUDSONS BAY OIL & GAS CO LTD : COMPANY
WELL. HB QUINTANA UNION GIROUX 10-8-66-20 : WELL
FLD .                                     : FIELD
LOC .                                     : LOCATION
CTRY.                              CANADA : COUNTRY
SRVC.                        Schlumberger : SERVICE COMPANY
DATE.                         18-Mar-1972 : LOGDATE
PROV.                             Alberta : PROVINCE
UWI .                    100100806620W500 : UNIQUE WELL ID
SLAT.WGS84                       54.70057 : SURFACE LATITUDE
SLON.WGS84                      -116.9823 : SURFACE LONGITUDE
~Curve Information -----------------------------------------
DEPT  .FT    : Depth Curve
CALSED.IN    : CALIPER FROM SONIC LOG
CALWS .IN    : CALIPER [CALSED]
CILDED.MMHO  : CONDUCTIVITY FROM RESISTIVITY LOG
CONDWS.MMHO  : CONDUCTIVITY [1000/DRESWS]
DRESWS.OHMM  : DEEP RESISTIVITY [1000/CILDED IF ILDED < 4, ILDED]
DTED  .US/F  : DELTA T FROM SONIC LOG
DTWS  .US/F  : COMPRESSIONAL SONIC [DTED]
GRSED .GAPI  : GAMMA RAY FROM SONIC LOG
GRWS  .GAPI  : GAMMA RAY [GRSED]
ILDED .OHMM  : DEEP INDUCTION FROM RESISTIVITY LOG
LL8ED .OHMM  : 8 INCH LATEROLOG FROM RESISTIVITY LOG
SPRED .MV    : SPONTANEOUS POTENTIAL FROM RESISTIVITY LOG
SPWS  .MV    : SPONTANEOUS POTENTIAL [BASELINE 0 MV, SPRED]
SRESWS.OHMM  : SHALLOW RESISTIVITY [LL8ED]
~Params ----------------------------------------------------
PD  .                     GL : PERMANENT DATUM
EPD .FT               2420.2 : ELEVATION PERMANENT DATUM
LMF .                     KB : LOG MEASURED FROM
DAPD.FT                   13 : FEET ABOVE PERMANENT DATUM
EKB .FT                 2434 : KELLY BUSHING
EGL .FT               2420.2 : GROUND LEVEL
DATE.               03/18/72 : RUN DATE
RUN .                      1 : RUN NUMBER
DD  .FT                 9990 : DEPTH DRILLER
DL  .FT                 9990 : DEPTH LOGGER
BLI .FT                 9987 : BOTTOM LOG INTERVAL
TLI .FT                 1023 : TOP LOG INTERVAL
CBD .FT                 1023 : CASING BOTTOM DRILLER
CBL .FT                 1023 : CASING BOTTOM LOGGER
BS  .IN                 8.75 : BIT SIZE
BSD .FT                 9990 : BIT SIZE AT DEPTH
DFT .               GEL CHEM : DRILLING FLUID TYPE
DFD .                    9.7 : DRILLING FLUID DENSITY
DFV .                    157 : DRILLING FLUID VISCOSITY
DFPH.                    9.5 : DRILLING FLUID PH
DFL .                    6.8 : DRILLING FLUID LOSS
MSS .             CIRCULATED : MUD SAMPLE SOURCE
RMS .OHMM               2.07 : RESISTIVITY MUD SAMPLE
MST .DEGF                 60 : MUD SAMPLE TEMPERATURE
RMF .OHMM               1.02 : RESISTIVITY MUD FILTRATE SAMPLE
MFST.DEGF                 72 : MUD FILTRATE SAMPLE TEMPERATURE
RMB .OHMM               0.48 : RESISTIVITY MUD AT BHT
TCS .HRS                 3.5 : TIME CIRCULATED STOPPED
LUN .                   7640 : LOGGING UNIT NUMBER
LUL .                    EDM : LOGGING UNIT LOCATION
ENGI.                CUTRESS : RECORDING ENGINEER
WITN.                HIGGINS : WITNESSED BY
CLNT.                A2DTECH : CLIENT CODE
ORIG.            2" 5" PRINT : ORIGIN OF DATA
UWI .       100100806620W500 : UNIQUE WELL ID
DICO. A2D Technologies, Inc. : DIGITIZING COMPANY
~Other -----------------------------------------------------
~ASCII -----------------------------------------------------
# ...
 3450.00000   10.02070   10.02070  124.01250  129.89370    7.69860   99.86780   99.86780  121.97950  121.97950    7.69860    8.28660  -94.45450   -2.57760    8.28660
 3500.00000    9.63390    9.63390  121.27070  126.69290    7.89310   99.96800   99.96800  117.44260  117.44260    7.89310    8.67300  -94.41990   -3.34900    8.67300
 3550.00000   11.07810   11.07810  141.46290  144.96120    6.89840   99.23500   99.23500  107.52280  107.52280    6.89840    7.31330  -94.00470   -3.74130    7.31330
 3600.00000    9.39200    9.39200   75.64090   83.82160   11.93010   90.32310   90.32310  119.41220  119.41220   11.93010   15.22200  -92.16350   -2.71110   15.22200
 3650.00000    9.57190    9.57190   98.91920  104.28180    9.58940  105.07090  105.07090  161.30480  161.30480    9.58940   13.95620  -90.84710   -1.87680   13.95620
 3700.00000   10.43020   10.43020  143.70980  151.37070    6.60630   89.23300   89.23300   95.14560   95.14560    6.60630    6.11530  -93.45070   -4.44880    6.11530
 3750.00000   11.47390   11.47390  171.71900  167.58560    5.96710   94.33100   94.33100  106.54610  106.54610    5.96710    5.51720  -93.06070   -4.02650    5.51720
 3800.00000    9.14100    9.14100  121.84170  117.77180    8.49100   86.14580   86.14580  101.92050  101.92050    8.49100    8.31420  -92.54830   -3.48320    8.31420
 3850.00000    9.93630    9.93630  168.98690  171.37370    5.83520   92.77150   92.77150   95.64080   95.64080    5.83520    6.11520  -91.27180   -2.17370    6.11520
 3900.00000    9.13340    9.13340  153.74350  150.65460    6.63770   86.86340   86.86340  106.39820  106.39820    6.63770    6.85780  -90.83980   -2.18770    6.85780
 3950.00000    9.43850    9.43850  157.72690  154.84190    6.45820   87.84060   87.84060   97.92210   97.92210    6.45820    7.00990  -90.71610   -2.54270    7.00990
 4000.00000   10.13290   10.13290  137.18410  136.14150    7.34530   84.05700   84.05700   97.02890   97.02890    7.34530    6.72160  -89.78020   -2.08130    6.72160
 4050.00000   10.63340   10.63340  211.29470  218.22150    4.58250   98.06470   98.06470  107.68190  107.68190    4.58250    4.87780  -89.51830   -2.29540    4.87780
 4100.00000   10.31270   10.31270  313.40890  313.40890    3.19070  117.73000  117.73000  136.30890  136.30890    3.49610    3.77230  -87.85490   -1.10920    3.77230
 4150.00000   11.73440   11.73440  411.30770  411.30770    2.43130  112.86420  112.86420   95.21330   95.21330    2.62640    2.86820  -87.22970   -0.96010    2.86820
 4200.00000   11.00750   11.00750    -999.25  370.19210    2.70130   92.50730   92.50730   94.95540   94.95540    2.70130    2.88050  -87.27650   -1.48550    2.88050
 4250.00000   11.00840   11.00840    -999.25  212.60760    4.70350   91.40270   91.40270   99.83210   99.83210    4.70350    4.53480  -86.70680   -1.39040    4.53480
 4300.00000   11.46880   11.46880    -999.25  230.11780    4.34560   93.85790   93.85790  106.94870  106.94870    4.34560    4.51560  -86.54530   -1.40720    4.51560
 4350.00000   11.15490   11.15490    -999.25  165.22100    6.05250   92.09430   92.09430   98.45380   98.45380    6.05250    5.81480  -86.23880   -1.21640    5.81480
 4400.00000   11.68030   11.68030    -999.25  177.62620    5.62980   88.58980   88.58980   81.79670   81.79670    5.62980    5.25220  -86.39390   -1.66340    5.25220
 4450.00000   11.03310   11.03310    -999.25  279.75160    3.57460  101.81680  101.81680   81.37430   81.37430    3.57460    3.77500  -85.32220   -1.06780    3.77500
 4500.00000   10.36220   10.36220    -999.25  107.11910    9.33540   79.31200   79.31200   71.76000   71.76000    9.33540    9.48910  -87.91600   -4.13230    9.48910
 4550.00000    9.33780    9.33780    -999.25   87.72310   11.39950   82.55990   82.55990   33.22410   33.22410   11.39950   19.29620 -133.95590  -50.64610   19.29620
 4600.00000   11.16120   11.16120    -999.25  141.62500    7.06090   95.57160   95.57160   89.90760   89.90760    7.06090    8.25350  -84.80600   -1.96900    8.25350
 4650.00000   10.73980   10.73980    -999.25   85.86340   11.64640   77.75530   77.75530   61.75950   61.75950   11.64640   14.78580 -101.08880  -18.72570   14.78580
 4700.00000   11.55610   11.55610    -999.25  101.27810    9.87380   80.07970   80.07970   74.89840   74.89840    9.87380   11.16570  -84.83260   -3.31710   11.16570
 4750.00000    9.89610    9.89610    -999.25   46.61480   21.45240   59.80030   59.80030   37.75860   37.75860   21.45240   65.07530  -84.38810   -3.85680   65.07530
 4800.00000   11.89260   11.89260    -999.25   79.25310   12.61780  116.96080  116.96080   59.48870   59.48870   12.61780   17.15100  -90.20870  -10.66480   17.15100
 4850.00000    9.67420    9.67420    -999.25   96.72770   10.33830   67.87960   67.87960   62.98470   62.98470   10.33830   15.28360  -81.64160   -3.08740   15.28360
 4900.00000   12.13410   12.13410    -999.25  170.09980    5.87890   88.75900   88.75900   81.55620   81.55620    5.87890    5.54590  -81.69790   -4.13110    5.54590
 4950.00000   11.04180   11.04180    -999.25   39.99470   25.00330  120.50400  120.50400   33.02210   33.02210   25.00330   12.69100  -85.49950   -8.92550   12.69100
 5000.00000   10.44480   10.44480    -999.25  122.74610    8.14690   78.31010   78.31010   84.58080   84.58080    8.14690    8.82740  -76.93590   -1.25590    8.82740
 5050.00000   10.40300   10.40300    -999.25  150.01730    6.66590   77.48000   77.48000   76.25880   76.25880    6.66590    7.12470  -77.96700   -2.76660    7.12470
 5100.00000   10.18830   10.18830    -999.25  119.24070    8.38640   78.25030   78.25030   80.88450   80.88450    8.38640    8.87130  -80.12000   -5.39800    8.87130
 5150.00000   10.03590   10.03590    -999.25   89.71750   11.14610   75.02960   75.02960   63.77620   63.77620   11.14610   19.14220  -81.47170   -7.22920   19.14220
 5200.00000   10.39430   10.39430    -999.25   91.92110   10.87890   72.43400   72.43400  100.36640  100.36640   10.87890   10.97270  -75.91060   -2.14990   10.97270
 5250.00000   12.30010   12.30010    -999.25  181.91080    5.49720   92.05160   92.05160   89.51590   89.51590    5.49720    6.03940  -76.55790   -3.24870    6.03940
 5300.00000    9.35010    9.35010    -999.25  120.82990    8.27610   76.87750   76.87750   38.99710   38.99710    8.27610   22.46660 -120.86070  -48.00610   22.46660
 5350.00000   10.15580   10.15580    -999.25   88.04440   11.35790   84.38110   84.38110   92.73820   92.73820   11.35790    9.76660  -76.02400   -3.62280    9.76660
 5400.00000   10.15140   10.15140    -999.25   49.84500   20.06220   70.89880   70.89880   44.11950   44.11950   20.06220   28.76740  -99.77530  -28.06040   28.76740
 5450.00000    9.51710    9.51710    -999.25   65.37700   15.29590   79.23710   79.23710  103.58500  103.58500   15.29590   16.67850  -72.96170   -2.41250   16.67850
 5500.00000   12.41030   12.41030    -999.25  235.00110    4.25530   90.12410   90.12410   80.71620   80.71620    4.25530    4.89420  -71.16170   -1.76840    4.89420
 5550.00000   13.26060   13.26060    -999.25  234.80790    4.25880   95.83220   95.83220   88.97750   88.97750    4.25880    3.75780  -69.26000   -1.02570    3.75780
 5600.00000   13.26630   13.26630    -999.25  217.71310    4.59320  116.12540  116.12540   81.21250   81.21250    4.59320    5.55000  -70.27090   -3.19900    5.55000
 5650.00000    9.77010    9.77010    -999.25    6.80730  146.90190  104.22470  104.22470  179.75270  179.75270  146.90190  170.55420  -68.19070   -2.27040  170.55420
 5700.00000    9.47470    9.47470    -999.25    2.64290  378.37900   73.70690   73.70690  227.12360  227.12360  378.37900  681.58750 -105.20460  -38.83230  681.58750
 5750.00000    9.30890    9.30890    -999.25  195.18670    5.12330   70.36770   70.36770   53.82630   53.82630    5.12330   29.77190 -135.65550  -68.59860   29.77190
 5800.00000    9.94830    9.94830    -999.25  114.33800    8.74600   63.07620   63.07620   64.61520   64.61520    8.74600   16.36340 -106.28050  -38.53550   16.36340
 5850.00000   10.08650   10.08650    -999.25  107.52690    9.30000   65.37460   65.37460   70.56840   70.56840    9.30000   12.47160  -95.51270  -27.07980   12.47160
