~Version ---------------------------------------------------
VERS.      2.0 : CWLS log ASCII Standard -VERSION 2.0
WRAP.       NO : One line per depth step
CREA. 10/27/17 : LAS Creation Date
~Well ------------------------------------------------------
STRT.FT                           1200.0 : START DEPTH
STOP.FT                          14850.0 : STOP DEPTH
STEP.FT                         50.00000 : STEP LENGTH
NULL.                            -999.25 : NULL VALUE
COMP.   SOCONY MOBIL OIL OF CANADA, LTD. : COMPANY
WELL. MOBIL SCURRY PEM RIVER A6-15-47-16 : WELL
FLD .                                    : FIELD
LOC .                                    : LOCATION
CTRY.                             CANADA : COUNTRY
SRVC.             Schlumberger of Canada : SERVICE COMPANY
DATE.                        26-Jul-1962 : LOGDATE
PROV.                            Alberta : PROVINCE
UWI .                   102061504716W500 : UNIQUE WELL ID
SLAT.WGS84                      53.05247 : SURFACE LATITUDE
SLON.WGS84                     -116.2582 : SURFACE LONGITUDE
~Curve Information -----------------------------------------
DEPT  .FT    : Depth Curve
CALWS .IN    : CALIPER [MCALED]
CILDED.MMHO  : DEEP INDUCTION CONDUCTIVITY FROM RESISTIVITY LOG [ADJ. TO ILDED]
CONDWS.MMHO  : CONDUCTIVITY [1000/DRESWS]
DRESWS.OHMM  : DEEP RESISTIVITY [1000/CILDED,IF ILDED<5,ILDED]
DT1ED .US/F  : DELTA TIME (3' SPACING- 1' PICKUP SPAN) FROM SONIC LOG
DTED  .US/F  : DELTA TIME (3' SPACING- 3' PICKUP SPAN) FROM SONIC LOG
DTWS  .US/F  : COMPRESSIONAL SONIC [DTED]
GRNED .GAPI  : GAMMA RAY GRN LOG
GRSED .GAPI  : GAMMA RAY FROM SONIC LOG
GRWS  .GAPI  : GAMMA RAY [SPLICED GRSED/GRNED FROM 11818' TO 12795']
ILDED .OHMM  : DEEP INDUCTION RESISTIVITY FROM RESISTIVITY LOG
MCALED.IN    : CALIPER FROM MICRO LOG
NEUTED.NAPI  : NEUTRON FROM GRN LOG
NEUTWS.NAPI  : NEUTRON [NEUTED]
SNED  .OHMM  : 16 INCH  SHORT NORMAL FROM RESISTIVITY LOG
SPRED .MV    : SPONTANEOUS POTENTIAL FROM RESISTIVITY LOG
SPWS  .MV    : SPONTANEOUS POTENTIAL [BASELINE 0 MV,SPRED]
SRESWS.OHMM  : SHALLOW RESISTIVITY [SNED]
~Params ----------------------------------------------------
PD  .                     GL : PERMANENT DATUM
LMF .                     KB : LOG MEASURED FROM
EKB .FT                 4176 : KELLY BUSHING
DATE.               07/26/62 : RUN DATE
RUN .                      3 : RUN NUMBER
DD  .FT                14885 : DEPTH DRILLER
DL  .FT                14889 : DEPTH LOGGER
BLI .FT                14888 : BOTTOM LOG INTERVAL
TLI .FT                12790 : TOP LOG INTERVAL
CBD .FT                12971 : CASING BOTTOM DRILLER
CBL .FT                12790 : CASING BOTTOM LOGGER
BS  .IN                    9 : BIT SIZE
BSD .FT                14885 : BIT SIZE AT DEPTH
DFT .              LIME BASE : DRILLING FLUID TYPE
DFD .                   14.7 : DRILLING FLUID DENSITY
DFV .                     50 : DRILLING FLUID VISCOSITY
DFPH.                     14 : DRILLING FLUID PH
DFL .                      4 : DRILLING FLUID LOSS
RMS .OHMM               0.44 : RESISTIVITY MUD SAMPLE
MST .DEGF                 71 : MUD SAMPLE TEMPERATURE
RMF .OHMM               0.24 : RESISTIVITY MUD FILTRATE SAMPLE
MFST.DEGF                 76 : MUD FILTRATE SAMPLE TEMPERATURE
RMC .OHMM                1.1 : RESISTIVITY MUD CAKE
MCST.DEGF                 77 : MUD CAKE SAMPLE TEMPERATURE
RMB .OHMM               0.12 : RESISTIVITY MUD AT BHT
TCS .HRS                   3 : TIME CIRCULATED STOPPED
LUN .                   1576 : LOGGING UNIT NUMBER
LUL .                     DV : LOGGING UNIT LOCATION
ENGI.               HATLELID : RECORDING ENGINEER
WITN.                 CARSON : WITNESSED BY
CLNT.                A2DTECH : CLIENT CODE
ORIG.            2" 5" PRINT : ORIGIN OF DATA
UWI .       102061504716W500 : UNIQUE WELL ID
DICO. A2D Technologies, Inc. : DIGITIZING COMPANY
~Other -----------------------------------------------------
GRN-IEL-ML-SONIC USED
NO SP RECORDED DUE TO EXCESSIVE TELLURIC CURRENTS, SP BELOW 3610M IS NOT LOOK VALID
~ASCII -----------------------------------------------------
# ...
 3150.00000   13.63120   70.43950   63.99220   15.62690    -999.25   90.45310   90.45310    -999.25   91.06670   91.06670   15.62690   13.63120    -999.25    -999.25    8.16980  -96.40590   -7.14290    8.16980
 3200.00000   10.63350   74.43510   64.88250   15.49320    -999.25   75.83120   75.83120    -999.25  103.60360  103.60360   15.49320   10.63350    -999.25    -999.25    5.30090  -99.07840  -10.08090    5.30090
 3250.00000   10.57070  334.59080  357.24490    2.79920    -999.25   89.62350   89.62350    -999.25  100.84920  100.84920    2.79920   10.57070    -999.25    -999.25    2.04060  -95.33550   -6.60080    2.04060
 3300.00000    9.94610   38.14340   32.57440   30.69900    -999.25  120.33760  120.33760    -999.25   89.17330   89.17330   30.69900    9.94610    -999.25    -999.25   18.22780  -93.64880   -5.17820   18.22780
 3350.00000    9.50440   89.62400   89.81630   11.13760    -999.25   86.03090   86.03090    -999.25   96.67410   96.67410   11.13760    9.50440    -999.25    -999.25    6.21700  -98.92840  -10.72320    6.21700
 3400.00000    9.96550  121.33750  123.46750    8.09930    -999.25   88.07500   88.07500    -999.25   85.86050   85.86050    8.09930    9.96550    -999.25    -999.25    4.72200  -98.16930  -10.22690    4.72200
 3450.00000   10.37010   62.91930   62.32010   16.06570    -999.25   83.16050   83.16050    -999.25   81.87700   81.87700   16.06570   10.37010    -999.25    -999.25    5.86940  -98.38590  -10.70890    5.86940
 3500.00000   10.41370  136.80950  141.51480    7.06640    -999.25  101.56660  101.56660    -999.25   95.15820   95.15820    7.06640   10.41370    -999.25    -999.25    4.60880  -93.95220   -6.53810    4.60880
 3550.00000   10.76500  126.16290  127.50220    7.84300    -999.25   88.29860   88.29860    -999.25  108.52030  108.52030    7.84300   10.76500    -999.25    -999.25    4.64020  -97.75210  -10.60210    4.64020
 3600.00000   10.55630   49.94160   47.11270   21.22990    -999.25   76.92400   76.92400    -999.25   67.60020   67.60020   21.22990   10.55630    -999.25    -999.25    7.65450 -102.30980  -15.42520    7.65450
 3650.00000   10.60580  178.55640  181.39600    5.51280    -999.25   88.50750   88.50750    -999.25   96.16730   96.16730    5.51280   10.60580    -999.25    -999.25    3.42240  -96.68430  -10.06250    3.42240
 3700.00000   10.95790   97.29660  103.37900    9.70300    -999.25   78.81200   78.81200    -999.25   97.44460   97.44460    9.70300   10.95790    -999.25    -999.25    5.55740  -95.06330   -8.70700    5.55740
 3750.00000   11.06490   48.68740   45.86550   21.80290    -999.25   71.26470   71.26470    -999.25   76.65150   76.65150   21.80290   11.06490    -999.25    -999.25   10.88910 -106.06070  -19.96720   10.88910
 3800.00000   12.09190  122.69710  125.94930    7.93970    -999.25   82.62310   82.62310    -999.25   64.14220   64.14220    7.93970   12.09190    -999.25    -999.25    4.53510  -94.65000   -8.82060    4.53510
 3850.00000   12.48720   44.87280   43.88090   22.83370    -999.25   78.57380   78.57380    -999.25   78.16000   78.16000   22.83370   12.48720    -999.25    -999.25   10.20300  -97.51970  -12.03620   10.20300
 3900.00000   12.01060   45.89030   42.51560   23.52080    -999.25   71.05120   71.05120    -999.25   61.06920   61.06920   23.52080   12.01060    -999.25    -999.25    9.86200  -96.02830  -11.74870    9.86200
 3950.00000   11.14190   67.04020   62.17830   16.09060    -999.25   78.54730   78.54730    -999.25   96.87480   96.87480   16.09060   11.14190    -999.25    -999.25    9.99150  -96.37990  -13.31640    9.99150
 4000.00000   10.49350  173.20520  187.43090    5.33530    -999.25   83.39600   83.39600    -999.25   94.94330   94.94330    5.33530   10.49350    -999.25    -999.25    4.21470  -90.21870   -8.35920    4.21470
 4050.00000   10.46170   67.40460   63.92390   15.64360    -999.25   78.44940   78.44940    -999.25   79.90120   79.90120   15.64360   10.46170    -999.25    -999.25    9.23770  -93.57750  -12.92800    9.23770
 4100.00000   11.41820  120.01960  120.12610    8.32610    -999.25   87.97020   87.97020    -999.25   98.40970   98.40970    8.32610   11.41820    -999.25    -999.25    6.39930  -91.56630  -12.13280    6.39930
 4150.00000   10.48640   82.13010   77.87490   12.84110    -999.25   89.57930   89.57930    -999.25   93.69250   93.69250   12.84110   10.48640    -999.25    -999.25    7.31380  -87.00790   -8.77840    7.31380
 4200.00000   10.28360   65.15230   58.47390   17.13320    -999.25   78.54340   78.54340    -999.25   86.08840   86.08840   17.13320   10.28360    -999.25    -999.25    7.26450  -89.52430  -12.51090    7.26450
 4250.00000   11.37860  110.68210  112.99440    8.85000    -999.25   81.42180   81.42180    -999.25   86.01150   86.01150    8.85000   11.37860    -999.25    -999.25    5.20500  -87.09330  -11.28380    5.20500
 4300.00000   10.55190  136.11890  140.69250    7.10770    -999.25   83.19010   83.19010    -999.25   77.42890   77.42890    7.10770   10.55190    -999.25    -999.25    4.40180  -83.18910   -8.58970    4.40180
 4350.00000   10.20430  107.50760  110.68870    9.03430    -999.25   81.33620   81.33620    -999.25   92.27070   92.27070    9.03430   10.20430    -999.25    -999.25    5.57120  -78.35880   -4.97540    5.57120
 4400.00000    9.59900   43.40280   41.96320   23.83040    -999.25   76.43270   76.43270    -999.25   67.25540   67.25540   23.83040    9.59900    -999.25    -999.25   12.39660  -98.49130  -26.31190   12.39660
 4450.00000   12.43480   92.29820   88.11380   11.35780    -999.25   79.52760   79.52760    -999.25   92.63570   92.63570   11.35780   12.43480    -999.25    -999.25    6.39290  -76.79390   -5.76290    6.39290
 4500.00000   10.21860  173.66550  168.68810    5.92810    -999.25   88.61270   88.61270    -999.25   93.22610   93.22610    5.92810   10.21860    -999.25    -999.25    5.42820  -75.87980   -5.90480    5.42820
 4550.00000   10.73600  185.03360  172.23270    5.80610    -999.25   92.91710   92.91710    -999.25  115.57610  115.57610    5.80610   10.73600    -999.25    -999.25    3.74760  -69.69460   -0.78090    3.74760
 4600.00000   10.77170  114.84350  125.50240    7.98480    -999.25   83.21700   83.21700    -999.25  113.02840  113.02840    7.98480   10.77170    -999.25    -999.25    4.84790  -72.71970   -4.87260    4.84790
 4650.00000   10.96180  336.34400  326.95770    3.05850    -999.25   95.02110   95.02110    -999.25   88.53570   88.53570    3.05850   10.96180    -999.25    -999.25    2.91770  -70.04050   -3.22870    2.91770
 4700.00000   10.98120  122.46670  126.62790    7.89770    -999.25   82.70410   82.70410    -999.25   98.47500   98.47500    7.89770   10.98120    -999.25    -999.25    5.33360  -73.81850   -7.38260    5.33360
 4750.00000   10.88240  122.07450  126.40150    7.91130    -999.25   85.46880   85.46880    -999.25  102.11790  102.11790    7.91130   10.88240    -999.25    -999.25    5.46700  -73.89950   -7.83590    5.46700
 4800.00000   10.45530  151.63510  164.52510    6.07810    -999.25   83.09090   83.09090    -999.25  105.07100  105.07100    6.07810   10.45530    -999.25    -999.25    5.18820  -74.49730   -8.80770    5.18820
 4850.00000   11.04010  155.78750  163.19310    6.13170    -999.25   94.10710   94.10710    -999.25   99.63940   99.63940    6.13170   11.04010    -999.25    -999.25    4.56860  -71.08750   -5.77390    4.56860
 4900.00000   10.80990  130.31780  136.13590    7.34560    -999.25   84.87470   84.87470    -999.25  102.34460  102.34460    7.34560   10.80990    -999.25    -999.25    4.56460  -72.72450   -7.78310    4.56460
 4950.00000   11.72040  154.75000  149.76880    6.68810    -999.25   83.37920   83.37920    -999.25  115.84270  115.84270    6.68810   11.72040    -999.25    -999.25    4.12570  -74.19760   -9.63210    4.12570
 5000.00000   12.11040  143.21650  151.65760    6.59380    -999.25   86.22990   86.22990    -999.25  108.76960  108.76960    6.59380   12.11040    -999.25    -999.25    4.34310  -69.98540   -6.57520    4.34310
 5050.00000   11.51420  161.55420  170.52040    5.86440    -999.25   89.25240   89.25240    -999.25   95.72910   95.72910    5.86440   11.51420    -999.25    -999.25    3.88210  -70.93930   -8.93350    3.88210
