~Version ---------------------------------------------------
VERS.      2.0 : CWLS log ASCII Standard -VERSION 2.0
WRAP.       NO : One line per depth step
CREA. 06/24/13 : LAS Creation Date
~Well ------------------------------------------------------
STRT.FT                      1300.0 : START DEPTH
STOP.FT                     10750.0 : STOP DEPTH
STEP.FT                    50.00000 : STEP LENGTH
NULL.                       -999.25 : NULL VALUE
COMP.        PHILLIPS PETROLEUM CO. : COMPANY
WELL. PHILLIPS ATIKAMEG 10-17-65-19 : WELL
FLD .                            WC : FIELD
LOC .                               : LOCATION
CTRY.                        CANADA : COUNTRY
SRVC.                         Welex : SERVICE COMPANY
DATE.                   13-Apr-1959 : LOGDATE
PROV.                       Alberta : PROVINCE
UWI .              100101706519W500 : UNIQUE WELL ID
SLAT.WGS84                 54.62711 : SURFACE LATITUDE
SLON.WGS84                -116.8324 : SURFACE LONGITUDE
~Curve Information -----------------------------------------
DEPT.FT    : DEPTH FEET
GRN .CPS   : GAMMA RAY FROM NEUTRON LOG
LAT9.OHMM  : LATERAL 9" FROM RESISTIVITY LOG
LT16.OHMM  : LATERAL 16"FROM RESISTIVITY LOG
MCAL.IN    : MICROLOG CALIPER FROM ML LOG
NEUT.CPS   : NEUTRON FROM NEUTRON LOG
SN  .OHMM  : SHORT NORMAL 18" FROM RESISTIVITY LOG
SPR .MV    : SPONTANEOUS POTENTIAL FROM RESISTIVITY LOG
~Params ----------------------------------------------------
PD  .                                      CSF : PERMANENT DATUM
LMF .                                       KB : LOG MEASURED FROM
DAPD.FT                                     14 : FEET ABOVE PERMANENT DATUM
DMF .                                       KB : DRILLING MEASURED FROM
EKB .FT                                   2439 : KELLY BUSHING
EDF .FT                                 2436.5 : DRILLING FLOOR
EGL .FT                                   2426 : GROUND LEVEL
DATE.                                        1 : RUN DATE
RUN .                                 04/13/59 : RUN NUMBER
DD  .FT                                  10752 : DEPTH DRILLER
DL  .FT                                  10755 : DEPTH LOGGER
BLI .FT                                  10754 : BOTTOM LOG INTERVAL
TLI .FT                                   1303 : TOP LOG INTERVAL
CS  .IN                                 13.375 : CASING SIZE
CBD .FT                                   1304 : CASING BOTTOM DRILLER
CBL .FT                                   1303 : CASING BOTTOM LOGGER
BS  .IN                                      9 : BIT SIZE
BSD .FT                                  10752 : BIT SIZE AT DEPTH
DFT . OIL EMULSION GEL CAUSTIC RAYFLO DRISCOSE : DRILLING FLUID TYPE
DFD .                                     10.3 : DRILLING FLUID DENSITY
DFV .                                      144 : DRILLING FLUID VISCOSITY
DFPH.                                      9.5 : DRILLING FLUID PH
DFL .                                      4.8 : DRILLING FLUID LOSS
MSS .                               CIRCULATED : MUD SAMPLE SOURCE
RMS .OHMM                                  2.8 : RESISTIVITY MUD SAMPLE
MST .DEGF                                   60 : MUD SAMPLE TEMPERATURE
RMF .OHMM                                 1.46 : RESISTIVITY MUD FILTRATE SAMPLE
MFST.DEGF                                   70 : MUD FILTRATE SAMPLE TEMPERATURE
RMC .OHMM                                  2.6 : RESISTIVITY MUD CAKE
MCST.DEGF                                   68 : MUD CAKE SAMPLE TEMPERATURE
RMB .OHMM                                  2.8 : RESISTIVITY MUD AT BHT
ENGI.                                   FOWLER : RECORDING ENGINEER
WITN.                           HUNTER HANKINS : WITNESSED BY
CLNT.                                  A2DTECH : CLIENT CODE
ORIG.                              2" 5" PRINT : ORIGIN OF DATA
UWI .                         100101706519W500 : UNIQUE WELL ID
DICO.                   A2D Technologies, Inc. : DIGITIZING COMPANY
~Other -----------------------------------------------------
~ASCII -----------------------------------------------------
 1300.00000   53.28870    -999.25    -999.25    -999.25  282.24480    -999.25    -999.25
 1350.00000   89.62860    1.53620    4.52740   12.19130  304.54330    1.40620  -39.28650
 1400.00000   95.99700    2.16590    4.64010   12.16910  322.99580    1.54630  -39.94420
 1450.00000   83.25370    3.14520    5.80430   11.45290  327.62140    2.04770  -39.39270
 1500.00000   88.05420    4.49860    6.79830   11.04100  331.04520    3.13000  -42.90330
 1550.00000   64.74100    5.45000    5.91560   10.57140  361.75890    3.45700  -41.43360
 1600.00000   77.86470    3.18410    5.67480   10.30630  336.61310    2.94570  -40.99890
 1650.00000   71.79980    7.63200   10.79460   11.08380  306.05690    3.80060  -45.20830
 1700.00000   77.73220    2.58000    4.75960   10.51480  299.19530    1.73920  -41.05280
 1750.00000   63.89380    2.42080    3.88510    9.97270  334.61340    2.90850  -41.68140
 1800.00000   77.14640    3.62480    6.99800   10.47440  274.57260    1.35580  -40.49240
 1850.00000   72.38160   11.85490    6.44740    9.74920  332.86460    2.79110  -41.76030
 1900.00000   70.79720    3.52570    6.59110   10.46730  318.36120    2.31580  -41.98180
 1950.00000   76.45160    5.37490    7.52000   10.63290  318.53740    2.58140  -41.58750
 2000.00000   58.22410    7.23900    9.40110   10.27650  348.59460    8.93610  -49.47990
 2050.00000   53.65960    5.50170    6.67190   10.39330  366.80710    5.76830  -45.61490
 2100.00000   64.11840    7.50800    6.49740    9.15610  368.75390    7.52120  -49.43040
 2150.00000   77.98320    4.85690    5.98700   10.29040  305.97090    3.22700  -44.27550
 2200.00000   60.50110   20.49650   22.56780    9.76930  417.50480   30.18790  -46.74620
 2250.00000   62.08910    3.18640    4.88680    9.43250  349.24850    6.08810  -46.41820
 2300.00000   68.08590   15.27080   17.34540   11.16520  291.90740    4.81130  -48.41250
 2350.00000   76.73350    4.56690    6.27170   10.99150  305.95250    1.92520  -42.19760
 2400.00000   73.45570    8.11570    7.16610   10.36080  331.17290    8.90530  -57.57590
 2450.00000   72.73040    3.70380    5.28730   11.84360  317.93800    2.47810  -43.30520
 2500.00000   91.62060    4.50320    6.00060   11.86620  290.52420    3.37750  -44.18230
 2550.00000  109.45380    7.26410    8.47920   10.51780  271.46110    4.09130  -47.39680
 2600.00000  111.52510    7.13570    8.79290   10.94780  289.27660    4.58550  -47.52250
 2650.00000  127.44530    6.61270    7.30790   10.97750  279.07180    4.43080  -46.45890
 2700.00000  127.02350   12.34720   11.04200   11.08270  286.93520    6.92630  -46.26910
 2750.00000  118.07080    9.76610   12.22640   10.78900  289.45470    5.28060  -47.62310
 2800.00000  111.85480    7.32800    9.77790   10.68670  279.67910    4.98310  -50.16290
 2850.00000  116.97170    7.37370    8.57890   11.01100  287.43160    3.77020  -48.66070
 2900.00000  111.96510   10.86670   11.22950   11.23270  287.03700    5.33180  -48.01850
 2950.00000  115.98350   12.69320   15.51060   11.48050  303.95500    7.02690  -51.42660
 3000.00000  116.39280    7.73380    9.54890   11.06630  292.95550    5.20510  -48.07270
 3050.00000  117.42480    6.92030    7.79030   11.15730  284.60010    4.42700  -48.85900
 3100.00000  118.19430    7.52020    8.43000   10.90020  280.85650    4.75480  -48.67230
 3150.00000  118.72760    8.49870    9.74120   10.66250  279.75800    4.65170  -48.88390
 3200.00000  108.60460    8.44570    8.88020   10.82280  284.14060    5.25530  -49.80620
 3250.00000  114.05270    8.90740   11.63030   10.85310  290.21890    5.39530  -49.90400
 3300.00000  115.40880    8.32710    9.95900   11.23610  281.23080    4.90350  -49.88900
 3350.00000  117.70360    9.43370   10.85790   11.34360  290.16190    4.50820  -48.93050
 3400.00000  130.68350    7.31690    8.38330   11.29270  274.73500    4.32520  -48.17450
 3450.00000  126.83520    8.24380    9.06940   11.68440  281.90770    5.24570  -47.50710
 3500.00000  123.87530    7.20210    8.21980   11.67340  287.21960    4.89800  -46.79090
 3550.00000  141.50690    7.46210    8.81610   11.02060  282.43720    6.82520  -47.37810
 3600.00000  133.60850    9.05770    9.19620   10.41670  286.81450    6.64110  -46.72580
 3650.00000  122.53450   12.68010    8.67040   11.41820  278.53170    6.55300  -47.22090
 3700.00000  151.66430   14.62260   13.05300   10.36190  296.91980   11.20990  -47.31850
 3750.00000  170.39200   19.38520   14.26040   10.32830  299.32950   12.37900  -45.85430
 3800.00000  109.60210    5.68010    7.86670   10.71440  290.29030    3.63610  -47.97140
 3850.00000  111.50240    5.30620    6.04700   11.04340  286.93260    4.72310  -46.70560
 3900.00000  106.28930    8.16800    9.11190   12.37990  305.85190    5.20100  -46.86140
 3950.00000  118.55610    6.64940    6.84650   12.53020  313.18110    4.92180  -47.58510
 4000.00000  129.49790    9.49520   10.58910   11.58830  305.00040    5.27530  -47.21770
 4050.00000  113.04160    4.15510    4.84550   10.72940  274.84620    2.51520  -46.44430
 4100.00000  125.92820    4.82500    5.85130   12.20690  286.44340    3.86540  -46.11160
 4150.00000  142.82630    4.90420    5.33060   11.96480  294.84340    3.41610  -45.33480
 4200.00000  178.02080    2.44790    3.04970   11.38370  303.50020    1.65780  -44.11650
 4250.00000  136.44210    1.97370    2.91450   10.47510  293.61740    1.27500  -45.39660
 4300.00000  123.73150    4.68080    4.63870   11.01830  310.92680    2.05060  -44.10470
 4350.00000  130.74720    4.57560    5.39400   11.15730  317.50410    5.22120  -45.10780
 4400.00000  127.80590    5.01040    6.28040   12.10000  293.06250    2.95230  -43.75440
 4450.00000   91.92690   17.75760   13.56610   11.98550  383.82470   11.65440  -58.52720
 4500.00000  121.53440    3.64280    5.00070   12.14050  287.97480    2.59230  -43.53760
 4550.00000   90.24690   14.61030   12.57130   10.33210  408.16680    9.07430  -46.34300
 4600.00000   81.28700    8.12690    7.91260   10.70430  389.75270    9.96890  -48.61070
 4650.00000   96.78110    3.82730    3.93580   10.49430  386.51540    4.78000  -42.90090
 4700.00000  105.91230   13.90470   21.22970   10.37340  386.76250   14.50240  -47.98410
 4750.00000   66.92290   13.28710   14.72280   10.28900  465.15520   17.73720  -54.16390
 4800.00000   93.25180   46.21880   44.05890   11.35270  360.76610   19.28030  -46.31100
 4850.00000   81.21280    9.70280   12.39990   11.69640  415.56650    7.36960  -43.52470
 4900.00000   92.83080   14.93090   20.51810   11.97890  312.33120    8.43790  -42.47980
 4950.00000   93.60970    6.43020    2.98710   10.85380  370.36760    6.09010  -42.33180
 5000.00000   90.68690   14.07420    9.45340   11.68770  385.21710    8.52860  -55.17010
 5050.00000   81.54390   14.53320   10.45450   10.85780  415.64090   10.82590  -54.15640
 5100.00000  102.67730    9.84370   10.03080   11.23530  391.43650   10.70370  -38.12420
 5150.00000  110.46800   12.24320   12.93320   11.58440  368.09910    8.44550  -36.64790
 5200.00000  117.12770   12.25120   12.50710   11.54030  364.76380   10.13360  -36.35950
 5250.00000  107.37450    9.17040    7.97500   11.33780  346.87290    7.44700  -35.69050
 5300.00000   92.98710   19.45280    7.97970   10.77630  322.59670    7.59670  -38.00410
 5350.00000   85.62820   38.74380   25.35550   10.33600  380.42590   17.70990  -37.64370
 5400.00000   51.36460   20.26090    9.51800    9.87190  423.65970   15.20320  -86.47660
 5450.00000  123.86400    3.71140    5.05940   12.33750  297.30050    4.75670  -33.54720
 5500.00000  119.71720    2.82040    3.80060   12.40870  265.44170    2.37030  -33.55420
 5550.00000  115.67150    3.97180    4.39800   12.87140  268.22780    2.47760  -32.46150
 5600.00000  175.71730    6.31630    6.43510   11.50690  367.66850   13.95500  -33.36770
 5650.00000  160.67190  139.96430  131.25010   10.65030  324.89890   43.04460  -31.23860
 5700.00000    -999.25  699.24800 1285.80110   10.14650  437.98780  267.94180  -63.25230
 5750.00000   87.47640   12.49810    8.48830    9.78520  406.47450   16.29310 -101.81070
