~Version ---------------------------------------------------
VERS.      2.0 : CWLS log ASCII Standard -VERSION 2.0
WRAP.       NO : One line per depth step
CREA. 06/26/13 : LAS Creation Date
~Well ------------------------------------------------------
STRT.M                    300.0 : START DEPTH
STOP.M                   2650.0 : STOP DEPTH
STEP.M                 50.00000 : STEP LENGTH
NULL.                   -999.25 : NULL VALUE
COMP. PETRO CANADA INCORPORATED : COMPANY
WELL.    PCI COSWAY 16-11-30-25 : WELL
FLD .                           : FIELD
LOC .                           : LOCATION
CTRY.                    CANADA : COUNTRY
SRVC.            Atlas Wireline : SERVICE COMPANY
DATE.               11-Nov-1988 : LOGDATE
PROV.                   Alberta : PROVINCE
UWI .          100161103025W400 : UNIQUE WELL ID
SLAT.WGS84             51.55831 : SURFACE LATITUDE
SLON.WGS84            -113.4081 : SURFACE LONGITUDE
~Curve Information -----------------------------------------
DEPT    .M      : DEPTH METER
ACED    .US/M   : ACOUSTIC FROM SONIC LOG [ADJ. TO RESISTIVITY LOG]
C13ED   .MM     : CALIPER 13 FROM  DENSITY LOG [ADJ. TO RESISTIVITY LOG]
C24ED   .MM     : CALIPER 24 FROM DENSITY LOG [ADJ. TO RESISTIVITY LOG]
CALSED  .MM     : CALIPER FROM SONIC LOG [ADJ. TO RESISTIVITY LOG]
CALWS   .MM     : CALIPER [C13ED]
CNCLSED .V/V    : NEUTRON PORISITY LIMESTONE FROM DENSITY LOG [ADJ. TO RESISTIVITY LOG]
CNCSSED .V/V    : NEUTRON POROSITY SANDSTONE FROM DENSITY LOG [ADJ. TO RESISTIVITY LOG]
CONDWS  .MMHO   : CONDUCTIVITY [1000/DRESWS]
DCORWS  .KG/M3  : DENSITY CORRECTION [ZDENED]
DENWS   .KG/M3  : FORMATION BULK DENSITY [CALC. FROM DPOLSWS, M=2710, F-=1000]
DPOLSWS .V/V    : DENSITY POROSITY LIMESTONE [PORZSSED CONVERTED TO LIMESTONE MATRIX, M=2710, M=1000, SPL. TO PORZLSED @ 1668 M]
DRESWS  .OHMM   : DEEP RESISTIVITY [RDED]
DTWS    .US/M   : COMPRESSIONAL SONIC [ACED]
GRDED   .GAPI   : GAMMA RAY FROM DENSITY LOG [ADJ. TO RESISTIVITY LOG]
GRRED   .GAPI   : GAMMA RAY FROM RESISTIVITY LOG
GRSED   .GAPI   : GAMMA RAY FROM SONIC LOG [ADJ. TO RESISTIVITY LOG]
GRWS    .GAPI   : GAMMA RAY [GRSED SPL. TO GRRED @ 460 M]
NPOLSWS .V/V    : NEUTRON POROSITY LIMESTONE [CNCSSED MATRIX CONVERSION FOR LIMESTONE, SPL.TO CNCLSED @ 1698 M]
PEED    .B/E    : PHOTOELECTRIC FACTOR FROM DENSITY LOG [ADJ. TO RESISTIVITY LOG]
PEFWS   .B/E    : PHOTOELECTRIC FACTOR [PEED]
PORZLSED.V/V    : DENSITY POROSITY LIMESTONE [M=2710, F=1000] FROM DENSITY LOG [ADJ. TO RESISTIVITY LOG]
PORZSSED.V/V    : DENSITY POROSITY SANDSTONE [M=2650, F=1000] FROM DENSITY LOG [ADJ. TO RESISTIVITY LOG]
RDED    .OHMM   : DEEP RESISTIVITY FROM RESISTIVITY LOG
RSED    .OHMM   : SHALLOW RESISTIVITY FROM RESISTIVITY LOG
SPRED   .MV     : SPONTANEOUS POTENTIAL FROM RESISTIVITY LOG
SPWS    .MV     : SPONTANEOUS POTENTIAL [BASELINE 0 MV, SPRED]
SRESWS  .OHMM   : SHALLOW RESISTIVITY [RSED]
TENDED  .N      : TENSION FROM DENSITY LOG [ADJ. TO RESISTIVITY LOG]
TENRED  .N      : TOTAL TENSION FROM RESISTIVITY LOG
TENSED  .N      : TENSION FROM SONIC LOG [ADJ. TO RESISTIVITY LOG]
ZCORED  .KG/M3  : DENSITY CORRECTION FROM DENSITY LOG [ADJ. TO RESISTIVITY LOG]
ZDENED  .KG/M3  : BULK DENSITY FROM DENSITY LOG [ADJ. TO RESISTIVITY LOG/POZSSED/PORZLSED]
~Params ----------------------------------------------------
PD  .                         GL : PERMANENT DATUM
EPD .M                     878.2 : ELEVATION PERMANENT DATUM
LMF .                         KB : LOG MEASURED FROM
DAPD.M                       6.9 : FEET ABOVE PERMANENT DATUM
DMF .                         KB : DRILLING MEASURED FROM
EKB .M                     885.1 : KELLY BUSHING
EGL .M                     878.2 : GROUND LEVEL
DATE.                   11/11/88 : RUN DATE
RUN .                          1 : RUN NUMBER
DD  .M                    2691.6 : DEPTH DRILLER
DL  .M                    2691.4 : DEPTH LOGGER
BLI .M                    2681.0 : BOTTOM LOG INTERVAL
TLI .M                       405 : TOP LOG INTERVAL
CS  .MM                    244.5 : CASING SIZE
CBD .M                       406 : CASING BOTTOM DRILLER
CBL .M                       405 : CASING BOTTOM LOGGER
BS  .MM                      222 : BIT SIZE
BSD .M                    2691.6 : BIT SIZE AT DEPTH
DFT .                GYPSON  NCD : DRILLING FLUID TYPE
DFD .                       1110 : DRILLING FLUID DENSITY
DFV .                         57 : DRILLING FLUID VISCOSITY
DFPH.                         11 : DRILLING FLUID PH
DFL .                        8.5 : DRILLING FLUID LOSS
MSS .                   FLOWLINE : MUD SAMPLE SOURCE
RMS .OHMM                    0.9 : RESISTIVITY MUD SAMPLE
MST .DEGC                     16 : MUD SAMPLE TEMPERATURE
RMF .OHMM                   0.75 : RESISTIVITY MUD FILTRATE SAMPLE
MFST.DEGC                     16 : MUD FILTRATE SAMPLE TEMPERATURE
RMC .OHMM                    1.1 : RESISTIVITY MUD CAKE
MCST.DEGC                     16 : MUD CAKE SAMPLE TEMPERATURE
MFSS.                    MEASURE : MUD FILTRATE SAMPLE SOURCE
MCSS.                    MEASURE : MUD CAKE SAMPLE SOURCE
RMB .OHMM                   0.36 : RESISTIVITY MUD AT BHT
TCS .HRS                       7 : TIME CIRCULATED STOPPED
LUN .                    HL 6438 : LOGGING UNIT NUMBER
LUL .                   RED DEER : LOGGING UNIT LOCATION
ENGI.                   FRENETTE : RECORDING ENGINEER
WITN.                      MEZEI : WITNESSED BY
CLNT.                    A2DTECH : CLIENT CODE
ORIG. 6.5"/100M 16.5"/100M PRINT : ORIGIN OF DATA
UWI .           100161103025W400 : UNIQUE WELL ID
DICO.     A2D Technologies, Inc. : DIGITIZING COMPANY
~Other -----------------------------------------------------
DLL-ZDL-CNL-BHC LOG RAN
RHOB FROM SMALL SCALE SECTION
~ASCII -----------------------------------------------------
# ...
 1400.00000  300.63370  253.24390  242.19920  274.47940  253.24390    -999.25    0.34790   92.58660   40.30000 2538.46000    0.10030   10.80070  300.63370  135.40690  140.14840  141.00210  140.14840    0.30790    3.49230    3.49230    -999.25    0.06760   10.80070   15.29770  -28.27790   -4.61730   15.29770 -8723.68380 -10228.07100 -10630.42270   40.30000 2541.30000
 1450.00000  297.99840  253.27240  319.50780  307.72750  253.27240    -999.25    0.33590  315.65660  113.00000 2522.29000    0.10980    3.16800  297.99840   90.99960   92.48930   92.32680   92.48930    0.29590    2.83150    2.83150    -999.25    0.07740    3.16800    4.32750  -24.91020   -3.65860    4.32750 -9713.54170 -12026.52110 -12121.07850  113.00000 2510.00000
 1500.00000  227.41300  255.97540  253.88000  265.95280  255.97540    -999.25    0.15510   76.74660   31.50000 2591.26000    0.06940   13.02990  227.41300   63.08550   65.44660   66.23140   65.44660    0.11510    2.31520    2.31520    -999.25    0.03560   13.02990   16.80300  -24.60370   -5.76110   16.80300 -11360.70350 -10567.67480 -10868.76060   31.50000 2589.90000
 1550.00000  297.55610  294.72300  270.66230  320.31180  294.72300    -999.25    0.26130  199.78420   15.60000 2452.00000    0.15090    5.00540  297.55610   59.76570   63.02430   63.23940   63.02430    0.22130    2.96000    2.96000    -999.25    0.12000    5.00540    5.76670  -45.60560  -17.82200    5.76670 -7973.42100 -9777.43910 -10014.32210   15.60000 2452.80000
 1600.00000  214.62470  266.95540  258.56500  281.25670  266.95540    -999.25    0.21190   36.58410   45.70000 2657.75500    0.03060   27.33430  214.62470   57.56380   65.36500   65.82760   65.36500    0.17190    3.63630    3.63630    -999.25   -0.00470   27.33430   22.99980  -46.57140  -20.53520   22.99980 -10550.11760 -10576.99680 -10387.31610   45.70000 2640.30000
 1650.00000  233.79810  249.90360  274.78230  275.52190  249.90360    -999.25    0.16830  103.18640  124.60000 2573.11000    0.08010    9.69120  233.79810   48.64190   46.35320   46.70870   46.35320    0.12830    3.95360    3.95360    -999.25    0.04660    9.69120   11.87560  -41.30790  -19.80830   11.87560 -10037.75270 -11104.44920 -11227.08920  124.60000 2582.90000
 1700.00000  173.11370  218.78760  221.27600  228.88650  218.78760    0.02690    0.07490    5.52320   26.40000 2661.26500    0.02850  181.05490  173.11370   10.23770   12.38800   12.57550   12.38800    0.02690    4.94580    4.94580    0.02850    0.00680  181.05490  229.35510 -104.18430  -87.22130  229.35510 -10888.26660 -10113.62140 -10054.40280   26.40000 2636.80000
 1750.00000  161.22450  281.98030  229.03610  275.37650  281.98030    0.02180    -999.25    0.53830  216.90000 2207.08900    0.29410 1857.60380  161.22450   12.65610   17.39760   17.62600   17.39760    0.02180    4.32620    4.32620    0.29410    -999.25 1857.60380 1371.79750  -68.88670  -56.46020 1371.79750 -10160.24000 -11444.98710 -11278.40470  216.90000 2205.20000
 1800.00000  170.69470  243.96470  233.55950  245.50110  243.96470    0.01550    -999.25    5.95630   -0.40000 2700.25300    0.00570  167.89030  170.69470   17.41250   20.46000   21.24110   20.46000    0.01550    4.45630    4.45630    0.00570    -999.25  167.89030  212.35100  -39.40280  -31.51290  212.35100 -8752.51170 -10592.94640 -10567.22580   -0.40000 2699.20000
 1850.00000  201.75320  256.01260  260.18910  282.35980  256.01260    0.09450    -999.25   45.01460  129.70000 2737.36000   -0.01600   22.21500  201.75320   52.69300   53.94040   54.53180   53.94040    0.09450    4.39030    4.39030   -0.01600    -999.25   22.21500   26.58310  -61.54340  -58.19010   26.58310 -10637.78690 -10764.71960 -10821.50440  129.70000 2734.30000
 1900.00000  244.84000  262.21340  258.26980  284.84900  262.21340    0.16800    -999.25   72.07730  178.50000 2640.74500    0.04050   13.87400  244.84000   84.24580   85.24000   85.60280   85.24000    0.16800    4.02080    4.02080    0.04050    -999.25   13.87400   17.39420  -62.05650  -63.23980   17.39420 -11005.42840 -11016.49260 -11074.82200  178.50000 2632.60000
 1950.00000  178.93770  246.09170  258.09740  279.30280  246.09170    0.03270    -999.25   16.15360   12.90000 2853.64000   -0.08400   61.90570  178.93770   10.76480   14.68740   14.56550   14.68740    0.03270    4.98100    4.98100   -0.08400    -999.25   61.90570   83.06680  -76.71600  -82.43590   83.06680 -6034.73780 -10793.35000 -10726.53380   12.90000 2870.00000
 2000.00000  172.02790  243.37440  242.35090  265.98130  243.37440    0.00470    -999.25    3.55190   24.90000 2958.80500   -0.14550  281.54030  172.02790    7.53300   11.34120   11.36820   11.34120    0.00470    4.65240    4.65240   -0.14550    -999.25  281.54030  390.51620  -84.31860  -94.57500  390.51620 -9313.17460 -10627.46810 -10654.42810   24.90000 2961.20000
 2050.00000  156.60400  246.40550  230.94180  258.99200  246.40550    0.03310    -999.25    0.66270   -5.60000 2800.45900   -0.05290 1509.07290  156.60400   13.12860   14.20270   14.24120   14.20270    0.03310    4.15190    4.15190   -0.05290    -999.25 1509.07290 1944.18800 -101.34430 -116.13730 1944.18800 -8826.00050 -10243.72430 -10257.19530   -5.60000 2739.40000
 2100.00000  179.57770  236.60050  244.46270  260.23890  236.60050    0.01840    -999.25   17.58980  110.60000 2913.83200   -0.11920   56.85110  179.57770   13.01050   18.58160   18.93400   18.58160    0.01840    4.80840    4.80840   -0.11920    -999.25   56.85110  103.31030  -45.16790  -64.49750  103.31030 -8572.79960 -10711.67080 -10446.29210  110.60000 2902.80000
 2150.00000  160.93410  229.40690  230.68310  244.63780  229.40690   -0.00900    -999.25    0.04080   -2.60000 2974.87900   -0.15490 24488.90820  160.93410    4.87960    8.45080    8.54990    8.45080   -0.00900    5.04880    5.04880   -0.15490    -999.25 24488.90820 23834.30660   -6.12560  -41.04400 23834.30660 -10446.83100 -10326.02310 -9976.45070   -2.60000 2968.40000
 2200.00000  173.04380  231.42590  222.77490  232.96620  231.42590    0.04000    -999.25    2.01840   -2.30000 2682.98200    0.01580  495.44580  173.04380   38.18810   36.73510   37.37060   36.73510    0.04000    4.90820    4.90820    0.01580    -999.25  495.44580  612.24110  -38.41400 -106.95380  612.24110 -9881.61480 -10770.61090 -10436.02720   -2.30000 2679.60000
 2250.00000  178.32790  231.68670  224.83140  207.70270  231.68670    0.05680    -999.25    7.07400   10.90000 2711.88100   -0.00110  141.36310  178.32790   51.93420   51.01310   51.45860   51.01310    0.05680    4.61270    4.61270   -0.00110    -999.25  141.36310  159.20010   -2.88750  -79.23030  159.20010 -8841.51010 -10344.92740 -10202.03600   10.90000 2712.10000
 2300.00000  164.16690  269.98160  222.69050  247.53900  269.98160    0.01370    -999.25    0.15520  168.60000 2666.56600    0.02540 6443.84330  164.16690   17.48600   20.55450   20.61230   20.55450    0.01370    4.76340    4.76340    0.02540    -999.25 6443.84330 5185.03520  -54.26330 -116.23800 5185.03520 -10050.11010 -10816.55600 -10639.96020  168.60000 2689.70000
 2350.00000  164.26570  257.44160  222.20700  238.25230  257.44160    0.01700    -999.25    5.98770   98.70000 2633.39200    0.04480  167.01020  164.26570   10.61560   13.68850   14.02860   13.68850    0.01700    4.75940    4.75940    0.04480    -999.25  167.01020  129.49560  -64.15520 -111.76190  129.49560 -16771.09650 -10780.28310 -10830.98790   98.70000 2653.30000
 2400.00000  163.38830  248.03380  221.12600  238.48890  248.03380    0.01440    -999.25    4.82260   68.10000 2483.76700    0.13230  207.35650  163.38830    8.41680   12.93260   13.21620   12.93260    0.01440    4.84480    4.84480    0.13230    -999.25  207.35650  186.97870 -115.27370 -148.51230  186.97870 -8893.60690 -10356.64710 -10278.66800   68.10000 2485.80000
 2450.00000  161.56430  285.16830  223.70130  250.78200  285.16830    0.00310    -999.25    0.04050  175.50000 2635.44400    0.04360 24664.98050  161.56430   10.82350   14.54670   14.80480   14.54670    0.00310    4.77710    4.77710    0.04360    -999.25 24664.98050 13891.16990   -4.40820  -22.96770 13891.16990 -8424.49290 -10436.70080 -10041.43480  175.50000 2637.30000
