~Version ---------------------------------------------------
VERS.      2.0 : CWLS log ASCII Standard -VERSION 2.0
WRAP.       NO : One line per depth step
CREA. 08/02/17 : LAS Creation Date
~Well ------------------------------------------------------
STRT.FT                     950.0 : START DEPTH
STOP.FT                   10050.0 : STOP DEPTH
STEP.FT                  50.00000 : STEP LENGTH
NULL.                     -999.25 : NULL VALUE
COMP. SHELL CANADA RESOURCES LTD. : COMPANY
WELL.     ISH MAHASKA 11-32-56-13 : WELL
FLD .                             : FIELD
LOC .                             : LOCATION
CTRY.                      CANADA : COUNTRY
SRVC.                Schlumberger : SERVICE COMPANY
DATE.                 17-Nov-1977 : LOGDATE
PROV.                     Alberta : PROVINCE
UWI .            100113205613W500 : UNIQUE WELL ID
SLAT.WGS84               53.88366 : SURFACE LATITUDE
SLON.WGS84              -115.9002 : SURFACE LONGITUDE
~Curve Information -----------------------------------------
DEPT    .FT    : Depth Curve
CALDED  .IN    : CALIPER FROM DENSITY LOG [ADJ. TO GRRED]
CALSED  .IN    : CALIPER FROM SONIC LOG [ADJ. TO GRRED]
CALWS   .IN    : CALIPER [CALSED]
CONDWS  .MMHO  : CONDUCTIVITY [1000/DRESWS]
DCORWS  .G/C3  : DENSITY CORRECTION [DRHOED]
DENWS   .G/C3  : FORMATION BULK DENSITY [RHOBED]
DPHILSED.V/V   : DENSITY POROSITY LIME [M=2.71, F=1.00] FROM DENSITY LOG [ADJ. TO GRRED]
DPHISSED.V/V   : DENSITY POROSITY SAND [M=2.65, F=1.00] FROM DENSITY LOG [ADJ. TO GRRED]
DPOLSWS .V/V   : DENSITY POROSITY LIME [CALC FROM DENWS M=2.71, F=1.00]
DRESWS  .OHMM  : DEEP RESISTIVITY [LLDED]
DRHOED  .G/C3  : BULK DENSITY CORRECTION FROM DENSITY LOG [ADJ. TO GRRED]
DTED    .US/F  : DELTA-T FROM SONIC LOG [ADJ. TO GRRED]
DTWS    .US/F  : COMPRESSIONAL SONIC [DTED]
GRDED   .GAPI  : GAMMA RAY FROM DENSITY LOG [ADJ. TO GRRED]
GRRED   .GAPI  : GAMMA RAY FROM RESISTIVITY LOG
GRSED   .GAPI  : GAMMA RAY FROM SONIC LOG [ADJ. TO GRRED]
GRWS    .GAPI  : GAMMA RAY [GRSED]
LLDED   .OHMM  : LATEROLOG DEEP RESISTIVITY FROM RESISTIVITY LOG
LLSED   .OHMM  : LATEROLOG SHALLOW RESISTIVITY FROM RESISTIVITY LOG
MLLED   .OHMM  : MICRO FOCUSED LATERO RESISTIVITY FROM RESISTIVITY LOG
NPHILSED.V/V   : NEUTRON POROSITY LIME FROM DENSITY LOG [ADJ. TO GRRED]
NPHISSED.V/V   : NEUTRON POROSITY SAND FROM DENSITY LOG [ADJ. TO GRRED]
NPOLSWS .V/V   : NEUTRON POROSITY LIME [SS MATRIX CONVERTS TO LS SPL. TO LS @ 6450']
RHOBED  .G/C3  : BULK DENSITY FROM DENSITY LOG [ADJ. TO GRRED]
SRESWS  .OHMM  : SHALLOW RESISTIVITY [LLSED]
~Params ----------------------------------------------------
PD  .                     GL : PERMANENT DATUM
EPD .FT               2734.7 : ELEVATION PERMANENT DATUM
LMF .                     KB : LOG MEASURED FROM
DAPD.FT                   13 : FEET ABOVE PERMANENT DATUM
DMF .                     KB : DRILLING MEASURED FROM
EKB .FT               2747.7 : KELLY BUSHING
EGL .FT               2734.7 : GROUND LEVEL
DATE.               11/17/77 : RUN DATE
RUN .                      1 : RUN NUMBER
DD  .FT                10070 : DEPTH DRILLER
DL  .FT                10075 : DEPTH LOGGER
BLI .FT                10074 : BOTTOM LOG INTERVAL
TLI .FT                 4250 : TOP LOG INTERVAL
CBD .FT                 1066 : CASING BOTTOM DRILLER
BS  .IN                 8.75 : BIT SIZE
BSD .FT                10070 : BIT SIZE AT DEPTH
DFT .                    KCL : DRILLING FLUID TYPE
DFD .                    9.3 : DRILLING FLUID DENSITY
DFV .                     85 : DRILLING FLUID VISCOSITY
DFPH.                   10.5 : DRILLING FLUID PH
RMS .OHMM               0.33 : RESISTIVITY MUD SAMPLE
MST .DEGF                 64 : MUD SAMPLE TEMPERATURE
RMF .OHMM               0.47 : RESISTIVITY MUD FILTRATE SAMPLE
MFST.DEGF                 61 : MUD FILTRATE SAMPLE TEMPERATURE
TCS .HRS                 700 : TIME CIRCULATED STOPPED
LUN .                   7730 : LOGGING UNIT NUMBER
LUL .                    EDM : LOGGING UNIT LOCATION
ENGI.                PERKINS : RECORDING ENGINEER
WITN.                  FUCHS : WITNESSED BY
CLNT.                A2DTECH : CLIENT CODE
ORIG.               5" PRINT : ORIGIN OF DATA
UWI .       100113205613W500 : UNIQUE WELL ID
DICO. A2D Technologies, Inc. : DIGITIZING COMPANY
~Other -----------------------------------------------------
~ASCII -----------------------------------------------------
# ...
 6550.00000    9.08350    9.34570    9.34570    1.14780    0.00650    2.54350    0.11860    -999.25    0.09740  871.21910    0.00650   61.26330   61.26330   71.46150   74.62530   63.02960   63.02960  871.21910  405.55020 1312.61070    0.14480    -999.25    0.14480    2.54350  405.55020
 6600.00000   10.06340    9.11880    9.11880   59.02770    0.07660    2.64220    0.10940    -999.25    0.03960   16.94120    0.07660   55.64990   55.64990   70.20000   67.66880   60.57330   60.57330   16.94120   21.61680   16.50680    0.14650    -999.25    0.14650    2.64220   21.61680
 6650.00000    9.38610    8.87260    8.87260   24.65780    0.09940    2.65690    0.10880    -999.25    0.03110   40.55520    0.09940   55.13670   55.13670   19.08430   25.07840   24.33840   24.33840   40.55520   63.27550   59.57030    0.10210    -999.25    0.10210    2.65690   63.27550
 6700.00000    9.88550   10.15600   10.15600   96.90960    0.02750    2.68390    0.00320    -999.25    0.01530   10.31890    0.02750   64.45380   64.45380   90.19860   96.21350   90.57530   90.57530   10.31890   13.18750   12.79870    0.14510    -999.25    0.14510    2.68390   13.18750
 6750.00000    9.43060    9.39830    9.39830   57.47460    0.00550    2.60950    0.05580    -999.25    0.05880   17.39900    0.00550   57.24800   57.24800   63.87920   62.45900   55.39870   55.39870   17.39900   19.47600   30.74470    0.12120    -999.25    0.12120    2.60950   19.47600
 6800.00000   10.47150   10.18270   10.18270  121.32680    0.05540    2.65620    0.03380    -999.25    0.03150    8.24220    0.05540   55.41230   55.41230   39.65820   39.17280   32.88940   32.88940    8.24220    9.33040   62.08470    0.15760    -999.25    0.15760    2.65620    9.33040
 6850.00000    9.40150    9.40400    9.40400    8.70470    0.00370    2.66690    0.02940    -999.25    0.02520  114.88000    0.00370   54.90620   54.90620   39.80700   36.67960   35.68920   35.68920  114.88000  109.16370  216.79540    0.07860    -999.25    0.07860    2.66690  109.16370
 6900.00000   10.49950    9.64210    9.64210    2.23540    0.00700    2.56920    0.07970    -999.25    0.08230  447.35360    0.00700   50.00010   50.00010   23.83450   25.82850   19.44430   19.44430  447.35360  405.53150  296.44290    0.04340    -999.25    0.04340    2.56920  405.53150
 6950.00000    9.08190    9.01000    9.01000   13.81000    0.01260    2.69490   -0.00390    -999.25    0.00880   72.41150    0.01260   51.27380   51.27380   23.65890   26.74540   25.23910   25.23910   72.41150   86.19250  109.25450    0.02800    -999.25    0.02800    2.69490   86.19250
 7000.00000    9.63980    9.43710    9.43710   12.04920   -0.00710    2.65980    0.03720    -999.25    0.02940   82.99330   -0.00710   51.82040   51.82040   25.17020   24.54490   24.27380   24.27380   82.99330   99.40350   82.29100    0.01410    -999.25    0.01410    2.65980   99.40350
 7050.00000    9.06250    8.47500    8.47500   14.22830    0.00700    2.67520    0.02110    -999.25    0.02040   70.28250    0.00700   52.84860   52.84860   29.58960   29.97930   29.75740   29.75740   70.28250   76.84350   71.23250    0.04020    -999.25    0.04020    2.67520   76.84350
 7100.00000    9.09720    9.17300    9.17300   15.67680    0.01490    2.67840    0.01580    -999.25    0.01850   63.78850    0.01490   53.95250   53.95250   36.22590   39.39390   32.73020   32.73020   63.78850   77.80930   88.93170    0.05590    -999.25    0.05590    2.67840   77.80930
 7150.00000    9.09940    9.10150    9.10150   12.37550   -0.00060    2.65310    0.02150    -999.25    0.03330   80.80450   -0.00060   54.11080   54.11080   38.24260   40.53130   39.65990   39.65990   80.80450   88.70580   89.35300    0.05550    -999.25    0.05550    2.65310   88.70580
 7200.00000    9.16180    9.17510    9.17510    6.88620   -0.00010    2.65230    0.02530    -999.25    0.03370  145.21890   -0.00010   55.68020   55.68020   59.55990   62.30140   56.71650   56.71650  145.21890  153.47910  243.70270    0.06830    -999.25    0.06830    2.65230  153.47910
 7250.00000    9.07730    9.12000    9.12000   19.00680    0.00700    2.66080    0.02560    -999.25    0.02880   52.61270    0.00700   54.23980   54.23980   54.76090   59.62510   50.67440   50.67440   52.61270   44.23470   30.17760    0.06630    -999.25    0.06630    2.66080   44.23470
 7300.00000    9.48660    9.31780    9.31780    1.18220   -0.00980    2.61430    0.05240    -999.25    0.05600  845.89260   -0.00980   49.43740   49.43740   33.74860   33.19130   27.02360   27.02360  845.89260  533.95600  267.00970    0.02540    -999.25    0.02540    2.61430  533.95600
 7350.00000   10.64810    9.80050    9.80050    0.99040    0.07940    2.56560    0.06440    -999.25    0.08440 1009.70610    0.07940   49.51180   49.51180   19.23870   17.81360   15.13570   15.13570 1009.70610  393.64780  153.60280    0.02190    -999.25    0.02190    2.56560  393.64780
 7400.00000    9.99370    9.35830    9.35830    3.42520    0.02710    2.61260    0.07710    -999.25    0.05700  291.95510    0.02710   49.95700   49.95700   16.58960   18.95690   14.05490   14.05490  291.95510  148.77080   86.18160    0.03370    -999.25    0.03370    2.61260  148.77080
 7450.00000   13.33200   10.05330   10.05330    0.53000    0.15280    2.34310    0.17760    -999.25    0.21460 1886.96140    0.15280   50.68770   50.68770   15.54910   13.98320   12.09260   12.09260 1886.96140  178.55020   11.63450    0.02890    -999.25    0.02890    2.34310  178.55020
 7500.00000   10.00550    9.41970    9.41970   24.23010    0.05120    2.59510    0.07340    -999.25    0.06720   41.27100    0.05120   50.98630   50.98630   13.07910   16.21190   14.30640   14.30640   41.27100   31.72120   97.25750    0.03390    -999.25    0.03390    2.59510   31.72120
 7550.00000   13.37040    9.80560    9.80560    3.79490    0.18360    2.41900    0.15900    -999.25    0.17020  263.50990    0.18360   49.89100   49.89100   19.42410   19.84040   15.39000   15.39000  263.50990  119.05460    2.98750    0.04440    -999.25    0.04440    2.41900  119.05460
 7600.00000   11.91910    9.71690    9.71690    0.57640    0.15980    2.46440    0.13920    -999.25    0.14360 1734.91260    0.15980   48.00230   48.00230   15.70790   16.97430   12.55510   12.55510 1734.91260  451.94600    6.40950    0.03990    -999.25    0.03990    2.46440  451.94600
 7650.00000   12.56890    9.50980    9.50980    0.25050    0.17360    2.41030    0.16420    -999.25    0.17530 3992.28080    0.17360   48.05000   48.05000   17.05440   16.76960   15.07770   15.07770 3992.28080  272.08080    4.98590    0.03110    -999.25    0.03110    2.41030  272.08080
 7700.00000   12.42280    9.58400    9.58400    0.30410    0.15880    2.43000    0.17530    -999.25    0.16370 3288.77250    0.15880   48.77320   48.77320   17.76820   18.73080   17.84940   17.84940 3288.77250  450.60100    5.43130    0.02780    -999.25    0.02780    2.43000  450.60100
 7750.00000   11.52410    9.50050    9.50050    2.59510    0.17650    2.51740    0.09950    -999.25    0.11260  385.34020    0.17650   48.92380   48.92380   20.56620   21.24810   17.07540   17.07540  385.34020  301.62450   10.98740    0.01090    -999.25    0.01090    2.51740  301.62450
 7800.00000   13.17500   10.17840   10.17840    2.62930    0.13390    2.47960    0.12880    -999.25    0.13470  380.32840    0.13390   50.22810   50.22810   15.47730   13.72060   14.89350   14.89350  380.32840  144.63750    4.10680    0.01030    -999.25    0.01030    2.47960  144.63750
 7850.00000   11.92450    9.76750    9.76750   11.39330    0.13860    2.35990    0.21370    -999.25    0.20470   87.77060    0.13860   51.28070   51.28070   14.83730   16.10710   17.20970   17.20970   87.77060   73.65090   10.02260    0.02670    -999.25    0.02670    2.35990   73.65090
 7900.00000   11.99140    9.76780    9.76780   12.75650    0.18560    2.42380    0.17410    -999.25    0.16740   78.39130    0.18560   49.54520   49.54520   17.59840   15.87630   15.65050   15.65050   78.39130   96.27930    1.15760    0.02440    -999.25    0.02440    2.42380   96.27930
