~Version ---------------------------------------------------
VERS. 2.0 : CWLS log ASCII Standard -VERSION 2.0
WRAP.  NO : ONE LINE PER DEPTH STEP
~Well ------------------------------------------------------
STRT.F                         950.0 : START DEPTH
STOP.F                        9400.0 : STOP DEPTH
STEP.F                      50.00000 : STEP LENGTH
NULL.                        -999.25 : NULL VALUE
COMP. CANADIAN PACIFIC OIL & GAS LTD : COMPANY
WELL.       CPOG OBERLIN 10-15-38-21 : WELL
FLD .                                : FIELD
LOC .                                : LOCATION
CTRY.                         CANADA : COUNTRY
SRVC.                        Unknown : SERVICE COMPANY
DATE.                    13-Apr-1967 : LOGDATE
PROV.                        Alberta : PROVINCE
UWI .               100101503821W400 : UNIQUE WELL ID
SLAT.WGS84                  52.26833 : SURFACE LATITUDE
SLON.WGS84                 -112.9183 : SURFACE LONGITUDE
~Curve Information -----------------------------------------
DEPT.F     : 
CALD.IN    : CALIPER FROM DENSITY LOG
DRHO.G/C3  : DENSITY CORRECTION
RHOB.G/C3  : BULK DENSITY
GRN .GAPI  : GAMMA RAY FROM NEUTRON GAMMA RAY
NEUT.NAPI  : NEUTRON FROM NEUTRON GAMMA RAY
CAL .IN    : CALIPER FROM CALIPER LOG
GRS .GAPI  : GAMMA RAY FROM SONIC LOG
DT  .US/F  : DELTA TIME FROM SONIC LOG
ILD .OHMM  : DEEP INDUCTION RESISTIVITY
ILM .OHMM  : INDUCTION MEDIUM RESISTIVITY
LL8 .OHMM  : LATEROLOG-8 RESISTIVITY
SPR .MV    : SPONTANEOUS POTENTIAL FROM RESISTIVITY
~Params ----------------------------------------------------
PD  .                     GL : PERMANENT DATUM
EPD .FT               2675.8 : ELEVATION PERMANENT DATUM
LMF .                     KB : LOG MEASURED FROM
DAPD.FT                   13 : FEET ABOVE PERMANENT DATUM
DMF .                     KB : DRILLING MEASURED FROM
EKB .FT               2688.8 : KELLY BUSHING
EGL .FT               2675.8 : GROUND LEVEL
DATE.               04/13/67 : RUN DATE
RUN .                      1 : RUN NUMBER
DD  .FT                 9418 : DEPTH DRILLER
DL  .FT                 9417 : DEPTH LOGGER
BLI .FT                 9413 : BOTTOM LOG INTERVAL
TLI .FT                  920 : TOP LOG INTERVAL
CBD .FT                  920 : CASING BOTTOM DRILLER
CBL .FT                  918 : CASING BOTTOM LOGGER
BS  .IN                 8.75 : BIT SIZE
BSD .FT                 9417 : BIT SIZE AT DEPTH
DFT .            CAUSTIC GEL : DRILLING FLUID TYPE
DFD .                   10.4 : DRILLING FLUID DENSITY
DFV .                     68 : DRILLING FLUID VISCOSITY
DFPH.                   10.5 : DRILLING FLUID PH
DFL .                    9.6 : DRILLING FLUID LOSS
MSS .               FLOWLINE : MUD SAMPLE SOURCE
RMS .OHMM              0.397 : RESISTIVITY MUD SAMPLE
MST .DEGF                 62 : MUD SAMPLE TEMPERATURE
RMF .OHMM              0.211 : RESISTIVITY MUD FILTRATE SAMPLE
MFST.DEGF                 76 : MUD FILTRATE SAMPLE TEMPERATURE
RMB .OHMM              0.094 : RESISTIVITY MUD AT BHT
TCS .HRS                   3 : TIME CIRCULATED STOPPED
LUN .                   7014 : LOGGING UNIT NUMBER
LUL .                  STETT : LOGGING UNIT LOCATION
ENGI.                  YOUNG : RECORDING ENGINEER
WITN.                KOZBIAL : WITNESSED BY
CLNT.                A2DTECH : CLIENT CODE
ORIG.            2" 5" PRINT : ORIGIN OF DATA
UWI .       100101503821W400 : UNIQUE WELL ID
DICO. A2D Technologies, Inc. : DIGITIZING COMPANY
~Other -----------------------------------------------------
~ASCII -----------------------------------------------------
  950.00000    -999.25    -999.25    -999.25    -999.25    -999.25    -999.25   63.46070   97.55100    6.84230    5.14600    6.41220  -65.14330
 1000.00000    -999.25    -999.25    -999.25    -999.25    -999.25    -999.25   58.75170  107.98730    3.47010    2.70960    2.84880  -65.70410
 1050.00000    -999.25    -999.25    -999.25    -999.25    -999.25    -999.25   76.73210  110.86430    3.80740    3.51180    4.67370  -64.59250
 1100.00000    -999.25    -999.25    -999.25    -999.25    -999.25    -999.25   63.80240   97.07040    3.84430    3.44910    4.99900  -60.68070
 1150.00000    -999.25    -999.25    -999.25    -999.25    -999.25    -999.25   74.81680  121.41220    2.70790    2.51420    3.32800  -61.79290
 1200.00000    -999.25    -999.25    -999.25    -999.25    -999.25    -999.25   62.37400  104.68380    5.39490    3.70630    4.38920  -60.20920
 1250.00000    -999.25    -999.25    -999.25    -999.25    -999.25    -999.25   70.05620  117.87150    3.07220    3.37340    4.50970  -59.24780
 1300.00000    -999.25    -999.25    -999.25    -999.25    -999.25    -999.25   63.96780   95.09390    4.36500    3.70370    3.95350  -59.81220
 1350.00000    -999.25    -999.25    -999.25    -999.25    -999.25    -999.25   56.75280   96.06280    3.26710    2.94830    3.82490  -59.12130
 1400.00000    -999.25    -999.25    -999.25    -999.25    -999.25    -999.25   62.90700  101.98520    3.43030    3.11610    3.91660  -59.35670
 1450.00000    -999.25    -999.25    -999.25    -999.25    -999.25    -999.25   65.31030   79.93760    4.04470    3.80280    5.86680  -58.44110
 1500.00000    -999.25    -999.25    -999.25    -999.25    -999.25    -999.25   56.13540   99.86100    5.16600    4.49860    4.70840  -59.37440
 1550.00000    -999.25    -999.25    -999.25    -999.25    -999.25    -999.25   74.11980   92.91590    5.41950    4.23500    4.43570  -53.94040
 1600.00000    -999.25    -999.25    -999.25    -999.25    -999.25    -999.25   64.19620  115.53210    3.64720    3.03400    3.39320  -61.01620
 1650.00000    -999.25    -999.25    -999.25    -999.25    -999.25    -999.25   50.05650   83.93550    6.22160    5.39270    6.55830  -60.50270
 1700.00000    -999.25    -999.25    -999.25    -999.25    -999.25    -999.25   71.99940  109.38820    4.37630    3.98100    4.72990  -60.56600
 1750.00000    -999.25    -999.25    -999.25    -999.25    -999.25    -999.25   55.53590  134.32980    3.34360    2.59950    3.06150  -59.55360
 1800.00000    -999.25    -999.25    -999.25    -999.25    -999.25    -999.25   57.62820   83.66430    4.37480    4.06230    3.44190  -60.29980
 1850.00000    -999.25    -999.25    -999.25    -999.25    -999.25    -999.25   50.44960   96.92050    5.43790    4.00010    5.08510  -58.93960
 1900.00000    -999.25    -999.25    -999.25    -999.25    -999.25    -999.25   54.19300  122.58790    2.92880    2.96130    3.49580  -60.07150
 1950.00000    -999.25    -999.25    -999.25    -999.25    -999.25    -999.25   53.94340   95.26230    3.44290    2.99620    3.72750  -59.21410
 2000.00000    -999.25    -999.25    -999.25    -999.25    -999.25    -999.25   57.38630  106.01700    3.61510    3.37930    4.10490  -60.13020
 2050.00000    -999.25    -999.25    -999.25    -999.25    -999.25    -999.25   61.05880  120.03700    3.62300    3.26350    4.12610  -58.22870
 2100.00000    -999.25    -999.25    -999.25    -999.25    -999.25    -999.25   60.34950  101.15220    3.46430    4.06040    8.10960  -59.28050
 2150.00000    -999.25    -999.25    -999.25    -999.25    -999.25    -999.25   44.45860   97.30320    4.82490    4.40400    6.59600  -59.53500
 2200.00000    -999.25    -999.25    -999.25    -999.25    -999.25    -999.25   51.38300  105.13830    5.47740    4.69060    5.60630  -59.35870
 2250.00000    -999.25    -999.25    -999.25    -999.25    -999.25    -999.25   60.65290  102.98820    3.55980    3.21990    4.42510  -59.24790
 2300.00000    -999.25    -999.25    -999.25    -999.25    -999.25    -999.25   69.28600  106.28590    2.85620    2.65570    3.45770  -59.16830
 2350.00000    -999.25    -999.25    -999.25    -999.25    -999.25    -999.25   67.18970  108.26810    3.29170    3.06260    3.95990  -59.73550
 2400.00000    -999.25    -999.25    -999.25    -999.25    -999.25    -999.25   78.05760   93.52530    5.35260    4.45490    5.77270  -60.32940
 2450.00000    -999.25    -999.25    -999.25    -999.25    -999.25    -999.25   71.65130   95.28890    5.40190    4.29660    6.02100  -60.93450
 2500.00000    -999.25    -999.25    -999.25    -999.25    -999.25    -999.25   69.15950   81.86560    8.50810    5.97350   11.60560  -61.57400
 2550.00000    -999.25    -999.25    -999.25    -999.25    -999.25    -999.25   76.03490   97.67330    6.18450    5.00170    6.81230  -60.96090
 2600.00000    -999.25    -999.25    -999.25    -999.25    -999.25    -999.25   82.14170   88.97660    6.12490    4.99720    6.62900  -60.07130
 2650.00000    -999.25    -999.25    -999.25    -999.25    -999.25    -999.25   91.78440  100.26630    6.58980    5.54820    7.55620  -61.96050
 2700.00000    -999.25    -999.25    -999.25    -999.25    -999.25    -999.25   94.74550   97.91560    6.11260    5.10010    7.57760  -61.00380
 2750.00000    -999.25    -999.25    -999.25    -999.25    -999.25    -999.25   92.62650   89.95400    9.32400    8.29730   11.91230  -60.75140
 2800.00000    -999.25    -999.25    -999.25    -999.25    -999.25    -999.25   96.95880   93.92660    6.26440    5.47220    8.34030  -60.66840
 2850.00000    -999.25    -999.25    -999.25    -999.25    -999.25    -999.25   90.99310  102.71380    5.59450    4.71090    7.00280  -60.69880
 2900.00000    -999.25    -999.25    -999.25    -999.25    -999.25    -999.25   86.26600   93.79500    6.00750    5.45090    6.73070  -60.53150
 2950.00000    -999.25    -999.25    -999.25    -999.25    -999.25    -999.25   94.31840   99.06190    4.35290    3.99140    5.08430  -60.52360
 3000.00000    -999.25    -999.25    -999.25    -999.25    -999.25    -999.25   85.24210   97.99950    4.63170    4.06390    5.37160  -58.24010
 3050.00000    -999.25    -999.25    -999.25    -999.25    -999.25    -999.25   84.01470   92.09080    5.66050    4.81500    6.08190  -58.94460
 3100.00000    -999.25    -999.25    -999.25    -999.25    -999.25    -999.25   84.42270   93.05810    5.28430    4.70250    5.89680  -59.71870
 3150.00000    -999.25    -999.25    -999.25    -999.25    -999.25    -999.25   89.01040  100.19510    5.12710    4.59750    5.90320  -59.12290
 3200.00000    -999.25    -999.25    -999.25    -999.25    -999.25    -999.25   87.86450   95.30040    6.25850    5.37690    7.60820  -60.15080
 3250.00000    -999.25    -999.25    -999.25    -999.25    -999.25    -999.25   85.92990   90.22920    6.45010    4.85300    6.24700  -60.54940
 3300.00000    -999.25    -999.25    -999.25    -999.25    -999.25    -999.25   94.47040  100.58140    5.77640    4.82200    5.52520  -60.45670
 3350.00000    -999.25    -999.25    -999.25    -999.25    -999.25    -999.25   95.23390   92.69640    5.16040    4.88360    6.02770  -60.72700
 3400.00000    -999.25    -999.25    -999.25    -999.25    -999.25    -999.25   93.44530  101.29820    4.97280    4.37210    6.13550  -61.58750
 3450.00000    -999.25    -999.25    -999.25    -999.25    -999.25    -999.25   97.27690   99.54630    4.41770    3.88710    5.71360  -60.88900
 3500.00000    -999.25    -999.25    -999.25    -999.25    -999.25    -999.25  109.74800   94.58720    7.36600    6.81140   10.75720  -60.64370
 3550.00000    -999.25    -999.25    -999.25    -999.25    -999.25    -999.25   84.60140   91.13780    8.78920    8.44200   12.90520  -62.46300
 3600.00000    -999.25    -999.25    -999.25    -999.25    -999.25   13.24730   93.81610   98.16290    4.92740    4.54500    6.29120  -62.23770
 3650.00000    -999.25    -999.25    -999.25    -999.25    -999.25   11.30470  161.55390  103.69100    9.46470    8.98150   17.47320  -63.88240
 3700.00000    -999.25    -999.25    -999.25    -999.25    -999.25   11.39460  142.55070  107.34100    4.97220    4.62560    7.62830  -62.24690
