~Version ---------------------------------------------------
VERS.      2.0 : CWLS log ASCII Standard -VERSION 2.0
WRAP.       NO : One line per depth step
CREA. 07/27/17 : LAS Creation Date
~Well ------------------------------------------------------
STRT.FT                1200.0 : START DEPTH
STOP.FT               11450.0 : STOP DEPTH
STEP.FT              50.00000 : STEP LENGTH
NULL.                 -999.25 : NULL VALUE
COMP. TRIAD OIL COMPANY, LTD. : COMPANY
WELL.   TRIAD ANTE 11-2-66-25 : WELL
FLD .                         : FIELD
LOC .                         : LOCATION
CTRY.                  CANADA : COUNTRY
SRVC.  Schlumberger of Canada : SERVICE COMPANY
DATE.             07-Apr-1966 : LOGDATE
PROV.                 Alberta : PROVINCE
UWI .        100110206625W500 : UNIQUE WELL ID
SLAT.WGS84           54.68518 : SURFACE LATITUDE
SLON.WGS84           -117.671 : SURFACE LONGITUDE
~Curve Information -----------------------------------------
DEPT  .FT    : Depth Curve
CALWS .IN    : CALIPER [MCALED]
CILDED.MMHO  : DEEP INDUCTION CONDUCTIVITYFROM RESISTIVITY LOG
CONDWS.MMHO  : CONDUCTIVITY [1000/DRESWS]
DRESWS.OHMM  : DEEP RESISTIVITY [1000/CILDED IF ILDED<1.5, ILDED]
DTED  .US/F  : DELTA-T FROM SONIC LOG
DTWS  .US/F  : COMPRESSIONAL SONIC [DTED]
GRSED .GAPI  : GAMMA RAY FROM SONIC LOG
GRWS  .GAPI  : GAMMA RAY [GRSED]
ILDED .OHMM  : DEEP INDUCTIONFROM RESISTIVITY LOG
MCALED.IN    : CALIPER MICROLOG
SNED  .OHMM  : 16 INCH SHORT NORMAL RESISTIVITY FROM IEL
SPRED .MV    : SPONTANEOUS POTENTIALFROM RESISTIVITY LOG
SPWS  .MV    : SPONTANEOUS POTENTIAL [BASELINE 0 MV, SPRED]
SRESWS.OHMM  : SHALLOW RESISTIVITY [SNED]
~Params ----------------------------------------------------
PD  .                     GL : PERMANENT DATUM
EPD .FT               2586.5 : ELEVATION PERMANENT DATUM
LMF .                     KB : LOG MEASURED FROM
DAPD.FT                 13.5 : FEET ABOVE PERMANENT DATUM
EKB .FT               2600.3 : KELLY BUSHING
EGL .FT               2586.5 : GROUND LEVEL
DATE.               04/07/66 : RUN DATE
RUN .                      2 : RUN NUMBER
DD  .FT                11487 : DEPTH DRILLER
DL  .FT                11346 : DEPTH LOGGER
BLI .FT                11488 : BOTTOM LOG INTERVAL
TLI .FT                11485 : TOP LOG INTERVAL
CBD .FT                 1162 : CASING BOTTOM DRILLER
CBL .FT                 1158 : CASING BOTTOM LOGGER
BS  .IN                8.625 : BIT SIZE
BSD .FT                11487 : BIT SIZE AT DEPTH
DFT .               GEL CHEM : DRILLING FLUID TYPE
DFD .                    9.4 : DRILLING FLUID DENSITY
DFV .                     11 : DRILLING FLUID VISCOSITY
DFPH.                    8.5 : DRILLING FLUID PH
DFL .                     11 : DRILLING FLUID LOSS
RMS .OHMM                0.6 : RESISTIVITY MUD SAMPLE
MST .DEGF                 60 : MUD SAMPLE TEMPERATURE
RMF .OHMM               0.41 : RESISTIVITY MUD FILTRATE SAMPLE
MFST.DEGF                 63 : MUD FILTRATE SAMPLE TEMPERATURE
RMC .OHMM               0.66 : RESISTIVITY MUD CAKE
MCST.DEGF                 62 : MUD CAKE SAMPLE TEMPERATURE
RMB .OHMM              0.095 : RESISTIVITY MUD AT BHT
TCS .HRS                 3.5 : TIME CIRCULATED STOPPED
LUN .                   3705 : LOGGING UNIT NUMBER
LUL .                    EDM : LOGGING UNIT LOCATION
ENGI.              BLACKBURN : RECORDING ENGINEER
WITN.                  GOGAL : WITNESSED BY
CLNT.                A2DTECH : CLIENT CODE
ORIG.            2" 5" PRINT : ORIGIN OF DATA
UWI .       100110206625W500 : UNIQUE WELL ID
DICO. A2D Technologies, Inc. : DIGITIZING COMPANY
~Other -----------------------------------------------------
~ASCII -----------------------------------------------------
 1200.00000    -999.25  422.13690  335.52800    2.98040  117.25880  117.25880   59.15440   59.15440    2.98040    -999.25    4.69680  -78.44010  -13.75470    4.69680
 1250.00000    -999.25  276.95790  228.20110    4.38210  105.14630  105.14630   61.77230   61.77230    4.38210    -999.25    6.35490  -72.22420   -3.21640    6.35490
 1300.00000    -999.25  521.39590  394.01100    2.53800  113.20090  113.20090   59.46020   59.46020    2.53800    -999.25    3.74080  -77.44920   -8.44140    3.74080
 1350.00000    -999.25  539.00040  416.70140    2.39980  129.93160  129.93160   71.72650   71.72650    2.39980    -999.25    3.63670  -71.74500   -2.73720    3.63670
 1400.00000    -999.25  493.96840  370.57620    2.69850  122.45970  122.45970   85.14620   85.14620    2.69850    -999.25    4.69770  -77.00410   -8.06210    4.69770
 1450.00000    -999.25  232.28410  199.55470    5.01150  104.89450  104.89450   65.01500   65.01500    5.01150    -999.25    7.31600  -80.68670  -11.83180    7.31600
 1500.00000    -999.25  159.26200  143.91800    6.94840   93.57350   93.57350   63.60680   63.60680    6.94840    -999.25    8.94760  -79.11450  -10.34550    8.94760
 1550.00000    -999.25  422.98000  338.38660    2.95520  103.32790  103.32790   68.78740   68.78740    2.95520    -999.25    4.04550  -82.16350  -13.48070    4.04550
 1600.00000    -999.25  280.22170  242.33020    4.12660   85.06230   85.06230   73.94660   73.94660    4.12660    -999.25    6.88550  -77.31150   -8.71550    6.88550
 1650.00000    -999.25  620.24020  455.37340    2.19600  112.04560  112.04560   68.20870   68.20870    2.19600    -999.25    3.11530  -78.49280   -9.98300    3.11530
 1700.00000    -999.25  614.03950  438.30750    2.28210   96.64600   96.64600   51.76690   51.76690    2.28210    -999.25    3.68180  -79.55370  -11.13090    3.68180
 1750.00000    -999.25  482.03680  383.30330    2.60890  136.21040  136.21040   59.92690   59.92690    2.60890    -999.25    3.40850  -76.38810   -8.05130    3.40850
 1800.00000    -999.25  184.65140  163.30530    6.12350  109.44880  109.44880   62.16280   62.16280    6.12350    -999.25    7.28980  -86.61470  -18.36410    7.28980
 1850.00000    -999.25  530.25400  391.57330    2.55380  125.88680  125.88680   66.10750   66.10750    2.55380    -999.25    3.58000  -75.52670   -7.36280    3.58000
 1900.00000    -999.25  173.45760  168.87610    5.92150  104.51950  104.51950   51.53290   51.53290    5.92150    -999.25    6.72130  -84.81180  -16.73420    6.72130
 1950.00000    -999.25   75.06600   62.61700   16.02200  160.22160  160.22160   47.53010   47.53010   16.02200    -999.25    8.46820  -86.36890  -18.37830    8.46820
 2000.00000    -999.25  418.50680  332.35840    3.00880  141.61140  141.61140   60.96200   60.96200    3.00880    -999.25    4.25140  -78.81410  -10.90940    4.25140
 2050.00000    -999.25  278.39700  238.20870    4.19800  107.88910  107.88910   43.39170   43.39170    4.19800    -999.25    5.79830  -76.30960   -8.49120    5.79830
 2100.00000    -999.25  456.63910  354.98760    2.81700   99.52640   99.52640   53.63380   53.63380    2.81700    -999.25    4.18090  -78.55350  -10.82180    4.18090
 2150.00000    -999.25  448.04880  357.87140    2.79430  111.44600  111.44600   56.10650   56.10650    2.79430    -999.25    3.94930  -76.75710   -9.11160    3.94930
 2200.00000    -999.25  348.76680  292.62050    3.42410  103.76660  103.76660   51.73070   51.73070    3.42410    -999.25    5.15390  -77.07220   -9.51380    5.15390
 2250.00000    -999.25  406.53650  312.09040    3.20420   97.09350   97.09350   61.89830   61.89830    3.20420    -999.25    3.91610  -77.30540   -9.83290    3.91610
 2300.00000    -999.25  208.06220  188.75050    5.29800   86.10620   86.10620   45.28850   45.28850    5.29800    -999.25    8.04080  -77.44890  -10.06260    8.04080
 2350.00000    -999.25  457.30040  362.00410    2.76240  117.10630  117.10630   39.76530   39.76530    2.76240    -999.25    4.69300  -75.93790   -8.63840    4.69300
 2400.00000    -999.25  466.02500  357.67940    2.79580  123.14750  123.14750   58.49680   58.49680    2.79580    -999.25    3.83490  -75.36300   -8.14970    3.83490
 2450.00000    -999.25  367.48530  291.96380    3.42510  102.75140  102.75140   55.83340   55.83340    3.42510    -999.25    4.80870  -81.44710  -14.32090    4.80870
 2500.00000    -999.25  452.70540  347.93500    2.87410  109.31500  109.31500   50.82910   50.82910    2.87410    -999.25    3.83090  -75.27530   -8.23500    3.83090
 2550.00000    -999.25  224.96690  172.30680    5.80360  144.40250  144.40250   51.70890   51.70890    5.80360    -999.25    6.71630  -81.14910  -14.19500    6.71630
 2600.00000    -999.25  297.01820  254.51770    3.92900   96.83330   96.83330   55.50380   55.50380    3.92900    -999.25    5.40530  -79.03870  -12.17140    5.40530
 2650.00000    -999.25  585.49080  417.03160    2.39790  100.64470  100.64470   53.71390   53.71390    2.39790    -999.25    3.75200  -72.27290   -5.49180    3.75200
 2700.00000    -999.25  152.29400  136.41130    7.33120   95.85690   95.85690   36.14140   36.14140    7.33120    -999.25   10.33520  -85.57880  -18.88480   10.33520
 2750.00000    -999.25  262.13190  230.84030    4.33200   95.61550   95.61550   52.53530   52.53530    4.33200    -999.25    6.06550  -83.29220  -16.55050    6.06550
 2800.00000    -999.25  168.56290  151.90180    6.58320   98.06490   98.06490   45.46450   45.46450    6.58320    -999.25    8.62250  -85.36000  -18.38710    8.62250
 2850.00000    -999.25  329.31380  273.24640    3.65970  101.74740  101.74740   60.08150   60.08150    3.65970    -999.25    5.08460  -78.82880  -11.62320    5.08460
 2900.00000    -999.25  276.72440  232.48790    4.30130   97.50450   97.50450   63.74250   63.74250    4.30130    -999.25    5.99360  -74.01100   -6.57420    5.99360
 2950.00000    -999.25  223.70530  196.28300    5.09480   83.11360   83.11360   60.98850   60.98850    5.09480    -999.25    7.01770  -70.73740   -3.06720    7.01770
 3000.00000    -999.25  172.29050  154.68860    6.46460   91.34080   91.34080   78.98050   78.98050    6.46460    -999.25    8.45680  -71.85210   -4.11610    8.45680
 3050.00000    -999.25  206.15780  181.98360    5.49500  101.44900  101.44900   96.74520   96.74520    5.49500    -999.25    8.20940  -74.70180   -7.24530    8.20940
 3100.00000    -999.25  158.13080  144.38970    6.92570   95.67800   95.67800  100.36170  100.36170    6.92570    -999.25   10.80240  -72.94420   -5.76900   10.80240
 3150.00000    -999.25  159.33650  144.64240    6.91360   92.08260   92.08260   87.89190   87.89190    6.91360    -999.25   10.59840  -71.72440   -4.82870   10.59840
 3200.00000    -999.25  202.30770  180.14120    5.55170   94.83170   94.83170   78.00060   78.00060    5.55170    -999.25    8.49510  -71.49300   -4.87960    8.49510
 3250.00000    -999.25  226.46350  194.66240    5.13710   96.62580   96.62580   80.34680   80.34680    5.13710    -999.25    7.09380  -72.86900   -6.53420    7.09380
 3300.00000    -999.25  223.21010  196.71490    5.08350   97.06070   97.06070   83.21320   83.21320    5.08350    -999.25    7.17900  -69.99250   -3.93720    7.17900
 3350.00000    -999.25  116.09430  109.37210    9.14310   93.16290   93.16290   78.74920   78.74920    9.14310    -999.25   10.54970  -67.63720   -1.86320   10.54970
 3400.00000    -999.25  220.72520  193.50590    5.16780   90.46060   90.46060   78.51710   78.51710    5.16780    -999.25    7.51040  -69.24310   -3.74860    7.51040
 3450.00000    -999.25  219.91730  196.00410    5.10190   95.69050   95.69050   86.34880   86.34880    5.10190    -999.25    7.57990  -71.15500   -5.94270    7.57990
 3500.00000    -999.25  248.27340  211.08180    4.73750   91.95730   91.95730   85.71430   85.71430    4.73750    -999.25    6.51730  -70.94480   -6.01110    6.51730
 3550.00000    -999.25  214.66100  188.35580    5.30910   91.51040   91.51040   85.89380   85.89380    5.30910    -999.25    7.38390  -68.10790   -3.45370    7.38390
 3600.00000    -999.25  117.97700  112.19570    8.91300   84.46030   84.46030   70.22900   70.22900    8.91300    -999.25   11.24070  -69.00190   -4.62910   11.24070
