~Version ---------------------------------------------------
VERS.      2.0 : CWLS log ASCII Standard -VERSION 2.0
WRAP.       NO : One line per depth step
CREA. 01/03/18 : LAS Creation Date
~Well ------------------------------------------------------
STRT.FT                         650.0 : START DEPTH
STOP.FT                        8900.0 : STOP DEPTH
STEP.FT                      50.00000 : STEP LENGTH
NULL.                         -999.25 : NULL VALUE
COMP.    J. RAY MCDERMOTT & CO., INC. : COMPANY
WELL. MCDERMOTT JUDY CREEK 2-14-64-11 : WELL
FLD .                                 : FIELD
LOC .                                 : LOCATION
CTRY.                          CANADA : COUNTRY
SRVC.          Schlumberger of Canada : SERVICE COMPANY
DATE.                     14-Mar-1960 : LOGDATE
PROV.                         Alberta : PROVINCE
UWI .                100021406411W500 : UNIQUE WELL ID
SLAT.WGS84                   54.53274 : SURFACE LATITUDE
SLON.WGS84                  -115.5482 : SURFACE LONGITUDE
~Curve Information -----------------------------------------
DEPT   .FT         : Depth Curve
CALWS  .IN         : CALIPER [MCALED]
CGRED  .GAPI       : COMPUTED GAMMA RAY FROM GR LOG [CASED HOLE]
CILDED .MMHO       : CONDUCTIVITY FROM RESISTIVITY LOG
CONDWS .MMHO       : CONDUCTIVITY [1000/DRESWS]
DRESWS .OHMM       : DEEP RESISTIVITY [1000/CILDED]
DTED   .US/F       : DELTA TIME FROM SONIC LOG
DTWS   .US/F       : DELTA TIME [DTED]
GRED   .GAPI       : GAMMA RAY FROM GR LOG [CASEDHOLE]
GRSED  .UgRa-Eq/T  : GAMMA RAY FROM SONIC LOG
GRWS   .GAPI       : GAMMA RAY [2575' GRED 8448' GRSED]
ILDED  .OHMM       : INDUCTION LOG DEEP RESISTIVITY
MCALED .IN         : CALIPER FROM MICROLOG
MINVED .OHMM       : MICROINVERSE RESISTIVITY FROM MICROLOG
MNORED .OHMM       : MICRONORMAL RESISTIVITY FROM MICROLOG
NEUTED .CPS        : NEUTRON FROM NEUTRON LOG [CASEDHOLE]
NEUTWS .CPS        : NEUTRON
SIGMAED.CU         : FORMATION SIGMA (NEUTRON CAPTURE CROSS SECTION)[CASEDHOLE]
SNED   .OHMM       : 16 INCH SHORT NORMAL RESISTIVITY FROM IEL
SPRED  .MV         : SPONTANEOUS POTENTIAL FROM RESISTIVITY LOG
SPWS   .MV         : SPONTANEOUS POTENTIAL [BASELINE 0 MV] [SPRED]
SRESWS .OHMM       : SHALLOW RESISTIVITY [SNED]
TENSED .LBF        : TENSION FROM SONIC LOG
~Params ----------------------------------------------------
LMF .                     KB : LOG MEASURED FROM
DMF .                     KB : DRILLING MEASURED FROM
EKB .FT                 3450 : KELLY BUSHING
EGL .FT               3438.8 : GROUND LEVEL
DATE.               03/14/60 : RUN DATE
RUN .                      1 : RUN NUMBER
DD  .FT                 8925 : DEPTH DRILLER
DL  .FT                 8920 : DEPTH LOGGER
BLI .FT                 8914 : BOTTOM LOG INTERVAL
TLI .FT                  627 : TOP LOG INTERVAL
CS  .IN                10.75 : CASING SIZE
CBL .FT                  627 : CASING BOTTOM LOGGER
BS  .IN                 8.75 : BIT SIZE
BSD .FT                 8925 : BIT SIZE AT DEPTH
DFT .                    GYP : DRILLING FLUID TYPE
DFD .                   10.2 : DRILLING FLUID DENSITY
DFV .                     64 : DRILLING FLUID VISCOSITY
RMS .OHMM                1.6 : RESISTIVITY MUD SAMPLE
MST .DEGF                 75 : MUD SAMPLE TEMPERATURE
TCS .HRS                 2.5 : TIME CIRCULATED STOPPED
LUN .                   2786 : LOGGING UNIT NUMBER
LUL .                     SH : LOGGING UNIT LOCATION
ENGI.               WILLIAMS : RECORDING ENGINEER
WITN.                 STEELE : WITNESSED BY
CLNT.                A2DTECH : CLIENT CODE
ORIG.            2" 5" PRINT : ORIGIN OF DATA
UWI .       100021406411W500 : UNIQUE WELL ID
DICO. A2D Technologies, Inc. : DIGITIZING COMPANY
~Other -----------------------------------------------------
~ASCII -----------------------------------------------------
# ...
 5450.00000   10.55240    -999.25  139.85100  139.85100    7.15050    -999.25    -999.25    -999.25    -999.25    -999.25    7.23650   10.55240   17.85820   13.02760    -999.25    -999.25    -999.25   10.98710 -170.06320  -29.71230   10.98710    -999.25
 5500.00000    9.69740    -999.25  139.93840  139.93840    7.14600    -999.25    -999.25    -999.25    -999.25    -999.25    7.37230    9.69740   12.94770   10.51800    -999.25    -999.25    -999.25   12.09600 -169.80080  -30.33140   12.09600    -999.25
 5550.00000    9.57060    -999.25    5.11450    5.11440  195.52620    -999.25    -999.25    -999.25    -999.25    -999.25  288.70400    9.57060   40.05600    -999.25    -999.25    -999.25    -999.25  130.96040 -202.20220  -63.64570  130.96040    -999.25
 5600.00000    9.47090    -999.25  308.14310  308.14310    3.24520    -999.25    -999.25    -999.25    -999.25    -999.25    3.62990    9.47090   39.99300   15.84560    -999.25    -999.25    -999.25    7.98530 -176.23290  -38.60820    7.98530    -999.25
 5650.00000    9.23050    -999.25  164.50720  164.41460    6.08220    -999.25    -999.25    -999.25    -999.25    -999.25    6.29790    9.23050   19.83360   16.71780    -999.25    -999.25    -999.25   12.00200 -164.42930  -27.72710   12.00200    -999.25
 5700.00000    9.10720    -999.25  138.67220  138.67220    7.21130    -999.25    -999.25    -999.25    -999.25    -999.25    6.33090    9.10720   22.95450   14.21190    -999.25    -999.25    -999.25   17.78920 -196.17670  -60.40620   17.78920    -999.25
 5750.00000    9.27610    -999.25   19.97940   19.97940   50.05160    -999.25    -999.25    -999.25    -999.25    -999.25   56.35820    9.27610    8.32580    -999.25    -999.25    -999.25    -999.25   63.22160 -177.35170  -42.50830   63.22160    -999.25
 5800.00000    8.88690    -999.25   12.41750   12.27300   81.47980    -999.25    -999.25    -999.25    -999.25    -999.25  158.77460    8.88690    -999.25   39.92300    -999.25    -999.25    -999.25   68.13830 -158.47410  -24.55320   68.13830    -999.25
 5850.00000    8.80120    -999.25   90.23100   90.23100   11.08270    -999.25    -999.25    -999.25    -999.25    -999.25   10.48030    8.80120   29.73610   39.85610    -999.25    -999.25    -999.25   17.90190 -150.54230  -17.55320   17.90190    -999.25
 5900.00000    8.85510    -999.25   51.26960   51.26900   19.50500    -999.25    -999.25    -999.25    -999.25    -999.25   20.66000    8.85510   39.99430   39.92350    -999.25    -999.25    -999.25   27.65580 -153.98470  -21.91810   27.65580    -999.25
 5950.00000    8.79390    -999.25   38.38970   38.38970   26.04870    -999.25    -999.25    -999.25    -999.25    -999.25   28.20270    8.79390   39.96440    -999.25    -999.25    -999.25    -999.25   33.62340 -152.58650  -21.45170   33.62340    -999.25
 6000.00000    8.96070    -999.25  176.13820  176.13820    5.67740    -999.25    -999.25    -999.25    -999.25    -999.25    6.04430    8.96070    9.68040    5.73620    -999.25    -999.25    -999.25    8.85340 -140.45920  -10.25150    8.85340    -999.25
 6050.00000    8.99490    -999.25  105.64250  105.63040    9.46700    -999.25    -999.25    -999.25    -999.25    -999.25    9.53640    8.99490   33.42700   15.99850    -999.25    -999.25    -999.25   13.07220 -138.72830   -9.44310   13.07220    -999.25
 6100.00000    8.78240    -999.25  143.97420  143.97420    6.94570    -999.25    -999.25    -999.25    -999.25    -999.25    7.01510    8.78240   16.31290    8.08700    -999.25    -999.25    -999.25   10.90010 -138.56410  -10.21070   10.90010    -999.25
 6150.00000    8.81190    -999.25   63.34810   63.33280   15.78960    -999.25    -999.25    -999.25    -999.25    -999.25   15.85220    8.81190   39.99020    -999.25    -999.25    -999.25    -999.25   21.82980 -155.18530  -27.75430   21.82980    -999.25
 6200.00000    9.00660    -999.25  107.06890  107.06890    9.33980    -999.25    -999.25    -999.25    -999.25    -999.25   10.14110    9.00660   23.47520    7.35790    -999.25    -999.25    -999.25   16.22020 -127.84730   -1.37910   16.22020    -999.25
 6250.00000    9.02400    -999.25  277.51590  277.51590    3.60340    -999.25    -999.25    -999.25    -999.25    -999.25    4.54850    9.02400    9.78650    6.57740    -999.25    -999.25    -999.25    9.13050 -161.28170  -36.77250    9.13050    -999.25
 6300.00000    8.80470    -999.25   11.13940   11.12060   89.92310    -999.25    -999.25    -999.25    -999.25    -999.25  129.17040    8.80470    -999.25    -999.25    -999.25    -999.25    -999.25  108.34530 -174.75800  -52.19810  108.34530    -999.25
 6350.00000    8.72010    -999.25    8.19760    8.19760  121.98690    -999.25    -999.25    -999.25    -999.25    -999.25  326.69670    8.72010    -999.25    -999.25    -999.25    -999.25    -999.25  130.38040 -178.81050  -58.21930  130.38040    -999.25
 6400.00000    8.79990    -999.25    7.22730    7.18650  139.14940    -999.25    -999.25    -999.25    -999.25    -999.25  195.95850    8.79990    -999.25    -999.25    -999.25    -999.25    -999.25  101.02090 -180.84480  -62.20280  101.02090    -999.25
 6450.00000    8.79950    -999.25   15.22130   15.22130   65.69740    -999.25    -999.25    -999.25    -999.25    -999.25   84.43430    8.79950    -999.25    -999.25    -999.25    -999.25    -999.25   78.32820 -181.14640  -64.47330   78.32820    -999.25
 6500.00000    8.83660    -999.25    5.72150    5.72150  174.77930    -999.25    -999.25    -999.25    -999.25    -999.25  206.56660    8.83660   40.01450    -999.25    -999.25    -999.25    -999.25   96.46880 -218.02760 -103.31350   96.46880    -999.25
 6550.00000    8.71910    -999.25  363.88840  362.45290    2.75900    -999.25    -999.25    -999.25    -999.25    -999.25    2.76240    8.71910   13.70090   29.67710    -999.25    -999.25    -999.25   24.79790 -227.49560 -114.73070   24.79790    -999.25
 6600.00000    8.70650    -999.25   45.54780   45.54780   21.95500    -999.25    -999.25    -999.25    -999.25    -999.25   24.83730    8.70650    8.58320   15.87180    -999.25    -999.25    -999.25   82.84390 -217.36600 -106.56990   82.84390    -999.25
 6650.00000    8.72620    -999.25   37.27880   37.24780   26.84720    -999.25    -999.25    -999.25    -999.25    -999.25   30.62320    8.72620   26.48170   39.99680    -999.25    -999.25    -999.25   88.04270 -218.42710 -109.58020   88.04270    -999.25
 6700.00000    8.77100    -999.25   14.58480   14.58480   68.56450    -999.25    -999.25    -999.25    -999.25    -999.25   95.40680    8.77100    -999.25    -999.25    -999.25    -999.25    -999.25   99.16400 -196.75110  -89.87300   99.16400    -999.25
 6750.00000    8.80240    -999.25   10.40550   10.40550   96.10300    -999.25    -999.25    -999.25    -999.25    -999.25   96.65590    8.80240    -999.25    -999.25    -999.25    -999.25    -999.25   89.32160 -180.95580  -76.03680   89.32160    -999.25
 6800.00000    8.71940    -999.25   18.05330   18.05320   55.39190    -999.25    -999.25    -999.25    -999.25    -999.25   68.89400    8.71940   28.82550   40.03800    -999.25    -999.25    -999.25  106.68590 -195.40340  -92.43350  106.68590    -999.25
 6850.00000    8.73280    -999.25   26.64670   26.64670   37.52810    -999.25    -999.25    -999.25    -999.25    -999.25   43.37170    8.73280   18.73510   36.46200    -999.25    -999.25    -999.25   87.88310 -213.33290 -112.33190   87.88310    -999.25
 6900.00000    8.80330    -999.25  101.05170  100.58610    9.94170    -999.25    -999.25    -999.25    -999.25    -999.25   12.51460    8.80330   39.06140   40.10830    -999.25    -999.25    -999.25   55.02720 -217.72920 -118.67740   55.02720    -999.25
 6950.00000    8.97040    -999.25    2.59790    2.59790  384.92630    -999.25    -999.25    -999.25    -999.25    -999.25  498.97950    8.97040    -999.25    -999.25    -999.25    -999.25    -999.25  149.66560 -162.39530  -65.31230  149.66560    -999.25
 7000.00000    8.79960    -999.25   37.14940   37.14940   26.91830    -999.25    -999.25    -999.25    -999.25    -999.25   29.50020    8.79960   40.03950    -999.25    -999.25    -999.25    -999.25   35.21650 -137.02670  -41.90270   35.21650    -999.25
