~Version ---------------------------------------------------
VERS.      2.0 : CWLS log ASCII Standard -VERSION 2.0
WRAP.       NO : One line per depth step
CREA. 10/22/19 : LAS Creation Date
~Well ------------------------------------------------------
STRT.ft                                          300.0 : START DEPTH
STOP.ft                                        10300.0 : STOP DEPTH
STEP.ft                                       50.00000 : STEP LENGTH
NULL.                                          -999.25 : NULL VALUE
COMP.                             IMPERIAL OIL LIMITED : COMPANY
WELL. IMPERIAL CANADIAN SUPERIOR BUCK CREEK 14-29-48-6 : WELL
FLD .                                          WILDCAT : FIELD
LOC .                                                  : LOCATION
CTRY.                                           CANADA : COUNTRY
SRVC.                           Schlumberger of Canada : SERVICE COMPANY
DATE.                                      27-May-1954 : LOGDATE
PROV.                                          Alberta : PROVINCE
UWI .                                 100142904806W500 : UNIQUE WELL ID
SLAT.WGS84                                    53.17637 : SURFACE LATITUDE
SLON.WGS84                                   -114.8447 : SURFACE LONGITUDE
~Curve Information -----------------------------------------
DEPT   .ft     : Depth Curve
GRD    .GAPI   : GAMMA RAY FROM CNL LOG
GRN    .MR/HR  : GAMMA RAY FROM GRN LOG
LN     .OHMM   : LONG NORMAL RESISTIVITY
LT18   .OHMM   : LATERAL 18'
NEUT   .NAPI   : NEUTRON
NPHI_DM.DEC    : NEUTRON POROSITY DOLOMITE MATRIX FROM CNL LOG
NPHI_LS.DEC    : NEUTRON POROSITY LIMESTONE FROM CNL LOG
NPHI_SS.DEC    : NEUTRON POROSITY SANDSTONE FROM CNL LOG
SN     .OHMM   : SHORT NORMAL RESISTIVITY
SPR    .MV     : SPONTANEOUS POTENTIAL FROM RESISTIVITY LOG
~Params ----------------------------------------------------
LMF .                     KB : LOG MEASURED FROM
DMF .                     KB : DRILLING MEASURED FROM
EKB .FT                 2810 : KELLY BUSHING
DATE.               05/27/54 : RUN DATE
RUN .                      4 : RUN NUMBER
DD  .FT                10219 : DEPTH DRILLER
DL  .FT                10221 : DEPTH LOGGER
BLI .FT                10221 : BOTTOM LOG INTERVAL
TLI .FT                 7088 : TOP LOG INTERVAL
BS  .IN                8.625 : BIT SIZE
BSD .FT                10219 : BIT SIZE AT DEPTH
DFT .              LIME BASE : DRILLING FLUID TYPE
DFD .                   10.5 : DRILLING FLUID DENSITY
DFV .                    220 : DRILLING FLUID VISCOSITY
DFPH.                   12.5 : DRILLING FLUID PH
DFL .                    9.5 : DRILLING FLUID LOSS
RMS .OHMM                1.0 : RESISTIVITY MUD SAMPLE
MST .DEGF                 72 : MUD SAMPLE TEMPERATURE
RMB .OHMM               0.42 : RESISTIVITY MUD AT BHT
TCS .HRS                   2 : TIME CIRCULATED STOPPED
LUN .                   1772 : LOGGING UNIT NUMBER
ENGI.              HENDERSON : RECORDING ENGINEER
WITN.               MCKENZIE : WITNESSED BY
CLNT.                A2DTECH : CLIENT CODE
ORIG.            2" 5" PRINT : ORIGIN OF DATA
UWI .       100142904806W500 : UNIQUE WELL ID
DICO. A2D Technologies, Inc. : DIGITIZING COMPANY
~Other -----------------------------------------------------
CONVERTED CNL. CURVES FROM M to F. KEPT THE ENTIRE WELL AS FEET.
~ASCII -----------------------------------------------------
# ...
 3600.00000   33.39940    3.06050   29.02750    2.37970  346.25420    0.20370    0.27570    0.31150   47.76190 -113.02860
 3650.00000    -999.25    3.98790    6.78540   13.03270  314.76430    -999.25    -999.25    -999.25    6.82440  -57.93070
 3700.00000    -999.25    4.73250    5.08590    6.42100  194.21590    -999.25    -999.25    -999.25    5.74190  -58.59290
 3750.00000    -999.25    5.09420    6.16590    5.94610  196.16030    -999.25    -999.25    -999.25    8.46960  -60.58450
 3800.00000    -999.25    5.71720    7.74170    9.68310  162.64320    -999.25    -999.25    -999.25   10.04150  -63.47050
 3850.00000    -999.25    6.36300    9.11000    9.13190  215.23050    -999.25    -999.25    -999.25   11.20060  -63.66170
 3900.00000    -999.25    5.59840    9.40880   11.61500  170.53020    -999.25    -999.25    -999.25   11.94850  -64.52760
 3950.00000    -999.25    6.32250    8.52650   10.19300  194.47700    -999.25    -999.25    -999.25   11.32470  -66.11750
 4000.00000    -999.25    6.12350    8.46900    9.89360  189.38280    -999.25    -999.25    -999.25   11.87340  -65.32050
 4050.00000    -999.25    6.66330    8.77300   10.84420  186.75330    -999.25    -999.25    -999.25   12.37990  -66.16720
 4100.00000    -999.25    6.40430   12.16280   12.21950  194.80500    -999.25    -999.25    -999.25   16.44670  -58.75320
 4150.00000    -999.25    7.34210   12.25230   12.88480  163.67140    -999.25    -999.25    -999.25   17.68090  -58.10320
 4200.00000    -999.25    5.73710    9.15410   11.61310  157.29320    -999.25    -999.25    -999.25   11.87730  -60.72930
 4250.00000    -999.25    5.75540    7.92850   11.19040  143.34120    -999.25    -999.25    -999.25   11.24800  -61.28130
 4300.00000    -999.25    5.16230    7.40190    8.60100  199.60560    -999.25    -999.25    -999.25   11.71180  -62.68220
 4350.00000    -999.25    5.02740    7.51820    9.33950  200.21770    -999.25    -999.25    -999.25   13.12500  -61.15040
 4400.00000    -999.25    4.98200    7.88900    7.13760  208.30430    -999.25    -999.25    -999.25   10.86780  -60.55480
 4450.00000    -999.25    5.30030    7.76670    9.93510  175.65780    -999.25    -999.25    -999.25   12.65210  -59.44680
 4500.00000    -999.25    5.55350    6.70610    9.60490  151.94530    -999.25    -999.25    -999.25   10.43440  -60.40400
 4550.00000    -999.25    5.77730    5.51670    8.29400  254.43940    -999.25    -999.25    -999.25    9.69050  -60.09460
 4600.00000    -999.25    5.91680    8.23490    8.76470  434.22490    -999.25    -999.25    -999.25   11.47790  -59.26880
 4650.00000    -999.25    4.71230   44.00680   21.62670  492.27070    -999.25    -999.25    -999.25   36.21830  -77.36800
 4700.00000    -999.25    6.03270   12.74970   18.37430  259.68660    -999.25    -999.25    -999.25   12.47520  -79.61450
 4750.00000    -999.25    7.73530    9.20480   10.75450  180.13100    -999.25    -999.25    -999.25   10.85400  -80.33190
 4800.00000    -999.25    8.70360   10.55940   11.24920   46.64570    -999.25    -999.25    -999.25   11.09120  -82.37830
 4850.00000    -999.25    8.57990    8.96220    9.13870  117.48460    -999.25    -999.25    -999.25    9.81140  -80.49900
 4900.00000    -999.25    8.50790    9.36010    9.68280    5.93420    -999.25    -999.25    -999.25   10.23050  -79.81020
 4950.00000    -999.25    9.64970    8.09810    7.72870   59.66800    -999.25    -999.25    -999.25    9.82210  -76.46990
 5000.00000    -999.25    9.71640   11.67960   10.97980   53.34140    -999.25    -999.25    -999.25   14.31740  -76.34840
 5050.00000    -999.25   10.27190   11.39250   10.42380   76.91700    -999.25    -999.25    -999.25   14.10840  -74.61640
 5100.00000    -999.25    9.63670   19.11810   11.85450   75.45030    -999.25    -999.25    -999.25   21.12050  -70.73680
 5150.00000    -999.25   10.28730   18.89210   15.04950   72.21490    -999.25    -999.25    -999.25   19.76840  -68.79330
 5200.00000    -999.25    9.78350    8.95970    8.43440   49.44470    -999.25    -999.25    -999.25   11.03050  -70.63870
 5250.00000    -999.25   11.95150   16.86450   14.97870  120.93990    -999.25    -999.25    -999.25   26.31030  -68.25860
 5300.00000    -999.25    9.40340    9.41700    9.83180   28.70090    -999.25    -999.25    -999.25   12.28980  -69.42360
 5350.00000    -999.25   10.37590    8.54410    8.67450    4.07280    -999.25    -999.25    -999.25   11.35440  -69.85730
 5400.00000    -999.25   11.65660    5.41220    8.82940   -1.20370    -999.25    -999.25    -999.25    7.97980  -69.47530
 5450.00000    -999.25    9.34890    2.91740    5.24920   42.82600    -999.25    -999.25    -999.25    3.85140  -68.50870
 5500.00000    -999.25    9.22180    3.26280    2.85870   41.27630    -999.25    -999.25    -999.25    4.42170  -67.95220
 5550.00000    -999.25    8.48860    7.34680    4.67940  340.96650    -999.25    -999.25    -999.25    9.44000  -67.50660
 5600.00000    -999.25    7.14740   19.13030   18.88430  486.35870    -999.25    -999.25    -999.25   20.96550  -70.83320
 5650.00000    -999.25    8.10320    8.59750   13.13310  431.91090    -999.25    -999.25    -999.25   11.13700  -65.77150
 5700.00000    -999.25    9.14660    3.80950    1.80940  104.40960    -999.25    -999.25    -999.25    4.16410  -34.06640
 5750.00000    -999.25    6.68880   35.40920   44.80010  252.90360    -999.25    -999.25    -999.25   18.45930  -44.91570
 5800.00000    -999.25    6.76320   39.46630   36.96240  304.03470    -999.25    -999.25    -999.25   21.10220  -47.51300
 5850.00000    -999.25    7.12720   27.36760   29.67160  362.14070    -999.25    -999.25    -999.25   18.33870  -55.85240
 5900.00000    -999.25    5.18830   32.87320   56.24250   22.86670    -999.25    -999.25    -999.25   24.52770  -55.05080
 5950.00000    -999.25    8.09370   23.27240   28.92210  139.12120    -999.25    -999.25    -999.25   13.50150  -48.28700
 6000.00000    -999.25    7.55610   29.73200   57.51030  341.90010    -999.25    -999.25    -999.25   18.27450  -49.19630
 6050.00000    -999.25    5.76540   45.21420   62.16730  495.44660    -999.25    -999.25    -999.25   25.19120  -61.21580
 6100.00000    -999.25    8.81640   35.63650   40.51380  430.70410    -999.25    -999.25    -999.25   24.43090  -48.08100
 6150.00000    -999.25    7.28980   33.68760   33.74140  460.16430    -999.25    -999.25    -999.25   22.73140  -55.83270
 6200.00000    -999.25    7.83150   74.48300   42.38730  456.42210    -999.25    -999.25    -999.25   38.37650  -53.09130
 6250.00000    -999.25    4.64900   31.21540  155.34890  481.02910    -999.25    -999.25    -999.25   16.47920  -40.77360
 6300.00000    -999.25    8.84750   13.30970   10.67250    6.04410    -999.25    -999.25    -999.25    9.85230  -35.59890
 6350.00000    -999.25    2.47340   83.18300  128.88620  217.85310    -999.25    -999.25    -999.25   46.44310  -90.19910
 6400.00000    -999.25    3.80200   49.87460 1172.70540  163.68300    -999.25    -999.25    -999.25   24.34240  -85.69590
 6450.00000    -999.25    1.71730  203.28550  114.33970  646.32750    -999.25    -999.25    -999.25   83.62340  -81.88880
 6500.00000    -999.25    2.55630  604.98750 1025.65890  795.64540    -999.25    -999.25    -999.25  112.97830  -77.99390
 6550.00000    -999.25    2.66960  790.70970 1182.30380  746.40100    -999.25    -999.25    -999.25  101.63110  -69.57550
 6600.00000    -999.25    3.70140  152.96570    -999.25  716.84230    -999.25    -999.25    -999.25   54.54300  -55.27480
 6650.00000    -999.25    3.78720   86.22570  158.75280  658.80390    -999.25    -999.25    -999.25   44.64660  -51.95910
 6700.00000    -999.25    4.16630   80.07700  167.63670  609.30770    -999.25    -999.25    -999.25   41.76180  -55.50190
 6750.00000    -999.25    3.30230   92.30000  173.03220  618.74380    -999.25    -999.25    -999.25   45.90350  -54.12440
 6800.00000    -999.25    3.83650  120.22740  201.14700  668.60760    -999.25    -999.25    -999.25   51.79090  -53.56150
 6850.00000    -999.25    3.43470  188.66420  326.31610  630.45180    -999.25    -999.25    -999.25   65.79720  -46.62540
