~Version ---------------------------------------------------
VERS.      2.0 : CWLS log ASCII Standard -VERSION 2.0
WRAP.       NO : One line per depth step
CREA. 07/26/13 : LAS Creation Date
~Well ------------------------------------------------------
STRT.M                             400.0 : START DEPTH
STOP.M                            2500.0 : STOP DEPTH
STEP.M                          50.00000 : STEP LENGTH
NULL.                            -999.25 : NULL VALUE
COMP. CALPINE CANADA NATURAL GAS COMPANY : COMPANY
WELL.  NORWICH ET AL TWINING 10-14-33-24 : WELL
FLD .                                    : FIELD
LOC .                                    : LOCATION
CTRY.                             CANADA : COUNTRY
SRVC.                                BPB : SERVICE COMPANY
DATE.                        26-Feb-1988 : LOGDATE
PROV.                            Alberta : PROVINCE
UWI .                   102101403324W400 : UNIQUE WELL ID
SLAT.WGS84                      51.83447 : SURFACE LATITUDE
SLON.WGS84                     -113.2957 : SURFACE LONGITUDE
~Curve Information -----------------------------------------
DEPT    .M      : DEPTH METER
CALSED  .MM     : CALIPER FROM SONIC LOG [ADJ. TO RESISTIVITY LOG]
CALWS   .MM     : CALIPER [CALSED SPL. TO CALXDED @ 2516.4M]
CALXDED .MM     : CALIPER X FROM DENSITY LOG [ADJ. TO RESISTIVITY LOG/CALSED]
CALYDED .MM     : CALIPER Y FROM DENSITY LOG [ADJ. TO RESISTIVITY LOG/CALSED]
CONDWS  .MMHO   : CONDUCTIVITY [1000/DRESWS]
DCORED  .KG/M3  : DENSITY CORRECTION FROM DENSITY LOG [ADJ. TO RESISTIVITY LOG]
DCORWS  .KG/M3  : DENSITY CORRECTION [DCORED]
DENED   .KG/M3  : BULK DENSITY FROM DENSITY LOG [ADJ. TO RESISTIVITY LOG/DPHILSED]
DENWS   .KG/M3  : FORMATION BULK DENSITY [CALC FROM DPOLSWS, M=2710,F=1000]
DPHILSED.V/V    : DENSITY POROSITY LIMESTONE [M=2710,F=1000] FROM DENSITY LOG [ADJ. TO RESISTIVITY LOG]
DPOLSWS .V/V    : DENSITY POROSITY LIMESTONE [DPHILSED]
DRESWS  .OHMM   : DEEP RESISTIVITY [ILDED]
DTED    .US/M   : DELTA TIME FROM SONIC LOG [ADJ. TO RESISTIVITY LOG]
DTWS    .US/M   : COMPRESSIONAL SONIC [DTED]
GRDED   .GAPI   : GAMMA RAY FROM DENSITY LOG [ADJ. TO RESISTIVITY LOG]
GRSED   .GAPI   : GAMMA RAY FROM SONIC LOG [ADJ. TO RESISTIVITY LOG]
GRWS    .GAPI   : GAMMA RAY [GRSED SPL. TO GRDED @ 2521.5M]
ILDED   .OHMM   : DEEP INDUCTION RESISTIVITY FROM RESISTIVITY LOG
ILMED   .OHMM   : MEDIUM INDUCTION RESISTIVITY FROM RESISTIVITY LOG
MRESWS  .OHMM   : MEDIUM RESISTIVITY [ILMED]
NPHILSED.V/V    : NEUTRON POROSITY LIMESTONE FROM DENSITY LOG [ADJ. TO RESISTIVITY LOG]
NPOLSWS .V/V    : NEUTRON POROSITY LIMESTONE [NPHILSED]
SFLED   .OHMM   : SPHERICALLY FOCUSED LOG FROM RESISTIVITY LOG
SPRED   .MV     : SPONTANEOUS POTENTIAL FROM RESISTIVITY LOG
SPWS    .MV     : SPONTANEOUS POTENTIAL [BASELINE 0 MV, SPRED]
SRESWS  .OHMM   : SHALLOW RESISTIVITY [SFLED]
TENDED  .N      : TENSION FROM DENSITY LOG [ADJ. TO RESISTIVITY LOG]
TENSRED .N      : TENSION FROM SONIC LOG [ADJ. TO RESISTIVITY LOG]
~Params ----------------------------------------------------
PD  .                         GL : PERMANENT DATUM
EPD .M                    889.28 : ELEVATION PERMANENT DATUM
DAPD.M                      7.25 : FEET ABOVE PERMANENT DATUM
DMF .                         KB : DRILLING MEASURED FROM
EKB .M                    896.53 : KELLY BUSHING
EGL .M                    889.28 : GROUND LEVEL
DATE.                   02/26/88 : RUN DATE
RUN .                          1 : RUN NUMBER
DD  .M                      2530 : DEPTH DRILLER
DL  .M                      2531 : DEPTH LOGGER
BLI .M                      2531 : BOTTOM LOG INTERVAL
TLI .M                       397 : TOP LOG INTERVAL
CBD .M                       397 : CASING BOTTOM DRILLER
CBL .M                       397 : CASING BOTTOM LOGGER
BS  .MM                      222 : BIT SIZE
BSD .M                      2530 : BIT SIZE AT DEPTH
DFT .                   GEL CHEM : DRILLING FLUID TYPE
DFD .                       1140 : DRILLING FLUID DENSITY
DFV .                         50 : DRILLING FLUID VISCOSITY
DFPH.                         11 : DRILLING FLUID PH
DFL .                       16.5 : DRILLING FLUID LOSS
MSS .                   FLOWLINE : MUD SAMPLE SOURCE
RMS .OHMM                   0.51 : RESISTIVITY MUD SAMPLE
MST .DEGC                     23 : MUD SAMPLE TEMPERATURE
RMF .OHMM                    0.4 : RESISTIVITY MUD FILTRATE SAMPLE
MFST.DEGC                     23 : MUD FILTRATE SAMPLE TEMPERATURE
RMC .OHMM                    0.6 : RESISTIVITY MUD CAKE
MCST.DEGC                     23 : MUD CAKE SAMPLE TEMPERATURE
MFSS.                      PRESS : MUD FILTRATE SAMPLE SOURCE
MCSS.                      PRESS : MUD CAKE SAMPLE SOURCE
RMB .OHMM                   0.25 : RESISTIVITY MUD AT BHT
TCS .HRS                       6 : TIME CIRCULATED STOPPED
LUN .                       1023 : LOGGING UNIT NUMBER
LUL .                       HRDD : LOGGING UNIT LOCATION
ENGI.                 NOWAKOWSKI : RECORDING ENGINEER
WITN.                     MULLER : WITNESSED BY
CLNT.                    A2DTECH : CLIENT CODE
ORIG. 6.5"/100M 16.5"/100M PRINT : ORIGIN OF DATA
UWI .           102101403324W400 : UNIQUE WELL ID
DICO.     A2D Technologies, Inc. : DIGITIZING COMPANY
~Other -----------------------------------------------------
DIL-SFL-CDL-DNL-BHC SONIC TOOL RUN
DEN HAS TAKEN FROM SMALL SECTION
GRD VERIFIED (0-100 GAPI) RESCALED TO (0-150 GAPI)
DT VERIFIED 150-50 US/F SCALE CONVERTED TO US/M DTED*3.28084
~ASCII -----------------------------------------------------
  400.00000  311.51250  311.51250  305.12270  253.35240  163.12950    -999.25    -999.25    -999.25    -999.25    -999.25    -999.25    6.13010  351.63910  351.63910    -999.25   68.38880   68.38880    6.13010    7.20400    7.20400    -999.25    -999.25    7.36520  -22.51520   -2.93880    7.36520 2656.03760    -999.25
  450.00000  285.83000  285.83000  285.60970  242.90140   99.61750    -999.25    -999.25    -999.25    -999.25    -999.25    -999.25   10.03840  324.17090  324.17090    -999.25   66.80060   66.80060   10.03840   11.82630   11.82630    -999.25    -999.25    8.73260  -22.09590   -3.54560    8.73260 3152.95730    -999.25
  500.00000  274.25500  274.25500  282.14870  235.44920  134.44840    -999.25    -999.25    -999.25    -999.25    -999.25    -999.25    7.43780  309.11450  309.11450    -999.25   64.19770   64.19770    7.43780    8.55150    8.55150    -999.25    -999.25   14.23210  -23.51340   -3.88270   14.23210 3371.87340    -999.25
  550.00000  283.01750  283.01750  284.83140  222.82240  190.10680    -999.25    -999.25    -999.25    -999.25    -999.25    -999.25    5.26020  395.10470  395.10470    -999.25   55.18640   55.18640    5.26020    6.45620    6.45620    -999.25    -999.25   13.98110  -24.83680   -4.12570   13.98110 3365.83850    -999.25
  600.00000  253.42500  253.42500  260.78220  227.78210  115.98780    -999.25    -999.25    -999.25    -999.25    -999.25    -999.25    8.62160  317.51310  317.51310    -999.25   68.19170   68.19170    8.62160   10.46480   10.46480    -999.25    -999.25    8.28970  -23.69700   -3.76690    8.28970 3567.81180    -999.25
  650.00000  233.49500  233.49500  235.16330  233.46040  123.65980    -999.25    -999.25    -999.25    -999.25    -999.25    -999.25    8.08670  339.66670  339.66670    -999.25   40.91840   40.91840    8.08670    8.39920    8.39920    -999.25    -999.25    6.89290  -27.95020   -9.12260    6.89290 3716.90730    -999.25
  700.00000  313.69750  313.69750  343.25730  272.07100  215.05840    -999.25    -999.25    -999.25    -999.25    -999.25    -999.25    4.64990  362.62830  362.62830    -999.25   63.46600   63.46600    4.64990    5.50100    5.50100    -999.25    -999.25    5.08470  -22.02020   -3.56670    5.08470 3834.89900    -999.25
  750.00000  321.35500  321.35500  296.97790  258.74120  203.11990    -999.25    -999.25    -999.25    -999.25    -999.25    -999.25    4.92320  352.69230  352.69230    -999.25   61.16460   61.16460    4.92320    5.84130    5.84130    -999.25    -999.25    6.03910  -21.54480   -3.46540    6.03910 4273.58040    -999.25
  800.00000  251.72250  251.72250  274.73460  251.87090  112.65960    -999.25    -999.25    -999.25    -999.25    -999.25    -999.25    8.87630  316.53610  316.53610    -999.25   55.47410   55.47410    8.87630    9.87500    9.87500    -999.25    -999.25    8.81200  -22.39830   -4.69300    8.81200 4523.85700    -999.25
  850.00000  233.35000  233.35000  237.09670  225.15800   58.44600    -999.25    -999.25    -999.25    -999.25    -999.25    -999.25   17.10980  278.39900  278.39900    -999.25   37.01810   37.01810   17.10980   15.29820   15.29820    -999.25    -999.25   35.39430  -34.60010  -16.50370   35.39430 4008.35880    -999.25
  900.00000  280.54000  280.54000  272.92670  261.58870  199.21110    -999.25    -999.25    -999.25    -999.25    -999.25    -999.25    5.01980  342.27040  342.27040    -999.25   62.21590   62.21590    5.01980    6.07930    6.07930    -999.25    -999.25    5.37200  -21.09160   -1.82510    5.37200 4354.53500    -999.25
  950.00000  374.01750  374.01750  341.08890  263.89790  123.88500    -999.25    -999.25    -999.25    -999.25    -999.25    -999.25    8.07200  328.10800  328.10800    -999.25   80.96760   80.96760    8.07200    8.43520    8.43520    -999.25    -999.25    8.90130  -23.64520   -4.04960    8.90130 4529.98840    -999.25
 1000.00000  396.49250  396.49250  352.99930  248.79200  119.12700    -999.25    -999.25    -999.25    -999.25    -999.25    -999.25    8.39440  335.20150  335.20150    -999.25   96.43310   96.43310    8.39440    9.12710    9.12710    -999.25    -999.25    9.55730  -23.99560   -4.07090    9.55730 4723.56080    -999.25
 1050.00000  294.78000  294.78000  293.55840  231.66180  115.96620    -999.25    -999.25    -999.25    -999.25    -999.25    -999.25    8.62320  326.54330  326.54330    -999.25   93.80960   93.80960    8.62320   10.87210   10.87210    -999.25    -999.25   12.32470  -22.77810   -2.52430   12.32470 4825.15720    -999.25
 1100.00000  354.90250  354.90250  323.90850  236.09020  125.50830    -999.25    -999.25    -999.25    -999.25    -999.25    -999.25    7.96760  318.43960  318.43960    -999.25   87.25530   87.25530    7.96760    9.75600    9.75600    -999.25    -999.25    9.04220  -22.77550   -2.19260    9.04220 5008.89240    -999.25
 1150.00000  324.70750  324.70750  291.38270  281.61400  146.66410    -999.25    -999.25    -999.25    -999.25    -999.25    -999.25    6.81830  319.90030  319.90030    -999.25   94.96600   94.96600    6.81830    8.22300    8.22300    -999.25    -999.25    7.24910  -23.77410   -3.97430    7.24910 5395.01050    -999.25
 1200.00000  330.23000  330.23000  310.97300  256.71460   75.57150    -999.25    -999.25    -999.25    -999.25    -999.25    -999.25   13.23250  292.78380  292.78380    -999.25   69.64120   69.64120   13.23250   15.20060   15.20060    -999.25    -999.25   12.24080  -24.85480   -5.90160   12.24080 5251.62430    -999.25
 1250.00000  339.39750  339.39750  322.01720  258.77140  119.46290    -999.25    -999.25    -999.25    -999.25    -999.25    -999.25    8.37080  322.31070  322.31070    -999.25  102.19820  102.19820    8.37080    9.65030    9.65030    -999.25    -999.25    8.42710  -22.75420   -4.64760    8.42710 5421.86840    -999.25
 1300.00000  252.02750  252.02750  251.65930  244.84690   89.77470    -999.25    -999.25    -999.25    -999.25    -999.25    -999.25   11.13900  324.59650  324.59650    -999.25  127.07370  127.07370   11.13900   14.93720   14.93720    -999.25    -999.25   13.75680  -21.51460   -4.25460   13.75680 5224.67690    -999.25
 1350.00000  302.34750  302.34750  262.61710  253.14920   94.87670    -999.25    -999.25    -999.25    -999.25    -999.25    -999.25   10.54000  340.27000  340.27000    -999.25  153.90990  153.90990   10.54000   13.05690   13.05690    -999.25    -999.25   13.27440  -20.43900   -4.02560   13.27440 5493.73160    -999.25
 1400.00000  401.43750  401.43750  343.54860  401.52560  294.10900    -999.25    -999.25    -999.25    -999.25    -999.25    -999.25    3.40010  347.01410  347.01410    -999.25   85.69810   85.69810    3.40010    3.61830    3.61830    -999.25    -999.25    4.10540  -21.37610   -4.89040    4.10540 5652.01230    -999.25
 1450.00000  276.50750  276.50750  279.11430  263.06010   64.06070    -999.25    -999.25    -999.25    -999.25    -999.25    -999.25   15.61020  275.88940  275.88940    -999.25   61.47390   61.47390   15.61020   19.81980   19.81980    -999.25    -999.25   16.93740  -25.29150   -8.01730   16.93740 5978.69810    -999.25
 1500.00000  286.05500  286.05500  312.55380  276.31760  135.65940    -999.25    -999.25    -999.25    -999.25    -999.25    -999.25    7.37140  292.60240  292.60240    -999.25   53.31070   53.31070    7.37140    9.24080    9.24080    -999.25    -999.25    7.78660  -23.78120   -8.21020    7.78660 6023.29240    -999.25
 1550.00000  284.71500  284.71500  286.01630  283.15500  116.21560    -999.25    -999.25    -999.25    -999.25    -999.25    -999.25    8.60470  284.18870  284.18870    -999.25   68.34010   68.34010    8.60470   10.51120   10.51120    -999.25    -999.25    9.94560  -18.42750   -7.21610    9.94560 6260.10950    -999.25
 1600.00000  268.75750  268.75750  280.43180  259.04620   45.35190    -999.25    -999.25    -999.25    -999.25    -999.25    -999.25   22.04980  270.24410  270.24410    -999.25   62.75490   62.75490   22.04980   27.28060   27.28060    -999.25    -999.25   37.35940  -12.12120   -5.26930   37.35940 6321.29520    -999.25
