~Version ---------------------------------------------------
VERS.      2.0 : CWLS log ASCII Standard -VERSION 2.0
WRAP.       NO : One line per depth step
CREA. 11/22/17 : LAS Creation Date
~Well ------------------------------------------------------
STRT.FT                              300.0 : START DEPTH
STOP.FT                            16950.0 : STOP DEPTH
STEP.FT                           50.00000 : STEP LENGTH
NULL.                              -999.25 : NULL VALUE
COMP.                        BANFF OIL LTD : COMPANY
WELL. BANFF AQUIT SIEBENS RAMR 14-21-37-11 : WELL
FLD .                                      : FIELD
LOC .                                      : LOCATION
CTRY.                               CANADA : COUNTRY
SRVC.                         Schlumberger : SERVICE COMPANY
DATE.                          21-Oct-1970 : LOGDATE
PROV.                              Alberta : PROVINCE
UWI .                     100142103711W500 : UNIQUE WELL ID
SLAT.WGS84                        52.19912 : SURFACE LATITUDE
SLON.WGS84                       -115.5164 : SURFACE LONGITUDE
~Curve Information -----------------------------------------
DEPT    .FT    : Depth Curve
CALDED  .IN    : CALIPER FROM DENSITY LOG [DEP. ADJ. TO ILMED]
CALNED  .IN    : CALIPER FROM NEUTRON LOG [DEP. ADJ. TO ILMED]
CALSED  .IN    : CALIPER FROM SONIC LOG [DEP. ADJ. TO ILMED]
CALWS   .IN    : CALIPER 148' CALSED 13012' CALNED 13190' CALDED 14980' CALSED 15315' CALDED 16246' CALSED]
CONDWS  .MMHO  : DEEP CONDUCTIVITY [1000/DRESWS]
DCORWS  .G/C3  : DENSITY CORRECTION [DRHOED]
DENWS   .G/C3  : BULK DENSITY [M=2.71, F=1.00] [RHOBED]
DPHILSED.V/V   : DENSITY POROSITY [M=2.71, F=1.00] FROM DENSITY LOG [DEP. ADJ. TO ILMED]
DPOLSWS .V/V   : DENSITY POROSITY [M=2.71, F=1.00] [CAL. FROM DENWS]
DRESWS  .OHMM  : DEEP RESISTIVITY [ILDED]
DRHOED  .G/C3  : DENSITY CORRECTION FROM DENSITY LOG [DEP. ADJ. TO ILMED]
DTED    .US/F  : DELTA TIME FROM SONIC LOG [DEP. ADJ. TO ILMED]
DTWS    .US/F  : DELTA TIME [DTED]
GRDED   .GAPI  : GAMMA RAY FROM DENSITY LOG [DEP. ADJ. TO ILMED]
GRNED   .GAPI  : GAMMA RAY FROM NEUTRON LOG [DEP. ADJ. TO ILMED]
GRSED   .GAPI  : GAMMA RAY FROM SONIC LOG [DEP. ADJ. TO ILMED]
GRWS    .GAPI  : GAMMA RAY [GRSED]
ILDED   .OHMM  : INDUCTION LOG DEEP RESISTIVITY
ILMED   .OHMM  : INDUCTION LOG MEDIUM RESISTIVITY
LL8ED   .OHMM  : 8 INCH LATEROLOG RESISTIVITY
MRESWS  .OHMM  : MEDIUM RESISTIVITY [ILMED]
NPOLSWS .V/V   : NEUTRON POROSITY LIMESTONE [SNPLSED]
RHOBED  .G/C3  : BULK DENSITY FROM DENSITY LOG [DEP. ADJ. TO ILMED]
SNPLSED .V/V   : SIDEWALL NEUTRON POROSITY [LIMESTONE] [DEP. ADJ. TO ILMED]
SPRED   .MV    : SPONTANEOUS POTENTIAL FROM RESIST. LOG [DIVIDED BY 2 BELOW 13778'], SHIFTS REMOVED, PATCHED]
SPWS    .MV    : SPONTANEOUS POTENTIAL [BASELINE 0 MV] [SPRED][PL. USE W/ RESERVATION]
SRESWS  .OHMM  : SHALLOW RESISTIVITY [LL8ED]
~Params ----------------------------------------------------
PD  .                     GL : PERMANENT DATUM
EPD .FT                 4914 : ELEVATION PERMANENT DATUM
LMF .                     KB : LOG MEASURED FROM
DAPD.FT                 18.7 : FEET ABOVE PERMANENT DATUM
EKB .FT               4932.7 : KELLY BUSHING
EGL .FT                 4914 : GROUND LEVEL
DATE.               10/21/70 : RUN DATE
RUN .                      4 : RUN NUMBER
DD  .FT                16960 : DEPTH DRILLER
DL  .FT                16960 : DEPTH LOGGER
BLI .FT                16954 : BOTTOM LOG INTERVAL
TLI .FT                16000 : TOP LOG INTERVAL
BS  .IN                8.375 : BIT SIZE
BSD .FT                16960 : BIT SIZE AT DEPTH
DFT .                    GEL : DRILLING FLUID TYPE
DFD .                   10.1 : DRILLING FLUID DENSITY
DFV .                     61 : DRILLING FLUID VISCOSITY
DFPH.                     10 : DRILLING FLUID PH
DFL .                    8.4 : DRILLING FLUID LOSS
MSS .               FLOWLINE : MUD SAMPLE SOURCE
RMS .OHMM               1.51 : RESISTIVITY MUD SAMPLE
MST .DEGF                 66 : MUD SAMPLE TEMPERATURE
RMF .OHMM               1.11 : RESISTIVITY MUD FILTRATE SAMPLE
MFST.DEGF                 70 : MUD FILTRATE SAMPLE TEMPERATURE
TCS .HRS                   4 : TIME CIRCULATED STOPPED
LUN .                   7002 : LOGGING UNIT NUMBER
LUL .                     RD : LOGGING UNIT LOCATION
ENGI.                 TALBOT : RECORDING ENGINEER
WITN.          LEMEE BRINKER : WITNESSED BY
CLNT.                A2DTECH : CLIENT CODE
ORIG.            2" 5" PRINT : ORIGIN OF DATA
UWI .       100142103711W500 : UNIQUE WELL ID
DICO. A2D Technologies, Inc. : DIGITIZING COMPANY
~Other -----------------------------------------------------
~ASCII -----------------------------------------------------
  300.00000    -999.25    -999.25   12.91580   12.91580    7.52590    -999.25    -999.25    -999.25    -999.25  132.87450    -999.25   89.82200   89.82200    -999.25    -999.25   71.37190   71.37190  132.87450  111.59830   96.57890  111.59830    -999.25    -999.25    -999.25  -77.00920  -53.26160   96.57890
  350.00000    -999.25    -999.25   12.84430   12.84430    5.54330    -999.25    -999.25    -999.25    -999.25  180.39740    -999.25   78.40070   78.40070    -999.25    -999.25   57.18320   57.18320  180.39740  183.90660  125.55060  183.90660    -999.25    -999.25    -999.25  -74.76010  -51.01250  125.55060
  400.00000    -999.25    -999.25   12.81500   12.81500    1.67980    -999.25    -999.25    -999.25    -999.25  595.30560    -999.25   61.65420   61.65420    -999.25    -999.25   44.50810   44.50810  595.30560  284.14860  859.63480  284.14860    -999.25    -999.25    -999.25  -76.38450  -52.63690  859.63480
  450.00000    -999.25    -999.25   12.81140   12.81140    8.55170    -999.25    -999.25    -999.25    -999.25  116.93590    -999.25   84.09710   84.09710    -999.25    -999.25   67.72910   67.72910  116.93590  113.67070   99.83510  113.67070    -999.25    -999.25    -999.25  -63.18080  -39.43320   99.83510
  500.00000    -999.25    -999.25   12.78800   12.78800   12.13330    -999.25    -999.25    -999.25    -999.25   82.41770    -999.25   76.26620   76.26620    -999.25    -999.25   58.36040   58.36040   82.41770   66.56010   69.85940   66.56010    -999.25    -999.25    -999.25  -59.85700  -36.10940   69.85940
  550.00000    -999.25    -999.25   12.57940   12.57940    2.18470    -999.25    -999.25    -999.25    -999.25  457.72110    -999.25   65.49570   65.49570    -999.25    -999.25   45.29440   45.29440  457.72110  195.46730 1181.62590  195.46730    -999.25    -999.25    -999.25  -55.83570  -32.08810 1181.62590
  600.00000    -999.25    -999.25   12.85180   12.85180   10.38710    -999.25    -999.25    -999.25    -999.25   96.27340    -999.25   66.85020   66.85020    -999.25    -999.25   58.94640   58.94640   96.27340   88.28000   94.33890   88.28000    -999.25    -999.25    -999.25  -53.92120  -30.17360   94.33890
  650.00000    -999.25    -999.25   13.28360   13.28360   16.20880    -999.25    -999.25    -999.25    -999.25   61.69490    -999.25   91.24420   91.24420    -999.25    -999.25   78.28550   78.28550   61.69490   51.68490   40.15920   51.68490    -999.25    -999.25    -999.25  -53.35090  -29.60330   40.15920
  700.00000    -999.25    -999.25   12.64870   12.64870    1.87560    -999.25    -999.25    -999.25    -999.25  533.15780    -999.25   82.99900   82.99900    -999.25    -999.25   32.43380   32.43380  533.15780 1117.00510  747.10250 1117.00510    -999.25    -999.25    -999.25  -69.19760  -45.45000  747.10250
  750.00000    -999.25    -999.25   12.71500   12.71500    4.58950    -999.25    -999.25    -999.25    -999.25  217.88700    -999.25   79.63820   79.63820    -999.25    -999.25   19.27960   19.27960  217.88700  182.89000   72.35870  182.89000    -999.25    -999.25    -999.25  -40.72670  -16.97910   72.35870
  800.00000    -999.25    -999.25   12.91220   12.91220    2.52470    -999.25    -999.25    -999.25    -999.25  396.08730    -999.25   77.66400   77.66400    -999.25    -999.25   39.65950   39.65950  396.08730  490.89220  283.95360  490.89220    -999.25    -999.25    -999.25  -60.23230  -36.48470  283.95360
  850.00000    -999.25    -999.25   12.83350   12.83350    6.42360    -999.25    -999.25    -999.25    -999.25  155.67660    -999.25   88.10830   88.10830    -999.25    -999.25   84.87390   84.87390  155.67660  140.70390  149.95770  140.70390    -999.25    -999.25    -999.25  -53.37080  -29.62320  149.95770
  900.00000    -999.25    -999.25   12.82320   12.82320    6.21200    -999.25    -999.25    -999.25    -999.25  160.97920    -999.25   64.37860   64.37860    -999.25    -999.25   35.21340   35.21340  160.97920  173.83350  127.45450  173.83350    -999.25    -999.25    -999.25  -57.95660  -34.64840  127.45450
  950.00000    -999.25    -999.25   12.86640   12.86640    5.70020    -999.25    -999.25    -999.25    -999.25  175.43340    -999.25   65.66960   65.66960    -999.25    -999.25   55.01320   55.01320  175.43340  196.27600  130.34440  196.27600    -999.25    -999.25    -999.25  -54.51580  -31.89410  130.34440
 1000.00000    -999.25    -999.25   12.64020   12.64020    0.64280    -999.25    -999.25    -999.25    -999.25 1555.75270    -999.25   58.97230   58.97230    -999.25    -999.25   14.04960   14.04960 1555.75270 1723.88720 1635.82120 1723.88720    -999.25    -999.25    -999.25 -120.79290  -98.85780 1635.82120
 1050.00000    -999.25    -999.25   12.58580   12.58580    0.65230    -999.25    -999.25    -999.25    -999.25 1532.92320    -999.25   52.30560   52.30560    -999.25    -999.25   22.31820   22.31820 1532.92320 1707.33000 1614.57020 1707.33000    -999.25    -999.25    -999.25  -94.59600  -73.34740 1614.57020
 1100.00000    -999.25    -999.25   12.39660   12.39660    1.34060    -999.25    -999.25    -999.25    -999.25  745.92380    -999.25   49.48810   49.48810    -999.25    -999.25   22.14140   22.14140  745.92380 1637.21550 1462.59850 1637.21550    -999.25    -999.25    -999.25  -73.18450  -52.62250 1462.59850
 1150.00000    -999.25    -999.25   12.43430   12.43430    0.62890    -999.25    -999.25    -999.25    -999.25 1590.12410    -999.25   54.53760   54.53760    -999.25    -999.25   11.93440   11.93440 1590.12410 1669.69690 1627.39780 1669.69690    -999.25    -999.25    -999.25 -107.47180  -87.59630 1627.39780
 1200.00000    -999.25    -999.25   12.52430   12.52430    1.29220    -999.25    -999.25    -999.25    -999.25  773.87820    -999.25   51.72940   51.72940    -999.25    -999.25   19.29410   19.29410  773.87820 1638.03810 1526.18730 1638.03810    -999.25    -999.25    -999.25  -64.43240  -45.24350 1526.18730
 1250.00000    -999.25    -999.25   12.63630   12.63630    2.94510    -999.25    -999.25    -999.25    -999.25  339.54370    -999.25   70.85020   70.85020    -999.25    -999.25   17.50860   17.50860  339.54370  435.01860  216.27530  435.01860    -999.25    -999.25    -999.25  -72.35580  -53.85340  216.27530
 1300.00000    -999.25    -999.25   12.38380   12.38380    0.65230    -999.25    -999.25    -999.25    -999.25 1532.92920    -999.25   55.30970   55.30970    -999.25    -999.25   11.24570   11.24570 1532.92920 1679.70250 1594.42480 1679.70250    -999.25    -999.25    -999.25  -96.20910  -78.39320 1594.42480
 1350.00000    -999.25    -999.25   12.43330   12.43330    0.64640    -999.25    -999.25    -999.25    -999.25 1546.95080    -999.25   54.57470   54.57470    -999.25    -999.25   15.24950   15.24950 1546.95080 1683.25630 1631.47600 1683.25630    -999.25    -999.25    -999.25 -120.26200 -103.13270 1631.47600
 1400.00000    -999.25    -999.25   12.33100   12.33100    1.45820    -999.25    -999.25    -999.25    -999.25  685.78780    -999.25   62.41650   62.41650    -999.25    -999.25   26.36220   26.36220  685.78780 1541.30760  609.55270 1541.30760    -999.25    -999.25    -999.25  -65.54240  -51.03550  609.55270
 1450.00000    -999.25    -999.25   12.40930   12.40930    2.00620    -999.25    -999.25    -999.25    -999.25  498.45330    -999.25   65.80980   65.80980    -999.25    -999.25   42.33030   42.33030  498.45330  636.24400  327.71210  636.24400    -999.25    -999.25    -999.25  -49.90670  -38.33730  327.71210
 1500.00000    -999.25    -999.25   12.53530   12.53530    6.23560    -999.25    -999.25    -999.25    -999.25  160.36880    -999.25   88.16520   88.16520    -999.25    -999.25   44.58940   44.58940  160.36880  119.46700   77.75170  119.46700    -999.25    -999.25    -999.25  -38.26500  -29.63320   77.75170
 1550.00000    -999.25    -999.25   12.35740   12.35740    3.59800    -999.25    -999.25    -999.25    -999.25  277.93590    -999.25   68.29370   68.29370    -999.25    -999.25   47.83180   47.83180  277.93590  288.56060  184.69800  288.56060    -999.25    -999.25    -999.25  -51.13690  -45.44260  184.69800
