~Version ---------------------------------------------------
VERS.      2.0 : CWLS log ASCII Standard -VERSION 2.0
WRAP.       NO : One line per depth step
CREA. 11/17/17 : LAS Creation Date
~Well ------------------------------------------------------
STRT.FT                  300.0 : START DEPTH
STOP.FT                10400.0 : STOP DEPTH
STEP.FT               50.00000 : STEP LENGTH
NULL.                  -999.25 : NULL VALUE
COMP.    J M HUBER CORPORATION : COMPANY
WELL. HUBER ROSEVEAR 6-5-55-14 : WELL
FLD .                       WC : FIELD
LOC .                          : LOCATION
CTRY.                   CANADA : COUNTRY
SRVC.             Schlumberger : SERVICE COMPANY
DATE.              04-Sep-1976 : LOGDATE
PROV.                  Alberta : PROVINCE
UWI .         100060505514W500 : UNIQUE WELL ID
SLAT.WGS84            53.72293 : SURFACE LATITUDE
SLON.WGS84           -116.0453 : SURFACE LONGITUDE
~Curve Information -----------------------------------------
DEPT    .FT    : Depth Curve
CALDED  .IN    : CALIPER FROM DENSITY LOG [ADJ. TO RESISTIVITY LOG]
CALRED  .MV    : CALIPER FROM FROM DLL
CALSED  .IN    : CALIPER FROM SONIC LOG [ADJ. TO RESISTIVITY LOG]
CALWS   .IN    : CALIPER [CALSED]
CONDWS  .MMHO  : CONDUCTIVITY [1000/DRESWS]
DCORED  .G/C3  : DENSITY CORRECTION FROM DENSITY LOG [ADJ. TO RESISTIVITY LOG]
DCORWS  .G/C3  : DENSITY CORRECTION [DCORED]
DENWS   .G/C3  : FORMATION BULK DENSITY [RHOBED SPL. TO DPHISSED CONVERTED TO LIMESTONE MATRIX, M=2.71, F=1.00 (ASSUMED) FROM 5892'-5905']
DPHILSED.V/V   : DENSITY POROSITY LIMESTONE [M=2.71, F=1.00 (ASSUMED)] FROM DENSITY LOG [ADJ. TO RESISTIVITY LOG]
DPHISSED.V/V   : DENSITY POROSITY SANDSTONE [M=2.65, F=1.00 (ASSUMED)] FROM DENSITY LOG [ADJ. TO RESISTIVITY LOG]
DPOLSWS .V/V   : DENSITY POROSITY LIMESTONE [CALC. FROM DENWS, M=2.71, F=1.00 (ASSUMED)]
DRESWS  .OHMM  : DEEP RESISTIVITY [LLDED]
DTED    .US/F  : DELTA TIME FROM SONIC LOG [ADJ. TO RESISTIVITY LOG]
DTWS    .US/F  : COMPRESSIONAL SONIC [DTED]
GRDED   .GAPI  : GAMMA RAY FROM DENSITY LOG [ADJ. TO RESISTIVITY LOG]
GRSED   .GAPI  : GAMMA RAY FROM SONIC LOG [ADJ. TO RESISTIVITY LOG]
GRWS    .GAPI  : GAMMA RAY [GRSED]
LLDED   .OHMM  : DEEP LATEROLOG RESISTIVITY FROM RESISTIVITY LOG
LLSED   .OHMM  : SHALLOW LATEROLOG RESISTIVITY LOG
NPHILSED.V/V   : NEUTRON POROSITY LIMESTONE FROM DENSITY LOG [ADJ. TO RESISTIVITY LOG]
NPHISSED.V/V   : NEUTRON POROSITY SANDSTONE FROM DENSITY LOG [ADJ. TO RESISTIVITY LOG]
NPOLSWS .V/V   : NEUTRON POROSITY LIMESTONE [NPHISSED MATRIX (SCHLUMBERGER) CONVERSION FOR LIMESTONE, SPL.TO NPHILSED @ 7149']
RHOBED  .G/C3  : BULK DENSITY FROM DENSITY LOG [ADJ. TO RESISTIVITY LOG]
SPRED   .MV    : SPONTANEOUS POTENTIAL FROM RESISTIVITY LOG
SPWS    .MV    : SPONTANEOUS POTENTIAL [BASELINE 0 MV, SPRED*-1]
SRESWS  .OHMM  : SHALLOW RESISTIVITY [LLSED]
~Params ----------------------------------------------------
PD  .                     GL : PERMANENT DATUM
EPD .FT                 2650 : ELEVATION PERMANENT DATUM
LMF .                     KB : LOG MEASURED FROM
DAPD.FT                   16 : FEET ABOVE PERMANENT DATUM
EKB .FT                 2666 : KELLY BUSHING
EGL .FT                 2650 : GROUND LEVEL
DATE.               09/04/76 : RUN DATE
RUN .                      2 : RUN NUMBER
DD  .FT                10450 : DEPTH DRILLER
DL  .FT                10450 : DEPTH LOGGER
BLI .FT                10448 : BOTTOM LOG INTERVAL
TLI .FT                 8400 : TOP LOG INTERVAL
CBD .FT                 1105 : CASING BOTTOM DRILLER
BS  .IN                 8.75 : BIT SIZE
BSD .FT                10450 : BIT SIZE AT DEPTH
DFT .               GEL CHEM : DRILLING FLUID TYPE
DFD .                    9.6 : DRILLING FLUID DENSITY
DFV .                     82 : DRILLING FLUID VISCOSITY
DFPH.                     11 : DRILLING FLUID PH
DFL .                     15 : DRILLING FLUID LOSS
RMS .OHMM               0.28 : RESISTIVITY MUD SAMPLE
MST .DEGF                 62 : MUD SAMPLE TEMPERATURE
RMF .OHMM               0.23 : RESISTIVITY MUD FILTRATE SAMPLE
MFST.DEGF                 62 : MUD FILTRATE SAMPLE TEMPERATURE
RMB .OHMM               0.11 : RESISTIVITY MUD AT BHT
TCS .HRS                   1 : TIME CIRCULATED STOPPED
LUN .                   7730 : LOGGING UNIT NUMBER
LUL .                    EDM : LOGGING UNIT LOCATION
ENGI.         PIMM MACDONALD : RECORDING ENGINEER
WITN.                 TAYLOR : WITNESSED BY
CLNT.                A2DTECH : CLIENT CODE
ORIG.               5" PRINT : ORIGIN OF DATA
UWI .       100060505514W500 : UNIQUE WELL ID
DICO. A2D Technologies, Inc. : DIGITIZING COMPANY
~Other -----------------------------------------------------
DLL-CNFD-BHC TOOLS RUN
~ASCII -----------------------------------------------------
# ...
 5700.00000    -999.25    9.75470   10.66860   10.66860   95.17650    -999.25    -999.25    -999.25    -999.25    -999.25    -999.25   10.50680   78.65920   78.65920    -999.25  114.08810  114.08810   10.50680   11.38570    -999.25    -999.25    -999.25    -999.25    7.60910   -6.79330   11.38570
 5750.00000    -999.25    9.92720   11.13460   11.13460  121.35780    -999.25    -999.25    -999.25    -999.25    -999.25    -999.25    8.24010   84.18320   84.18320    -999.25  119.95450  119.95450    8.24010    9.15370    -999.25    -999.25    -999.25    -999.25   12.14210   -2.80090    9.15370
 5800.00000    -999.25    9.83920   10.58650   10.58650   89.63460    -999.25    -999.25    -999.25    -999.25    -999.25    -999.25   11.15640   90.15980   90.15980    -999.25  184.17880  184.17880   11.15640   13.04210    -999.25    -999.25    -999.25    -999.25    9.15510   -6.32840   13.04210
 5850.00000    -999.25   11.17290   12.45770   12.45770  242.82450    -999.25    -999.25    -999.25    -999.25    -999.25    -999.25    4.11820   90.94920   90.94920    -999.25  109.64440  109.64440    4.11820    4.33180    -999.25    -999.25    -999.25    -999.25   15.90800   -0.11600    4.33180
 5900.00000   15.19980   10.46810   12.07250   12.07250  182.93910    -999.25    -999.25    1.90450    -999.25    0.45180    0.47100    5.46630   88.96580   88.96580  114.06630  115.80410  115.80410    5.46630    5.87690    -999.25    0.43730    0.39530    -999.25   11.84600   -4.71860    5.87690
 5950.00000   14.32190    9.38960   11.08390   11.08390  141.87620    0.18190    0.18190    2.12850    -999.25    0.35140    0.34010    7.04840   83.98950   83.98950   94.20930  127.55450  127.55450    7.04840    8.28950    -999.25    0.44100    0.39910    2.12850   11.31250   -5.79270    8.28950
 6000.00000    9.45080    9.54860    9.75050    9.75050   40.61100    0.16700    0.16700    2.62800    -999.25    0.01830    0.04800   24.62390   67.05420   67.05420   73.98380   79.08720   79.08720   24.62390   25.77110    -999.25    0.13040    0.08800    2.62800    6.82210  -10.82380   25.77110
 6050.00000   11.41450   10.30540   10.72330   10.72330   62.65550    0.10230    0.10230    2.60120    -999.25    0.04500    0.06360   15.96030   71.83850   71.83850   98.02970  106.98820  106.98820   15.96030   13.62850    -999.25    0.20690    0.16340    2.60120    8.98510   -9.20140   13.62850
 6100.00000   10.33010    9.88620   10.62380   10.62380   66.08210    0.04690    0.04690    2.60540    -999.25    0.02730    0.06120   15.13270   70.97900   70.97900   90.15720   93.90100   93.90100   15.13270   14.09190    -999.25    0.25650    0.21260    2.60540   12.15600   -6.57100   14.09190
 6150.00000   10.80680   10.47310   10.96890   10.96890   45.90950    0.05450    0.05450    2.60500    -999.25    0.01880    0.06140   21.78200   69.48930   69.48930   73.80220   68.98710   68.98710   21.78200   17.18860    -999.25    0.22940    0.18560    2.60500   13.54910   -5.71850   17.18860
 6200.00000   10.42960   10.15930   10.67170   10.67170   38.65680    0.05360    0.05360    2.62220    -999.25    0.01740    0.05140   25.86870   69.00100   69.00100   83.26490   80.58990   80.58990   25.86870   17.24960    -999.25    0.19980    0.15630    2.62220   16.35210   -3.45610   17.24960
 6250.00000   10.62440   10.14200   10.88180   10.88180   33.89320    0.06030    0.06030    2.58830    -999.25    0.04130    0.07120   29.50440   73.23960   73.23960  111.28890  110.95200  110.95200   29.50440   27.40160    -999.25    0.27210    0.22810    2.58830   13.72100   -6.62770   27.40160
 6300.00000   10.49760    9.93610   10.56810   10.56810   51.53420    0.06820    0.06820    2.65600    -999.25   -0.00880    0.03160   19.40460   70.19860   70.19860  101.79320  110.49970  110.49970   19.40460   15.50360    -999.25    0.24210    0.19820    2.65600   16.50510   -4.38430   15.50360
 6350.00000   15.01850   10.32090   13.99500   13.99500   41.85340    0.15180    0.15180    2.25330    -999.25    0.24280    0.26710   23.89290  100.05410  100.05410   98.03860  101.30820  101.30820   23.89290   19.81200    -999.25    0.42530    0.38300    2.25330   37.67310   16.24310   19.81200
 6400.00000   11.11920   10.56370   11.22980   11.22980   71.74270    0.07270    0.07270    2.56060    -999.25    0.04950    0.08740   13.93870   70.08910   70.08910   70.44300   74.69880   74.69880   13.93870   11.05410    -999.25    0.21820    0.17460    2.56060   21.10100   -0.86950   11.05410
 6450.00000   12.20410   10.95400   11.49050   11.49050    1.01990   -0.01090   -0.01090    1.43850    -999.25    0.45000    0.74360  980.45670  150.56240  150.56240   53.07810   54.03500   54.03500  980.45670   64.63400    -999.25    0.67620    0.64760    1.43850   15.48410   -7.02700   64.63400
 6500.00000   10.17370   10.25070   10.53480   10.53480   53.25610    0.02470    0.02470    2.58970    -999.25    0.04560    0.07040   18.77720   72.27790   72.27790  104.94480  103.89810  103.89810   18.77720   19.58880    -999.25    0.25060    0.20670    2.58970   12.07800  -10.97360   19.58880
 6550.00000   10.52580   10.38230   10.85050   10.85050   84.83420    0.06470    0.06470    2.64550    -999.25    0.00970    0.03770   11.78770   68.94690   68.94690   65.50460   64.89020   64.89020   11.78770   11.18880    -999.25    0.21810    0.17450    2.64550   15.03010   -8.56220   11.18880
 6600.00000   10.71920   10.07030   10.68530   10.68530   45.54170    0.05730    0.05730    2.62250    -999.25    0.01850    0.05120   21.95790   67.67190   67.67190   87.86220   94.25310   94.25310   21.95790   24.45460    -999.25    0.19990    0.15650    2.62250   14.02800  -10.10480   24.45460
 6650.00000   10.93840   10.19580   11.18060   11.18060   35.94230    0.06800    0.06800    2.56790    -999.25    0.04730    0.08310   27.82240   68.72370   68.72370   99.29220   95.28840   95.28840   27.82240   30.24240    -999.25    0.17630    0.13320    2.56790   16.43010   -8.24340   30.24240
 6700.00000   10.24230   10.04900   10.24900   10.24900   15.69640    0.04100    0.04100    2.66000    -999.25   -0.01240    0.02930   63.70890   63.58800   63.58800   98.21170  104.07580  104.07580   63.70890   51.97360    -999.25    0.15020    0.10770    2.66000   14.30710  -10.90700   51.97360
 6750.00000   10.70020   10.02490   10.60810   10.60810   27.80980    0.04710    0.04710    2.64960    -999.25   -0.00840    0.03530   35.95850   62.62590   62.62590   63.13260   65.78820   65.78820   35.95850   31.14990    -999.25    0.13060    0.08820    2.64960   16.89010   -8.86450   31.14990
 6800.00000   12.31000    9.15460   10.18980   10.18980    6.41020    0.11590    0.11590    2.49840    -999.25    0.10400    0.12370  156.00250   66.57990   66.57990   57.44510   56.72570   56.72570  156.00250  196.22240    -999.25    0.17580    0.13270    2.49840   15.43800  -10.85710  196.22240
 6850.00000   12.75110    9.30280   10.18810   10.18810    8.09990    0.20340    0.20340    2.42750    -999.25    0.15050    0.16520  123.45820   69.16170   69.16170   51.20850   49.63560   49.63560  123.45820  132.58900    -999.25    0.12150    0.07920    2.42750   17.35210   -9.48370  132.58900
 6900.00000   10.39470    9.44360   10.20450   10.20450   49.78220    0.04640    0.04640    2.64930    -999.25    0.00170    0.03550   20.08750   70.00500   70.00500  118.41620  118.89670  118.89670   20.08750   22.20110    -999.25    0.19290    0.14960    2.64930   21.76010   -5.61630   22.20110
 6950.00000   10.64380    9.91090   10.78920   10.78920   70.90740    0.04540    0.04540    2.60990    -999.25    0.02350    0.05850   14.10290   86.57180   86.57180  132.33820  133.37570  133.37570   14.10290   16.17330    -999.25    0.34270    0.29900    2.60990    8.10800  -19.80890   16.17330
 7000.00000    9.34590    9.53440    9.38510    9.38510  204.33600    0.07640    0.07640    2.52060    -999.25    0.08990    0.11080    4.89390   70.72540   70.72540   42.65620   46.16380   46.16380    4.89390    4.56540    -999.25    0.16940    0.12650    2.52060  -29.22000  -57.67750    4.56540
