~Version ---------------------------------------------------
VERS.      2.0 : CWLS log ASCII Standard -VERSION 2.0
WRAP.       NO : One line per depth step
CREA. 12/07/17 : LAS Creation Date
~Well ------------------------------------------------------
STRT.FT                                  300.0 : START DEPTH
STOP.FT                                 6600.0 : STOP DEPTH
STEP.FT                               50.00000 : STEP LENGTH
NULL.                                  -999.25 : NULL VALUE
COMP. THE BRITISH AMERICAN OIL COMPANY LIMITED : COMPANY
WELL.             B.A. RED WILLOW 6-10-41-19W4 : WELL
FLD .                                          : FIELD
LOC .                                          : LOCATION
CTRY.                                   CANADA : COUNTRY
SRVC.                             Schlumberger : SERVICE COMPANY
DATE.                              22-Jan-1959 : LOGDATE
PROV.                                  Alberta : PROVINCE
UWI .                         100061004119W400 : UNIQUE WELL ID
SLAT.WGS84                            52.51217 : SURFACE LATITUDE
SLON.WGS84                           -112.6579 : SURFACE LONGITUDE
~Curve Information -----------------------------------------
DEPT   .FT         : Depth Curve
AMLLED .OHMM       : AMPLIFIED MICRO-LATEROLOG RESISTIVITY
CALWS  .IN         : CALIPER [MCALED]
CILDED .MMHO       : CONDUCTIVITY FROM RESISTIVITY LOG
CONDWS .MMHO       : CONDUCTIVITY [1000/DRESWS]
DRESWS .OHMM       : DEEP RESISTIVITY [ILDED] IF ILDED<1;1000/CILDED;ELSE ILDED
GRNED  .UgRa-Eq/T  : GAMMA RAY FROM GRN LOG
GRWS   .GAPI       : GAMMA RAY [GRNED] (CONVERTED SCALE *16.5API)
ILDED  .OHMM       : INDUCTION LOG DEEP RESISTIVITY
MCALED .IN         : MICROCALIPER FROM MLL LOG
NEUT1ED.CU         : NEUTRON FROM NEUTRON LOG
NEUT2ED.CU         : NEUTRON FROM NEUTRON LOG
NEUTED .CPS        : NEUTRON FROM GRN LOG [DEPTH ADJ TO ILD]
NEUTWS .CU         : NEUTRON [NEUTED]
SNED   .OHMM       : 16 INCH SHORT NORMAL RESISTIVITY FROM IEL
SPRED  .MV         : SPONTANEOUS POTENTIAL FROM RESISTIVITY LOG
SPWS   .MV         : SPONTANEOUS POTENTIAL [BASELINE 0 MV] [SPRED]
SRESWS .OHMM       : SHALLOW RESISTIVITY [SNED]
~Params ----------------------------------------------------
LMF .                     KB : LOG MEASURED FROM
DMF .                     KB : DRILLING MEASURED FROM
EKB .FT                 2582 : KELLY BUSHING
DATE.               01/22/59 : RUN DATE
RUN .                      2 : RUN NUMBER
DD  .FT                 6600 : DEPTH DRILLER
DL  .FT                 6601 : DEPTH LOGGER
BLI .FT                 6596 : BOTTOM LOG INTERVAL
TLI .FT                 4382 : TOP LOG INTERVAL
CBD .FT                  625 : CASING BOTTOM DRILLER
CBL .FT                  624 : CASING BOTTOM LOGGER
BS  .IN                7.875 : BIT SIZE
BSD .FT                 6600 : BIT SIZE AT DEPTH
DFT .               GYP BASE : DRILLING FLUID TYPE
DFD .                   10.2 : DRILLING FLUID DENSITY
DFV .                     65 : DRILLING FLUID VISCOSITY
DFPH.                      7 : DRILLING FLUID PH
DFL .                    8.8 : DRILLING FLUID LOSS
MSS .             CURCULATED : MUD SAMPLE SOURCE
RMS .OHMM                0.7 : RESISTIVITY MUD SAMPLE
MST .DEGF                 55 : MUD SAMPLE TEMPERATURE
RMF .OHMM                0.4 : RESISTIVITY MUD FILTRATE SAMPLE
MFST.DEGF                 72 : MUD FILTRATE SAMPLE TEMPERATURE
RMC .OHMM                  1 : RESISTIVITY MUD CAKE
MCST.DEGF                 72 : MUD CAKE SAMPLE TEMPERATURE
RMB .OHMM               0.28 : RESISTIVITY MUD AT BHT
TCS .HRS                   2 : TIME CIRCULATED STOPPED
LUN .                  2753C : LOGGING UNIT NUMBER
LUL .                     RD : LOGGING UNIT LOCATION
ENGI.                FORSTER : RECORDING ENGINEER
WITN.                CARLSEN : WITNESSED BY
CLNT.                A2DTECH : CLIENT CODE
ORIG.            2" 5" PRINT : ORIGIN OF DATA
UWI .       100061004119W400 : UNIQUE WELL ID
DICO. A2D Technologies, Inc. : DIGITIZING COMPANY
~Other -----------------------------------------------------
IEL/MICROLOG/GRN LOG RUN
~ASCII -----------------------------------------------------
  300.00000    -999.25    -999.25    -999.25    -999.25    -999.25    4.44660   73.36890    -999.25    -999.25    -999.25    -999.25  153.14010  153.14010    -999.25    -999.25    -999.25    -999.25
  350.00000    -999.25    -999.25    -999.25    -999.25    -999.25    4.69780   77.51370    -999.25    -999.25    -999.25    -999.25  163.89350  163.89350    -999.25    -999.25    -999.25    -999.25
  400.00000    -999.25    -999.25    -999.25    -999.25    -999.25    3.61180   59.59470    -999.25    -999.25    -999.25    -999.25  161.76200  161.76200    -999.25    -999.25    -999.25    -999.25
  450.00000    -999.25    -999.25    -999.25    -999.25    -999.25    4.30320   71.00280    -999.25    -999.25    -999.25    -999.25  154.42270  154.42270    -999.25    -999.25    -999.25    -999.25
  500.00000    -999.25    -999.25    -999.25    -999.25    -999.25    4.40310   72.65120    -999.25    -999.25    -999.25    -999.25  160.12140  160.12140    -999.25    -999.25    -999.25    -999.25
  550.00000    -999.25    -999.25    -999.25    -999.25    -999.25    3.60780   59.52870    -999.25    -999.25    -999.25    -999.25  163.22250  163.22250    -999.25    -999.25    -999.25    -999.25
  600.00000    -999.25    -999.25    -999.25    -999.25    -999.25    4.05230   66.86290    -999.25    -999.25    -999.25    -999.25  167.88110  167.88110    -999.25    -999.25    -999.25    -999.25
  650.00000    -999.25    8.98650  153.29630  158.15530    6.32290    4.01910   66.31520    6.32290    8.98650    -999.25    -999.25  158.79590  158.79590   11.14750  -41.00770   -5.05120   11.14750
  700.00000    -999.25    8.96800  156.46210  158.04280    6.32740    6.09420  100.55430    6.32740    8.96800    -999.25    -999.25  197.80780  197.80780    7.17160  -39.39440   -3.43790    7.17160
  750.00000    -999.25    9.07870  189.04790  201.87750    4.95350    6.82810  112.66370    4.95350    9.07870    -999.25    -999.25  192.13730  192.13730    6.62670  -38.54060   -2.58410    6.62670
  800.00000    -999.25    9.64630  183.55140  190.00210    5.26310    5.86410   96.75760    5.26310    9.64630    -999.25    -999.25  196.56880  196.56880    6.01590  -38.16240   -2.20590    6.01590
  850.00000    -999.25    9.35900  259.53860  263.97060    3.78830    6.80430  112.27100    3.78830    9.35900    -999.25    -999.25  178.21430  178.21430    4.49820  -39.44620   -3.48970    4.49820
  900.00000    -999.25   10.46930  384.37790  365.16340    2.73850   10.01600  165.26400    2.73850   10.46930    -999.25    -999.25  180.95590  180.95590    3.13290  -39.07640   -3.11990    3.13290
  950.00000    -999.25   10.28770  275.76640  267.50130    3.73830    7.13130  117.66650    3.73830   10.28770    -999.25    -999.25  191.06080  191.06080    4.70200  -39.19830   -3.24180    4.70200
 1000.00000    -999.25   10.19600  289.46970  274.28070    3.64590    7.33050  120.95330    3.64590   10.19600    -999.25    -999.25  183.28380  183.28380    4.01740  -37.33490   -1.37840    4.01740
 1050.00000    -999.25   11.92990  273.98420  276.61750    3.61510    7.39950  122.09170    3.61510   11.92990    -999.25    -999.25  187.93260  187.93260    3.83770  -39.06210   -3.42160    3.83770
 1100.00000    -999.25   10.05370  246.59260  246.68820    4.05370    7.30540  120.53910    4.05370   10.05370    -999.25    -999.25  186.95390  186.95390    4.59180  -39.14670   -3.86120    4.59180
 1150.00000    -999.25    9.66150  309.67170  302.56270    3.30510    6.02570   99.42400    3.30510    9.66150    -999.25    -999.25  172.15130  172.15130    3.55730  -40.11520   -5.18470    3.55730
 1200.00000    -999.25   11.65190  235.03680  232.36360    4.30360    6.10350  100.70780    4.30360   11.65190    -999.25    -999.25  183.07990  183.07990    4.86180  -39.27410   -4.69860    4.86180
 1250.00000    -999.25    8.35080  154.64140  166.91150    5.99120    4.93190   81.37640    5.99120    8.35080    -999.25    -999.25  204.60330  204.60330    8.00380  -45.63580  -11.41530    8.00380
 1300.00000    -999.25    9.43350  200.68230  197.78480    5.05600    5.56640   91.84560    5.05600    9.43350    -999.25    -999.25  193.79490  193.79490    6.07260  -45.70090  -11.83550    6.07260
 1350.00000    -999.25    8.92610  131.74160  123.23770    8.11440    4.78200   78.90300    8.11440    8.92610    -999.25    -999.25  208.97450  208.97450    9.20530  -47.88750  -14.37710    9.20530
 1400.00000    -999.25   10.39290  217.40930  220.58500    4.53340    6.32930  104.43340    4.53340   10.39290    -999.25    -999.25  181.17630  181.17630    5.76050  -44.90820  -11.75280    5.76050
 1450.00000    -999.25    9.93440  175.54330  189.85780    5.26710    5.72920   94.53180    5.26710    9.93440    -999.25    -999.25  183.87380  183.87380    6.22090  -43.11690  -10.31650    6.22090
 1500.00000    -999.25   10.91890  190.55030  187.36070    5.33730    5.15210   85.00960    5.33730   10.91890    -999.25    -999.25  203.74850  203.74850    6.17530  -41.61590   -9.17050    6.17530
 1550.00000    -999.25    9.31920  135.74720  127.71720    7.82980    3.94100   65.02650    7.82980    9.31920    -999.25    -999.25  211.98680  211.98680    8.67380  -40.85580   -8.76550    8.67380
 1600.00000    -999.25    9.04170  177.57330  179.13760    5.58230    5.42000   89.43000    5.58230    9.04170    -999.25    -999.25  195.61630  195.61630    6.52950  -39.93100   -8.19570    6.52950
 1650.00000    -999.25    9.07800  178.62800  190.62510    5.24590    5.87750   96.97880    5.24590    9.07800    -999.25    -999.25  197.63440  197.63440    6.26230  -39.80560   -8.42530    6.26230
 1700.00000    -999.25    9.66890  203.18920  216.35660    4.62200    5.79930   95.68840    4.62200    9.66890    -999.25    -999.25  182.37920  182.37920    5.51220  -38.47790   -7.45260    5.51220
 1750.00000    -999.25   10.31200  231.36800  236.30610    4.23180    5.68550   93.81070    4.23180   10.31200    -999.25    -999.25  192.66940  192.66940    5.38840  -40.54260   -9.87230    5.38840
 1800.00000    -999.25    9.58220   92.07270  103.04290    9.70470    3.89530   64.27250    9.70470    9.58220    -999.25    -999.25  215.61660  215.61660   11.05640  -40.75390  -10.43860   11.05640
 1850.00000    -999.25    9.67430  359.01300  365.87150    2.73320    5.56090   91.75490    2.73320    9.67430    -999.25    -999.25  178.63420  178.63420    4.79200  -39.32610   -9.36590    4.79200
 1900.00000    -999.25    9.57630  207.13190  219.60650    4.55360    5.76380   95.10270    4.55360    9.57630    -999.25    -999.25  194.01920  194.01920    5.24740  -39.02110   -9.41590    5.24740
 1950.00000    -999.25    9.47290  144.38540  149.21810    6.70160    5.10100   84.16650    6.70160    9.47290    -999.25    -999.25  216.28770  216.28770    7.28010  -40.09640  -10.84620    7.28010
 2000.00000    -999.25   10.08030  240.97110  251.30050    3.97930    6.03280   99.54120    3.97930   10.08030    -999.25    -999.25  187.38570  187.38570    5.02740  -39.63780  -10.74260    5.02740
 2050.00000    -999.25   10.82780  200.52110  206.76110    4.83650    6.44000  106.26000    4.83650   10.82780    -999.25    -999.25  182.08040  182.08040    5.81510  -40.35560  -11.81540    5.81510
 2100.00000    -999.25   10.23240  229.08580  233.06220    4.29070    8.17050  134.81330    4.29070   10.23240    -999.25    -999.25  173.28100  173.28100    5.38850  -41.15000  -12.96490    5.38850
 2150.00000    -999.25   11.11080  164.40390  169.55470    5.89780    8.12250  134.02130    5.89780   11.11080    -999.25    -999.25  172.31360  172.31360    7.12380  -47.91180  -20.08170    7.12380
 2200.00000    -999.25    9.99060  137.06750  141.70930    7.05670    7.79000  128.53500    7.05670    9.99060    -999.25    -999.25  168.72180  168.72180    8.22050  -47.97070  -20.49560    8.22050
 2250.00000    -999.25   10.28250  132.53700  135.89540    7.35860    7.56320  124.79280    7.35860   10.28250    -999.25    -999.25  178.64960  178.64960    8.56510  -47.01980  -19.89970    8.56510
 2300.00000    -999.25   10.58260  143.43910  148.48470    6.73470    7.86710  129.80720    6.73470   10.58260    -999.25    -999.25  167.39590  167.39590    8.10430  -47.28290  -20.51780    8.10430
