~Version ---------------------------------------------------
VERS.      2.0 : CWLS log ASCII Standard -VERSION 2.0
WRAP.       NO : One line per depth step
CREA. 11/20/17 : LAS Creation Date
~Well ------------------------------------------------------
STRT.FT                          1000.0 : START DEPTH
STOP.FT                         10550.0 : STOP DEPTH
STEP.FT                        50.00000 : STEP LENGTH
NULL.                           -999.25 : NULL VALUE
COMP.                  LL&E  CANADA LTD : COMPANY
WELL. LL&E ET AL SAKWATAMAU 10-22-61-14 : WELL
FLD .                                   : FIELD
LOC .                                   : LOCATION
CTRY.                            CANADA : COUNTRY
SRVC.                      Schlumberger : SERVICE COMPANY
DATE.                       05-Jan-1969 : LOGDATE
PROV.                           Alberta : PROVINCE
UWI .                  100102206114W500 : UNIQUE WELL ID
SLAT.WGS84                     54.29276 : SURFACE LATITUDE
SLON.WGS84                    -116.0087 : SURFACE LONGITUDE
~Curve Information -----------------------------------------
DEPT   .FT    : Depth Curve
CALDED .IN    : CALIPER FROM DENSITY LOG
CALSED .IN    : CALIPER FROM SONIC LOG
CALWS  .IN    : CALIPER [CALSED]
CILDED .MMHO  : CONDUCTIVITY FROM RESISTIVITY LOG
CONDWS .MMHO  : CONDUCTIVITY [1000/DRESWS]
DCORED .G/C3  : DENSITY CORRECTION FROM DENSITY LOG
DCORWS .G/C3  : DENSITY CORRECTION [DCORED]
DENWS  .G/C3  : FORMATION BULK DENSITY [RHOBED]
DPOLSWS.V/V   : DENSITY POROSITY LIMESTONE [CALC. FROM DENWS M=2.71, F=1.00 ASSUMED]
DRESWS .OHMM  : DEEP RESISTIVITY [ILDED]
DTED   .US/F  : DELTA TIME FROM SONIC LOG
DTWS   .US/F  : COMPRESSIONAL SONIC [DTED]
GRSED  .GAPI  : GAMMA RAY FROM SONIC LOG
GRWS   .GAPI  : GAMMA RAY [GRSED]
ILDED  .OHMM  : DEEP  INDUCTIONRESISTIVITY FROM RESISTIVITY LOG
RHOBED .G/C3  : BULK DENSITY FROM DENSITY LOG
SNED   .OHMM  : SHORT NORMAL RESISTIVITY FROM RESISTIVITY LOG
SPRED  .MV    : SPONTANEOUS POTENTIAL FROM RESISTIVITY LOG
SPWS   .MV    : SPONTANEOUS POTENTIAL [BASELINE 0 MV, SPRED]
SRESWS .OHMM  : SHALLOW RESISTIVITY [SNED]
~Params ----------------------------------------------------
PD  .                     GL : PERMANENT DATUM
EPD .FT              3084.84 : ELEVATION PERMANENT DATUM
LMF .                     KB : LOG MEASURED FROM
DAPD.FT                16.05 : FEET ABOVE PERMANENT DATUM
EKB .FT              3100.89 : KELLY BUSHING
EGL .FT              3084.84 : GROUND LEVEL
DATE.               01/05/69 : RUN DATE
RUN .                      1 : RUN NUMBER
DD  .FT                10596 : DEPTH DRILLER
DL  .FT                10595 : DEPTH LOGGER
BLI .FT                10594 : BOTTOM LOG INTERVAL
TLI .FT                 1003 : TOP LOG INTERVAL
CBD .FT                 1003 : CASING BOTTOM DRILLER
CBL .FT                 1003 : CASING BOTTOM LOGGER
BS  .IN                 8.75 : BIT SIZE
BSD .FT                10596 : BIT SIZE AT DEPTH
DFT .                    GEL : DRILLING FLUID TYPE
DFD .                    9.7 : DRILLING FLUID DENSITY
DFV .                     97 : DRILLING FLUID VISCOSITY
DFPH.                     11 : DRILLING FLUID PH
DFL .                    6.6 : DRILLING FLUID LOSS
RMS .OHMM               2.32 : RESISTIVITY MUD SAMPLE
MST .DEGF                 60 : MUD SAMPLE TEMPERATURE
RMF .OHMM                1.7 : RESISTIVITY MUD FILTRATE SAMPLE
MFST.DEGF                 64 : MUD FILTRATE SAMPLE TEMPERATURE
RMC .OHMM               2.51 : RESISTIVITY MUD CAKE
MCST.DEGF                 62 : MUD CAKE SAMPLE TEMPERATURE
TCS .HRS                   5 : TIME CIRCULATED STOPPED
LUN .                   7501 : LOGGING UNIT NUMBER
LUL .                    EDM : LOGGING UNIT LOCATION
ENGI.               STUEHMER : RECORDING ENGINEER
WITN.               LEVEILLE : WITNESSED BY
CLNT.                A2DTECH : CLIENT CODE
ORIG.            2" 5" PRINT : ORIGIN OF DATA
UWI .       100102206114W500 : UNIQUE WELL ID
DICO. A2D Technologies, Inc. : DIGITIZING COMPANY
~Other -----------------------------------------------------
IEL-FDC-BHC LOG RUN
~ASCII -----------------------------------------------------
 1000.00000    -999.25    -999.25    -999.25    -999.25    -999.25    -999.25    -999.25    -999.25    -999.25    -999.25    -999.25    -999.25   42.09420   42.09420    -999.25    -999.25    -999.25    -999.25    -999.25    -999.25
 1050.00000    -999.25    9.49570    9.49570  321.50400  360.78940    -999.25    -999.25    -999.25    -999.25    2.77170  135.20180  135.20180   57.40310   57.40310    2.77170    -999.25    2.90750  -92.07440   -8.96750    2.90750
 1100.00000    -999.25   10.70930   10.70930  248.12450  265.52670    -999.25    -999.25    -999.25    -999.25    3.76610  112.33900  112.33900   77.03010   77.03010    3.76610    -999.25    2.84710  -91.38950   -2.95300    2.84710
 1150.00000    -999.25   10.36150   10.36150  176.08270  182.07310    -999.25    -999.25    -999.25    -999.25    5.49230  105.86900  105.86900   71.05660   71.05660    5.49230    -999.25    3.62890  -84.67530   -2.18020    3.62890
 1200.00000    -999.25   11.91710   11.91710  319.17450  344.67900    -999.25    -999.25    -999.25    -999.25    2.90120  135.20000  135.20000   78.26170   78.26170    2.90120    -999.25    2.13250  -78.87660   -2.35290    2.13250
 1250.00000    -999.25    9.07440    9.07440   97.31770   98.25020    -999.25    -999.25    -999.25    -999.25   10.17810  104.04790  104.04790   65.39440   65.39440   10.17810    -999.25    6.24860  -82.80930  -11.35800    6.24860
 1300.00000    -999.25   11.10120   11.10120  344.56000  371.30550    -999.25    -999.25    -999.25    -999.25    2.69320  163.08600  163.08600   80.37200   80.37200    2.69320    -999.25    1.71480  -72.57570   -5.62540    1.71480
 1350.00000    -999.25   10.94060   10.94060  269.06480  292.27800    -999.25    -999.25    -999.25    -999.25    3.42140  119.53420  119.53420   82.60600   82.60600    3.42140    -999.25    2.59130  -70.53570   -4.73360    2.59130
 1400.00000    -999.25   10.48830   10.48830  275.84600  294.15230    -999.25    -999.25    -999.25    -999.25    3.39960  143.78750  143.78750   70.13080   70.13080    3.39960    -999.25    2.22690  -70.21430   -4.50320    2.22690
 1450.00000    -999.25    9.96870    9.96870  326.11490  368.26600    -999.25    -999.25    -999.25    -999.25    2.71540  131.69020  131.69020   84.73510   84.73510    2.71540    -999.25    1.88950  -68.73270   -3.11290    1.88950
 1500.00000    -999.25    9.98350    9.98350  375.55340  429.73790    -999.25    -999.25    -999.25    -999.25    2.32700  135.88780  135.88780   62.79130   62.79130    2.32700    -999.25    1.74670  -69.71670   -3.85690    1.74670
 1550.00000    -999.25   10.09700   10.09700  299.02930  333.48900    -999.25    -999.25    -999.25    -999.25    2.99860  120.36360  120.36360   70.20090   70.20090    2.99860    -999.25    2.21000  -69.76770   -3.52800    2.21000
 1600.00000    -999.25   10.56730   10.56730  288.18650  312.86170    -999.25    -999.25    -999.25    -999.25    3.19630  127.33370  127.33370   78.29020   78.29020    3.19630    -999.25    2.23720  -70.28360   -3.66280    2.23720
 1650.00000    -999.25   10.81750   10.81750  340.77580  362.85790    -999.25    -999.25    -999.25    -999.25    2.75590  125.04630  125.04630   69.77290   69.77290    2.75590    -999.25    1.98480  -69.08150   -2.08090    1.98480
 1700.00000    -999.25   10.32630   10.32630  325.47280  367.75520    -999.25    -999.25    -999.25    -999.25    2.71920  120.63400  120.63400   80.35250   80.35250    2.71920    -999.25    2.32890  -74.17910   -6.79650    2.32890
 1750.00000    -999.25   11.26540   11.26540  322.28510  333.32220    -999.25    -999.25    -999.25    -999.25    3.00010  163.28000  163.28000   71.19800   71.19800    3.00010    -999.25    2.32740  -69.60590   -1.84440    2.32740
 1800.00000    -999.25   10.01230   10.01230  205.66640  213.66150    -999.25    -999.25    -999.25    -999.25    4.68030  102.64170  102.64170   79.73760   79.73760    4.68030    -999.25    3.10440  -69.46790   -1.82750    3.10440
 1850.00000    -999.25   10.22430   10.22430  233.40290  250.32540    -999.25    -999.25    -999.25    -999.25    3.99480  113.00280  113.00280   67.86430   67.86430    3.99480    -999.25    2.61950  -70.59570   -3.68510    2.61950
 1900.00000    -999.25   10.17830   10.17830  191.51760  189.76770    -999.25    -999.25    -999.25    -999.25    5.26960  112.82910  112.82910   91.55100   91.55100    5.26960    -999.25    3.62170  -70.69150   -4.45960    3.62170
 1950.00000    -999.25   11.44360   11.44360  246.96370  265.35280    -999.25    -999.25    -999.25    -999.25    3.76860  126.44720  126.44720   82.07400   82.07400    3.76860    -999.25    2.63060  -69.02930   -2.83530    2.63060
 2000.00000    -999.25    9.30100    9.30100  125.54970  128.34330    -999.25    -999.25    -999.25    -999.25    7.79160   99.57190   99.57190   63.95940   63.95940    7.79160    -999.25    4.75460  -70.49510   -4.33930    4.75460
 2050.00000    -999.25   10.28020   10.28020  233.78210  247.03560    -999.25    -999.25    -999.25    -999.25    4.04800  133.71200  133.71200   75.38390   75.38390    4.04800    -999.25    2.78830  -70.36150   -4.24310    2.78830
 2100.00000    -999.25    9.48460    9.48460  305.91910  331.53200    -999.25    -999.25    -999.25    -999.25    3.01630  103.04330  103.04330   84.49640   84.49640    3.01630    -999.25    2.05590  -68.26720   -2.18760    2.05590
 2150.00000    -999.25   12.00080   12.00080  336.16520  361.62440    -999.25    -999.25    -999.25    -999.25    2.76530  126.42230  126.42230   78.90740   78.90740    2.76530    -999.25    1.85890  -68.49710   -2.45490    1.85890
 2200.00000    -999.25   12.25360   12.25360  574.32480  655.21420    -999.25    -999.25    -999.25    -999.25    1.52620  117.61460  117.61460  106.51760  106.51760    1.52620    -999.25    1.33160  -67.80260   -1.79830    1.33160
 2250.00000    -999.25    8.59960    8.59960  123.63420  125.31960    -999.25    -999.25    -999.25    -999.25    7.97960  101.20060  101.20060   61.89770   61.89770    7.97960    -999.25    5.29010  -83.75240  -17.78630    5.29010
 2300.00000    -999.25    9.60740    9.60740  170.20350  159.46930    -999.25    -999.25    -999.25    -999.25    6.27080  112.58480  112.58480   68.49410   68.49410    6.27080    -999.25    4.17000  -70.38520   -4.45650    4.17000
 2350.00000    -999.25    9.85270    9.85270  399.85990  436.28110    -999.25    -999.25    -999.25    -999.25    2.29210  130.36610  130.36610   82.68940   82.68940    2.29210    -999.25    1.49690  -68.49630   -2.60640    1.49690
 2400.00000    -999.25   10.02660   10.02660  203.27510  207.61100    -999.25    -999.25    -999.25    -999.25    4.81670  117.45650  117.45650   70.20910   70.20910    4.81670    -999.25    3.25570  -69.32310   -3.36340    3.25570
 2450.00000    -999.25   10.37110   10.37110  260.22300  282.92890    -999.25    -999.25    -999.25    -999.25    3.53460  102.25390  102.25390   59.67430   59.67430    3.53460    -999.25    3.29040  -70.05700   -3.75200    3.29040
 2500.00000    -999.25    8.42790    8.42790   56.72710   59.80400    -999.25    -999.25    -999.25    -999.25   16.72130   91.14730   91.14730   47.25180   47.25180   16.72130    -999.25   12.65090  -84.47630  -18.13390   12.65090
 2550.00000    -999.25   10.68950   10.68950  271.99870  279.83770    -999.25    -999.25    -999.25    -999.25    3.57350  124.07590  124.07590   54.30310   54.30310    3.57350    -999.25    3.23200  -68.58470   -2.41570    3.23200
 2600.00000    -999.25    9.62120    9.62120  295.59210  308.88980    -999.25    -999.25    -999.25    -999.25    3.23740  110.37240  110.37240   60.56630   60.56630    3.23740    -999.25    2.43770  -68.74000   -2.74340    2.43770
 2650.00000    -999.25    9.10760    9.10760  141.18570  139.39420    -999.25    -999.25    -999.25    -999.25    7.17390   92.62530   92.62530   58.41740   58.41740    7.17390    -999.25    5.37590  -71.18630   -5.36330    5.37590
 2700.00000    -999.25    7.93040    7.93040  151.99780  131.28110    -999.25    -999.25    -999.25    -999.25    7.68780   75.72250   75.72250   41.29830   41.29830    7.68780    -999.25    5.47940  -68.96570   -3.31670    5.47940
