~Version ---------------------------------------------------
VERS.      2.0 : CWLS log ASCII Standard -VERSION 2.0
WRAP.       NO : One line per depth step
CREA. 08/31/17 : LAS Creation Date
~Well ------------------------------------------------------
STRT.FT                            1150.0 : START DEPTH
STOP.FT                           11550.0 : STOP DEPTH
STEP.FT                          50.00000 : STEP LENGTH
NULL.                             -999.25 : NULL VALUE
COMP.    AMOCO CANADA PETROLEUM CO., LTD. : COMPANY
WELL. AMOCO HB FINA SOUTH FORK 10-8-59-19 : WELL
FLD .                                     : FIELD
LOC .                                     : LOCATION
CTRY.                              CANADA : COUNTRY
SRVC.                        Schlumberger : SERVICE COMPANY
DATE.                         10-Oct-1977 : LOGDATE
PROV.                             Alberta : PROVINCE
UWI .                    100100805919W500 : UNIQUE WELL ID
SLAT.WGS84                       54.08913 : SURFACE LATITUDE
SLON.WGS84                      -116.8085 : SURFACE LONGITUDE
~Curve Information -----------------------------------------
DEPT    .FT    : Depth Curve
CALDED  .IN    : CALIPER FROM CNT-CFD LOG [ADJ. TO ILDED]
CALSED  .IN    : CALIPER FROM BCS LOG [ADJ. TO ILDED]
CALWS   .IN    : CALIPER [CALDED]
CONDWS  .MMHO  : CONDUCTIVITY [1000/DRESWS]
DCORED  .G/C3  : DENSITY CORRECTION FROM CNT-CFD LOG [ADJ. TO ILDED]
DCORWS  .G/C3  : DENSITY CORRECTION [DCORED]
DENWS   .G/C3  : FORMATION BULK DENSITY [RHOBED]
DPHILSED.V/V   : DENSITY POROSITY LIMESTONE [M=2.71,F=1.0] FROM CNT-CFD LOG [ADJ. TO ILDED]
DPHISSED.V/V   : DENSITY POROSITY SANDSTONE [M=2.65,F=1.0] FROM CNT-CFD LOG [ADJ. TO ILDED]
DPOLSWS .V/V   : DENSITY POROSITY LIMESTONE [CALCULATED FROM DENWS, M=2.71, F=1.0]
DRESWS  .OHMM  : DEEP RESISTIVITY [ILDED]
DTED    .US/F  : DELTA-T (INTERVAL TRANSIT TIME) FROM BCS LOG [ADJ. TO ILDED]
DTWS    .US/F  : COMPRESSIONAL  SONIC [DTED]
GRDED   .GAPI  : GAMMA RAY FROM CNT-CFD LOG [ADJ. TO ILDED]
GRSED   .GAPI  : GAMMA RAY FROM BCS LOG [ADJ. TO ILDED]
GRWS    .GAPI  : GAMMA RAY [GRSED]
ILDED   .OHMM  : DEEP INDUCTION FROM DILL LOG
ILMED   .OHMM  : MEDIUM INDUCTION FROM DILL LOG
LL8ED   .OHMM  : LATEROLOG 8 FROM DILL LOG
MRESWS  .OHMM  : MEDIUM RESISTIVITY [ILMED]
NPHILSED.V/V   : NEUTRON POROSITY LIMESTONE FROM CNT-CFD LOG [ADJ. TO ILDED]
NPHISSED.V/V   : NEUTRON POROSITY SANDSTONE FROM CNT-CFD LOG [ADJ. TO ILDED]
NPOLSWS .V/V   : NEUTRON POROSITY LIMESTONE [NPHISSED CONVERTED TO LIMESTONE MATRIX, SPL. TO NPHILSED @7662.5']
RHOBED  .G/C3  : BULK DENSITY FROM CNT-CFD LOG [ADJ. TO ILDED]
SPRED   .MV    : SPONTANEOUS POTENTIAL FROM DILL LOG
SPWS    .MV    : SPONTANEOUS POTENTIAL [BASELINE 0 MV, SPRED]
SRESWS  .OHMM  : SHALLOW RESISTIVITY [LL8ED]
~Params ----------------------------------------------------
PD  .                     GL : PERMANENT DATUM
EPD .FT                 2976 : ELEVATION PERMANENT DATUM
LMF .                     KB : LOG MEASURED FROM
DAPD.FT                 20.7 : FEET ABOVE PERMANENT DATUM
EKB .FT               2996.7 : KELLY BUSHING
EGL .FT                 2976 : GROUND LEVEL
DATE.               10/10/77 : RUN DATE
RUN .                      1 : RUN NUMBER
DD  .FT                11577 : DEPTH DRILLER
DL  .FT                11569 : DEPTH LOGGER
BLI .FT                11563 : BOTTOM LOG INTERVAL
TLI .FT                 1534 : TOP LOG INTERVAL
CBD .FT                 1535 : CASING BOTTOM DRILLER
CBL .FT                 1534 : CASING BOTTOM LOGGER
BS  .IN                 8.75 : BIT SIZE
BSD .FT                11577 : BIT SIZE AT DEPTH
DFT .                    GEL : DRILLING FLUID TYPE
DFD .                      9 : DRILLING FLUID DENSITY
DFV .                     80 : DRILLING FLUID VISCOSITY
DFPH.                    8.5 : DRILLING FLUID PH
DFL .                    8.8 : DRILLING FLUID LOSS
MSS .               FLOWLINE : MUD SAMPLE SOURCE
RMS .OHMM               2.24 : RESISTIVITY MUD SAMPLE
MST .DEGF                 54 : MUD SAMPLE TEMPERATURE
RMF .OHMM               1.98 : RESISTIVITY MUD FILTRATE SAMPLE
MFST.DEGF                 64 : MUD FILTRATE SAMPLE TEMPERATURE
TCS .HRS                   3 : TIME CIRCULATED STOPPED
LUN .                   7772 : LOGGING UNIT NUMBER
LUL .                    EDM : LOGGING UNIT LOCATION
ENGI.         BERNISKY TRACY : RECORDING ENGINEER
WITN.                 NEWELL : WITNESSED BY
CLNT.                A2DTECH : CLIENT CODE
ORIG.            2" 5" PRINT : ORIGIN OF DATA
UWI .       100100805919W500 : UNIQUE WELL ID
DICO. A2D Technologies, Inc. : DIGITIZING COMPANY
~Other -----------------------------------------------------
~ASCII -----------------------------------------------------
 1150.00000    -999.25    -999.25    -999.25    -999.25    -999.25    -999.25    -999.25    -999.25    -999.25    -999.25    -999.25    -999.25    -999.25    -999.25   40.17850   40.17850    -999.25    -999.25    -999.25    -999.25    -999.25    -999.25    -999.25    -999.25    -999.25    -999.25    -999.25
 1200.00000    -999.25    -999.25    -999.25    -999.25    -999.25    -999.25    -999.25    -999.25    -999.25    -999.25    -999.25    -999.25    -999.25    -999.25   54.64410   54.64410    -999.25    -999.25    -999.25    -999.25    -999.25    -999.25    -999.25    -999.25    -999.25    -999.25    -999.25
 1250.00000    -999.25    -999.25    -999.25    -999.25    -999.25    -999.25    -999.25    -999.25    -999.25    -999.25    -999.25    -999.25    -999.25    -999.25   53.71890   53.71890    -999.25    -999.25    -999.25    -999.25    -999.25    -999.25    -999.25    -999.25    -999.25    -999.25    -999.25
 1300.00000    -999.25    -999.25    -999.25    -999.25    -999.25    -999.25    -999.25    -999.25    -999.25    -999.25    -999.25    -999.25    -999.25    -999.25   44.14040   44.14040    -999.25    -999.25    -999.25    -999.25    -999.25    -999.25    -999.25    -999.25    -999.25    -999.25    -999.25
 1350.00000    -999.25    -999.25    -999.25    -999.25    -999.25    -999.25    -999.25    -999.25    -999.25    -999.25    -999.25    -999.25    -999.25    -999.25   46.78360   46.78360    -999.25    -999.25    -999.25    -999.25    -999.25    -999.25    -999.25    -999.25    -999.25    -999.25    -999.25
 1400.00000    -999.25    -999.25    -999.25    -999.25    -999.25    -999.25    -999.25    -999.25    -999.25    -999.25    -999.25    -999.25    -999.25    -999.25   46.49610   46.49610    -999.25    -999.25    -999.25    -999.25    -999.25    -999.25    -999.25    -999.25    -999.25    -999.25    -999.25
 1450.00000    -999.25    -999.25    -999.25    -999.25    -999.25    -999.25    -999.25    -999.25    -999.25    -999.25    -999.25    -999.25    -999.25    -999.25   53.81240   53.81240    -999.25    -999.25    -999.25    -999.25    -999.25    -999.25    -999.25    -999.25    -999.25    -999.25    -999.25
 1500.00000    -999.25    -999.25    -999.25    -999.25    -999.25    -999.25    -999.25    -999.25    -999.25    -999.25    -999.25    -999.25    -999.25   37.27250   36.08010   36.08010    -999.25    -999.25    -999.25    -999.25    -999.25    0.54310    0.50140    -999.25    -999.25    -999.25    -999.25
 1550.00000   14.88390   10.99500   14.88390  244.12270    0.14570    0.14570    1.56170    -999.25    0.59990    0.67150    4.09630  118.10270  118.10270   94.93870  100.09430  100.09430    4.09630    4.76340    6.86390    4.76340    -999.25    0.57770    0.53600    1.56170 -467.54410  -15.45940    6.86390
 1600.00000   10.98440   10.39640   10.98440  165.26590    0.11940    0.11940    2.45160    -999.25    0.12730    0.15110    6.05280   97.74360   97.74360  102.58040   99.04260   99.04260    6.05280    6.97030    6.27580    6.97030    -999.25    0.41980    0.37730    2.45160 -458.54120   -6.45650    6.27580
 1650.00000   10.99400   10.32960   10.99400   70.39480    0.07950    0.07950    2.59960    -999.25    0.03440    0.06460   14.20560   71.50390   71.50390   55.77680   51.89390   51.89390   14.20560   15.46150   21.72910   15.46150    -999.25    0.16720    0.12430    2.59960 -468.68660  -16.76450   21.72910
 1700.00000   12.65760   10.24510   12.65760  179.78110    0.05800    0.05800    2.45710    -999.25    0.12330    0.14790    5.56500   96.39170   96.39170   93.91140   92.31350   92.31350    5.56500    6.42080    5.33050    6.42080    -999.25    0.32820    0.28430    2.45710 -460.19380   -8.49390    5.33050
 1750.00000   12.29520   10.05560   12.29520  202.52340    0.07450    0.07450    2.42450    -999.25    0.14510    0.16700    4.93770   92.71330   92.71330  108.68220  108.04900  108.04900    4.93770    5.58910    4.67620    5.58910    -999.25    0.35140    0.30780    2.42450 -457.98320   -6.50400    4.67620
 1800.00000   11.49910    9.82880   11.49910  107.42060    0.06110    0.06110    2.35920    -999.25    0.18600    0.20510    9.30920   88.06190   88.06190   73.61800   68.22430   68.22430    9.30920   10.43250    9.35110   10.43250    -999.25    0.29440    0.25040    2.35920 -462.63520  -11.37670    9.35110
 1850.00000   10.38730    9.60960   10.38730   98.28590    0.09020    0.09020    2.50320    -999.25    0.09510    0.12090   10.17660   83.07400   83.07400   68.36980   66.88610   66.88610   10.17660   12.52150   10.38770   12.52150    -999.25    0.24530    0.20140    2.50320 -463.67450  -12.63820   10.38770
 1900.00000   10.93200    9.33170   10.93200  139.41750    0.18130    0.18130    2.52700    -999.25    0.08260    0.10700    7.17270   87.48330   87.48330   90.11690   88.36330   88.36330    7.17270    6.43100    6.01720    6.43100    -999.25    0.33350    0.28970    2.52700 -464.69290  -13.87730    6.01720
 1950.00000    9.65490    9.21920    9.65490  100.34270    0.06760    0.06760    2.42930    -999.25    0.14050    0.16420    9.96590   86.05850   86.05850   86.16640   82.62510   82.62510    9.96590   10.58300    9.57880   10.58300    -999.25    0.31670    0.27280    2.42930 -462.10850  -11.51510    9.57880
 2000.00000    9.97170    9.72500    9.97170  195.68320    0.07740    0.07740    2.50610    -999.25    0.09420    0.11920    5.11030   90.19390   90.19390  105.35910  107.31870  107.31870    5.11030    5.78510    4.85170    5.78510    -999.25    0.34880    0.30520    2.50610 -459.87580   -9.50310    4.85170
 2050.00000   10.48290    9.92400   10.48290  139.28740    0.07100    0.07100    2.59460    -999.25    0.03380    0.06750    7.17940   83.63280   83.63280   86.30520   78.13180   78.13180    7.17940    7.84830   10.95320    7.84830    -999.25    0.29560    0.25160    2.59460 -456.87090   -6.71890   10.95320
 2100.00000   11.63300   10.67690   11.63300  187.26620    0.09250    0.09250    2.29910    -999.25    0.22060    0.24030    5.34140  110.12310  110.12310  111.46340  104.41140  104.41140    5.34140    6.53130    8.62540    6.53130    -999.25    0.47980    0.43810    2.29910 -456.64850   -6.71870    8.62540
 2150.00000   12.18520   10.42090   12.18520  182.23230    0.05380    0.05380    2.43500    -999.25    0.14440    0.16080    5.48750   89.23720   89.23720   99.59820   96.08860   96.08860    5.48750    6.36870    5.80120    6.36870    -999.25    0.37120    0.32780    2.43500 -459.18430   -9.47520    5.80120
 2200.00000   11.52920   10.01920   11.52920  258.38800    0.08350    0.08350    2.33960    -999.25    0.19690    0.21660    3.87010   93.70220   93.70220  107.18780  107.28940  107.28940    3.87010    4.38340    4.22940    4.38340    -999.25    0.38170    0.33840    2.33960 -459.79740  -10.31050    4.22940
 2250.00000   11.60530   10.29830   11.60530  469.15320    0.12760    0.12760    1.70090    -999.25    0.55020    0.59010    2.13150  109.94260  109.94260  120.11200  119.75240  119.75240    2.13150    2.41490    2.90160    2.41490    -999.25    0.55640    0.51470    1.70090 -457.60420   -8.33800    2.90160
 2300.00000   13.41360    9.47060   13.41360  272.67270    0.25170    0.25170    2.21020    -999.25    0.27100    0.29230    3.66740   92.76210   92.76210   95.41550   97.97070   97.97070    3.66740    4.48170    3.96790    4.48170    -999.25    0.39260    0.34960    2.21020 -455.95450   -6.90900    3.96790
 2350.00000   11.31420    9.45200   11.31420  245.25760    0.22150    0.22150    1.89680    -999.25    0.47210    0.47560    4.07740   98.89430   98.89430   81.21230   91.78950   91.78950    4.07740    4.68150    3.92210    4.68150    -999.25    0.46130    0.41960    1.89680 -457.52310   -8.69980    3.92210
 2400.00000   10.24550    9.41590   10.24550   50.48110    0.08040    0.08040    2.53510    -999.25    0.07680    0.10230   19.80940   69.09650   69.09650   48.01540   53.79340   53.79340   19.80940   21.05330   18.75450   21.05330    -999.25    0.24210    0.19820    2.53510 -458.53680   -9.93420   18.75450
