~Version ---------------------------------------------------
VERS.      2.0 : CWLS log ASCII Standard -VERSION 2.0
WRAP.       NO : One line per depth step
CREA. 08/15/13 : LAS Creation Date
~Well ------------------------------------------------------
STRT.M                 300.0 : START DEPTH
STOP.M                2750.0 : STOP DEPTH
STEP.M              50.00000 : STEP LENGTH
NULL.                -999.25 : NULL VALUE
COMP.   MOBIL OIL CANADA LTD : COMPANY
WELL. MOBIL JUDYS 2-35-62-12 : WELL
FLD .                        : FIELD
LOC .                        : LOCATION
CTRY.                 CANADA : COUNTRY
SRVC.                Unknown : SERVICE COMPANY
DATE.            30-Jun-1982 : LOGDATE
PROV.                Alberta : PROVINCE
UWI .       100023506212W500 : UNIQUE WELL ID
SLAT.WGS84          54.40089 : SURFACE LATITUDE
SLON.WGS84         -115.6841 : SURFACE LONGITUDE
~Curve Information -----------------------------------------
DEPT    .M      : DEPTH METER
ACED    .US/M   : ACOUSTIC FROM SONIC LOG
CALDED  .MM     : CALIPER FROM DENSITY LOG [ADJ. TO RESISTIVITY LOG]
CALSED  .MM     : CALIPER FROM SONIC LOG
CALWS   .MM     : CALIPER [CALDED]
CILDED  .MMHO   : DEEP INDUCTION CONDUCTIVITY FROM RESISTIVITY LOG
CONDWS  .MMHO   : CONDUCTIVITY [1000/DRESWS]
CORRED  .KG/M3  : DENSITY CORRECTION FROM DENSITY LOG [ADJ. TO RESISTIVITY LOG]
DCORWS  .KG/M3  : DENSITY CORRECTION [CORRED]
DENWS   .KG/M3  : FORMATION BULK DENSITY [RHOBED]
DPHILSED.V/V    : DENSITY POROSITY LIMESTONE [M=2710,F=1000] FROM DENSITY LOG [ADJ. TO RESISTIVITY LOG]
DPHISSED.V/V    : DENSITY POROSITY SANDSTONE [M-2650,F=1000] FROM DENSITY LOG [ADJ. TO RESISTIVITY LOG]
DPOLSWS .V/V    : DENSITY POROSITY LIMESTONE [CALC. FROM DENWS M=2710,F=1000]
DRESWS  .OHMM   : DEEP RESISTIVITY [1000/CILDED IF ILDED < 5, SPL. TO ILDED @ 2500M]
DTWS    .US/M   : COMPRESSIONAL SONIC [ACED]
GRDED   .GAPI   : GAMMA RAY FROM DENSITY LOG [ADJ. TO RESISTIVITY LOG]
GRRED   .GAPI   : GAMMA RAY FROM RESISTIVITY LOG
GRWS    .GAPI   : GAMMA RAY [GRRED]
ILDED   .OHMM   : DEEP INDUCTION FROM RESISTIVITY LOG
ILMED   .OHMM   : MEDIUM INDUCTION FROM RESISTIVITY LOG
MRESWS  .OHMM   : MEDIUM RESISTIVITY [ILMED]
NPHILSED.V/V    : NEUTRON POROSITY LIMESTONE FROM DENSITY LOG [ADJ. TO RESISTIVITY LOG]
NPHISSED.V/V    : NEUTRON POROSITY SANDSTONE FROM DENSITY LOG [ADJ. TO RESISTIVITY LOG]
NPOLSWS .V/V    : NEUTRON POROSITY LIMESTONE [NPHISSED MATRIX CONVERSION FOR LIMESTONE FROM BAKER HUGHES (CNL-2420), SPL. TO NPHILSED 1780M]
RHOBED  .KG/M3  : BULK DENSITY FROM DENSITY LOG [ADJ. TO RESISTIVITY LOG]
SFLED   .OHMM   : SHALLOW FOCUSED FROM RESISTIVITY LOG
SPRED   .MV     : SPONTANEOUS POTENTIAL FROM RESISTIVITY LOG
SPWS    .MV     : SPONTANEOUS POTENTIAL [BASELINE 0 MV,SPRED]
SRESWS  .OHMM   : SHALLOW RESISTIVITY [SFLED]
TENDED  .N      : TENSION FROM DENSITY LOG [ADJ. TO RESISTIVITY LOG]
TENSED  .N      : TENSION FROM SONIC LOG
~Params ----------------------------------------------------
PD  .                         GL : PERMANENT DATUM
EPD .M                   1033.93 : ELEVATION PERMANENT DATUM
LMF .                         KB : LOG MEASURED FROM
DAPD.M                      5.49 : FEET ABOVE PERMANENT DATUM
DMF .                         KB : DRILLING MEASURED FROM
EKB .M                   1039.42 : KELLY BUSHING
EGL .M                   1033.93 : GROUND LEVEL
DATE.                   01/30/82 : RUN DATE
RUN .                          1 : RUN NUMBER
DD  .M                      2755 : DEPTH DRILLER
DL  .M                    2753.6 : DEPTH LOGGER
BLI .M                      2753 : BOTTOM LOG INTERVAL
TLI .M                       175 : TOP LOG INTERVAL
CS  .MM                      244 : CASING SIZE
CBD .M                       183 : CASING BOTTOM DRILLER
CBL .M                     183.3 : CASING BOTTOM LOGGER
BS  .MM                      222 : BIT SIZE
BSD .M                      2755 : BIT SIZE AT DEPTH
DFT .               GEL CHEM MUD : DRILLING FLUID TYPE
DFD .                       1150 : DRILLING FLUID DENSITY
DFV .                         76 : DRILLING FLUID VISCOSITY
DFPH.                       10.5 : DRILLING FLUID PH
DFL .                         25 : DRILLING FLUID LOSS
MSS .                   FLOWLINE : MUD SAMPLE SOURCE
RMS .OHMM                    2.6 : RESISTIVITY MUD SAMPLE
MST .DEGC                     19 : MUD SAMPLE TEMPERATURE
RMF .OHMM                    2.4 : RESISTIVITY MUD FILTRATE SAMPLE
MFST.DEGC                     19 : MUD FILTRATE SAMPLE TEMPERATURE
RMC .OHMM                    2.7 : RESISTIVITY MUD CAKE
MCST.DEGC                     18 : MUD CAKE SAMPLE TEMPERATURE
MFSS.                       MEAS : MUD FILTRATE SAMPLE SOURCE
MCSS.                       MEAS : MUD CAKE SAMPLE SOURCE
RMB .OHMM                    1.2 : RESISTIVITY MUD AT BHT
TCS .HRS                    5.75 : TIME CIRCULATED STOPPED
LUN .                    HL 6253 : LOGGING UNIT NUMBER
LUL .                        EDM : LOGGING UNIT LOCATION
ENGI.                     WERNER : RECORDING ENGINEER
WITN.                    STEWART : WITNESSED BY
CLNT.                    A2DTECH : CLIENT CODE
ORIG. 6.5"/100M 16.5"/100M PRINT : ORIGIN OF DATA
UWI .           100023506212W500 : UNIQUE WELL ID
DICO.     A2D Technologies, Inc. : DIGITIZING COMPANY
~Other -----------------------------------------------------
DIL-SFL & BHC-AL LOG RUN IN COMBO & CND LOG RAN
PARTICULAR INTERVALS FROM ABOUT 1160M & UP ,BHC-AL WOULD NOT LOG DUE TO BOREHOLE RUGOSITY AND OTHER CONDITIONS
CNL IS BOREHOLE CORRECTED
NEUTRON MATRIX CONVERSION USING BAKER HUGHES CHART
~ASCII -----------------------------------------------------
  300.00000  350.66650  225.18170  234.51170  225.18170   97.91380   98.54060  184.11670  184.11670 2297.46700    -999.25    0.21530    0.24120   10.14810  350.66650   86.75860   69.65500   69.65500   10.14810    -999.25    -999.25    -999.25    0.28630    0.24630 2297.46700    8.68200  -72.64690  -14.51930    8.68200 -183.07030  -19.50370
  350.00000  379.96860  261.99240  267.93990  261.99240  166.80030  155.37120  125.28940  125.28940 2202.47780    -999.25    0.27750    0.29680    6.43620  379.96860   94.05780   68.94920   68.94920    6.43620    -999.25    -999.25    -999.25    0.32520    0.28520 2202.47780    5.41070  -62.12840   -5.00330    5.41070   31.40340    9.84080
  400.00000  331.93880  261.72590  255.29470  261.72590  253.43480  253.43480   95.43700   95.43700 2290.21390    -999.25    0.21440    0.24550    3.94580  331.93880  113.88220   87.12240   87.12240    3.83630    -999.25    -999.25    -999.25    0.33050    0.29050 2290.21390    5.76230  -57.76790   -1.77690    5.76230   89.11130  -31.39960
  450.00000  325.67400  263.98910  257.21310  263.98910  195.94200  184.03330   90.34140   90.34140 2302.85940    -999.25    0.21320    0.23810    5.43380  325.67400  103.79500   66.92400   66.92400    5.43380    -999.25    -999.25    -999.25    0.26720    0.22720 2302.85940    7.25280  -57.79750   -2.94050    7.25280  194.73850   -5.60300
  500.00000  900.00000  297.98620  287.03730  297.98620  204.61420  204.61420  120.10440  120.10440 2378.02980    -999.25    0.16230    0.19410    4.88720  900.00000  106.92520   79.67030   79.67030    4.92810    -999.25    -999.25    -999.25    0.30230    0.26230 2378.02980    6.16620  -59.00870   -5.28860    6.16620  110.99140   37.50300
  550.00000  398.11180  287.83450  263.13950  287.83450  228.13020  228.13020  146.82050  146.82050 2322.54080    -999.25    0.19640    0.22660    4.38350  398.11180  117.33540   81.00130   81.00130    4.31650    -999.25    -999.25    -999.25    0.24780    0.20780 2322.54080    6.73340  -54.16230   -1.81080    6.73340 -553.80530   44.44400
  600.00000  343.52750  261.54390  258.35170  261.54390  159.13990  158.66470  217.17410  217.17410 2111.99760    -999.25    0.32860    0.34970    6.30260  343.52750   93.81550   68.31610   68.31610    6.30260    -999.25    -999.25    -999.25    0.28760    0.24760 2111.99760    6.27010  -53.90170   -2.91880    6.27010 -125.42970   54.76780
  650.00000  339.49780  228.16610  225.99930  228.16610  117.02170  110.58520  135.13150  135.13150 2324.72120    -999.25    0.19630    0.22530    9.04280  339.49780   73.03340   58.48330   58.48330    9.04280    -999.25    -999.25    -999.25    0.27860    0.23860 2324.72120    8.32860  -66.01480  -16.40050    8.32860   98.60290  100.57740
  700.00000  336.53510  233.21190  231.63110  233.21190   96.81750   99.59860  183.86790  183.86790 2317.28710    -999.25    0.20030    0.22970   10.04030  336.53510   87.01400   65.51440   65.51440   10.04030    -999.25    -999.25    -999.25    0.28430    0.24430 2317.28710    8.98780  -69.11160  -20.86580    8.98780  -99.98800   63.61980
  750.00000  342.36770  245.67500  258.42960  245.67500  182.46490  184.30120  256.33190  256.33190 2113.79150    -999.25    0.32480    0.34870    5.42590  342.36770   79.91520   59.53500   59.53500    5.42590    -999.25    -999.25    -999.25    0.31060    0.27060 2113.79150    5.75140  -51.39600   -4.51880    5.75140   58.02840   20.61390
  800.00000  348.19640  254.25890  242.74970  254.25890  175.21450  164.20900  240.39780  240.39780 2046.45670    -999.25    0.36500    0.38800    6.08980  348.19640   71.21510   53.94850   53.94850    6.08980    -999.25    -999.25    -999.25    0.33500    0.29500 2046.45670    5.13060  -53.44310   -7.93450    5.13060 -152.18530   54.85100
  850.00000  335.69830  262.42330  251.35740  262.42330  180.66730  179.45270  118.34280  118.34280 2467.84810    -999.25    0.11140    0.14160    5.57250  335.69830   78.66580   64.73510   64.73510    5.57250    -999.25    -999.25    -999.25    0.32720    0.28720 2467.84810    5.60390  -51.44280   -7.30280    5.60390 -199.66340   72.67500
  900.00000  324.16890  217.88210  222.98070  217.88210  223.17380  223.17380  118.84690  118.84690 2325.99460    -999.25    0.19490    0.22460    4.48080  324.16890   80.34400   56.30780   56.30780    4.39320    -999.25    -999.25    -999.25    0.30550    0.26550 2325.99460    5.99940  -47.39710   -4.62570    5.99940  154.92970   80.25660
  950.00000  350.53970  287.19590  233.05580  287.19590  255.49220  255.49220  295.14690  295.14690 2203.25680    -999.25    0.27120    0.29630    3.91400  350.53970   90.31810   61.34760   61.34760    3.96180    -999.25    -999.25    -999.25    0.34280    0.30280 2203.25680    4.69490  -43.14350  -16.12890    4.69490  -24.83430   39.92810
 1000.00000  900.00000  307.65970  267.73810  307.65970  122.52860  117.19890  220.93690  220.93690 1961.91770    -999.25    0.41670    0.43750    8.53250  900.00000  105.07010   70.31320   70.31320    8.53250    -999.25    -999.25    -999.25    0.33250    0.29250 1961.91770    7.42710  -43.92500  -18.28130    7.42710  121.25270   35.40160
 1050.00000  320.71020  273.60540  244.89590  273.60540  113.52390  114.92140   99.97780   99.97780 2525.26950    -999.25    0.07620    0.10800    8.70160  320.71020  139.37170  103.37390  103.37390    8.70160    -999.25    -999.25    -999.25    0.30130    0.26130 2525.26950    8.77200  -39.99040   -4.32420    8.77200  113.48250   51.33600
 1100.00000  201.42850  349.67830  327.81530  349.67830  145.63580  139.11880  201.98660  201.98660 2397.85250    -999.25    0.20760    0.18250    7.18810  201.42850   97.12640   74.87730   74.87730    7.18810    -999.25    -999.25    -999.25    0.34720    0.30720 2397.85250    7.09950  -48.33880   -6.77500    7.09950    0.03360    7.24480
 1150.00000  270.84950  352.24790  275.35710  352.24790  115.75930  111.13700  205.26620  205.26620 1885.97660    -999.25    0.46120    0.48190    8.99790  270.84950  109.10210   83.98070   83.98070    8.99790    -999.25    -999.25    -999.25    0.30590    0.26590 1885.97660    8.18820  -52.63220   -8.85450    8.18820   -8.36580   -1.59070
 1200.00000  226.79360  328.66890  266.90290  328.66890  126.91750  124.41830  235.82100  235.82100 2023.46750    -999.25    0.37840    0.40150    8.03740  226.79360  120.55110   91.21840   91.21840    8.03740    -999.25    -999.25    -999.25    0.35540    0.31540 2023.46750    8.06640  -51.03940   -7.78160    8.06640    8.72390   -3.95360
 1250.00000  297.56190  280.69850  261.12290  280.69850  157.80990  155.34700  141.89770  141.89770 2345.54270    -999.25    0.18560    0.21310    6.43720  297.56190  126.30140   97.69730   97.69730    6.43720    -999.25    -999.25    -999.25    0.32150    0.28150 2345.54270    7.17860  -46.25930   -3.52150    7.17860  118.54200  -51.12740
 1300.00000  337.75630  256.72160  236.16670  256.72160  126.76940  116.98780  148.97850  148.97850 2543.57760    -999.25    0.06670    0.09730    8.54790  337.75630  164.06450  129.84310  129.84310    8.54790    -999.25    -999.25    -999.25    0.31750    0.27750 2543.57760    9.93320  -46.24750   -4.02960    9.93320  -28.05750  -28.58430
 1350.00000  299.08350  265.74510  251.74270  265.74510  160.97860  156.12800  148.22230  148.22230 2568.58010    -999.25    0.05030    0.08270    6.40500  299.08350  142.62510  100.74070  100.74070    6.40500    -999.25    -999.25    -999.25    0.31430    0.27430 2568.58010    7.18400  -50.76170   -9.06380    7.18400   32.77460   65.90710
 1400.00000  279.15380  322.16050  304.76790  322.16050  197.01210  196.62200  158.30530  158.30530 2566.56880    -999.25    0.05150    0.08390    5.08590  279.15380  147.88070   97.00840   97.00840    5.08590    -999.25    -999.25    -999.25    0.29850    0.25850 2566.56880    6.02310  -49.56460   -8.38660    6.02310    5.00210  -26.60260
 1450.00000  313.73180  276.83200  272.68150  276.83200  302.15410  302.15410  253.10710  253.10710 2285.96190    -999.25    0.22040    0.24800    3.30960  313.73180  125.04530   91.95460   91.95460    3.35910    -999.25    -999.25    -999.25    0.30670    0.26670 2285.96190    4.37460  -45.98290   -5.32490    4.37460   85.68420   13.27710
