~Version ---------------------------------------------------
VERS.      2.0 : CWLS log ASCII Standard -VERSION 2.0
WRAP.       NO : One line per depth step
CREA. 12/29/17 : LAS Creation Date
~Well ------------------------------------------------------
STRT.FT                   1050.0 : START DEPTH
STOP.FT                   9900.0 : STOP DEPTH
STEP.FT                 50.00000 : STEP LENGTH
NULL.                    -999.25 : NULL VALUE
COMP.     PACIFIC PETROLEUMS LTD : COMPANY
WELL. PACIFIC KAYBOB 10-25-63-18 : WELL
FLD .                     KAYBOB : FIELD
LOC .                            : LOCATION
CTRY.                     CANADA : COUNTRY
SRVC.                 Lane Wells : SERVICE COMPANY
DATE.                15-Mar-1963 : LOGDATE
PROV.                    Alberta : PROVINCE
UWI .           100102506318W500 : UNIQUE WELL ID
SLAT.WGS84              54.48159 : SURFACE LATITUDE
SLON.WGS84             -116.5805 : SURFACE LONGITUDE
~Curve Information -----------------------------------------
DEPT  .FT    : Depth Curve
CALWS .IN    : CALIPER [MCALED]
CILDED.MMHO  : CONDUCTIVITY FROM IEL LOG
CONDWS.MMHO  : CONDUCTIVITY [1000/DRESWS]
DRESWS.OHMM  : DEEP RESISTIVITY [1000/CILDED IF ILDED<4, ILDED]
DTED  .US/F  : DELTA TIME FROM SONIC LOG
DTWS  .US/F  : COMPRESSIONAL SONIC [DTED]
GRED  .GAPI  : GAMMA RAY FROM GR LOG
GRSED .GAPI  : GAMMA RAY FROM SONIC LOG
GRWS  .GAPI  : GAMMA RAY [GRSED SPL. TO GRED @ 1395'-1770']
ILDED .OHMM  : DEEP INDUCTION FROM IEL LOG
MCALED.IN    : CALIPER FROM MINILOG
SNED  .OHMM  : 16 INCH SHORT NORMAL RESISTIVITY FROM IEL LOG
SPRED .MV    : SPONTANEOUS POTENTIAL FROM IEL LOG
SPWS  .MV    : SPONTANEOUS POTENTIAL [BASELINE 0 MV, SPRED]
SRESWS.OHMM  : SHALLOW RESISTIVITY [SNED]
~Params ----------------------------------------------------
PD  .                     GL : PERMANENT DATUM
EPD .FT                 2676 : ELEVATION PERMANENT DATUM
LMF .                     KB : LOG MEASURED FROM
DAPD.FT                   16 : FEET ABOVE PERMANENT DATUM
DMF .                     KB : DRILLING MEASURED FROM
EKB .FT                 2692 : KELLY BUSHING
EGL .FT                 2676 : GROUND LEVEL
DATE.               03/15/63 : RUN DATE
RUN .                      1 : RUN NUMBER
DD  .FT                 9920 : DEPTH DRILLER
DL  .FT                 9923 : DEPTH LOGGER
BLI .FT                 9919 : BOTTOM LOG INTERVAL
TLI .FT                  992 : TOP LOG INTERVAL
CS  .IN                 10.3 : CASING SIZE
CBD .FT                  993 : CASING BOTTOM DRILLER
CBL .FT                  992 : CASING BOTTOM LOGGER
BS  .IN                 8.75 : BIT SIZE
BSD .FT                 9920 : BIT SIZE AT DEPTH
DFT .                MUD GEL : DRILLING FLUID TYPE
DFD .                    9.8 : DRILLING FLUID DENSITY
DFV .                    120 : DRILLING FLUID VISCOSITY
DFPH.                    9.5 : DRILLING FLUID PH
DFL .                    6.8 : DRILLING FLUID LOSS
MSS .                   CIRC : MUD SAMPLE SOURCE
RMS .OHMM                2.6 : RESISTIVITY MUD SAMPLE
MST .DEGF                 50 : MUD SAMPLE TEMPERATURE
RMF .OHMM                2.4 : RESISTIVITY MUD FILTRATE SAMPLE
MFST.DEGF                 44 : MUD FILTRATE SAMPLE TEMPERATURE
RMC .OHMM                1.6 : RESISTIVITY MUD CAKE
MCST.DEGF                 58 : MUD CAKE SAMPLE TEMPERATURE
MFSS.                   MEAS : MUD FILTRATE SAMPLE SOURCE
MCSS.                   MEAS : MUD CAKE SAMPLE SOURCE
RMB .OHMM              0.715 : RESISTIVITY MUD AT BHT
TCS .HRS                   5 : TIME CIRCULATED STOPPED
LUN .                   8035 : LOGGING UNIT NUMBER
LUL .                    EDM : LOGGING UNIT LOCATION
ENGI.                  BLAND : RECORDING ENGINEER
WITN.                 CHUNTA : WITNESSED BY
CLNT.                A2DTECH : CLIENT CODE
ORIG.            2" 5" PRINT : ORIGIN OF DATA
UWI .       100102506318W500 : UNIQUE WELL ID
DICO. A2D Technologies, Inc. : DIGITIZING COMPANY
~Other -----------------------------------------------------
IEL-GR-MINILOG
~ASCII -----------------------------------------------------
# ...
 5650.00000    9.74580   66.34960   72.03470   13.88220   74.68590   74.68590    -999.25   78.97040   78.97040   13.88220    9.74580   24.56800  -80.60030  -44.18110   24.56800
 5700.00000    9.42200   51.29750   25.63090   39.01540   60.36130   60.36130    -999.25   87.89870   87.89870   39.01540    9.42200   45.90340  -42.29520   -8.03930   45.90340
 5750.00000   12.24840   93.20900   91.53990   10.92420   87.31280   87.31280    -999.25  150.62070  150.62070   10.92420   12.24840   12.12020  -39.34320   -7.23650   12.12020
 5800.00000   11.40680   96.72110  108.30010    9.23360   64.92900   64.92900    -999.25  147.78220  147.78220    9.23360   11.40680   10.07830  -36.23910   -6.28160   10.07830
 5850.00000   15.03030  170.62460  153.72080    6.50530   71.82980   71.82980    -999.25  135.99290  135.99290    6.50530   15.03030    6.95080  -29.58960   -1.79550    6.95080
 5900.00000   10.27770   32.59270   29.15690   34.29720   89.05220   89.05220    -999.25  189.35040  189.35040   34.29720   10.27770   44.32080  -28.46690   -1.12630   44.32080
 5950.00000   10.39620   78.74270   75.88690   13.17750   95.65930   95.65930    -999.25  145.89800  145.89800   13.17750   10.39620   17.33430  -30.99470   -4.02810   17.33430
 6000.00000    9.13680    3.94380    9.80380  102.00110   58.23640   58.23640    -999.25   53.20390   53.20390  102.00110    9.13680  149.69790  -51.13130  -24.53630  149.69790
 6050.00000    9.39520   48.97200   53.64290   18.64180   62.34400   62.34400    -999.25  124.71780  124.71780   18.64180    9.39520   23.19790  -56.57450  -30.35110   23.19790
 6100.00000    9.36970   65.20950   72.12090   13.86560   62.71990   62.71990    -999.25  119.09180  119.09180   13.86560    9.36970   15.58670  -48.87400  -23.02470   15.58670
 6150.00000    8.67610   45.67060   52.67820   18.98320   52.57430   52.57430    -999.25   39.52290   39.52290   18.98320    8.67610   33.89960  -99.36740  -73.88970   33.89960
 6200.00000    8.27350  100.63380  100.92240    9.90860   54.41480   54.41480    -999.25   37.79390   37.79390    9.90860    8.27350   30.39050 -148.31660 -123.21290   30.39050
 6250.00000    8.43340   75.28680   78.82580   12.68620   58.88290   58.88290    -999.25   43.17140   43.17140   12.68620    8.43340   33.90970 -135.20550 -110.47340   33.90970
 6300.00000    9.22720    4.03600   11.51540   86.84010   53.44010   53.44010    -999.25   61.46350   61.46350   86.84010    9.22720  104.98770  -35.09000  -10.72950  104.98770
 6350.00000    9.33750  110.71710   98.95900   10.10520   60.26610   60.26610    -999.25   65.55360   65.55360   10.10520    9.33750   25.72750 -105.03520  -81.04880   25.72750
 6400.00000    8.66140   10.03180   15.14880   66.01180   51.58850   51.58850    -999.25   39.00320   39.00320   66.01180    8.66140   89.31760  -73.61230  -49.99750   89.31760
 6450.00000    8.74980  149.36870  136.08590    7.34830   52.03560   52.03560    -999.25   54.88610   54.88610    7.34830    8.74980   39.22090 -105.69050  -82.44970   39.22090
 6500.00000    9.63690    3.96400   11.38330   87.84810   49.81970   49.81970    -999.25   25.92250   25.92250   87.84810    9.63690  172.13290 -117.13970  -94.27050  172.13290
 6550.00000    8.16310   75.76610   75.81730   13.18960   55.47030   55.47030    -999.25   30.86090   30.86090   13.18960    8.16310   67.21190 -165.14820 -142.65060   67.21190
 6600.00000    8.91190   20.33490   28.97910   34.50760   50.54040   50.54040    -999.25   24.19330   24.19330   34.50760    8.91190  102.92990 -160.13440 -138.01090  102.92990
 6650.00000    9.32380  497.63280  481.20880    2.07810   71.90700   71.90700    -999.25   86.85710   86.85710    2.68660    9.32380    6.53280  -68.60760  -46.85570    6.53280
 6700.00000    9.16960  215.36490  177.15420    5.64480   62.10470   62.10470    -999.25  101.64260  101.64260    5.64480    9.16960    8.57340  -60.08360  -38.70570    8.57340
 6750.00000    8.51160  331.98350  255.06950    3.92050   63.74800   63.74800    -999.25   72.92970   72.92970    3.97930    8.51160   16.64680 -123.97500 -102.66050   16.64680
 6800.00000    9.18160   36.24550   41.32490   24.19850   54.60300   54.60300    -999.25   70.57970   70.57970   24.19850    9.18160   35.94410  -33.42180  -11.74670   35.94410
 6850.00000    9.64350    3.14210    9.57360  104.45370   53.38050   53.38050    -999.25   34.87850   34.87850  104.45370    9.64350  116.70590  -74.26070  -52.22270  116.70590
 6900.00000    9.14500    3.58170   10.26460   97.42220   51.97560   51.97560    -999.25   43.86700   43.86700   97.42220    9.14500   84.68270  -33.64560  -11.24700   84.68270
 6950.00000    9.02650    3.16590    7.86220  127.19110   52.01370   52.01370    -999.25   62.42660   62.42660  127.19110    9.02650  138.69570  -46.58680  -23.82530  138.69570
 7000.00000    9.02350    5.65730   11.12890   89.85610   51.96460   51.96460    -999.25   47.34860   47.34860   89.85610    9.02350   96.84710  -63.67710  -40.55510   96.84710
 7050.00000    9.02690    6.05520   10.56790   94.62610   51.53600   51.53600    -999.25   35.44800   35.44800   94.62610    9.02690  116.72990  -77.85170  -54.36910  116.72990
 7100.00000    9.04190    4.87790    9.61430  104.01130   50.89110   50.89110    -999.25   38.84640   38.84640  104.01130    9.04190  125.77630  -72.06550  -48.22000  125.77630
 7150.00000    9.05380    5.54270    8.82730  113.28460   51.63600   51.63600    -999.25   54.46300   54.46300  113.28460    9.05380  172.67130  -45.59940  -21.39340  172.67130
 7200.00000    9.05530   13.33590   15.40240   64.92480   55.52990   55.52990    -999.25   83.18990   83.18990   64.92480    9.05530   72.87250  -28.00980   -5.25830   72.87250
 7250.00000    9.05680   59.34150   59.42720   16.82730   58.42210   58.42210    -999.25  129.16800  129.16800   16.82730    9.05680   22.96680  -44.20890  -25.58420   22.96680
 7300.00000    9.15130    1.88030    7.29160  137.14430   51.64030   51.64030    -999.25   60.49580   60.49580  137.14430    9.15130  117.29080  -39.00470  -21.48760  117.29080
 7350.00000    9.43060    0.30570    3.18470  314.00570   49.25490   49.25490    -999.25   24.71650   24.71650  314.00570    9.43060  141.05230 -103.83940  -85.99140  141.05230
 7400.00000    9.15730    4.13020    6.74980  148.15160   51.70290   51.70290    -999.25   30.06810   30.06810  148.15160    9.15730  108.56690  -95.93380  -77.75700  108.56690
 7450.00000    9.35790    4.91340    7.35800  135.90560   48.57090   48.57090    -999.25   29.53000   29.53000  135.90560    9.35790  131.44910 -116.94040  -98.43270  131.44910
 7500.00000    9.63970    3.00660    6.47260  154.49770   49.38350   49.38350    -999.25   16.78930   16.78930  154.49770    9.63970  119.87560  -95.65640  -76.82000  119.87560
 7550.00000    9.16370   11.59410   12.94690   77.23830   53.10640   53.10640    -999.25   28.23160   28.23160   77.23830    9.16370  101.18520  -95.95430  -76.78920  101.18520
 7600.00000    9.90260    4.37350    7.49270  133.46360   50.34070   50.34070    -999.25   22.44730   22.44730  133.46360    9.90260  142.51650 -125.12040 -105.62440  142.51650
 7650.00000   11.63690    8.48660    8.80310  113.59610   50.05830   50.05830    -999.25   20.89860   20.89860  113.59610   11.63690  107.54140 -113.63110  -93.80640  107.54140
 7700.00000   10.65310    3.19630    6.83560  146.29250   50.00170   50.00170    -999.25   22.60400   22.60400  146.29250   10.65310  146.32270 -110.45390  -90.29830  146.32270
 7750.00000   10.49760    8.20630    7.96740  125.51220   50.21480   50.21480    -999.25   19.07980   19.07980  125.51220   10.49760  120.88920 -104.74620  -84.26180  120.88920
 7800.00000    9.75790    7.24940    8.37720  119.37220   50.73350   50.73350    -999.25   20.28330   20.28330  119.37220    9.75790  150.23860 -102.56350  -81.75040  150.23860
 7850.00000    9.36750   11.77080   10.56340   94.66640   50.79980   50.79980    -999.25   18.98910   18.98910   94.66640    9.36750   99.18320 -111.22800  -90.08400   99.18320
 7900.00000   10.78780   21.94820   21.20270   47.16390   50.80870   50.80870    -999.25   21.62550   21.62550   47.16390   10.78780   96.58340 -160.64630 -139.17360   96.58340
