~Version ---------------------------------------------------
VERS.      2.0 : CWLS log ASCII Standard -VERSION 2.0
WRAP.       NO : One line per depth step
CREA. 10/24/17 : LAS Creation Date
~Well ------------------------------------------------------
STRT.FT                        500.0 : START DEPTH
STOP.FT                       6350.0 : STOP DEPTH
STEP.FT                     50.00000 : STEP LENGTH
NULL.                        -999.25 : NULL VALUE
COMP.         CALIFORNIA STANDARD CO : COMPANY
WELL. CALSTAN WEST CDN CAMAO 16-20-5 : WELL
FLD .                                : FIELD
LOC .                                : LOCATION
CTRY.                         CANADA : COUNTRY
SRVC.                        Unknown : SERVICE COMPANY
DATE.                    01-Jan-1960 : LOGDATE
PROV.                        Alberta : PROVINCE
UWI .               100162005425W400 : UNIQUE WELL ID
SLAT.WGS84                  53.68524 : SURFACE LATITUDE
SLON.WGS84                 -113.6417 : SURFACE LONGITUDE
~Curve Information -----------------------------------------
DEPT  .FT         : Depth Curve
CALMED.IN         : CALIPER FROM MICROLOG
CALWS .IN         : CALIPER [CALMED]
CILDED.MMHO       : CONDUCTIVITY FROM RESISTIVITY LOG
CONDWS.MMHO       : CONDUCTIVITY [CILDED]
DRESWS.OHMM       : DEEP RESISTIVITY [ILDED]
DTED  .US/F       : DELTA TIME FROM SONIC LOG
DTWS  .US/F       : DELTA TIME [DTED]
GRSED .UgRa-Eq/T  : GAMMA RAY FROM SONIC LOG
GRWS  .GAPI       : GAMMA RAY [GRSED*16.5]
ILDED .OHMM       : INDUCTION LOG DEEP RESISTIVITY
SNED  .OHMM       : 16 INCH SHORT NORMAL RESISTIVITY FROM IEL
SPRED .MV         : SPONTANEOUS POTENTIAL FROM RESISTIVITY LOG
SPWS  .MV         : SPONTANEOUS POTENTIAL [BASELINE 0 MV] [SPRED]
SRESWS.OHMM       : SHALLOW RESISTIVITY [SNED]
~Params ----------------------------------------------------
LMF .                     KB : LOG MEASURED FROM
DMF .                     KB : DRILLING MEASURED FROM
EKB .FT                 2268 : KELLY BUSHING
EGL .FT                 2255 : GROUND LEVEL
DATE.               01/01/60 : RUN DATE
RUN .                      1 : RUN NUMBER
DD  .FT                 6370 : DEPTH DRILLER
DL  .FT                 6376 : DEPTH LOGGER
BLI .FT                 6375 : BOTTOM LOG INTERVAL
TLI .FT                  611 : TOP LOG INTERVAL
CBD .FT                  611 : CASING BOTTOM DRILLER
CBL .FT                  611 : CASING BOTTOM LOGGER
BS  .IN                    9 : BIT SIZE
BSD .FT                 6370 : BIT SIZE AT DEPTH
DFT .                    GEL : DRILLING FLUID TYPE
DFD .                   10.4 : DRILLING FLUID DENSITY
DFV .                     77 : DRILLING FLUID VISCOSITY
DFPH.                    9.5 : DRILLING FLUID PH
DFL .                    9.6 : DRILLING FLUID LOSS
RMS .OHMM                2.9 : RESISTIVITY MUD SAMPLE
MST .DEGF                 46 : MUD SAMPLE TEMPERATURE
RMF .OHMM                1.2 : RESISTIVITY MUD FILTRATE SAMPLE
MFST.DEGF                 52 : MUD FILTRATE SAMPLE TEMPERATURE
RMC .OHMM                1.0 : RESISTIVITY MUD CAKE
MCST.DEGF                 58 : MUD CAKE SAMPLE TEMPERATURE
RMB .OHMM                0.9 : RESISTIVITY MUD AT BHT
TCS .HRS                 2.5 : TIME CIRCULATED STOPPED
LUN .                   1574 : LOGGING UNIT NUMBER
LUL .                    EDM : LOGGING UNIT LOCATION
ENGI.                  CAMUS : RECORDING ENGINEER
WITN.                BORWICK : WITNESSED BY
CLNT.                A2DTECH : CLIENT CODE
ORIG.            2" 5" PRINT : ORIGIN OF DATA
UWI .       100162005425W400 : UNIQUE WELL ID
DICO. A2D Technologies, Inc. : DIGITIZING COMPANY
~Other -----------------------------------------------------
~ASCII -----------------------------------------------------
# ...
 2950.00000   12.33510   12.33510  357.20260  357.20260    2.95420  106.03000  106.03000    6.50960  107.40840    2.95420    3.50220  -23.27530   -4.31870    3.50220
 3000.00000   10.44480   10.44480  160.25940  160.25940    6.32960   88.50740   88.50740    5.32720   87.89880    6.32960    7.39110  -33.29210  -13.98850    7.39110
 3050.00000   10.05660   10.05660  190.05980  190.05980    5.16420   85.88870   85.88870    3.67530   60.64240    5.16420    9.00020  -54.38020  -34.72790    9.00020
 3100.00000   16.06200   16.06200  767.25900  767.25900    1.18470  127.35150  127.35150    5.50700   90.86630    1.18470    1.85370  -24.98700   -4.98420    1.85370
 3150.00000   13.05930   13.05930  302.60080  302.60080    3.45380   95.12850   95.12850    4.64200   76.59300    3.45380    3.86910  -24.23420   -3.88450    3.86910
 3200.00000   11.60120   11.60120  232.42350  232.42350    4.22360   87.46080   87.46080    5.31460   87.69090    4.22360    8.69390  -51.61310  -30.91290    8.69390
 3250.00000   13.32770   13.32770  255.14410  255.14410    3.98470   91.18770   91.18770    3.30740   54.57210    3.98470    4.86500  -38.95160  -17.90440    4.86500
 3300.00000   12.52470   12.52470   90.83790   90.83790   11.62120   72.27260   72.27260    3.16940   52.29510   11.62120   10.20180  -35.69670  -14.30080   10.20180
 3350.00000   13.09080   13.09080  296.16590  296.16590    3.39520   98.48900   98.48900    3.81860   63.00610    3.39520    9.28750  -78.63520  -56.88890    9.28750
 3400.00000   12.67110   12.67110  220.88090  220.88090    4.47580   94.47830   94.47830    5.00280   82.54620    4.47580    5.13540  -36.56580  -14.47250    5.13540
 3450.00000   12.60060   12.60060  236.58560  236.58560    4.18730   94.04450   94.04450    5.79050   95.54410    4.18730    6.10200  -38.33850  -15.89470    6.10200
 3500.00000    8.81830    8.81830  194.95840  194.95840    5.12190   85.80640   85.80640    3.13900   51.79350    5.12190   20.09230 -101.01990  -78.22910   20.09230
 3550.00000    8.89930    8.89930  196.22210  196.22210    4.96550   84.20530   84.20530    3.77380   62.26770    4.96550   15.56390  -86.43650  -63.29700   15.56390
 3600.00000   12.43180   12.43180  283.40710  283.40710    3.57290  102.14590  102.14590    5.23490   86.37580    3.57290    4.47690  -37.56340  -14.07340    4.47690
 3650.00000   10.82650   10.82650   54.18060   54.18060   21.03330   77.70480   77.70480    3.50250   57.79120   21.03330   18.84060  -38.96960  -15.13270   18.84060
 3700.00000    8.61420    8.61420   66.62900   66.62900   17.94880   75.52870   75.52870    4.16390   68.70430   17.94880   25.65830  -63.68160  -39.79900   25.65830
 3750.00000    8.89990    8.89990  167.11870  167.11870    5.91020   84.95320   84.95320    3.42610   56.53070    5.91020   21.04410  -90.30900  -66.66850   21.04410
 3800.00000    9.74800    9.74800   13.55070   13.55070  158.47220   53.63950   53.63950    0.74510   12.29420  158.47220   86.36840  -56.39630  -32.99910   86.36840
 3850.00000   10.56120   10.56120   57.81470   57.81470   19.24730   59.31480   59.31480    1.92060   31.68990   19.24730   33.36180  -64.19610  -41.04340   33.36180
 3900.00000    8.46380    8.46380   58.87060   58.87060   19.63440   63.50630   63.50630    1.03260   17.03790   19.63440   76.49020 -128.39730 -105.48670   76.49020
 3950.00000   10.44650   10.44650   49.61120   49.61120   25.54090   64.46790   64.46790    2.97910   49.15430   25.54090   30.90540  -55.90810  -33.24200   30.90540
 4000.00000    8.45270    8.45270   88.39050   88.39050   12.25000   57.85520   57.85520    1.19420   19.70430   12.25000   58.36780 -136.67340 -114.24930   58.36780
 4050.00000    9.23100    9.23100   22.13950   22.13950   66.81360   52.37150   52.37150    0.94160   15.53640   66.81360  114.31530 -125.98680 -103.80600  114.31530
 4100.00000    9.28160    9.28160   20.01860   20.01860   81.78920   56.38160   56.38160    1.28180   21.14890   81.78920   98.36840 -104.21170  -82.27540   98.36840
 4150.00000    9.51870    9.51870   13.23740   13.23740  153.07690   51.29960   51.29960    0.88750   14.64370  153.07690  139.36770 -108.65470  -86.96040  139.36770
 4200.00000    9.04930    9.04930   65.58780   65.58780   17.27720   55.63120   55.63120    1.23830   20.43200   17.27720   64.65770 -124.94110 -103.49130   64.65770
 4250.00000    8.48820    8.48820   79.77470   79.77470   14.07980   57.27680   57.27680    0.87120   14.37480   14.07980   65.69190 -133.43870 -112.23100   65.69190
 4300.00000    9.14580    9.14580  199.17060  199.17060    4.83840   54.31620   54.31620    1.78440   29.44260    4.83840   36.51360 -121.52300 -100.55860   36.51360
 4350.00000   11.39700   11.39700  187.34330  187.34330    5.32250   73.14860   73.14860    4.85080   80.03740    5.32250    6.90560  -49.33930  -28.61940    6.90560
 4400.00000    9.23400    9.23400   60.27870   60.27870   19.53660   55.95910   55.95910    1.01730   16.78550   19.53660   55.31010 -102.91370  -82.43580   55.31010
 4450.00000    9.20270    9.20270   32.05260   32.05260   41.09380   54.49700   54.49700    1.12300   18.53030   41.09380   76.69870 -118.06230  -97.82890   76.69870
 4500.00000    9.10810    9.10810   33.65590   33.65590   41.79380   53.87060   53.87060    1.25180   20.65470   41.79380   71.12490 -128.86710 -108.87580   71.12490
 4550.00000    8.97310    8.97310   12.55390   12.55390  177.06790   49.49750   49.49750    1.55850   25.71530  177.06790  125.00240 -103.21880  -83.47080  125.00240
 4600.00000    8.40770    8.40770  131.87980  131.87980    7.89150   93.61330   93.61330    1.08610   17.92150    7.89150   32.41810 -129.53120 -110.02760   32.41810
 4650.00000    9.43700    9.43700   46.22250   46.22250   24.31210   62.09520   62.09520    1.94010   32.01160   24.31210   32.22940  -31.69010  -12.42860   32.22940
 4700.00000    9.78760    9.78760   65.76500   65.76500   17.51840   75.13660   75.13660    5.33860   88.08690   17.51840   15.78090  -26.01840   -7.00130   15.78090
 4750.00000   15.82150   15.82150  206.71360  206.71360    4.74370   93.15650   93.15650    6.58420  108.63930    4.74370    6.57250  -46.15190  -27.28000    6.57250
 4800.00000   11.43300   11.43300  159.89630  159.89630    6.24160   83.35520   83.35520    5.84790   96.49040    6.24160    8.54800  -28.83720  -10.08880    8.54800
 4850.00000   10.05240   10.05240  153.32820  153.32820    6.49630   84.10380   84.10380    5.61180   92.59470    6.49630    9.05090  -25.34090   -6.71660    9.05090
 4900.00000   10.01300   10.01300  105.64240  105.64240    9.86670   75.06400   75.06400    4.52970   74.74000    9.86670   12.02660  -25.62470   -7.12330   12.02660
 4950.00000   11.48230   11.48230  167.65050  167.65050    5.92500   83.96900   83.96900    5.05130   83.34730    5.92500    8.12800  -26.51710   -8.13990    8.12800
 5000.00000   10.55700   10.55700  127.13980  127.13980    7.86320   78.78040   78.78040    4.58540   75.65910    7.86320   10.56900  -25.97310   -7.71880   10.56900
 5050.00000    -999.25    -999.25  193.29930  193.29930    5.02440   90.24980   90.24980    4.91540   81.10410    5.02440    6.14750  -40.92190  -22.79110    6.14750
 5100.00000   10.44210   10.44210  162.87010  162.87010    6.08430   84.78160   84.78160    5.79760   95.66040    6.08430    8.44220  -26.04470   -8.03800    8.44220
 5150.00000   10.94710   10.94710  151.56290  151.56290    6.57700   82.42370   82.42370    5.75070   94.88660    6.57700    9.13160  -23.62400   -5.74020    9.13160
 5200.00000    9.44280    9.44280   33.51640   33.51640   37.44320   62.51010   62.51010    2.76560   45.63320   37.44320   41.53240  -30.15920   -9.95310   41.53240
 5250.00000    9.34510    9.34510   12.92690   12.92690  138.92340   58.39460   58.39460    2.39550   39.52580  138.92340   86.89980  -36.84770  -13.54050   86.89980
 5300.00000    9.24120    9.24120   35.11810   35.11810   34.96900   62.10030   62.10030    5.54620   91.51230   34.96900   49.15500  -69.05190  -42.62790   49.15500
 5350.00000    9.26780    9.26780   14.81370   14.81370  126.36050   60.43470   60.43470    3.24630   53.56480  126.36050   99.29140  -35.23110   -5.67480   99.29140
