~Version ---------------------------------------------------
VERS.      2.0 : CWLS log ASCII Standard -VERSION 2.0
WRAP.       NO : One line per depth step
CREA. 10/25/17 : LAS Creation Date
~Well ------------------------------------------------------
STRT.FT                             1050.0 : START DEPTH
STOP.FT                            10000.0 : STOP DEPTH
STEP.FT                           50.00000 : STEP LENGTH
NULL.                              -999.25 : NULL VALUE
COMP.               FRONTIER PRODUCING INC : COMPANY
WELL. FRONT HUBER B.A. EAGLE T 12-28-63-16 : WELL
FLD .                                   WC : FIELD
LOC .                                      : LOCATION
CTRY.                               CANADA : COUNTRY
SRVC.                           Lane Wells : SERVICE COMPANY
DATE.                          16-Feb-1966 : LOGDATE
PROV.                              Alberta : PROVINCE
UWI .                     100122806316W500 : UNIQUE WELL ID
SLAT.WGS84                        54.48142 : SURFACE LATITUDE
SLON.WGS84                       -116.3666 : SURFACE LONGITUDE
~Curve Information -----------------------------------------
DEPT  .FT    : Depth Curve
ACED  .US/F  : ACOUSTIC FROM SONIC LOG [ADJ TO ILED]
CALWS .IN    : CALIPER [MCALED]
CILED .MMHO  : DEEP INDUCTION CONDUCTIVITY FROM IEL LOG
CONDWS.MMHO  : CONDUCTIVITY [1000/DRESWS]
DRESWS.OHMM  : DEEP RESISTIVITY [1000/CILDED IF ILDED <4, ILDED]
DTWS  .US/F  : COMPRESSIONAL SONIC [ACED]
GRSED .GAPI  : GAMMA RAY FROM SONIC LOG [ADJ TO ILED]
GRWS  .GAPI  : GAMMA RAY [GRSED]
ILED  .OHMM  : DEEP INDUCTION FROM IEL LOG
MCALED.IN    : MLT CALIPER FROM ML LOG
MINVED.OHMM  : MICRO INVERSE RESISTIVITY FROM ML LOG
MNORED.OHMM  : MICRO NORMAL RESISTIVITY FROM ML LOG
SNED  .OHMM  : SHORT NORMAL 10" FROM IEL LOG
SPRED .MV    : SPONTANEOUS POTENTIAL FROM IEL LOG
SPWS  .MV    : SPONTANEOUS POTENTIAL [BASELINE 0 MV, SPRED]
SRESWS.OHMM  : SHALLOW RESISTIVITY [SNED]
~Params ----------------------------------------------------
PD  .                     GL : PERMANENT DATUM
EPD .FT                 3184 : ELEVATION PERMANENT DATUM
LMF .                     KB : LOG MEASURED FROM
DAPD.FT                   14 : FEET ABOVE PERMANENT DATUM
DMF .                     KB : DRILLING MEASURED FROM
EKB .FT                 3198 : KELLY BUSHING
EGL .FT                 3184 : GROUND LEVEL
DATE.               02/16/66 : RUN DATE
RUN .                      1 : RUN NUMBER
DD  .FT                10035 : DEPTH DRILLER
DL  .FT                10036 : DEPTH LOGGER
BLI .FT                10032 : BOTTOM LOG INTERVAL
TLI .FT                 1022 : TOP LOG INTERVAL
CS  .IN                8.625 : CASING SIZE
CBD .FT                 1023 : CASING BOTTOM DRILLER
CBL .FT                 1022 : CASING BOTTOM LOGGER
BS  .IN                7.875 : BIT SIZE
BSD .FT                10035 : BIT SIZE AT DEPTH
DFT .                MUD GEL : DRILLING FLUID TYPE
DFD .                   10.2 : DRILLING FLUID DENSITY
DFV .                    114 : DRILLING FLUID VISCOSITY
DFPH.                   10.5 : DRILLING FLUID PH
DFL .                    4.8 : DRILLING FLUID LOSS
MSS .                   CIRC : MUD SAMPLE SOURCE
RMS .OHMM                2.9 : RESISTIVITY MUD SAMPLE
MST .DEGF                 71 : MUD SAMPLE TEMPERATURE
RMF .OHMM                1.6 : RESISTIVITY MUD FILTRATE SAMPLE
MFST.DEGF                 74 : MUD FILTRATE SAMPLE TEMPERATURE
RMC .OHMM                2.4 : RESISTIVITY MUD CAKE
MCST.DEGF                 74 : MUD CAKE SAMPLE TEMPERATURE
MFSS.                   MEAS : MUD FILTRATE SAMPLE SOURCE
MCSS.                   MEAS : MUD CAKE SAMPLE SOURCE
RMB .OHMM                1.2 : RESISTIVITY MUD AT BHT
TCS .HRS                 3.5 : TIME CIRCULATED STOPPED
LUN .                   8038 : LOGGING UNIT NUMBER
LUL .                     SL : LOGGING UNIT LOCATION
ENGI.                 WOOLAM : RECORDING ENGINEER
WITN.                HESKETH : WITNESSED BY
CLNT.                A2DTECH : CLIENT CODE
ORIG.            2" 5" PRINT : ORIGIN OF DATA
UWI .       100122806316W500 : UNIQUE WELL ID
DICO. A2D Technologies, Inc. : DIGITIZING COMPANY
~Other -----------------------------------------------------
~ASCII -----------------------------------------------------
 1050.00000  109.93290    -999.25  215.20030  190.55070    5.24800  109.93290   92.88480   92.88480    5.24800    -999.25    -999.25    -999.25    4.73850  -45.06540   -4.36650    4.73850
 1100.00000  146.33280    -999.25  252.74940  224.44170    4.45550  146.33280   45.92660   45.92660    4.45550    -999.25    -999.25    -999.25    3.52250  -41.57300   -0.76720    3.52250
 1150.00000  104.93720    -999.25  193.25890  183.02880    5.46430  104.93720   87.11380   87.11380    5.46430    -999.25    -999.25    -999.25    4.88620  -48.84850   -8.02610    4.88620
 1200.00000   42.52960    -999.25  131.90650  125.12200    7.99220   42.52960   45.36380   45.36380    7.99220    -999.25    -999.25    -999.25    6.73160  -45.76470   -4.92640    6.73160
 1250.00000  110.03580    -999.25  215.22850  189.48720    5.27740  110.03580   60.30610   60.30610    5.27740    -999.25    -999.25    -999.25    4.96300  -44.21930   -4.09250    4.96300
 1300.00000  112.44280    -999.25  255.47930  212.67830    4.70230  112.44280   80.31990   80.31990    4.70230    -999.25    -999.25    -999.25    4.02860  -42.75220   -3.85000    4.02860
 1350.00000  108.83670    -999.25  118.07080  122.95590    8.13300  108.83670   81.72630   81.72630    8.13300    -999.25    -999.25    -999.25    7.18480  -51.07040  -13.40170    7.18480
 1400.00000  106.26670    -999.25   95.99610   93.53680   10.69580  106.26670   77.97290   77.97290   10.69580    -999.25    -999.25    -999.25   10.04160  -45.78140   -9.33730   10.04160
 1450.00000  131.10380    -999.25  223.28340  217.52370    4.59720  131.10380   89.10300   89.10300    4.59720    -999.25    -999.25    -999.25    4.15790  -38.79760   -3.58710    4.15790
 1500.00000  101.18650    -999.25  251.41390  225.27090    4.43910  101.18650   58.27210   58.27210    4.43910    -999.25    -999.25    -999.25    3.68570  -38.28820   -3.69180    3.68570
 1550.00000  105.80540    -999.25  235.69070  215.36310    4.64360  105.80540   77.02560   77.02560    4.64360    -999.25    -999.25    -999.25    4.10980  -37.65900   -3.44180    4.10980
 1600.00000  102.17840    -999.25   85.24690   85.61350   11.68040  102.17840   76.11900   76.11900   11.68040    -999.25    -999.25    -999.25   10.78760  -52.91460  -19.08010   10.78760
 1650.00000   84.60870    -999.25  217.12260  204.61110    4.88750   84.60870   83.82180   83.82180    4.88750    -999.25    -999.25    -999.25    4.38890  -37.09380   -3.63860    4.38890
 1700.00000   68.33290    -999.25  225.58510  213.49730    4.68390   68.33290   58.09930   58.09930    4.68390    -999.25    -999.25    -999.25    4.53820  -37.58630   -4.51380    4.53820
 1750.00000  124.91510    -999.25  245.75380  243.44520    4.10770  124.91510   72.52850   72.52850    4.10770    -999.25    -999.25    -999.25    3.72860  -37.02620   -4.33420    3.72860
 1800.00000   63.33540    -999.25  274.79170  274.79170    3.64020   63.33540   72.91090   72.91090    3.95350    -999.25    -999.25    -999.25    3.68960  -39.00270   -6.68990    3.68960
 1850.00000  111.59870    -999.25  236.50020  216.57210    4.61740  111.59870  103.97210  103.97210    4.61740    -999.25    -999.25    -999.25    4.81620  -37.97690   -6.04690    4.81620
 1900.00000   76.50640    -999.25  188.02630  175.63630    5.69880   76.50640   81.37780   81.37780    5.69880    -999.25    -999.25    -999.25    4.80320  -36.12620   -4.57550    4.80320
 1950.00000   91.42860    -999.25  228.01880  220.01720    4.54510   91.42860   90.59340   90.59340    4.54510    -999.25    -999.25    -999.25    4.83790  -36.50780   -5.33970    4.83790
 2000.00000   94.36310   15.94280  238.27170  233.34500    4.28550   94.36310   87.46000   87.46000    4.28550   15.94280    -999.25    -999.25    3.80070  -35.44310   -4.65550    3.80070
 2050.00000   92.36130    9.17410  125.92890  124.99610    8.00030   92.36130   64.23940   64.23940    8.00030    9.17410    -999.25    -999.25    7.37830  -42.82430  -12.10820    7.37830
 2100.00000   94.05350   15.97190  331.46640  331.46640    3.01690   94.05350   74.28800   74.28800    3.12760   15.97190    -999.25    -999.25    3.27590  -37.91100   -5.28620    3.27590
 2150.00000  100.39810    8.60010  115.96030  110.46370    9.05270  100.39810   71.58090   71.58090    9.05270    8.60010    -999.25    -999.25    8.42530  -52.04380  -17.52980    8.42530
 2200.00000  105.67730    8.23010  109.71790  105.77980    9.45360  105.67730   40.94130   40.94130    9.45360    8.23010    -999.25    -999.25   10.44690  -59.90410  -23.25520   10.44690
 2250.00000   86.24980   11.40680  260.74590  237.89700    4.20350   86.24980   93.75500   93.75500    4.20350   11.40680    -999.25    -999.25    3.32860  -54.12270  -15.29850    3.32860
 2300.00000   96.55960   12.83590  245.94230  235.13750    4.25350   96.55960   55.52740   55.52740    4.25350   12.83590    -999.25    -999.25    3.69250  -55.37980  -14.39190    3.69250
 2350.00000  109.73700   10.58690  278.53140  232.62310    4.29880  109.73700   79.07080   79.07080    4.29880   10.58690    -999.25    -999.25    3.64540  -57.16990  -13.99600    3.64540
 2400.00000   81.05360   15.52370  444.63570  444.63570    2.24920   81.05360   86.75610   86.75610    2.32370   15.52370    -999.25    -999.25    2.73170  -55.20690   -9.86930    2.73170
 2450.00000   96.68030    8.80320  105.45500  104.05070    9.61070   96.68030   69.68930   69.68930    9.61070    8.80320    -999.25    -999.25   11.49730  -67.53200  -20.00840   11.49730
 2500.00000   96.34300   11.52010  262.24880  246.95020    4.04940   96.34300   81.21950   81.21950    4.04940   11.52010    -999.25    -999.25    3.55860  -57.84470   -9.22670    3.55860
 2550.00000  101.24820   14.31600  247.39060  231.25150    4.32430  101.24820   54.52760   54.52760    4.32430   14.31600    -999.25    -999.25    3.70940  -55.95940   -6.73640    3.70940
 2600.00000   77.64890   15.31690  275.78530  275.78530    3.62600   77.64890   49.02930   49.02930    3.84370   15.31690    -999.25    -999.25    4.87820  -56.54620   -6.71170    4.87820
 2650.00000   81.54410   12.71060  179.86760  172.65900    5.80130   81.54410   50.84200   50.84200    5.80130   12.71060    -999.25    -999.25    5.26030  -58.71520   -8.27560    5.26030
 2700.00000   87.55350   15.13140  214.87240  195.79820    5.10730   87.55350   56.90010   56.90010    5.10730   15.13140    -999.25    -999.25    4.25820  -56.39400   -5.34290    4.25820
 2750.00000   98.41470   10.17230  133.82530  128.86430    7.76010   98.41470   68.23890   68.23890    7.76010   10.17230    -999.25    -999.25    8.50590  -71.82750  -20.16760    8.50590
 2800.00000   99.11160   10.82990  197.50950  184.33640    5.42980   99.11160   52.08260   52.08260    5.42980   10.82990    -999.25    -999.25    6.16870  -58.71500   -7.17250    6.16870
 2850.00000  108.97400    9.67930  124.89440  120.49790    8.29890  108.97400   49.09850   49.09850    8.29890    9.67930    -999.25    -999.25   10.21400  -61.93670  -11.82150   10.21400
 2900.00000  109.47640   11.71910  220.86390  211.40400    4.73170  109.47640   69.38130   69.38130    4.73170   11.71910    -999.25    -999.25    5.18310  -56.47010   -6.88210    5.18310
 2950.00000   96.02970   12.63460  207.25880  208.88160    4.78740   96.02970   41.96320   41.96320    4.78740   12.63460    -999.25    -999.25    5.44220  -55.68470   -6.63200    5.44220
 3000.00000  127.58100   14.13450  228.38630  173.78310    5.75430  127.58100   47.38320   47.38320    5.75430   14.13450    -999.25    -999.25    5.07710  -53.65890   -5.13980    5.07710
 3050.00000   92.07870    9.08900  135.03240  130.84670    7.65490   92.07870   48.84230   48.84230    7.65490    9.08900    -999.25    -999.25    8.60270  -67.22080  -19.22890    8.60270
 3100.00000   99.39080    9.37310  110.46560  112.73960    8.87000   99.39080   50.85860   50.85860    8.87000    9.37310    -999.25    -999.25    9.13970  -66.12980  -18.67320    9.13970
 3150.00000  131.42490   12.54820  260.29640  243.69150    4.10360  131.42490   52.82670   52.82670    4.10360   12.54820    -999.25    -999.25    3.86470  -50.49430   -3.51060    3.86470
