~Version ---------------------------------------------------
VERS.      2.0 : CWLS log ASCII Standard -VERSION 2.0
WRAP.       NO : One line per depth step
CREA. 09/26/17 : LAS Creation Date
~Well ------------------------------------------------------
STRT.FT                             300.0 : START DEPTH
STOP.FT                           13500.0 : STOP DEPTH
STEP.FT                          50.00000 : STEP LENGTH
NULL.                             -999.25 : NULL VALUE
COMP.          TEXACO EXPLORATION COMPANY : COMPANY
WELL. TEXACO H.B. DISMAL CREEK 6-28-47-14 : WELL
FLD .                                     : FIELD
LOC .                                     : LOCATION
CTRY.                              CANADA : COUNTRY
SRVC.              Schlumberger of Canada : SERVICE COMPANY
DATE.                         09-May-1961 : LOGDATE
PROV.                             Alberta : PROVINCE
UWI .                    100062804714W500 : UNIQUE WELL ID
SLAT.WGS84                       53.08145 : SURFACE LATITUDE
SLON.WGS84                      -115.9911 : SURFACE LONGITUDE
~Curve Information -----------------------------------------
DEPT  .FT         : Depth Curve
CALWS .IN         : CALIPER [MCALED]
CILDED.MMHO       : CONDUCTIVITY FROM IEL LOG
CLLDED.MMHO       : CONDUCTIVITY FROM DLL LOG
CONDWS.MMHO       : CONDUCTIVITY [1000/DRESWS]
DRESWS.OHMM       : DEEP RESISTIVITY [1000/CILDED IF ILDED<1, ILDED &  SPL. TO 1000/CLLED IF LLED<1, LLED @ 11615']
DTED  .US/F       : DELTA-T FROM SONIC LOG [ADJ. TO RESISTIVITY LOG]
DTWS  .US/F       : COMPRESSIONAL SONIC [DTED]
GRED  .GAPI       : GAMMA RAY (CASING & COLLARS) FROM SBL LOG [ADJ. TO RESISTIVITY LOG]
GRNED .UgRa-Eq/T  : GAMMA RAY (CASING & COLLARS) FROM GRN LOG [ADJ. TO RESISTIVITY LOG]
GRSED .UgRa-Eq/T  : GAMMA RAY FROM SONIC LOG [ADJ. TO RESISTIVITY LOG]
GRWS  .GAPI       : GAMMA RAY [GRED SPL. TO GRSED*16.5 @ 1002' & GRNED*16.5 @ 11622']
ILDED .OHMM       : DEEP INDUCTION RESISTIVITY FROM IEL LOG
LLED  .OHMM       : FOCUSED LATEROLOG RESISTIVITY FROM DLL LOG
MCALED.IN         : MICROCALIPER FROM MICROLOG [ADJ. TO RESISTIVITY LOG]
NEUTED.SCPS       : NEUTRON (CASING & COLLARS) FROM GRN LOG [ADJ. TO RESISTIVITY LOG]
NEUTWS.SCPS       : NEUTRON [NEUTED]
SNED  .OHMM       : SHORT NORMAL RESISTIVITY FROM IEL LOG
SPRED .MV         : SPONTANEOUS POTENTIAL FROM IEL LOG
SPWS  .MV         : SPONTANEOUS POTENTIAL [BASELINE 0 MV, SPRED]
SRESWS.OHMM       : SHALLOW RESISTIVITY [SNED]
~Params ----------------------------------------------------
LMF .                     KB : LOG MEASURED FROM
DMF .                     KB : DRILLING MEASURED FROM
EKB .FT                 3712 : KELLY BUSHING
EGL .FT                 3696 : GROUND LEVEL
DATE.               05/09/61 : RUN DATE
RUN .                      1 : RUN NUMBER
DD  .FT                13533 : DEPTH DRILLER
DL  .FT                11643 : DEPTH LOGGER
BLI .FT                11638 : BOTTOM LOG INTERVAL
TLI .FT                10032 : TOP LOG INTERVAL
CBD .FT                10039 : CASING BOTTOM DRILLER
CBL .FT                10032 : CASING BOTTOM LOGGER
BS  .IN                8.375 : BIT SIZE
BSD .FT                13533 : BIT SIZE AT DEPTH
DFT .              LIME BASE : DRILLING FLUID TYPE
DFD .                   10.1 : DRILLING FLUID DENSITY
DFV .                     85 : DRILLING FLUID VISCOSITY
DFPH.                   13.5 : DRILLING FLUID PH
DFL .                    4.2 : DRILLING FLUID LOSS
RMS .OHMM               0.35 : RESISTIVITY MUD SAMPLE
MST .DEGF                 75 : MUD SAMPLE TEMPERATURE
RMF .OHMM               0.24 : RESISTIVITY MUD FILTRATE SAMPLE
MFST.DEGF                 66 : MUD FILTRATE SAMPLE TEMPERATURE
RMC .OHMM               0.84 : RESISTIVITY MUD CAKE
MCST.DEGF                 56 : MUD CAKE SAMPLE TEMPERATURE
RMB .OHMM               0.13 : RESISTIVITY MUD AT BHT
TCS .HRS                   3 : TIME CIRCULATED STOPPED
LUN .                   2765 : LOGGING UNIT NUMBER
LUL .                    SKW : LOGGING UNIT LOCATION
ENGI.                PRATHER : RECORDING ENGINEER
WITN.                 RAKACH : WITNESSED BY
CLNT.                A2DTECH : CLIENT CODE
ORIG.        2" 5" 10" PRINT : ORIGIN OF DATA
UWI .       100062804714W500 : UNIQUE WELL ID
DICO. A2D Technologies, Inc. : DIGITIZING COMPANY
~Other -----------------------------------------------------
GRN-IEL-LL-ML-BCS LOG RAN
UNABLE TO RECORD SP DUE TO SEVERE DRIFTING CONDITION
LL GIVEN OVER A COMPRESSED SCALE COULD BE VERIFIED FROM 1000/CLLED
TOOL MOMENTARILY STUCK IN HOLE ON FIRST RUN @ 1800' & 2717'.
CNL-LDT IS TVD LOG, NO DATA AVAILABLE
~ASCII -----------------------------------------------------
# ...
 2050.00000   15.63360  132.68940    -999.25  129.57230    7.71770   89.47200   89.47200   36.43520    -999.25    4.17170   68.83390    7.71770    -999.25   15.63360    -999.25    -999.25    8.01290  -53.17730  -10.07710    8.01290
 2100.00000   15.15990  160.33640    -999.25  152.09360    6.57490   71.69820   71.69820   55.40080    -999.25    4.15340   68.53110    6.57490    -999.25   15.15990    -999.25    -999.25    8.92550  -49.87830   -6.84590    8.92550
 2150.00000   15.33900   65.85170    -999.25   73.65180   13.57740   77.90290   77.90290   33.65060    -999.25    3.11090   51.32990   13.57740    -999.25   15.33900    -999.25    -999.25   12.76470  -59.33180  -16.29940   12.76470
 2200.00000   15.71860   73.60500    -999.25   81.14780   12.32320   78.51870   78.51870   35.90020    -999.25    3.35100   55.29150   12.32320    -999.25   15.71860    -999.25    -999.25   12.69390  -60.86190  -17.82960   12.69390
 2250.00000   15.72510  114.13170    -999.25  115.17950    8.68210   94.04170   94.04170   48.67340    -999.25    3.98250   65.71040    8.68210    -999.25   15.72510    -999.25    -999.25    9.66290  -50.62560   -7.59330    9.66290
 2300.00000   15.67930   99.92120    -999.25  106.57800    9.38280   85.62240   85.62240   51.44300    -999.25    4.24540   70.04990    9.38280    -999.25   15.67930    -999.25    -999.25    9.91220  -54.42640  -11.39410    9.91220
 2350.00000   15.76130   65.01940    -999.25   72.98680   13.70110   87.26740   87.26740   33.43440    -999.25    3.05450   50.39930   13.70110    -999.25   15.76130    -999.25    -999.25   14.11150  -63.41870  -20.38640   14.11150
 2400.00000   15.75120   33.61520    -999.25   33.54830   29.80780   80.17810   80.17810   34.42660    -999.25    3.41920   56.41680   29.80780    -999.25   15.75120    -999.25    -999.25   20.33510  -59.91280  -16.88050   20.33510
 2450.00000   15.67480  101.66470    -999.25   89.30640   11.19740  118.24060  118.24060   55.13750    -999.25    3.27100   53.97230   11.19740    -999.25   15.67480    -999.25    -999.25   16.84190  -48.01780   -4.98550   16.84190
 2500.00000   15.68880  119.01360    -999.25  123.40960    8.10310  105.64290  105.64290   45.91710    -999.25    4.01150   66.18980    8.10310    -999.25   15.68880    -999.25    -999.25    9.72640  -47.78510   -4.75280    9.72640
 2550.00000   15.68560  143.53430    -999.25  142.25360    7.02970  107.12090  107.12090   60.31210    -999.25    4.43560   73.18740    7.02970    -999.25   15.68560    -999.25    -999.25   11.68190  -47.48330   -4.45100   11.68190
 2600.00000   15.67200   88.89840    -999.25   93.34890   10.71250   81.89910   81.89910   36.33820    -999.25    3.74020   61.71330   10.71250    -999.25   15.67200    -999.25    -999.25   11.17250  -56.61850  -13.58620   11.17250
 2650.00000   15.67430  240.56320    -999.25  254.62790    3.92730  104.74170  104.74170   51.26760    -999.25    4.56650   75.34720    3.92730    -999.25   15.67430    -999.25    -999.25    7.69110  -48.00430   -4.97200    7.69110
 2700.00000   15.69700   82.46990    -999.25   90.46340   11.05420  116.35870  116.35870   43.50020    -999.25    4.04880   66.80600   11.05420    -999.25   15.69700    -999.25    -999.25   15.19200  -52.05170   -9.01940   15.19200
 2750.00000   15.63920  121.34130    -999.25  122.30020    8.17660   87.12290   87.12290   72.22290    -999.25    4.88810   80.65370    8.17660    -999.25   15.63920    -999.25    -999.25   11.03580  -54.31170  -11.27940   11.03580
 2800.00000   15.62630  121.78500    -999.25  123.82370    8.07600  144.72780  144.72780   28.65400    -999.25    3.06470   50.56670    8.07600    -999.25   15.62630    -999.25    -999.25   17.12610  -50.12560   -7.09330   17.12610
 2850.00000   14.57150  121.01800    -999.25  119.42150    8.37370   58.74430   58.74430   57.97950    -999.25    3.93200   64.87800    8.37370    -999.25   14.57150    -999.25    -999.25    7.95840  -54.99640  -11.96410    7.95840
 2900.00000   15.30260  129.64130    -999.25  127.81680    7.82370   87.89620   87.89620   57.21390    -999.25    3.80520   62.78580    7.82370    -999.25   15.30260    -999.25    -999.25    8.02210  -57.20590  -14.17360    8.02210
 2950.00000   15.62180  186.05290    -999.25  195.45760    5.11620   97.15940   97.15940   65.19950    -999.25    4.97300   82.05450    5.11620    -999.25   15.62180    -999.25    -999.25    5.97360  -54.62840  -11.59610    5.97360
 3000.00000   15.61680   81.27380    -999.25   86.76490   11.52540   82.68080   82.68080   32.60780    -999.25    3.30190   54.48220   11.52540    -999.25   15.61680    -999.25    -999.25   10.05070  -62.18390  -19.15160   10.05070
 3050.00000   15.62020  102.10280    -999.25  108.62130    9.20630   89.90960   89.90960   50.12920    -999.25    3.77450   62.27920    9.20630    -999.25   15.62020    -999.25    -999.25    8.87490  -60.70230  -17.67000    8.87490
 3100.00000   15.60850  170.74920    -999.25  173.63820    5.75910  100.36700  100.36700   51.52170    -999.25    4.52430   74.65100    5.75910    -999.25   15.60850    -999.25    -999.25    6.89900  -55.31080  -12.27850    6.89900
 3150.00000   15.59110  217.43470    -999.25  221.55750    4.51350   98.79760   98.79760   71.43570    -999.25    4.62220   76.26630    4.51350    -999.25   15.59110    -999.25    -999.25    5.73000  -47.36980   -4.33750    5.73000
 3200.00000   15.56950  144.90390    -999.25  142.62690    7.01130   94.82850   94.82850   51.28600    -999.25    3.94620   65.11230    7.01130    -999.25   15.56950    -999.25    -999.25    6.11720  -48.95390   -5.92160    6.11720
 3250.00000   15.57740  154.21520    -999.25  144.52120    6.91940   85.46630   85.46630   57.40780    -999.25    4.16820   68.77610    6.91940    -999.25   15.57740    -999.25    -999.25    7.66900  -50.79620   -9.51950    7.66900
 3300.00000   15.52040  220.82190    -999.25  241.49920    4.14080  105.35460  105.35460   43.93900    -999.25    3.78740   62.49210    4.14080    -999.25   15.52040    -999.25    -999.25    6.63170  -43.90310   -8.30420    6.63170
 3350.00000   15.61830  286.32680    -999.25  281.86480    3.54780   82.22440   82.22440   58.02440    -999.25    3.86170   63.71800    3.54780    -999.25   15.61830    -999.25    -999.25    6.27730  -42.81130   -7.49060    6.27730
 3400.00000   15.61380  175.46720    -999.25  179.81730    5.56120   89.01400   89.01400   49.45560    -999.25    3.79720   62.65380    5.56120    -999.25   15.61380    -999.25    -999.25    8.49230  -46.59680  -10.12410    8.49230
 3450.00000   15.44700  121.60220    -999.25  126.46060    7.90760   95.26610   95.26610   49.54030    -999.25    4.10720   67.76880    7.90760    -999.25   15.44700    -999.25    -999.25    8.23340  -47.52950   -9.89720    8.23340
 3500.00000   15.58680  205.98490    -999.25  209.68760    4.76900  100.45990  100.45990   49.81430    -999.25    3.96380   65.40270    4.76900    -999.25   15.58680    -999.25    -999.25    7.12560  -47.94530   -9.56660    7.12560
 3550.00000   14.37580  120.90980    -999.25  121.90660    8.20300   80.42520   80.42520   53.85020    -999.25    3.66350   60.44690    8.20300    -999.25   14.37580    -999.25    -999.25    8.49730  -58.50570  -19.83110    8.49730
 3600.00000   15.61660  127.82550    -999.25  129.20560    7.73960   82.73200   82.73200   39.47780    -999.25    4.09340   67.54110    7.73960    -999.25   15.61660    -999.25    -999.25    8.54280  -62.24490  -23.27260    8.54280
 3650.00000   15.38000  118.05710    -999.25  120.21980    8.31810   82.93040   82.93040   58.00230    -999.25    3.62740   59.85210    8.31810    -999.25   15.38000    -999.25    -999.25    8.94340  -65.52010  -26.25190    8.94340
 3700.00000   14.84100  110.21960    -999.25  111.35610    8.98020   78.73330   78.73330   44.23180    -999.25    3.84800   63.49200    8.98020    -999.25   14.84100    -999.25    -999.25    8.74420  -63.56540  -23.99940    8.74420
 3750.00000   12.69960   89.84190    -999.25   97.65530   10.24010   79.97080   79.97080   51.66160    -999.25    3.76170   62.06720   10.24010    -999.25   12.69960    -999.25    -999.25   10.37050  -65.97740  -26.11560   10.37050
