~Version ---------------------------------------------------
VERS. 2.0 : CWLS log ASCII Standard -VERSION 2.0
WRAP.  NO : ONE LINE PER DEPTH STEP
~Well ------------------------------------------------------
STRT.F                              1100.0 : START DEPTH
STOP.F                             11550.0 : STOP DEPTH
STEP.F                            50.00000 : STEP LENGTH
NULL.                              -999.25 : NULL VALUE
COMP.              MURPHY OIL COMPANY LTD. : COMPANY
WELL. MURPHY ASHLAND WOLF CREEK 11-5-53-15 : WELL
FLD .                                      : FIELD
LOC .                                      : LOCATION
CTRY.                               CANADA : COUNTRY
SRVC.               Schlumberger of Canada : SERVICE COMPANY
DATE.                          08-Dec-1976 : LOGDATE
PROV.                              Alberta : PROVINCE
UWI .                     100110505315W500 : UNIQUE WELL ID
SLAT.WGS84                        53.55101 : SURFACE LATITUDE
SLON.WGS84                        -116.179 : SURFACE LONGITUDE
~Curve Information -----------------------------------------
DEPT   .F    0   1   0  0 : 1 MEASURED DEPTH
SPR    .MV   07 010 01 00 : SPONTANEOUS POTENTIAL FROM RESISTIVITY LOG
ILD    .OHMM 07 120 46 00 : INDUCTION DEEP RESISTIVITY
ILM    .OHMM 07 120 44 00 : INDUCTION MEDIUM RESISTIVITY
LL8    .OHMM 07 220 08 00 : LATEROLOG 8
CILD   .MMHO 07 110 46 00 : INDUCTION DEEP CONDUCTIVITY
DPHI_SS.DEC  45 890 12 00 : DENSITY POROSITY SANDSTONE
NPHI_SS.DEC  42 890 03 00 : NEUTRON POROSITY SANDSTONE
GRD    .GAPI 45 310 01 00 : GAMMA RAY FROM DENSITY LOG
CALD   .IN   45 280 60 00 : CALIPER FROM DENSITY LOG
DPHI_LS.DEC  45 890 10 00 : DENSITY POROSITY LIMESTONE
NPHI_LS.DEC  42 890 01 00 : NEUTRON POROSITY LIMESTONE
DRHO   .G/C3 45 356 01 00 : BULK DENSITY CORRECTION
RHOB   .G/C3 45 350 01 00 : BULK DENSITY
DT     .US/F 60 500 00 00 : DELTA-T (INTERVAL TRANSIT TIME)
CALS   .IN   60 280 50 00 : CALIPER FROM SONIC LOG
GRS    .GAPI 60 310 01 00 : GAMMA RAY FROM SONIC LOG
~Params ----------------------------------------------------
PD  .                     GL : PERMANENT DATUM
EPD .FT               2966.3 : ELEVATION PERMANENT DATUM
LMF .                     KB : LOG MEASURED FROM
DAPD.FT                 15.4 : FEET ABOVE PERMANENT DATUM
EKB .FT               2981.7 : KELLY BUSHING
EGL .FT               2966.3 : GROUND LEVEL
DATE.               12/08/76 : RUN DATE
RUN .                      1 : RUN NUMBER
DD  .FT                11560 : DEPTH DRILLER
DL  .FT                11554 : DEPTH LOGGER
BLI .FT                11548 : BOTTOM LOG INTERVAL
TLI .FT                 1160 : TOP LOG INTERVAL
CBD .FT                 1160 : CASING BOTTOM DRILLER
CBL .FT                 1160 : CASING BOTTOM LOGGER
BS  .IN                 8.75 : BIT SIZE
BSD .FT                11560 : BIT SIZE AT DEPTH
DFT .               GEL CHEM : DRILLING FLUID TYPE
DFD .                    9.1 : DRILLING FLUID DENSITY
DFV .                    290 : DRILLING FLUID VISCOSITY
DFPH.                     11 : DRILLING FLUID PH
DFL .                    5.8 : DRILLING FLUID LOSS
MSS .               FLOWLINE : MUD SAMPLE SOURCE
RMS .OHMM               1.67 : RESISTIVITY MUD SAMPLE
MST .DEGF                 37 : MUD SAMPLE TEMPERATURE
RMF .OHMM                1.3 : RESISTIVITY MUD FILTRATE SAMPLE
MFST.DEGF                 55 : MUD FILTRATE SAMPLE TEMPERATURE
TCS .HRS                 2.5 : TIME CIRCULATED STOPPED
LUN .                   7730 : LOGGING UNIT NUMBER
LUL .                    EDM : LOGGING UNIT LOCATION
ENGI.        MCDONALD KARAKI : RECORDING ENGINEER
WITN.            ABEL WORKUM : WITNESSED BY
CLNT.                A2DTECH : CLIENT CODE
ORIG.            2" 5" PRINT : ORIGIN OF DATA
UWI .       100110505315W500 : UNIQUE WELL ID
DICO. A2D Technologies, Inc. : DIGITIZING COMPANY
~Other -----------------------------------------------------
~ASCII -----------------------------------------------------
# ...
 5400.00000 -115.32190    9.37190    9.87360   10.76010    -999.25    0.44940    0.42230   91.14120   14.83550    -999.25    -999.25    0.14570    1.76850   77.81660    9.80150  111.30690
 5450.00000 -113.07550   12.85040   10.37160    9.05620    -999.25    0.44940    0.36070   85.55650   15.11270    -999.25    -999.25    0.20240    1.95210   80.19260   10.75800   95.55810
 5500.00000 -113.07280    9.20600    9.36190   10.98080    -999.25    -999.25    0.41720   92.62210    -999.25    -999.25    -999.25    0.17570    1.79390   82.30240   10.35350  113.73910
 5550.00000 -112.85510    9.31890    9.51560    9.96850    -999.25    -999.25    0.39670   90.95460   14.99660    -999.25    -999.25    0.14450    1.68640   76.18230   10.35180  115.02890
 5600.00000 -121.64620    8.59020    8.28240    7.93000    -999.25    -999.25    0.49490   89.11370    -999.25    -999.25    -999.25    0.12950    1.65050   79.90410   10.23730  106.36350
 5650.00000 -109.32380    9.27280    9.47200    9.84020    -999.25    -999.25    0.44760   87.33220    -999.25    -999.25    -999.25    0.10990    1.62620   78.25690   10.94850   97.22160
 5700.00000 -107.10260   10.52300   10.86950   11.74720    -999.25    -999.25    0.39320   92.15820   15.02030    -999.25    -999.25    0.11050    1.73810   75.44180   10.29140   97.31610
 5750.00000 -118.32170   16.48140   21.58110   16.10090    -999.25    0.45000    0.21120   51.70940   12.12010    -999.25    -999.25    0.11800    1.84280   79.67710    9.27070   64.39010
 5800.00000 -106.80130   13.08430   13.18210   12.00970    -999.25    0.27340    0.32180   86.83430    -999.25    -999.25    -999.25    0.21800    2.17770   76.73400    9.55890  106.14530
 5850.00000 -112.86580   14.81850   13.83620   12.52250    -999.25    -999.25    0.43730   93.97200    -999.25    -999.25    -999.25    0.15740    1.66780   74.83060   10.19830  103.60330
 5900.00000 -104.38030   12.14350   10.96350    8.49130    -999.25    -999.25    0.55800   81.55050    -999.25    -999.25    -999.25    0.12240    1.61810   73.48720   11.32160   92.09540
 5950.00000 -105.13590   11.30280   10.95860   10.15820    -999.25    -999.25    0.43690   85.19180   14.59880    -999.25    -999.25    0.11280    1.59220   81.82800   10.72390  105.17380
 6000.00000 -101.55620    9.98810    9.60630    9.77760    -999.25    0.44200    0.43700   89.77530   15.02160    -999.25    -999.25    0.15730    1.74340   81.60890   10.63020  108.34220
 6050.00000 -100.57490   10.87450   11.05870   12.73680    -999.25    -999.25    0.42620   91.66560    -999.25    -999.25    -999.25    0.14970    1.81110   79.45950   10.91860   97.89870
 6100.00000 -102.65970   13.99200   13.70740   10.04020    -999.25    -999.25    0.54180   82.26460    -999.25    -999.25    -999.25    0.14230    1.76550   88.21950   11.04050  120.15060
 6150.00000 -112.43980   12.07200   12.70560   15.50860    -999.25    -999.25    0.31480   61.08630   10.11600    -999.25    -999.25    0.10740    1.84540   90.76010   10.62950  104.66730
 6200.00000 -100.79540   17.88480   15.01550   14.21340    -999.25    0.45010    0.50990   85.08650    -999.25    -999.25    -999.25    0.07310    2.01750  100.67420   11.28820  104.21500
 6250.00000 -101.71910   15.07770   15.07060   16.70000    -999.25    0.44980    0.51060   85.46140    -999.25    -999.25    -999.25    0.14510    1.80490  102.46990    9.51530  115.97900
 6300.00000 -101.73870   16.01850   14.99310   20.67640    -999.25    0.38990    0.35210  117.97650   12.44440    -999.25    -999.25    0.21840    2.04870   88.95480    9.42370  132.15640
 6350.00000 -100.52420   14.87790   14.19900   19.02620    -999.25    0.18520    0.25680  110.85110   10.73610    -999.25    -999.25    0.21530    2.36780  109.16080    9.61630  135.84560
 6400.00000 -103.92620   10.27940   10.93090   12.17940    -999.25    0.27510    0.44390   93.59640   10.79810    -999.25    -999.25    0.09540    2.19040  111.41100   10.47920  103.90460
 6450.00000 -100.43180   60.06350   23.23300   43.59400    -999.25    -999.25    0.48320  102.25830   15.02680    -999.25    -999.25    0.15460    1.67960   89.30040   11.09570  131.65360
 6500.00000 -103.84760    7.74690    8.03780    8.14960    -999.25    -999.25    0.38980   86.73570   13.19690    -999.25    -999.25    0.13320    1.72610   82.11080    9.82230   99.20140
 6550.00000 -103.07950   13.97700    9.19590   10.34040    -999.25    0.44990    0.47930   88.94140    -999.25    -999.25    -999.25    0.08100    1.51630   86.46260   11.12760  104.42420
 6600.00000  -89.38120    6.17420    6.58740    7.08390    -999.25    -999.25    0.53390   76.94200    -999.25    -999.25    -999.25    0.15100    1.69400  104.84360   11.32110   82.89490
 6650.00000  -88.95960    8.79200   10.28820   11.14110    -999.25    0.31900    0.44770   94.61260   13.68070    -999.25    -999.25    0.17570    2.10740   86.74200   10.69180   98.36220
 6700.00000  -88.13760    8.40880    8.94840    9.35650    -999.25    0.45010    0.49420   88.20560    -999.25    -999.25    -999.25    0.10880    1.56810   89.10390   11.18240  101.63600
 6750.00000  -85.19290    7.48550    8.63470    8.98460    -999.25    -999.25    0.53980  100.53710   14.15820    -999.25    -999.25    0.08120    1.52310  128.04620   10.24410  132.93680
 6800.00000  -83.30440    3.09840    3.50970    4.28640    -999.25    -999.25    0.59690   68.23090    -999.25    -999.25    -999.25    0.10470    1.78290   94.46340   11.34330   81.65220
 6850.00000  -82.67810    6.65520    7.04060    8.97480    -999.25    0.41750    0.46950   94.21890    -999.25    -999.25    -999.25    0.24180    2.03110   83.26640   10.19420  116.04670
 6900.00000 -105.05240   22.08480   23.84310   28.96620    -999.25    0.19090    0.15270   57.79870   10.65860    -999.25    -999.25    0.23020    2.31880   78.26850    9.03620   62.86850
 6950.00000 -183.70920   13.53110   14.24420   17.07980    -999.25    0.23260    0.21400   86.74960   11.85220    -999.25    -999.25    0.25910    2.28040   73.23610    9.13080   90.51050
 7000.00000  -80.25920    6.91200    8.78020   16.26120    -999.25    0.22490    0.31020   74.02220   10.35270    -999.25    -999.25    0.19260    2.30130  115.27150    9.11610   73.06620
 7050.00000  -78.00710    8.62870   11.45400    9.76280    -999.25    0.44980    0.47870   77.49880   15.03140    -999.25    -999.25    0.18700    2.01130   90.16530   11.00500   86.56130
 7100.00000  -82.04600   16.03910   16.98080   17.06910    -999.25    0.02330    0.20750   71.90690    9.28470    -999.25    -999.25    0.13530    2.60260   71.13040    9.22970   84.56110
 7150.00000  -74.98570   14.25770   14.88010   16.91570    -999.25    0.15970    0.29680   87.59840   11.06960    -999.25    -999.25    0.19000    2.39500   72.17000    9.18390   99.12440
 7200.00000 -105.35670   16.99370   17.70130   24.26320    -999.25    0.02900    0.24570   69.31210    9.35300    -999.25    -999.25    0.06240    2.60320   67.73890    8.91890   70.87590
 7250.00000  -80.97300   14.74950   15.56900   20.96510    -999.25    0.17560    0.37030   77.74960   10.17680    -999.25    -999.25    0.12740    2.40760   71.34090    9.16930   91.21600
 7300.00000  -79.45230   16.16130   17.49660   23.59280    -999.25    0.18290    0.29040   83.36510    9.22120    -999.25    -999.25    0.24460    2.35020   72.75430    9.03200  104.39050
 7350.00000  -86.45930   12.39470   13.20610   14.60700    -999.25    0.04860    0.15920   57.47620    8.92560    -999.25    -999.25    0.05990    2.58260   68.26140    8.75350   63.98720
 7400.00000  -73.12950   11.77640   12.52220   14.62780    -999.25    0.04820    0.18930   73.14120    8.78340    -999.25    -999.25    0.04110    2.57470   68.66650    8.74820   72.85070
 7450.00000  -84.87830   14.12970   15.53030   17.14700    -999.25    0.03890    0.17510   55.06080    8.67560    -999.25    -999.25    0.08830    2.61210   66.71760    8.72420   57.16810
 7500.00000  -78.89050   16.71850   17.96620   22.75760    -999.25    0.00550    0.17480   57.01200    8.77430    -999.25    -999.25    0.09030    2.63990   64.51650    8.78530   65.17200
