~Version ---------------------------------------------------
VERS.      2.0 : CWLS log ASCII Standard -VERSION 2.0
WRAP.       NO : One line per depth step
CREA. 09/29/17 : LAS Creation Date
~Well ------------------------------------------------------
STRT.FT                         1450.0 : START DEPTH
STOP.FT                        11100.0 : STOP DEPTH
STEP.FT                       50.00000 : STEP LENGTH
NULL.                          -999.25 : NULL VALUE
COMP. AMOCO CANADA PETROLEUM CO., LTD. : COMPANY
WELL.       AMOCO PEX TONY 10-16-64-22 : WELL
FLD .                                  : FIELD
LOC .                                  : LOCATION
CTRY.                           CANADA : COUNTRY
SRVC.           Schlumberger of Canada : SERVICE COMPANY
DATE.                      08-Apr-1978 : LOGDATE
PROV.                          Alberta : PROVINCE
UWI .                 100101606422W500 : UNIQUE WELL ID
SLAT.WGS84                    54.53914 : SURFACE LATITUDE
SLON.WGS84                   -117.2632 : SURFACE LONGITUDE
~Curve Information -----------------------------------------
DEPT    .FT    : Depth Curve
CALDED  .IN    : CALIPER FROM DENSITY LOG [ADJ. TO RESISTIVITY LOG]
CALSED  .IN    : CALIPER FROM SONIC LOG [ADJ. TO RESISTIVITY LOG]
CALWS   .IN    : CALIPER [CALDED]
CONDWS  .MMHO  : CONDUCTIVITY [1000/DRESWS]
DCORWS  .G/C3  : DENSITY CORRECTION [DRHOED]
DENWS   .G/C3  : BULK DENSITY [RHOBED]
DPHILSED.V/V   : DENSITY POROSITY LIMESTONE [M=2710,F=1000] FROM DENSITY LOG [ADJ. TO RESISTIVITY LOG]
DPHISSED.V/V   : DENSITY POROSITY SANDSTONE [M=2650,F=1000] FROM DENSITY LOG [ADJ. TO RESISTIVITY LOG]
DPOLSWS .V/V   : DENSITY POROSITY LIMESTONE [CALC. FROM DENWS,M=2710,F=1000]
DRESWS  .OHMM  : DEEP RESISTIVITY [ILDED]
DRHOED  .G/C3  : BULK DENSITY CORRECTION FROM DENSITY LOG [ADJ. TO RESISTIVITY LOG]
DTED    .US/F  : DELTA -T FROM SONIC LOG [ADJ. TO RESISTIVITY LOG]
DTWS    .US/F  : COMPRESSIONAL SONIC [DTED]
GRDED   .GAPI  : GAMMA RAY FROM DENSITY LOG [ADJ. TO RESISTIVITY LOG]
GRED    .GAPI  : GAMMA RAY FROM CBL LOG [ADJ. TO RESISTIVITY LOG]
GRSED   .GAPI  : GAMMA RAY FROM SONIC LOG [ADJ. TO RESISTIVITY LOG]
GRWS    .GAPI  : GAMMA RAY [GRED SPL. TO GRDED SPL. TO 458M]
ILDED   .OHMM  : DEEP INDUCTION RESISTIVITY FROM RESISTIVITY LOG
ILMED   .OHMM  : MEDIUM INDUCTION RESISTIVITY FROM RESISTIVITY LOG
LL8ED   .OHMM  : LATEROLOG-8 RESISTIVITY FROM RESISTIVITY LOG
MRESWS  .OHMM  : MEDIUM RESISTIVITY [ILMED]
NEUTED  .NAPI  : NEUTRON FROM CBL LOG [ADJ. TO RESISTIVITY LOG
NEUTWS  .NAPI  : NEUTRON [NEUTED]
NPHILSED.V/V   : NEUTRON POROSITY LIMESTONE FROM DENSITY LOG [ADJ. TO RESISTIVITY LOG]
NPHISSED.V/V   : NEUTRON POROSITY SANDSTONE FROM DENSITY LOG [ADJ. TO RESISTIVITY LOG]
NPOLSWS .V/V   : NEUTRON POROSITY LIMESTONE [NPHISSED CONVERTED TO LIMESTONE MATRIX,SPL. TO NPHILSED @2035M ]
RHOBED  .G/C3  : BULK DENSITYFROM DENSITY LOG [ADJ. TO RESISTIVITY LOG]
SPRED   .MV    : SPONTANEOUS POTENTIAL FROM RESISTIVITY LOG
SPWS    .MV    : SPONTANEOUS POTENTIAL [BASELINE 0 MV,SPRED]
SRESWS  .OHMM  : SHALLOW RESISTIVITY [LL8ED]
~Params ----------------------------------------------------
PD  .                     GL : PERMANENT DATUM
EPD .FT               2639.4 : ELEVATION PERMANENT DATUM
LMF .                     KB : LOG MEASURED FROM
DAPD.FT                 21.4 : FEET ABOVE PERMANENT DATUM
EKB .FT               2660.8 : KELLY BUSHING
EGL .FT               2639.4 : GROUND LEVEL
DATE.               04/08/78 : RUN DATE
RUN .                      2 : RUN NUMBER
DD  .FT                11105 : DEPTH DRILLER
DL  .FT                11103 : DEPTH LOGGER
BLI .FT                11099 : BOTTOM LOG INTERVAL
TLI .FT                 6000 : TOP LOG INTERVAL
CBD .FT                 1528 : CASING BOTTOM DRILLER
CBL .FT                 1528 : CASING BOTTOM LOGGER
BS  .IN                 8.75 : BIT SIZE
BSD .FT                11105 : BIT SIZE AT DEPTH
DFT .              GEL GELEX : DRILLING FLUID TYPE
DFD .                      9 : DRILLING FLUID DENSITY
DFV .                     92 : DRILLING FLUID VISCOSITY
DFPH.                      9 : DRILLING FLUID PH
DFL .                    9.8 : DRILLING FLUID LOSS
MSS .               FLOWLINE : MUD SAMPLE SOURCE
RMS .OHMM               1.91 : RESISTIVITY MUD SAMPLE
MST .DEGF                 52 : MUD SAMPLE TEMPERATURE
RMF .OHMM               1.45 : RESISTIVITY MUD FILTRATE SAMPLE
MFST.DEGF                 60 : MUD FILTRATE SAMPLE TEMPERATURE
TCS .HRS                 2.5 : TIME CIRCULATED STOPPED
LUN .              OSU C 244 : LOGGING UNIT NUMBER
LUL .                    EDM : LOGGING UNIT LOCATION
ENGI.                   GUNN : RECORDING ENGINEER
WITN.                   WALL : WITNESSED BY
CLNT.                A2DTECH : CLIENT CODE
ORIG.            2" 5" PRINT : ORIGIN OF DATA
UWI .       100101606422W500 : UNIQUE WELL ID
DICO. A2D Technologies, Inc. : DIGITIZING COMPANY
~Other -----------------------------------------------------
~ASCII -----------------------------------------------------
 1450.00000    -999.25    -999.25    -999.25    -999.25    -999.25    -999.25    -999.25    -999.25    -999.25    -999.25    -999.25    -999.25    -999.25    -999.25   24.81720    -999.25   24.81720    -999.25    -999.25    -999.25    -999.25    -999.25    -999.25    -999.25    -999.25    -999.25    -999.25    -999.25    -999.25    -999.25
 1500.00000    -999.25    -999.25    -999.25    -999.25    -999.25    -999.25    -999.25    -999.25    -999.25    -999.25    -999.25    -999.25    -999.25   54.19550   31.26020    -999.25   31.26020    -999.25    -999.25    -999.25    -999.25    -999.25    -999.25    -999.25    -999.25    -999.25    -999.25    -999.25    -999.25    -999.25
 1550.00000   11.08170    9.11690   11.08170  221.12580    0.09400    2.08540    -999.25    0.34220    0.36530    4.52260    0.09400  102.38930  102.38930   87.66670   65.59340  113.07930   87.66670    4.52260    4.71430    5.95440    4.71430    -999.25    -999.25    -999.25    0.41750    0.37500    2.09780 -143.09350  -15.69460    5.95440
 1600.00000   11.06680    9.29420   11.06680  214.83200    0.12770    2.18550    -999.25    0.28150    0.30670    4.65480    0.12770   99.22100   99.22100   77.90160   54.78460   98.65560   77.90160    4.65480    4.90430    5.64660    4.90430    -999.25    -999.25    -999.25    0.36770    0.32430    2.19970 -133.07220   -5.67330    5.64660
 1650.00000   13.10350    9.32640   13.10350  198.58610    0.12630    2.14810    -999.25    0.30420    0.32860    5.03560    0.12630   99.03590   99.03590   89.91640    -999.25  106.25090   89.91640    5.03560    5.27130    5.81590    5.27130    -999.25    -999.25    -999.25    0.37770    0.33450    2.16530 -132.42490   -5.02600    5.81590
 1700.00000   11.74170    9.15370   11.74170  161.61090    0.14140    2.22180    -999.25    0.25950    0.28550    6.18770    0.14140   93.38240   93.38240   85.42820    -999.25   97.00120   85.42820    6.18770    6.46280    6.68300    6.46280    -999.25    -999.25    -999.25    0.31180    0.26790    2.21930 -132.60820   -5.20930    6.68300
 1750.00000   11.28250    9.37600   11.28250  240.57550    0.09170    2.27130    -999.25    0.22950    0.25650    4.15670    0.09170  108.00370  108.00370   89.72680    -999.25  110.74790   89.72680    4.15670    4.36770    4.81190    4.36770    -999.25    -999.25    -999.25    0.45130    0.40960    2.27630 -135.87300   -8.33800    4.81190
 1800.00000   11.19260    9.56150   11.19260  242.65940    0.00630    2.35400    -999.25    0.17940    0.20820    4.12110    0.00630   97.82610   97.82610   83.14770    -999.25  110.68340   83.14770    4.12110    4.27940    4.80570    4.27940    -999.25    -999.25    -999.25    0.39900    0.35610    2.35270 -135.79670   -7.99660    4.80570
 1850.00000   11.85310    9.59190   11.85310  181.03480    0.01310    2.36920    -999.25    0.17020    0.19930    5.52380    0.01310   99.48850   99.48850   77.33410    -999.25  105.28340   77.33410    5.52380    5.74070    7.95780    5.74070    -999.25    -999.25    -999.25    0.42670    0.38440    2.37490 -137.60340   -9.53640    7.95780
 1900.00000   12.68500    9.93590   12.68500  252.25770    0.06830    2.00220    -999.25    0.39260    0.41390    3.96420    0.06830  106.90930  106.90930   80.86180    -999.25  102.50220   80.86180    3.96420    4.18420    4.20630    4.18420    -999.25    -999.25    -999.25    0.42530    0.38300    2.03150 -135.61630   -7.28590    4.20630
 1950.00000   14.07040    9.93900   14.07040  283.37440    0.07900    2.07530    -999.25    0.34830    0.37120    3.52890    0.07900  107.14400  107.14400   82.01380    -999.25  103.82560   82.01380    3.52890    3.67420    4.25520    3.67420    -999.25    -999.25    -999.25    0.43870    0.39670    2.07000 -136.29440   -7.96400    4.25520
 2000.00000   12.40740   10.15810   12.40740  273.80010    0.08910    2.12510    -999.25    0.31810    0.34200    3.65230    0.08910  106.22480  106.22480   76.94500    -999.25   90.49690   76.94500    3.65230    3.84070    4.03600    3.84070    -999.25    -999.25    -999.25    0.38640    0.34330    2.15220 -134.09520   -5.76480    4.03600
 2050.00000   11.44650    9.84270   11.44650  123.91110    0.07280    2.27790    -999.25    0.23380    0.25270    8.07170    0.07280   97.37830   97.37830   64.76720    -999.25   77.12190   64.76720    8.07170    8.53520   10.36480    8.53520    -999.25    -999.25    -999.25    0.37020    0.32690    2.27790 -136.50580   -8.17540   10.36480
 2100.00000   10.78120    9.00820   10.78120   68.37840    0.02130    2.25250    -999.25    0.24090    0.26750   14.62450    0.02130   82.41230   82.41230   45.68200    -999.25   59.93680   45.68200   14.62450   15.25230   16.80890   15.25230    -999.25    -999.25    -999.25    0.29420    0.25020    2.26640 -143.22750  -14.89710   16.80890
 2150.00000   11.90070    9.42390   11.90070  364.17930    0.05600    2.18540    -999.25    0.28160    0.30680    2.74590    0.05600  118.35110  118.35110  105.45790    -999.25  136.81780  105.45790    2.74590    2.95860    3.29840    2.95860    -999.25    -999.25    -999.25    0.45050    0.40880    2.18910 -131.56600   -3.23560    3.29840
 2200.00000   10.48820    9.08200   10.48820   71.95330    0.04250    2.26350    -999.25    0.23480    0.26110   13.89790    0.04250   96.41690   96.41690   52.99100    -999.25   66.48960   52.99100   13.89790   14.12200   14.43350   14.12200    -999.25    -999.25    -999.25    0.33180    0.28800    2.26360 -150.50550  -22.26900   14.43350
 2250.00000   12.34850    9.61370   12.34850  173.16620    0.01420    2.28340    -999.25    0.22700    0.24950    5.77480    0.01420   97.69220   97.69220   68.32200    -999.25   76.78510   68.32200    5.77480    6.02000    6.44790    6.02000    -999.25    -999.25    -999.25    0.35130    0.30770    2.28340 -141.22930  -13.18060    6.44790
 2300.00000    9.94540    8.77370    9.94540   58.35410    0.02860    2.20810    -999.25    0.27420    0.29350   17.13710    0.02860   95.84700   95.84700   49.33920    -999.25   56.31010   49.33920   17.13710   17.79510   18.51800   17.79510    -999.25    -999.25    -999.25    0.34490    0.30130    2.20810 -140.63600  -12.77500   18.51800
 2350.00000   11.52870   10.06360   11.52870  211.78810    0.10200    2.10930    -999.25    0.34000    0.35130    4.72170    0.10200   99.93460   99.93460   60.25270    -999.25   79.75590   60.25270    4.72170    4.91860    5.56050    4.91860    -999.25    -999.25    -999.25    0.45230    0.41070    2.10920 -134.71920   -7.04720    5.56050
 2400.00000   11.31350    9.42460   11.31350  239.79090    0.04180    2.19150    -999.25    0.27790    0.30320    4.17030    0.04180   99.41670   99.41670   74.83640    -999.25   92.42600   74.83640    4.17030    4.37730    5.14440    4.37730    -999.25    -999.25    -999.25    0.44210    0.40020    2.18860 -132.97580   -5.49160    5.14440
 2450.00000   10.22540    9.10730   10.22540  102.24530    0.02320    2.32350    -999.25    0.19790    0.22600    9.78040    0.02320   81.66860   81.66860   55.64630    -999.25   66.52970   55.64630    9.78040   11.30660   10.63790   11.30660    -999.25    -999.25    -999.25    0.33980    0.29610    2.32740 -133.86350   -6.56830   10.63790
 2500.00000   11.23830    9.37610   11.23830   74.38820   -0.00070    2.44950    -999.25    0.12150    0.15230   13.44300   -0.00070   81.93410   81.93410   50.12990    -999.25   61.72230   50.12990   13.44300   14.74100   16.16820   14.74100    -999.25    -999.25    -999.25    0.27630    0.23230    2.44870 -131.17830   -4.07090   16.16820
 2550.00000   10.13830    8.95950   10.13830   72.52130    0.03810    2.38480    -999.25    0.16070    0.19010   13.79980    0.03810   90.80090   90.80090   50.90470    -999.25   58.44340   50.90470   13.79980   14.62990   16.42880   14.62990    -999.25    -999.25    -999.25    0.34660    0.30290    2.37690 -138.59860  -11.67900   16.42880
 2600.00000   10.99710   10.67870   10.99710  214.29800    0.05090    2.10910    -999.25    0.32780    0.35140    4.66640    0.05090   95.66610   95.66610   59.74960    -999.25   69.30520   59.74960    4.66640    4.85930    5.03840    4.85930    -999.25    -999.25    -999.25    0.35550    0.31190    2.11710 -132.36670   -5.63610    5.03840
