~Version ---------------------------------------------------
VERS.      2.0 : CWLS log ASCII Standard -VERSION 2.0
WRAP.       NO : One line per depth step
CREA. 01/28/16 : LAS Creation Date
~Well ------------------------------------------------------
STRT.FT                          1500.0 : START DEPTH
STOP.FT                         13000.0 : STOP DEPTH
STEP.FT                        50.00000 : STEP LENGTH
NULL.                           -999.25 : NULL VALUE
COMP.  AMOCO CANADA PETROLEUM CO., LTD. : COMPANY
WELL. AMOCO ET AL BERLAND D-1 6-7-60-22 : WELL
FLD .                                   : FIELD
LOC .                                   : LOCATION
CTRY.                            CANADA : COUNTRY
SRVC.                      Schlumberger : SERVICE COMPANY
DATE.                       10-Dec-1976 : LOGDATE
PROV.                           Alberta : PROVINCE
UWI .                  100060706022W500 : UNIQUE WELL ID
SLAT.WGS84                     54.17117 : SURFACE LATITUDE
SLON.WGS84                    -117.2921 : SURFACE LONGITUDE
~Curve Information -----------------------------------------
DEPT   .FT    : Depth Curve
CALD   .IN    : CALIPER FROM DENSITY LOG
CALS   .IN    : CALIPER FROM SONIC LOG
DCOR   .G/C3  : DENSITY CORRECTION FROM DENSITY LOG
DPHI_LS.DEC   : DENSITY POROSITY LIMESTONE
DPHI_SS.DEC   : DENSITY POROSITY SANDSTONE
DT     .US/F  : DELTA TIME FROM SONIC LOG
GRD    .GAPI  : GAMMA RAY FROM DENSITY LOG
GRS    .GAPI  : GAMMA RAY FROM SONIC LOG
ILD    .OHMM  : INDUCTION LOG DEEP RESISTIVITY
ILM    .OHMM  : INDUCTION LOG MEDIUM RESISTIVITY
LL8    .OHMM  : LATEROLOG-8 RESISTIVITY
NPHI_LS.DEC   : NEUTRON POROSITY LIMESTONE FROM DENSITY LOG
NPHI_SS.DEC   : NEUTRON POROSITY SANDSTONE FROM DENSITY LOG
RHOB   .G/C3  : BULK DENSITY FROM DENSITY LOG
SPR    .MV    : SPONTANEOUS POTENTIAL FROM DIL LOG
~Params ----------------------------------------------------
PD  .                     GL : PERMANENT DATUM
EPD .M                  3639 : ELEVATION PERMANENT DATUM
LMF .                     KB : LOG MEASURED FROM
DAPD.M                    16 : FEET ABOVE PERMANENT DATUM
EKB .M                  3655 : KELLY BUSHING
EGL .M                  3639 : GROUND LEVEL
DATE.             12/10/1976 : RUN DATE
RUN .                      2 : RUN NUMBER
DD  .M                 12990 : DEPTH DRILLER
DL  .M                 13000 : DEPTH LOGGER
BLI .M                 12994 : BOTTOM LOG INTERVAL
TLI .M                  7504 : TOP LOG INTERVAL
CBD .M                  7499 : CASING BOTTOM DRILLER
CBL .M                  7504 : CASING BOTTOM LOGGER
BS  .MM                  8.5 : BIT SIZE
BSD .M                 13000 : BIT SIZE AT DEPTH
DFT .             GEL BARITE : DRILLING FLUID TYPE
DFD .                    9.1 : DRILLING FLUID DENSITY
DFV .                     73 : DRILLING FLUID VISCOSITY
DFPH.                    9.5 : DRILLING FLUID PH
DFL .                    8.9 : DRILLING FLUID LOSS
MSS .               FLOWLINE : MUD SAMPLE SOURCE
RMS .OHMM               1.44 : RESISTIVITY MUD SAMPLE
MST .DEGC                 60 : MUD SAMPLE TEMPERATURE
RMF .OHMM               1.12 : RESISTIVITY MUD FILTRATE SAMPLE
MFST.DEGC                 55 : MUD FILTRATE SAMPLE TEMPERATURE
RMB .OHMM               0.26 : RESISTIVITY MUD AT BHT
TCS .HRS                 6.5 : TIME CIRCULATED STOPPED
LUN .                   7635 : LOGGING UNIT NUMBER
LUL .                    EDM : LOGGING UNIT LOCATION
ENGI.                 MACKAY : RECORDING ENGINEER
WITN.                SHIRLEY : WITNESSED BY
CLNT.                A2DTECH : CLIENT CODE
ORIG.            2" 5" PRINT : ORIGIN OF DATA
UWI .       100060706022W500 : UNIQUE WELL ID
DICO. A2D Technologies, Inc. : DIGITIZING COMPANY
~Other -----------------------------------------------------
~ASCII -----------------------------------------------------
# ...
 10700.00000    9.64270    9.10700    0.23510    0.09810    -999.25   53.62800   10.12160   10.82320  121.22370  112.46970  346.61240    0.01450    -999.25    2.54030 -123.07980
 10750.00000    9.04120    9.33500    0.21200    0.02950    -999.25   49.32170   18.46090   12.20460  252.04330  203.80880  489.91200    0.00060    -999.25    2.65810  -95.97230
 10800.00000    9.81260    9.36400    0.25030    0.07030    -999.25   49.12350   19.00110   21.01500  513.00790  417.47710 1392.68660    0.00160    -999.25    2.59660  -63.85230
 10850.00000    9.51170    9.50800    0.23610    0.12510    -999.25   49.25540   16.82610   14.46250  201.76690  158.97190  353.76910   -0.00190    -999.25    2.50270  -63.16030
 10900.00000    7.80240    9.62100   -0.00150    0.00690    -999.25   49.60670   15.98630   14.66710  397.82850  212.00820 1371.40520    0.00340    -999.25    2.70350  -43.51010
 10950.00000    7.82100    9.58400   -0.01060    0.01130    -999.25   49.34340   16.24780   14.54120  431.68630  296.79410 1355.85530    0.00120    -999.25    2.68810  -41.63530
 11000.00000    7.78740    9.75700   -0.00580   -0.00590    -999.25   50.13000   16.24810   12.21970  213.90880  180.56710  765.77160    0.00550    -999.25    2.71570  -66.21600
 11050.00000    7.90240    9.35500    0.00090    0.00640    -999.25   49.68620   14.32110   12.08610   59.32300   65.24230  131.22180    0.00220    -999.25    2.70800  -97.61140
 11100.00000    7.95090    9.74700    0.00310   -0.00100    -999.25   49.89890   19.13190   20.05540  192.00750  231.12390  456.82060   -0.00100    -999.25    2.70280  -92.10900
 11150.00000    8.11760    9.04500   -0.00010    0.02490    -999.25   51.84790   17.07490   14.97990   12.38960   15.47340   61.52090    0.02650    -999.25    2.66820 -113.11440
 11200.00000    7.93000    9.06600    0.00070   -0.08660    -999.25   49.10530   38.21260   20.29220  152.40650  296.39290 1098.25050    0.01930    -999.25    2.86240  -77.59160
 11250.00000   11.16310    9.35100    0.22480    0.17110    -999.25   53.11270   20.11730   19.31060   38.88760   47.26760   50.56140    0.10000    -999.25    2.42280 -121.63070
 11300.00000    9.80040    9.43200    0.24920    0.13540    -999.25   49.77360   26.97800   28.66980   70.84020   75.16960  125.85950    0.04350    -999.25    2.51960  -84.15510
 11350.00000    7.93580    9.04200   -0.00650    0.02160    -999.25   50.64560   44.93780   41.27550  370.49880  487.21460 1320.96730    0.01400    -999.25    2.67800  -41.46900
 11400.00000    8.60760    9.22700    0.23380    0.00000    -999.25   51.15410   30.70500   30.25120  452.37240  530.31950 1378.99020    0.01240    -999.25    2.69720  -40.21210
 11450.00000    7.94330    8.66300   -0.00810    0.00910    -999.25   50.94920   31.28620   30.76080  457.46380  521.37620 1379.07730    0.00570    -999.25    2.69810   25.23280
 11500.00000    8.11820    8.92000    0.00410   -0.01810    -999.25   51.54510   38.43440   40.12940  251.94150  304.65080 1261.55550    0.01500    -999.25    2.74050   27.78190
 11550.00000    8.65050    9.00600    0.00910    0.00420    -999.25   64.65390  139.52820  125.20310   14.18850   16.01470   24.10740    0.15610    -999.25    2.70100   27.43830
 11600.00000    8.11730    8.76000   -0.00120   -0.01980    -999.25   51.17160   48.35160   43.66550   48.69060   65.84490   86.20090    0.05690    -999.25    2.74830   -3.44560
 11650.00000    7.95730    8.72900    0.02530   -0.08010    -999.25   53.04490   63.76340   64.68010   26.93680   29.32980   38.72570    0.08280    -999.25    2.82070  -29.47680
 11700.00000    7.72960    8.62700    0.04940   -0.01230    -999.25   50.45360   12.88600   13.82100   55.52390   62.96990  109.80610    0.10020    -999.25    2.73330  -82.86630
 11750.00000    7.79190    8.82500    0.02970   -0.01520    -999.25   48.04510   17.53750   14.80560   93.20300  121.85390  257.55820    0.07770    -999.25    2.75480  -56.24200
 11800.00000    7.79880    8.85100    0.12200    0.02000    -999.25   49.62530   16.70970   18.57790   40.25540   59.87670  218.69150    0.16410    -999.25    2.68700  -76.26940
 11850.00000    7.71860    8.63400    0.06560   -0.00020    -999.25   49.75690   12.70290   12.41370   38.30260   49.95910  303.31610    0.11400    -999.25    2.70000  -90.37590
 11900.00000    7.95580    8.50700    0.14500   -0.04020    -999.25   51.04900   17.03470   14.59490   60.62500   66.99520  200.08450    0.10870    -999.25    2.77350  -98.11600
 11950.00000    9.14470    8.94300    0.22900    0.01680    -999.25   47.37230   19.56300   20.62000 1078.91000  147.51990 1365.98470    0.04960    -999.25    2.66340  -13.41630
 12000.00000    7.94370    8.68600    0.01530   -0.08500    -999.25   49.09580   11.86360   11.65130  295.24480  234.83630 1403.19140    0.03610    -999.25    2.85380   -2.92880
 12050.00000    8.54880    9.09200    0.14330   -0.00020    -999.25   46.85790   22.67560   18.08500 1248.01430  310.17150 1370.67430    0.04900    -999.25    2.69870  -17.77520
 12100.00000   10.72630    9.74700    0.24960    0.16670    -999.25   53.15250   20.08580   28.54840  318.08710  638.71820  886.04820    0.03160    -999.25    2.43620  -22.38810
 12150.00000    7.50970    8.11000    0.04350    0.02360    -999.25   51.33360   23.86730   22.59570   17.66960   27.21960  102.74100    0.09120    -999.25    2.66970  -85.14240
 12200.00000    9.88520    9.57500    0.17590   -0.01990    -999.25   48.67030   19.04440   18.65890 1459.23250 1516.85300 1400.32790    0.02910    -999.25    2.74710   -9.13500
 12250.00000    7.77770    8.96000    0.02320   -0.05010    -999.25   49.95670   14.02500   12.47280 1502.76590 1085.01540 1403.51340    0.02480    -999.25    2.79900  -14.81850
 12300.00000    8.03050    8.74200    0.11150   -0.07290    -999.25   47.80510   14.88220   10.13810 1212.02440 1346.60290 1332.25770    0.02610    -999.25    2.82000  -40.23720
 12350.00000   10.89480    9.89400    0.24970    0.34700    -999.25   46.04450   13.13510   13.73800 1175.57090  568.28160 1138.39070    0.02680    -999.25    2.16610  -14.89380
 12400.00000   10.94200    9.19400    0.24550    0.31460    -999.25   50.01520   15.24090   13.97300  331.06620 1591.75650  388.72330    0.07920    -999.25    2.19420  -25.57150
 12450.00000    8.12000    9.23600    0.00800    0.03460    -999.25   51.68510   31.29930   30.58140 1542.55710  560.21370 1399.95740    0.00800    -999.25    2.65370  -23.78560
 12500.00000    8.34560    9.27700    0.16000    0.03540    -999.25   48.76470   12.53720   13.16300 1533.65470  424.28940 1343.64100   -0.00040    -999.25    2.65560  -37.63090
 12550.00000    8.37900    9.38100    0.11290    0.05530    -999.25   49.43890   12.51320   10.49460 1544.77730  846.88040 1398.88720   -0.00090    -999.25    2.61310  -52.97780
 12600.00000    8.70020    9.11400    0.21170    0.03070    -999.25   49.05110   12.20340   13.97250 1497.84790  542.42710 1417.35850   -0.00070    -999.25    2.66600  -61.03020
 12650.00000    9.54490    9.70900    0.24950    0.11370    -999.25   48.10320   12.91530   13.46460 1505.69010 1449.42100 1394.32230    0.00070    -999.25    2.52170  -33.39140
 12700.00000   10.53610    9.84300    0.24880    0.15240    -999.25   48.70030   17.74000   18.53820 1044.42550  223.01830 1141.86950   -0.00310    -999.25    2.45330  -41.04410
 12750.00000    8.25010    9.14900    0.07180    0.01510    -999.25   49.02680   16.92280   15.33700 1517.31020 1423.29150 1401.15220   -0.00150    -999.25    2.69600  -69.34040
 12800.00000    8.18590    9.34400    0.13470    0.05320    -999.25   48.91530   19.54510   19.95440 1647.81140 1465.43810 1434.39390    0.00150    -999.25    2.62080  -39.68860
 12850.00000   12.64200    9.85900    0.24990    0.31970    -999.25   49.72550   19.59370   14.37280  829.48210  539.26410  759.85020    0.00630    -999.25    2.19460  -32.68570
 12900.00000   10.80490    9.23700    0.23060    0.16760    -999.25   49.82860   21.35230   21.23920  573.54600  400.58510 1360.56920    0.00730    -999.25    2.42630  -37.02240
