~Version ---------------------------------------------------
VERS.      2.0 : CWLS log ASCII Standard -VERSION 2.0
WRAP.       NO : One line per depth step
CREA. 09/10/14 : LAS Creation Date
~Well ------------------------------------------------------
STRT.FT                           900.0 : START DEPTH
STOP.FT                          9800.0 : STOP DEPTH
STEP.FT                        50.00000 : STEP LENGTH
NULL.                           -999.25 : NULL VALUE
COMP.      CANADIAN HOMESTEAD OILS LTD. : COMPANY
WELL. HOMESTEAD SHELL SNIPE 12-29-68-18 : WELL
FLD .                                   : FIELD
LOC .                                   : LOCATION
CTRY.                            CANADA : COUNTRY
SRVC.                      Schlumberger : SERVICE COMPANY
DATE.                       11-Apr-1970 : LOGDATE
PROV.                           Alberta : PROVINCE
UWI .                  100122906818W500 : UNIQUE WELL ID
SLAT.WGS84                     54.91763 : SURFACE LATITUDE
SLON.WGS84                    -116.7151 : SURFACE LONGITUDE
~Curve Information -----------------------------------------
DEPT   .FT    : Depth Curve
CALS   .IN    : CALIPER FROM SONIC LOG
DT     .US/F  : DELTA TIME FROM SONIC LOG
GRS    .GAPI  : GAMMA RAY FROM SONIC LOG
ILD    .OHMM  : DEEP INDUCTION RESISTIVITY FROM RESISTIVITY LOG
ILM    .OHMM  : MEDIUM INDUCTION RESISTIVITY FROM RESISTIVITY LOG
LL8    .OHMM  : LATEROLOG 8 FROM RESISTIVITY LOG
SPHI_LS.DEC   : SONIC POROSITY LIMESTONE [DTM=47.6,DTF=189.0] FROM SONIC LOG
SPHI_SS.DEC   : SONIC POROSITY SANDSTONE [DTM=55.6,DTF=189.0] FROM SONIC LOG
SPR    .MV    : SPONTANEOUS POTENTIAL FROM RESISTIVITY LOG
~Params ----------------------------------------------------
PD  .                     GL : PERMANENT DATUM
EPD .FT                 2869 : ELEVATION PERMANENT DATUM
LMF .                     KB : LOG MEASURED FROM
DAPD.FT                   14 : FEET ABOVE PERMANENT DATUM
EKB .FT                 2883 : KELLY BUSHING
EGL .FT                 2869 : GROUND LEVEL
DATE.               04/11/70 : RUN DATE
RUN .                      1 : RUN NUMBER
DD  .FT                 9835 : DEPTH DRILLER
DL  .FT                 9820 : DEPTH LOGGER
BLI .FT                 9816 : BOTTOM LOG INTERVAL
TLI .FT                 1012 : TOP LOG INTERVAL
CBD .FT                 1008 : CASING BOTTOM DRILLER
CBL .FT                 1012 : CASING BOTTOM LOGGER
BS  .IN                7.875 : BIT SIZE
BSD .FT                 9835 : BIT SIZE AT DEPTH
DFT .               CHEM GEL : DRILLING FLUID TYPE
DFD .                     93 : DRILLING FLUID DENSITY
DFV .                     75 : DRILLING FLUID VISCOSITY
DFPH.                   10.5 : DRILLING FLUID PH
DFL .                    9.2 : DRILLING FLUID LOSS
MSS .               FLOWLINE : MUD SAMPLE SOURCE
RMS .OHMM               2.03 : RESISTIVITY MUD SAMPLE
MST .DEGF                 73 : MUD SAMPLE TEMPERATURE
RMF .OHMM               1.92 : RESISTIVITY MUD FILTRATE SAMPLE
MFST.DEGF                 71 : MUD FILTRATE SAMPLE TEMPERATURE
RMC .OHMM               2.16 : RESISTIVITY MUD CAKE
MCST.DEGF                 73 : MUD CAKE SAMPLE TEMPERATURE
TCS .HRS                   3 : TIME CIRCULATED STOPPED
LUN .                   5630 : LOGGING UNIT NUMBER
LUL .                    EDM : LOGGING UNIT LOCATION
ENGI.                 SLADEN : RECORDING ENGINEER
WITN.           SLOAN ELFORD : WITNESSED BY
CLNT.                A2DTECH : CLIENT CODE
ORIG.            2" 5" PRINT : ORIGIN OF DATA
UWI .       100122906818W500 : UNIQUE WELL ID
DICO. A2D Technologies, Inc. : DIGITIZING COMPANY
~Other -----------------------------------------------------
~ASCII -----------------------------------------------------
  900.00000    -999.25    -999.25   54.22040    -999.25    -999.25    -999.25    -999.25    -999.25    -999.25
  950.00000    -999.25    -999.25   51.53690    -999.25    -999.25    -999.25    -999.25    -999.25    -999.25
 1000.00000    -999.25    -999.25   35.36410    -999.25    -999.25    -999.25    -999.25    -999.25    -999.25
 1050.00000   12.86600  139.13970   61.70960    2.86690    2.71340    3.16290    -999.25    -999.25  -28.95040
 1100.00000    9.88620  116.42780   50.63160    5.46140    4.73070    5.31380    -999.25    0.43920  -36.45490
 1150.00000   12.92910  161.85590   62.91930    2.29740    1.91610    2.51010    -999.25    -999.25  -29.64650
 1200.00000   11.35100  132.15380   50.63440    3.09460    2.75900    3.57140    -999.25    -999.25  -27.24460
 1250.00000   10.75820  117.79420   63.84950    6.24050    5.38820    5.25420    -999.25    0.42270  -28.65800
 1300.00000   10.02770  143.18690   56.69330    3.74890    3.57180    3.99400    -999.25    0.44870  -24.55860
 1350.00000   15.02100  128.57720   50.05190    3.94710    3.27990    3.76570    -999.25    -999.25  -22.68400
 1400.00000    8.52890  118.47910   48.21470    9.93820    8.25210    7.73710    -999.25    0.45000  -37.69100
 1450.00000    8.59010  125.14760   51.19530    4.59070    4.16740    5.01390    -999.25    0.44910  -26.88040
 1500.00000    9.27130  125.18350   58.48570    3.92460    3.67950    4.24490    -999.25    -999.25  -23.18720
 1550.00000    8.25440  108.11840   39.94710    9.89300    8.49620    8.12990    -999.25    0.38060  -38.36550
 1600.00000    9.55100  119.48030   52.11120    3.65450    3.23110    3.77020    -999.25    0.44940  -23.30210
 1650.00000   10.28390  118.29690   52.48130    3.88070    3.33620    3.66320    -999.25    -999.25  -22.68570
 1700.00000   14.55700  135.87110   45.22640    3.16870    2.93140    3.34660    -999.25    -999.25  -24.90990
 1750.00000    9.56360   88.95510   38.92390    4.95430    4.86870   11.30440    -999.25    0.21510  -25.64490
 1800.00000   14.81090  137.57350   45.55630    3.18770    2.82370    3.49110    -999.25    -999.25  -23.68680
 1850.00000    9.84750  122.13020   57.57720    3.56650    3.35260    4.05140    -999.25    0.44600  -21.95800
 1900.00000    9.26700  122.41070   48.99080    3.18550    2.85990    3.31420    -999.25    -999.25  -24.64470
 1950.00000    9.07610  118.35440   45.12370    5.18050    4.82530    4.62180    -999.25    -999.25  -27.09190
 2000.00000   11.23920  138.81240   50.59860    3.24000    2.90240    3.70220    -999.25    -999.25  -23.95640
 2050.00000    9.16080  114.93380   50.01510    3.41270    3.28060    4.01080    -999.25    0.42650  -29.31860
 2100.00000    8.95960  122.08560   53.99810    3.13160    2.92340    3.49860    -999.25    0.44950  -25.10580
 2150.00000    9.02910  116.92120   50.77240    4.36350    4.01000    3.83190    -999.25    0.44750  -26.28210
 2200.00000    9.19290  121.41900   55.08160    3.02750    2.80540    3.53600    -999.25    -999.25  -28.86480
 2250.00000   10.17280  114.61560   50.64200    3.56950    3.33440    4.18920    -999.25    0.43950  -26.53370
 2300.00000   10.17790  126.38320   82.04810    4.65300    4.16880    4.89240    -999.25    0.44940  -29.41510
 2350.00000   10.84830  112.17300   72.12980    7.26070    6.12940    6.65490    -999.25    0.41140  -35.08290
 2400.00000   11.84270  118.45680   89.63370    5.14370    4.20100    4.88980    -999.25    0.44950  -32.45920
 2450.00000   11.95280  116.74390  109.66340    5.33220    4.86380    6.16000    -999.25    0.44080  -29.70180
 2500.00000   11.50720  107.84370   86.61250    5.75740    5.13010    5.92660    -999.25    0.37680  -30.53480
 2550.00000   12.77850  110.07280   94.24870    5.88860    5.18790    6.31450    -999.25    0.39570  -36.70200
 2600.00000   13.77940   97.77580   75.18800    7.26950    6.04220    6.32440    -999.25    0.31040  -38.91030
 2650.00000    9.80120  112.54600   96.14240    6.56690    5.93130    6.85380    -999.25    0.40920  -33.00040
 2700.00000   12.42280  111.14180   87.69290    6.38090    5.27180    5.74190    -999.25    0.40210  -37.18150
 2750.00000   14.96910  107.60880   80.13750    7.11080    5.70600    5.95510    -999.25    0.37830  -38.43080
 2800.00000   12.51170  112.91750   69.42180    6.17000    4.98410    5.37920    -999.25    0.41360  -38.87900
 2850.00000   14.99770  110.70080   77.59400    6.94680    5.60720    6.66760    -999.25    0.40170  -38.29700
 2900.00000   11.10420   92.88010   73.51880    8.13270    5.99310    6.29600    -999.25    0.28510  -36.15990
 2950.00000   13.08570  112.48560   83.06190    6.39600    5.51370    6.07800    -999.25    0.41180  -36.37700
 3000.00000   11.28490   94.93080   83.35110    8.11770    7.27850    7.69870    -999.25    0.28580  -36.11110
 3050.00000   11.85140  107.00580   89.63580    5.19440    4.65230    5.51840    -999.25    0.37440  -35.16000
 3100.00000   10.80680  115.39820   94.46630    4.94860    4.62830    5.39120    -999.25    0.43020  -29.86980
 3150.00000   10.35640  110.00850   93.91350    5.64020    5.32100    6.18210    -999.25    0.39340  -32.16900
 3200.00000   11.69760  113.25320   95.27170    5.24060    5.04750    6.12600    -999.25    0.41760  -32.05720
 3250.00000    9.21500  111.63370  119.66400    6.24450    6.00460    7.59570    -999.25    0.40580  -30.21660
 3300.00000   10.51290  111.35070  110.62240    6.29290    6.09990    7.44550    -999.25    0.40780  -30.63850
 3350.00000    9.30150  105.37390   76.78730    4.24350    3.77930    4.52870    -999.25    0.36070  -34.22180
 3400.00000   10.41560  105.21030   86.38950    4.12630    3.92770    4.69480    -999.25    0.36160  -31.77700
 3450.00000   10.90610   97.61650   90.39170    5.06290    4.89140    5.54070    -999.25    0.30620  -28.26040
 3500.00000   10.77620   99.12690   89.86550    4.90230    5.19280    5.76460    -999.25    0.31680  -30.26030
 3550.00000    9.87210   95.97010   88.70460    4.75250    4.83760    5.41220    -999.25    0.29320  -29.39770
 3600.00000   10.33040  100.60560   89.60930    3.71320    3.59440    4.30950    -999.25    0.32860  -26.18890
 3650.00000   10.42520   97.09510   87.19120    3.91730    3.71020    4.37640    -999.25    0.30530  -26.44360
 3700.00000   10.56280  102.69870   88.90280    3.89880    3.71540    4.16370    -999.25    0.33990  -24.25370
 3750.00000   10.79590  106.87660  133.61880    2.93400    2.80170    3.68930    -999.25    0.37130  -23.86360
 3800.00000   10.43290  114.73660   81.87270    2.11270    2.03500    2.87250    -999.25    0.43030  -23.90980
 3850.00000    9.72970  122.48550   95.41670    1.87560    1.76040    2.65400    -999.25    -999.25  -24.38580
 3900.00000   10.75940  104.83800   88.85110    3.05430    2.88450    3.49320    -999.25    0.36210  -26.38840
 3950.00000    9.67050   95.15180   84.55290    4.32200    4.15430    4.85500    -999.25    0.28960  -25.85490
 4000.00000    9.18440   84.85200   65.32290    7.44080    6.98160   10.01420    -999.25    0.21390  -31.69180
 4050.00000   10.12720  120.69500   83.03970    2.27150    2.11260    3.85790    -999.25    0.39380  -25.28240
 4100.00000    9.89710   89.90420   79.40510    4.47040    4.70720    8.01820    -999.25    0.25010  -27.69500
 4150.00000    9.22350   77.85170   48.95110    5.69200    6.38870    8.14460    -999.25    0.14980  -39.52750
 4200.00000   10.56670  105.94480   63.12310    4.38160    4.75000    6.92660    -999.25    0.35520  -31.11740
 4250.00000    9.66190  114.89080   69.73360    3.08220    3.32490    6.70470    -999.25    0.39060   -0.22850
 4300.00000    7.97100   89.37060   30.82660    5.60190    9.22780   13.90880    -999.25    0.24460 -192.84700
 4350.00000    9.32130   84.90130   52.00770    4.08740    4.29600    5.85630    -999.25    0.20990 -116.43070
 4400.00000    9.11280   94.29380   69.08120    4.13800    4.35850    4.14760    -999.25    0.27850 -115.07120
 4450.00000    8.89930   80.47630   62.79040    4.96750    5.75590    6.87700    -999.25    0.18180 -123.17680
 4500.00000    8.90700   85.36650   69.67270    4.33770    4.80960    7.42150    -999.25    0.22130 -124.54310
