~Version ---------------------------------------------------
VERS. 2.0 : CWLS log ASCII Standard -VERSION 2.0
WRAP.  NO : ONE LINE PER DEPTH STEP
~Well ------------------------------------------------------
STRT.F                          1050.0 : START DEPTH
STOP.F                         10100.0 : STOP DEPTH
STEP.F                        50.00000 : STEP LENGTH
NULL.                          -999.25 : NULL VALUE
COMP.             PETROFINA CANADA LTD : COMPANY
WELL.        FINA ET AL WIND 7-7-61-16 : WELL
FLD .                                  : FIELD
LOC .                                  : LOCATION
CTRY.                           CANADA : COUNTRY
SRVC. Schlumberger Well Surveying Corp : SERVICE COMPANY
DATE.                      23-Jan-1978 : LOGDATE
PROV.                          Alberta : PROVINCE
UWI .                 100070706116W500 : UNIQUE WELL ID
SLAT.WGS84                    54.25864 : SURFACE LATITUDE
SLON.WGS84                    -116.383 : SURFACE LONGITUDE
~Curve Information -----------------------------------------
DEPT   .F                 : 
CALD   .IN   45 280 60 00 : CALIPER FROM DENSITY LOG
DRHO   .G/C3 45 356 01 00 : BULK DENSITY CORRECTION
GRD    .GAPI 45 310 01 00 : GAMMA RAY FROM DENSITY LOG
RHOB   .G/C3 45 350 01 00 : BULK DENSITY
NPHI_SS.DEC  42 890 03 00 : NEUTRON POROSITY SANDSTONE
DPHI_SS.DEC  45 890 12 00 : DENSITY POROSITY SANDSTONE
NPHI_LS.DEC  42 890 01 00 : NEUTRON POROSITY LIMESTONE
DPHI_LS.DEC  45 890 10 00 : DENSITY POROSITY LIMESTONE
LL8    .OHMM 07 220 08 00 : LATEROLOG 8
SPR    .MV   07 010 01 00 : SPONTANEOUS POTENTIAL FROM RESISTIVITY LOG
ILD    .OHMM 07 120 46 00 : INDUCTION DEEP RESISTIVITY
ILM    .OHMM 07 120 44 00 : INDUCTION MEDIUM RESISTIVITY
DT     .US/F 60 500 00 00 : DELTA-T (INTERVAL TRANSIT TIME)
CALS   .IN   60 280 50 00 : CALIPER FROM SONIC LOG
GRS    .GAPI 60 310 01 00 : GAMMA RAY FROM SONIC LOG
GRD_R  .GAPI 45 310 01 00 : GAMMA RAY FROM DENSITY LOG FROM REPEAT
GRS_R  .GAPI 60 310 01 00 : GAMMA RAY FROM SONIC LOG FROM REPEAT
~Params ----------------------------------------------------
PD  .                     GL : PERMANENT DATUM
EPD .FT               2840.2 : ELEVATION PERMANENT DATUM
LMF .                     KB : LOG MEASURED FROM
DAPD.FT                 13.8 : FEET ABOVE PERMANENT DATUM
EKB .FT                 2854 : KELLY BUSHING
EGL .FT               2840.2 : GROUND LEVEL
DATE.               01/23/78 : RUN DATE
RUN .                      1 : RUN NUMBER
DD  .FT                10130 : DEPTH DRILLER
DL  .FT                10136 : DEPTH LOGGER
BLI .FT                10130 : BOTTOM LOG INTERVAL
TLI .FT                 1041 : TOP LOG INTERVAL
CBD .FT                 1041 : CASING BOTTOM DRILLER
CBL .FT                 1041 : CASING BOTTOM LOGGER
BS  .IN                7.875 : BIT SIZE
BSD .FT                10130 : BIT SIZE AT DEPTH
DFT .               GEL CHEM : DRILLING FLUID TYPE
DFD .                    9.1 : DRILLING FLUID DENSITY
DFV .                     88 : DRILLING FLUID VISCOSITY
DFPH.                    9.6 : DRILLING FLUID PH
DFL .                      6 : DRILLING FLUID LOSS
MSS .               FLOWLINE : MUD SAMPLE SOURCE
RMF .OHMM                2.1 : RESISTIVITY MUD FILTRATE SAMPLE
MFST.DEGF                 61 : MUD FILTRATE SAMPLE TEMPERATURE
RMB .OHMM               0.67 : RESISTIVITY MUD AT BHT
TCS .HRS                 2.5 : TIME CIRCULATED STOPPED
LUN .                   7730 : LOGGING UNIT NUMBER
LUL .                    EDM : LOGGING UNIT LOCATION
ENGI.               CAMPBELL : RECORDING ENGINEER
WITN.                  SMITH : WITNESSED BY
CLNT.                A2DTECH : CLIENT CODE
ORIG.            2" 5" PRINT : ORIGIN OF DATA
UWI .       100070706116W500 : UNIQUE WELL ID
DICO. A2D Technologies, Inc. : DIGITIZING COMPANY
~Other -----------------------------------------------------
~ASCII -----------------------------------------------------
# ...
 7200.00000    8.91390    0.01860   58.42110    2.69010    -999.25    -999.25    0.06780    0.00490   45.22740 -104.65340   31.91860   34.04290   57.63650    8.83850   62.80680    -999.25    -999.25
 7250.00000    8.79210    0.01020   37.16960    2.68930    -999.25    -999.25    0.03690   -0.00110  120.92200 -112.77490   70.66750   79.17140   54.39750    8.80950   42.02520    -999.25    -999.25
 7300.00000    8.79850    0.00420   24.79900    2.69780    -999.25    -999.25    0.01920   -0.00430  294.58130 -144.17930  172.68510  186.74120   51.92820    8.82160   27.32470    -999.25    -999.25
 7350.00000    8.80990    0.02510   35.02880    2.72730    -999.25    -999.25    0.03190    0.00020  304.90140 -124.63650  154.34220  193.61070   53.53490    8.82400   37.27130    -999.25    -999.25
 7400.00000    8.85900    0.00100   58.90050    2.67350    -999.25    -999.25    0.04790    0.00840 1294.15880 -149.17240  456.38350  883.46460   55.86550    8.97770   66.34350    -999.25    -999.25
 7450.00000    8.93550    0.02580  133.21190    2.68770    -999.25    -999.25    0.09400    0.01010   18.61540 -115.60180   16.03170   16.39770   60.41430    8.93290  123.59540    -999.25    -999.25
 7500.00000    9.21210    0.04190   17.74190    2.68500    -999.25    -999.25    0.00560   -0.01320  814.57910 -168.71940  379.07660  501.34090   49.53510    9.05540   20.41210    -999.25    -999.25
 7550.00000    8.81430    0.01650   18.10670    2.72840    -999.25    -999.25    0.01430   -0.00830  596.63760 -188.73840  401.39940  367.09370   49.04580    9.05020   21.40960    -999.25    -999.25
 7600.00000    9.23060    0.15190   17.83300    2.73190    -999.25    -999.25    0.01190   -0.02140  418.51980 -202.96320  304.67220  224.10100   48.10780    9.27340   21.20470    -999.25    -999.25
 7650.00000   10.01710    0.17420   13.65650    2.66770    -999.25    -999.25    0.02010    0.00740  114.43970 -198.36230   97.87550   88.89510   49.22050    9.15790   14.88790    -999.25    -999.25
 7700.00000   10.20750    0.23430   10.99140    2.60870    -999.25    -999.25    0.02120    0.04680  375.96660 -194.47690  337.15000  320.73870   47.96890    9.35710   10.84190    -999.25    -999.25
 7750.00000   11.42170    0.16510    9.08390    2.58940    -999.25    -999.25    0.01110    0.08130  451.86730 -244.68550  691.42420  221.91190   48.44120    9.45270    9.88590    -999.25    -999.25
 7800.00000    8.29250    0.17410   10.91940    2.61300    -999.25    -999.25    0.08100    0.06580  168.18100 -231.00780   19.18330   27.80060   53.87510    8.29580   12.80920    -999.25    -999.25
 7850.00000   10.94010    0.22730   12.68210    2.52830    -999.25    -999.25    0.02040    0.11470   58.13770 -198.62370   55.91290   47.64410   49.11200    9.50590   13.75640    -999.25    -999.25
 7900.00000   11.98470    0.18980   15.17660    2.54680    -999.25    -999.25    0.01090    0.05110  401.65530 -196.47160  337.56400  171.54510   48.79690    9.53390   16.54330    -999.25    -999.25
 7950.00000   10.86090    0.24520   12.53110    2.56370    -999.25    -999.25    0.01030    0.09150  138.89800 -198.04900  164.72290  129.74700   49.16110    9.32580   14.59600    -999.25    -999.25
 8000.00000   10.15230    0.04210   12.42710    2.69010    -999.25    -999.25    0.01500    0.00060   92.64980 -194.84110   78.26060   69.58870   51.39950    9.30800   13.43490    -999.25    -999.25
 8050.00000    8.87030    0.12390   11.09240    2.53380    -999.25    -999.25    0.02790    0.08990   56.57990 -199.74950   35.71240   36.67500   52.34000    8.60590   13.34950    -999.25    -999.25
 8100.00000   11.17200    0.25730   14.93880    2.54760    -999.25    -999.25    0.00840    0.10340  148.97970 -198.72650   96.75450  131.84370   49.66250    9.13990   13.63160    -999.25    -999.25
 8150.00000   11.89350    0.17880   16.88120    2.49720    -999.25    -999.25    0.02660    0.08610  528.72220 -191.31640  193.52850  169.52030   49.15090    9.86770   23.00700    -999.25    -999.25
 8200.00000    9.18760    0.04220   45.58280    2.68900    -999.25    -999.25    0.06800   -0.00570   48.13480 -167.74870   20.77640   23.97200   54.12900    9.29880   47.91190    -999.25    -999.25
 8250.00000    9.24870    0.00530   44.82920    2.80600    -999.25    -999.25    0.01460   -0.06370  814.19010 -170.32010  224.97070  317.55390   49.30310    9.20560   42.55270    -999.25    -999.25
 8300.00000   10.63550    0.23950   19.22610    2.60960    -999.25    -999.25    0.06710    0.06210  178.20790 -202.65270   87.44170   71.68740   51.21640    9.52290   23.05180    -999.25    -999.25
 8350.00000    9.57620    0.10870   35.66330    2.72230    -999.25    -999.25    0.07190    0.02130   61.04920 -175.16420   59.98660   57.32720   49.28660    9.09380   38.10060    -999.25    -999.25
 8400.00000   11.34090    0.23360   29.34850    2.58080    -999.25    -999.25    0.09450    0.13790   38.70590 -164.20670   31.27710   28.25680   51.78190    9.63960   33.08860    -999.25    -999.25
 8450.00000    9.35900   -0.00530   33.76180    2.70530    -999.25    -999.25    0.01870   -0.01260  278.28040 -115.33560  155.27070  182.62290   50.89870    9.45690   33.48930    -999.25    -999.25
 8500.00000    9.48370    0.00640   35.37730    2.69380    -999.25    -999.25    0.02010   -0.01340  212.78840 -114.87320  125.33990  132.44960   51.24110    9.63580   34.61370    -999.25    -999.25
 8550.00000    9.44550    0.01500   31.56550    2.71020    -999.25    -999.25    0.01180   -0.00440  331.57390 -123.35770  182.48720  207.42140   50.85410    9.60840   31.98900    -999.25    -999.25
 8600.00000    9.09190    0.02080   37.03240    2.71630    -999.25    -999.25    0.02570   -0.00480  174.06080 -105.41580  114.89890  124.06410   51.89990    8.98420   30.77480    -999.25    -999.25
 8650.00000    9.15070    0.02600   26.47920    2.75470    -999.25    -999.25    0.01710   -0.00340  175.98340 -107.26780  115.40700  128.64900   51.73480    9.17640   27.84280    -999.25    -999.25
 8700.00000    9.60740    0.01570   54.25240    2.70100    -999.25    -999.25    0.09410    0.00630   21.49630  -83.05760   16.02940   17.29950   58.44430    9.51430   54.76260    -999.25    -999.25
 8750.00000    9.62070    0.02190   66.70280    2.70620    -999.25    -999.25    0.12120    0.00740   15.33500  -82.65880   10.92720   11.86590   63.62000    9.47490   64.41260    -999.25    -999.25
 8800.00000    9.56870    0.00810   65.33090    2.69560    -999.25    -999.25    0.13860   -0.00770   15.36880  -80.97230   10.69060   11.53960   63.86160    9.74600   80.58050    -999.25    -999.25
 8850.00000    9.33330    0.00950   62.49450    2.71700    -999.25    -999.25    0.10710   -0.02200   22.64870  -81.14640   15.03840   16.74280   60.19940    9.25010   64.96430    -999.25    -999.25
 8900.00000    9.82240    0.01510   81.21040    2.69260    -999.25    -999.25    0.14580    0.02580   14.75150  -76.89440   10.02600   11.27870   68.10800    9.78230   90.57570    -999.25    -999.25
 8950.00000    9.28370   -0.00380   75.20650    2.58710    -999.25    -999.25    0.15620    0.06550  299.07720  -91.65520  118.43250  172.83910   65.20230    9.26830   80.56070    -999.25    -999.25
 9000.00000   10.17770    0.17910   88.89560    2.71170    -999.25    -999.25    0.10300    0.01590   31.93930  -81.73180    9.97840   13.04660   71.08730    9.84600  109.95240    -999.25    -999.25
 9050.00000   12.03630    0.26200   99.92770    2.43530    -999.25    -999.25    0.23110    0.12710    7.81020  -87.84800    5.63590    5.89820   75.15670   10.31360  102.65790    -999.25    -999.25
 9100.00000    9.20700    0.00960   79.43870    2.71390    -999.25    -999.25    0.10300   -0.01410   27.46730  -78.38130   19.45760   22.16820   63.02730    9.28190   83.94380    -999.25    -999.25
 9150.00000    9.28950    0.02700  104.52470    2.73450    -999.25    -999.25    0.19230   -0.00220   14.48980  -75.87320    9.97540   10.58410   67.45380    9.27680  107.39990    -999.25    -999.25
 9200.00000    9.40340    0.00860  100.62810    2.69640    -999.25    -999.25    0.16850    0.00960   14.47310  -76.95820   10.52360   11.04960   65.96220    9.47930   94.15570    -999.25    -999.25
