~Version ---------------------------------------------------
VERS.      2.0 : CWLS log ASCII Standard -VERSION 2.0
WRAP.       NO : One line per depth step
CREA. 09/16/14 : LAS Creation Date
~Well ------------------------------------------------------
STRT.FT                         1450.0 : START DEPTH
STOP.FT                        13550.0 : STOP DEPTH
STEP.FT                       50.00000 : STEP LENGTH
NULL.                          -999.25 : NULL VALUE
COMP. AMOCO CANADA PETROLEUM CO., LTD. : COMPANY
WELL.            AMOCO TONY 7-16-62-24 : WELL
FLD .                                  : FIELD
LOC .                                  : LOCATION
CTRY.                           CANADA : COUNTRY
SRVC.                     Schlumberger : SERVICE COMPANY
DATE.                      27-Nov-1977 : LOGDATE
PROV.                          Alberta : PROVINCE
UWI .                 100071606224W500 : UNIQUE WELL ID
SLAT.WGS84                    54.36239 : SURFACE LATITUDE
SLON.WGS84                   -117.5361 : SURFACE LONGITUDE
~Curve Information -----------------------------------------
DEPT   .FT    : DEPTH FEET
CALD   .IN    : CALIPER FROM DENSITY LOG
CALS   .IN    : CALIPER FROM SONIC LOG
DPHI_LS.V/V   : DENSITY POROSITY LIMESTONE [M=2.71,F=1.0] FROM DENSITY LOG
DPHI_SS.V/V   : DENSITY POROSITY SANDSTONE [M=2.65,F=1.0] FROM DENSITY LOG
DRHO   .G/C3  : DENSITY CORRECTION FROM DENSITY LOG
DT     .US/F  : DELTA TIME FROM SONIC LOG
GRD    .GAPI  : GAMMA RAY FROM DENSITY LOG
GRS    .GAPI  : GAMMA RAY FROM SONIC LOG
ILD    .OHMM  : DEEP INDUCTION FROM RESISTIVITY LOG
ILM    .OHMM  : MEDIUM INDUCTION FROM RESISTIVITY LOG
LL8    .OHMM  : 8 INCH LATEROLOG RESISTIVITY FROM RESISTIVITY LOG
NPHI_LS.V/V   : NEUTRON POROSITY LIMESTONE FROM DENSITY LOG
NPHI_SS.V/V   : NEUTRON POROSITY SANDSTONE FROM DENSITY LOG
RHOB   .G/C3  : BULK DENSITY FROM DENSITY LOG
SPR    .MV    : SPONTANEOUS POTENTIAL FROM RESISTIVITY LOG
~Params ----------------------------------------------------
PD  .                     GL : PERMANENT DATUM
EPD .FT                 5402 : ELEVATION PERMANENT DATUM
LMF .                     KB : LOG MEASURED FROM
DAPD.FT                   17 : FEET ABOVE PERMANENT DATUM
DATE.               11/27/77 : RUN DATE
RUN .                      2 : RUN NUMBER
DD  .FT                13685 : DEPTH DRILLER
DL  .FT                13579 : DEPTH LOGGER
BLI .FT                13573 : BOTTOM LOG INTERVAL
TLI .FT                 8448 : TOP LOG INTERVAL
CBD .FT                 8448 : CASING BOTTOM DRILLER
CBL .FT                 8448 : CASING BOTTOM LOGGER
BSD .FT                13685 : BIT SIZE AT DEPTH
DFT .                    8.6 : DRILLING FLUID TYPE
DFD .                     86 : DRILLING FLUID DENSITY
CLNT.                A2DTECH : CLIENT CODE
ORIG.          1" 2.5" PRINT : ORIGIN OF DATA
UWI .       100071606224W500 : UNIQUE WELL ID
DICO. A2D Technologies, Inc. : DIGITIZING COMPANY
~Other -----------------------------------------------------
~ASCII -----------------------------------------------------
# ...
 3750.00000   12.35100   12.60290    -999.25    0.26570    0.16280   87.11490   69.18710   70.23450    8.36500    6.95580    7.16500    -999.25    0.38690    2.22450  -28.42600
 3800.00000   14.03390   12.52910    -999.25    0.30150    0.16130   97.25440   64.12930   67.95610    5.46280    4.38470    5.26740    -999.25    0.42390    2.18650  -28.77890
 3850.00000   12.93730   12.47760    -999.25    0.17350    0.08150   81.97210   55.79550   55.52830   10.25600    9.46620   10.79470    -999.25    0.36170    2.35410  -30.86000
 3900.00000   14.62680   12.65730    -999.25    0.27110    0.19140   87.94270   71.80630   70.63160    6.07730    5.45960    6.19550    -999.25    0.37670    2.19370  -27.58700
 3950.00000   13.90960   12.62150    -999.25    0.27060    0.13850   95.14590   82.05470   93.51150    5.02460    4.20730    4.83490    -999.25    0.42560    2.18970  -27.92480
 4000.00000   12.88200   12.51480    -999.25    0.27610    0.13660   92.30210   66.97470   74.59280    5.83660    5.14140    6.09680    -999.25    0.44090    2.17470  -28.18230
 4050.00000   11.55090   12.23020    -999.25    0.19850    0.11500   82.87830   47.73760   49.13760   19.02090   15.26020   18.92000    -999.25    0.31890    2.33190  -40.93260
 4100.00000   11.64710   12.02600    -999.25    0.16740    0.07090   82.00420   48.86470   53.38120   22.55530   17.88510   17.26850    -999.25    0.34040    2.37700  -41.86130
 4150.00000   13.02450   12.30680    -999.25    0.31960    0.19320   91.19140   75.15890   84.93280    5.68150    4.59140    5.28320    -999.25    0.49350    2.04420  -28.24860
 4200.00000   12.41350   12.21720    -999.25    0.20740    0.14190   83.29620   56.11700   56.61550    7.77510    7.07330    7.97460    -999.25    0.33770    2.29740  -28.49040
 4250.00000   11.90970   12.37490    -999.25    0.19400    0.15760   85.05650   67.01490   74.40870   12.16390   11.38850   12.25200    -999.25    0.41520    2.33090  -29.16130
 4300.00000   11.65640   12.28470    -999.25    0.15980    0.14440   90.15460   58.79970   64.38150   12.24520   11.82370   29.72140    -999.25    0.37570    2.37970  -41.09090
 4350.00000   12.70460   12.39720    -999.25    0.32820    0.07710  128.82430   71.35250   74.04770    4.70600    3.63710    4.81140    -999.25    0.53910    2.09930  -28.62170
 4400.00000   11.95470   12.76750    -999.25    0.22700    0.08030  102.20860   74.10940   74.86860    5.54870    4.72650    5.99390    -999.25    0.51500    2.30140  -29.76930
 4450.00000   11.62230   12.51460    -999.25    0.07770    0.12690   84.98720   63.19220   69.67670   10.05520    8.13700    9.09880    -999.25    0.36080    2.50880  -30.59820
 4500.00000   12.71490   12.60590    -999.25    0.09600    0.05780   87.26990   74.76210   77.66650    6.46200    6.26410    7.35910    -999.25    0.37600    2.47570  -29.44680
 4550.00000   11.98830   12.55150    -999.25    0.13760    0.05430   84.22630   66.29400   72.89940    8.04020    7.29960    7.75680    -999.25    0.38780    2.43660  -28.77460
 4600.00000   12.74420   12.51810    -999.25    0.08770    0.08340   85.56750   84.93480   94.53740    9.90440    8.36830    9.52000    -999.25    0.37650    2.50850  -30.17880
 4650.00000   12.42240   12.63180    -999.25    0.04570    0.07070   83.01280   94.23120   97.27040   11.02510    9.24570   10.27450    -999.25    0.35240    2.59530  -30.53190
 4700.00000   13.50350   12.65790    -999.25    0.06860    0.09550   84.57950  110.06550  114.56390   10.24200    8.31770    9.89550    -999.25    0.36620    2.54510  -30.74590
 4750.00000   13.35870   12.67370    -999.25    0.05500    0.05280   89.03400  121.33090  126.56350   10.73540    9.06910   11.19320    -999.25    0.34730    2.55330  -29.31170
 4800.00000   13.27960   12.61960    -999.25    0.03140    0.05860   83.29220  118.15960  118.27340   15.96340   12.99820   17.82950    -999.25    0.32600    2.60130  -28.86900
 4850.00000   13.25630   12.65670    -999.25    0.04190    0.08150   83.07210  107.11380  111.55290   14.51680   12.32000   15.12320    -999.25    0.34660    2.57290  -28.63210
 4900.00000   13.37180   12.65670    -999.25    0.09090    0.14900   81.90190   93.74010  102.83540   14.16290   12.21280   14.78420    -999.25    0.31670    2.54780   -8.95890
 4950.00000   13.11070   12.60020    -999.25    0.07120    0.07100   87.00850  111.10660  114.08410   11.38280    9.63390   10.74470    -999.25    0.36490    2.54720  -59.49950
 5000.00000   13.11210   12.54070    -999.25    0.11810    0.11090   86.04260  111.10790  119.92270    8.69510    7.32680    9.01930    -999.25    0.39210    2.47370  -64.98500
 5050.00000   13.15550   12.54640    -999.25    0.09770    0.09910   86.84180  118.18600  115.34440    9.08670    7.81730    9.63730    -999.25    0.38520    2.47160  -64.66640
 5100.00000   12.98540   12.65290    -999.25    0.10110    0.09480   86.17700  112.61920  124.15620   10.01700    8.34540    9.80600    -999.25    0.34180    2.48880  -64.62080
 5150.00000   13.11910   12.61430    -999.25    0.13460    0.08420   81.48760  103.01580  112.39190   12.39020   10.16950   11.74990    -999.25    0.31090    2.43560  -64.09700
 5200.00000   13.22030   12.66330    -999.25    0.13860    0.17440   83.06690  105.98100  115.29760   11.24320   10.08420   11.62370    -999.25    0.33650    2.43340  -63.84800
 5250.00000   14.77390   12.78740    -999.25    0.24940    0.19270   87.82570  115.95260  121.37770    9.40880    8.22690   10.14650    -999.25    0.38230    2.33380  -63.82880
 5300.00000   13.83670   12.57390    -999.25    0.18650    0.09200   83.73910  108.90140  120.74960    9.94630    8.88060   10.29690    -999.25    0.34750    2.34710  -63.73720
 5350.00000   14.33080   12.66030    -999.25    0.15730    0.16870   77.80280  104.40300  110.14320   14.35820   11.97550   12.75520    -999.25    0.28190    2.38770  -64.07010
 5400.00000   14.83470   12.69770    -999.25    0.21870    0.25030   72.61580   86.68160   93.43500   22.36550   17.57220   19.23390    -999.25    0.25110    2.30080  -64.49430
 5450.00000   12.30400   12.41410    -999.25    0.15610    0.11680   72.06090   98.17610  103.83520   34.64970   26.05800   26.36730    -999.25    0.24930    2.39130  -65.59720
 5500.00000   13.53390   12.43850    -999.25    0.31230    0.23070   77.18650   98.69650  104.14240   17.90170   14.95990   17.10800    -999.25    0.28080    2.11280  -63.32700
 5550.00000   12.97250   12.42780    -999.25    0.25140    0.16620   80.75560  103.85620  104.29720   12.92680   10.80330   12.03520    -999.25    0.34680    2.16630  -63.03840
 5600.00000   11.99760   12.33470    -999.25    0.18810    0.19940   78.34170   96.50610  104.81560   12.18590   10.69630   12.41390    -999.25    0.32900    2.32250  -63.57090
 5650.00000   13.21050   12.61990    -999.25    0.26760    0.20700   80.85540  101.25670  117.41480   10.57500    9.04630   11.20610    -999.25    0.35790    2.21640  -63.57540
 5700.00000   12.96020   12.30520    -999.25    0.30610    0.19180   84.81460  105.27780  117.87220   10.58040    9.07800   11.74170    -999.25    0.39620    2.20370  -63.39140
 5750.00000   13.31980   12.34930    -999.25    0.27860    0.19840   88.04280  113.57140  123.08090   10.46360    9.08530   11.57350    -999.25    0.41050    2.18200  -62.66330
 5800.00000   13.14530   12.44450    -999.25    0.24270    0.21920   86.26590  120.14560  121.99270   12.00940   10.43460   13.51310    -999.25    0.41310    2.23110  -62.48500
 5850.00000   13.46590   12.38260    -999.25    0.30000    0.20020   87.32010  113.97660  124.72830   12.34730   10.69930   13.99800    -999.25    0.42580    2.11380  -61.76990
 5900.00000   13.48060   12.51730    -999.25    0.24280    0.24880   86.60170  112.00160  124.85090   13.30170   11.43950   15.02970    -999.25    0.41500    2.25060  -61.19160
 5950.00000   13.47030   12.48460    -999.25    0.29950    0.25020   83.87770  107.26720  118.18230   12.31230   10.80820   13.48350    -999.25    0.38540    2.15630  -61.55980
 6000.00000   13.87200   12.53370    -999.25    0.31900    0.23900   85.00170  106.91710  124.27460   12.90390   11.17180   14.66640    -999.25    0.39010    2.10310  -60.92930
