~Version ---------------------------------------------------
VERS. 2.0 : CWLS log ASCII Standard -VERSION 2.0
WRAP.  NO : ONE LINE PER DEPTH STEP
~Well ------------------------------------------------------
STRT.M                       300.0 : START DEPTH
STOP.M                      1700.0 : STOP DEPTH
STEP.M                    50.00000 : STEP LENGTH
NULL.                      -999.25 : NULL VALUE
COMP.         TALISMAN ENERGY INC. : COMPANY
WELL. PANCON ET AL NIPISI 4-8-80-7 : WELL
FLD .                       NIPISI : FIELD
LOC .                              : LOCATION
CTRY.                       CANADA : COUNTRY
SRVC.                Dresser Atlas : SERVICE COMPANY
DATE.                  06-Mar-1981 : LOGDATE
PROV.                      Alberta : PROVINCE
UWI .             100040808007W500 : UNIQUE WELL ID
SLAT.WGS84           55.9147415161 : SURFACE LATITUDE
SLON.WGS84         -115.0668487549 : SURFACE LONGITUDE
~Curve Information -----------------------------------------
DEPT    .M                                                         : DEPTH METERS
ACED    .US/M                                                      : ACOUSTIC FROM SONIC LOG
CALSED  .MM                                                        : CALIPER FROM SONIC LOG
CALWS   .MM                                                        : CALIPER [CALSED]
CONDWS  .MMHO                                                      : CONDUCTIVITY [1000/DRESWS]
CORRED  .KG/M3                                                     : DENSITY CORRECTION FROM DENSITY LOG [ADJ TO SONIC LOG]
DCORWS  .KG/M3                                                     : DENSITY CORRECTION [CORRED]
DENWS   .KG/M3                                                     : BULK DENSITY [M=2710 F=1000] [CALCULATED FROM DPOWS]
DPHILSED.V/V                                                       : DENSITY POROSITY [M=2710 F=1000] FROM DENSITY LOG [ADJ TO SONIC LOG]
DPOLSWS .V/V :   DENSITY POROSITY LIMESTONE [M=2710 F=1000 [SPLICE : 167 DPHILSED 1672.5 DPHI2 1676.6 DPHILSED 1703.3 DPHI2 1708.6 DPHILSED. SEEM COMMENTS IN OTHER DATA SECTION]
DRESWS  .OHMM                                                      : DEEP RESISTIVITY [ILDED]
DTWS    .US/M                                                      : DELTA TIME [ACED]
GRSED   .GAPI                                                      : GAMMA RAY FROM SONIC LOG
GRWS    .GAPI                                                      : GAMMA RAY [GRSED]
ILDED   .OHMM                                                      : INDUCTION LOG DEEP RESISTIVITY
ILMED   .OHMM                                                      : INDUCTION LOG MEDIUM RESISTIVITY
MRESWS  .OHMM                                                      : MEDIUM RESISTIVITY [ILMED]
NPHILSED.V/V                                                       : NEUTRON POROSITY LIMESTONE FROM DENSITY LOG [ADJ TO SONIC LOG]
NPOLSWS .V/V                                                       : NEUTRON POROSITY LIMESTONE [NPHILSED]
RHOBED  .KG/M3                                                     : BULK DENSITY FROM DENSITY LOG [ADJ TO SONIC LOG]
SFLED   .OHMM                                                      : SPHERICALLY FOCUSED LOG RESISTIVITY
SPRED   .MV                                                        : SPONTANEOUS POTENTIAL FROM RESISTIVITY LOG
SPWS    .MV                                                        : SPONTANEOUS POTENTIAL [BASELINE 0 MV] [SPRED]
SRESWS  .OHMM                                                      : SHALLOW RESISTIVITY [SFLED]
~Params ----------------------------------------------------
PD  .                         GL : PERMANENT DATUM
EPD .M                    661.35 : ELEVATION PERMANENT DATUM
LMF .                         KB : LOG MEASURED FROM
DAPD.M                       4.1 : FEET ABOVE PERMANENT DATUM
DMF .                         KB : DRILLING MEASURED FROM
EKB .M                    665.45 : KELLY BUSHING
EGL .M                    661.35 : GROUND LEVEL
DATE.                  3-06-1981 : RUN DATE
RUN .                          1 : RUN NUMBER
DD  .M                      1710 : DEPTH DRILLER
DL  .M                    1711.5 : DEPTH LOGGER
BLI .M                    1710.8 : BOTTOM LOG INTERVAL
TLI .M                      1650 : TOP LOG INTERVAL
CBD .M                     187.4 : CASING BOTTOM DRILLER
BS  .MM                      200 : BIT SIZE
BSD .M                      1710 : BIT SIZE AT DEPTH
DFT .                   GEL CHEM : DRILLING FLUID TYPE
DFD .                         17 : DRILLING FLUID DENSITY
DFV .                         60 : DRILLING FLUID VISCOSITY
DFPH.                         10 : DRILLING FLUID PH
DFL .                         11 : DRILLING FLUID LOSS
MSS .                   FLOWLINE : MUD SAMPLE SOURCE
RMS .OHMM                   1.25 : RESISTIVITY MUD SAMPLE
MST .DEGC                     10 : MUD SAMPLE TEMPERATURE
RMF .OHMM                   0.94 : RESISTIVITY MUD FILTRATE SAMPLE
MFST.DEGC                     10 : MUD FILTRATE SAMPLE TEMPERATURE
RMC .OHMM                   1.75 : RESISTIVITY MUD CAKE
MCST.DEGC                     10 : MUD CAKE SAMPLE TEMPERATURE
MFSS.                       MEAS : MUD FILTRATE SAMPLE SOURCE
MCSS.                       MEAS : MUD CAKE SAMPLE SOURCE
RMB .OHMM                   0.59 : RESISTIVITY MUD AT BHT
TCS .HRS                    1500 : TIME CIRCULATED STOPPED
LUN .                     HL6163 : LOGGING UNIT NUMBER
LUL .                      LLOYD : LOGGING UNIT LOCATION
ENGI.                 MURRAY LEE : RECORDING ENGINEER
WITN.                MOLDENHAUER : WITNESSED BY
CLNT.                    A2DTECH : CLIENT CODE
ORIG. 6.5"/100M 16.5"/100M PRINT : ORIGIN OF DATA
UWI .           100040808007W500 : UNIQUE WELL ID
DICO.     A2D Technologies, Inc. : DIGITIZING COMPANY
~Other -----------------------------------------------------
1. TEMPORARY CURVE DPHI2 WAS CALCULATED FROM RHOBED AT M=2710 F=1000; IT WAS USED TO SPLICE WITH DPHILSED TO MAKE DPOWS WHERE DPHILSED WENT "VERTICAL STRAIGHTLINE" AT -.15 V/V OR LESS NEAR WELLBOTTOM, GIVING SLIGHTLY BETTER LOW-END DENSITY POROSITY READINGS
~ASCII -----------------------------------------------------
  300.00000  511.73880  214.16520  214.16520    -999.25    -999.25    -999.25    -999.25    -999.25    -999.25    -999.25  511.73880  138.90810  138.90810    -999.25    -999.25    -999.25    -999.25    -999.25    -999.25    -999.25    -999.25    -999.25    -999.25
  350.00000  419.59140  206.80980  206.80980    -999.25    -999.25    -999.25    -999.25    -999.25    -999.25    -999.25  419.59140   51.89640   51.89640    -999.25    -999.25    -999.25    -999.25    -999.25    -999.25    -999.25    -999.25    -999.25    -999.25
  400.00000  363.69020  208.95420  208.95420    -999.25    -999.25    -999.25    -999.25    -999.25    -999.25    -999.25  363.69020   63.28580   63.28580    -999.25    -999.25    -999.25    -999.25    -999.25    -999.25    -999.25    -999.25    -999.25    -999.25
  450.00000  372.00920  188.42990  188.42990    -999.25    -999.25    -999.25    -999.25    -999.25    -999.25    -999.25  372.00920   57.28180   57.28180    -999.25    -999.25    -999.25    -999.25    -999.25    -999.25    -999.25    -999.25    -999.25    -999.25
  500.00000  383.68310  212.58740  212.58740    -999.25   42.20540   42.20540 2213.41600    0.29040    0.29040    -999.25  383.68310   53.79500   53.79500    -999.25    -999.25    -999.25    0.41430    0.41430 2237.82450    -999.25    -999.25    -999.25    -999.25
  550.00000  340.24480  273.42920  273.42920    -999.25   29.60010   29.60010 2423.40410    0.16760    0.16760    -999.25  340.24480   68.40470   68.40470    -999.25    -999.25    -999.25    0.42330    0.42330 2426.54690    -999.25    -999.25    -999.25    -999.25
  600.00000  293.71180  213.89580  213.89580    -999.25   93.12060   93.12060 2347.82200    0.21180    0.21180    -999.25  293.71180   44.83780   44.83780    -999.25    -999.25    -999.25    0.23460    0.23460 2296.32060    -999.25    -999.25    -999.25    -999.25
  650.00000  225.86010  218.28540  218.28540    -999.25   48.17340   48.17340 2638.52200    0.04180    0.04180    -999.25  225.86010   24.38040   24.38040    -999.25    -999.25    -999.25    0.16390    0.16390 2622.84450    -999.25    -999.25    -999.25    -999.25
  700.00000  246.51130  246.73370  246.73370    -999.25   16.31590   16.31590 2629.97190    0.04680    0.04680    -999.25  246.51130   23.91270   23.91270    -999.25    -999.25    -999.25    0.25540    0.25540 2609.57470    -999.25    -999.25    -999.25    -999.25
  750.00000  243.73200  246.12400  246.12400    -999.25   35.42470   35.42470 2671.69600    0.02240    0.02240    -999.25  243.73200   27.11800   27.11800    -999.25    -999.25    -999.25    0.21680    0.21680 2662.90430    -999.25    -999.25    -999.25    -999.25
  800.00000  177.99510  244.87360  244.87360    -999.25   13.24470   13.24470 2707.94800    0.00120    0.00120    -999.25  177.99510   12.30250   12.30250    -999.25    -999.25    -999.25    0.12480    0.12480 2692.17380    -999.25    -999.25    -999.25    -999.25
  850.00000  177.75390  228.28080  228.28080    -999.25   37.67540   37.67540 2719.06300   -0.00530   -0.00530    -999.25  177.75390    8.58220    8.58220    -999.25    -999.25    -999.25    0.11020    0.11020 2704.62010    -999.25    -999.25    -999.25    -999.25
  900.00000  170.83760  225.41310  225.41310    -999.25   23.99060   23.99060 2713.76200   -0.00220   -0.00220    -999.25  170.83760    6.97560    6.97560    -999.25    -999.25    -999.25    0.09990    0.09990 2720.31050    -999.25    -999.25    -999.25    -999.25
  950.00000  179.10420  220.50290  220.50290    -999.25   66.80670   66.80670 2730.86210   -0.01220   -0.01220    -999.25  179.10420    9.63120    9.63120    -999.25    -999.25    -999.25    0.13750    0.13750 2716.73190    -999.25    -999.25    -999.25    -999.25
 1000.00000  158.81100  215.02300  215.02300    -999.25   35.07280   35.07280 2840.30200   -0.07620   -0.07620    -999.25  158.81100   10.27560   10.27560    -999.25    -999.25    -999.25    0.04670    0.04670 2840.94170    -999.25    -999.25    -999.25    -999.25
 1050.00000  184.53840  199.43610  199.43610    -999.25   56.28810   56.28810 2700.25290    0.00570    0.00570    -999.25  184.53840   12.54240   12.54240    -999.25    -999.25    -999.25    0.29590    0.29590 2688.87230    -999.25    -999.25    -999.25    -999.25
 1100.00000  201.01330  205.69210  205.69210    -999.25   54.09290   54.09290 2681.61400    0.01660    0.01660    -999.25  201.01330   38.30850   38.30850    -999.25    -999.25    -999.25    0.20720    0.20720 2675.91190    -999.25    -999.25    -999.25    -999.25
 1150.00000  184.15060  203.50560  203.50560    -999.25   65.08000   65.08000 2669.30200    0.02380    0.02380    -999.25  184.15060   16.25870   16.25870    -999.25    -999.25    -999.25    0.20380    0.20380 2657.65500    -999.25    -999.25    -999.25    -999.25
 1200.00000  285.00400  248.59690  248.59690    -999.25  164.12000  164.12000 2444.26610    0.15540    0.15540    -999.25  285.00400   71.59420   71.59420    -999.25    -999.25    -999.25    0.38870    0.38870 2441.15580    -999.25    -999.25    -999.25    -999.25
 1250.00000  391.48430  228.63570  228.63570    -999.25  129.64340  129.64340 2143.81910    0.33110    0.33110    -999.25  391.48430   94.52820   94.52820    -999.25    -999.25    -999.25    0.44880    0.44880 2157.35300    -999.25    -999.25    -999.25    -999.25
 1300.00000  238.30280  238.01020  238.01020    -999.25   17.51040   17.51040 2694.95190    0.00880    0.00880    -999.25  238.30280   66.66410   66.66410    -999.25    -999.25    -999.25    0.23850    0.23850 2677.56130    -999.25    -999.25    -999.25    -999.25
 1350.00000  245.08290  216.23960  216.23960    -999.25  155.06060  155.06060 2515.57300    0.11370    0.11370    -999.25  245.08290   55.70780   55.70780    -999.25    -999.25    -999.25    0.17410    0.17410 2525.86770    -999.25    -999.25    -999.25    -999.25
 1400.00000  262.53020  207.36350  207.36350    -999.25   94.33420   94.33420 2393.47900    0.18510    0.18510    -999.25  262.53020   61.04530   61.04530    -999.25    -999.25    -999.25    0.35600    0.35600 2396.89750    -999.25    -999.25    -999.25    -999.25
 1450.00000  346.37800  248.25510  248.25510    -999.25  129.55770  129.55770 2416.05100    0.17190    0.17190    -999.25  346.37800  101.82180  101.82180    -999.25    -999.25    -999.25    0.39820    0.39820 2425.11110    -999.25    -999.25    -999.25    -999.25
 1500.00000  296.44390  215.78520  215.78520    -999.25  172.45740  172.45740 2381.50900    0.19210    0.19210    -999.25  296.44390   88.13830   88.13830    -999.25    -999.25    -999.25    0.38360    0.38360 2371.52930    -999.25    -999.25    -999.25    -999.25
 1550.00000  194.05020  213.67930  213.67930    -999.25    6.53490    6.53490 2735.99190   -0.01520   -0.01520    -999.25  194.05020   30.17910   30.17910    -999.25    -999.25    -999.25    0.10610    0.10610 2732.35450    -999.25    -999.25    -999.25    -999.25
 1600.00000  212.48340  209.99480  209.99480    -999.25   43.00950   43.00950 2765.91700   -0.03270   -0.03270    -999.25  212.48340   69.09780   69.09780    -999.25    -999.25    -999.25    0.18910    0.18910 2757.23730    -999.25    -999.25    -999.25    -999.25
 1650.00000  262.25770  219.53400  219.53400  195.05340   16.48040   16.48040 2684.17900    0.01510    0.01510    5.12680  262.25770  101.16710  101.16710    5.12680    6.28630    6.28630    0.27710    0.27710 2671.74390    7.26870  -19.96160   -0.35350    7.26870
 1700.00000  231.40220  232.35990  232.35990  442.71300   22.75430   22.75430 2546.35300    0.09570    0.09570    2.25880  231.40220   89.03180   89.03180    2.25880    2.52170    2.52170    0.27720    0.27720 2519.56350    4.31080  -38.50790  -18.75120    4.31080
