~Version ---------------------------------------------------
VERS.      2.0 : CWLS log ASCII Standard -VERSION 2.0
WRAP.       NO : One line per depth step
CREA. 09/23/14 : LAS Creation Date
~Well ------------------------------------------------------
STRT.M                      450.0 : START DEPTH
STOP.M                     5050.0 : STOP DEPTH
STEP.M                   50.00000 : STEP LENGTH
NULL.                     -999.25 : NULL VALUE
COMP. SHELL CANADA RESOURCES LTD. : COMPANY
WELL.   SHELL STOLBERG 8-23-43-16 : WELL
FLD .                             : FIELD
LOC .                             : LOCATION
CTRY.                      CANADA : COUNTRY
SRVC.                Schlumberger : SERVICE COMPANY
DATE.                 31-Dec-1980 : LOGDATE
PROV.                     Alberta : PROVINCE
UWI .            100082304316W500 : UNIQUE WELL ID
SLAT.WGS84               52.72038 : SURFACE LATITUDE
SLON.WGS84              -116.2025 : SURFACE LONGITUDE
~Curve Information -----------------------------------------
DEPT     .M      : DEPTH METER
CALDED   .MM     : CALIPER FROM DENSITY LOG [ADJ. TO DILSFL LOG]
CALDRED  .MM     : CALIPER FROM DENSITY LOG ( REPEAT SECTION) [ADJ. TO DILSFL LOG]
CALSED   .MM     : CALIPER FROM SONIC LOG [ADJ. TO DILSFL LOG]
CALWS    .MM     : CALIPER [CALSED SPL. TO CALDED FROM (3800.6M-3811.2M)]
CILDED   .MMHO   : CONDUCTIVITY FROM DILSFL LOG
CONDWS   .MMHO   : CONDUCTIVITY [1000/DRESWS]
DCORED   .KG/M3  : DENSITY CORRECTION FROM DENSITY LOG [ADJ. TO DILSFL LOG]
DCORWS   .KG/M3  : DENSITY CORRECTION [DCORED]
DENWS    .KG/M3  : FORMATION BULK DENSITY [RHOBED SPL. TO CALC. DPHILSRED (F=2710, F=1000) FROM (3832 M - 3842.7 M)]
DPHILSED .V/V    : DENSITY POROSITY LIMESTONE [M=2710, F=1000] FROM DENSITY LOG [ADJ. TO DILSFL LOG]
DPHILSRED.V/V    : DENSITY POROSITY LIMESTONE [M=2710, F=1000] FROM DENSITY LOG ( REPEAT SECTION) [ADJ. TO DILSFL LOG]
DPHISSED .V/V    : DENSITY POROSITY SANDSTONE [M=2650, F=1000] FROM DENSITY LOG [ADJ. TO DILSFL LOG]
DPOLSWS  .V/V    : DENSITY POROSITY LIMESTONE [CALC. FROM DENWS, M=2710, F=1000]
DRESWS   .OHMM   : DEEP RESISTIVITY [ILDED SPL. TO ILDRED FROM (3833 M - 3854 M) & SPL. TO {1000/CILDED IF ILDED <1, ILDED  FROM (5018M TO FR )}]
DTED     .US/M   : DELTA-T FROM SONIC LOG [ADJ. TO DILSFL LOG]
DTWS     .US/M   : COMPRESSIONAL SONIC [DTED]
GRDED    .GAPI   : GAMMA RAY FROM DENSITY LOG [ADJ. TO DILSFL LOG]
GRDRED   .GAPI   : GAMMA RAY FROM DENSITY LOG ( REPEAT SECTION) [ADJ. TO DILSFL LOG]
GRR1ED   .GAPI   : GAMMA RAY FROM DLL LOG [ADJ. TO DILSFL LOG]
GRRED    .GAPI   : GAMMA RAY FROM DILSFL LOG
GRRRED   .GAPI   : GAMMA RAY FROM DILSFL LOG ( REPEAT SECTION) [ADJ. TO GRRED]
GRSED    .GAPI   : GAMMA RAY FROM SONIC LOG [ADJ. TO DILSFL LOG]
GRWS     .GAPI   : GAMMA RAY [GRSED SPL. TO GRDED (3790.5 M - 3809.5 M) & SPL. TO GRR1ED FROM (4607 M - 4620 M)]
ILDED    .OHMM   : DEEP INDUCTION RESISTIVITY FROM DILSFL LOG
ILDRED   .OHMM   : DEEP INDUCTION RESISTIVITY FROM DILSFL LOG ( REPEAT SECTION) [ADJ. TO ILDED]
ILMED    .OHMM   : MEDIUM INDUCTION RESISTIVITY FROM DILSFL LOG
ILMRED   .OHMM   : MEDIUM INDUCTION RESISTIVITY FROM DILSFL LOG( REPEAT SECTION) [ADJ. TO ILMED]
LLDED    .OHMM   : DEEP LATEROLOG RESISTIVITY FROM DLL LOG [ADJ. TO DILSFL LOG]
LLSED    .OHMM   : SHALLOW LATEROLOG RESISTIVITY FROM DLL LOG [ADJ. TO DILSFL LOG]
MRESWS   .OHMM   : MEDIUM RESISTIVITY [ILMED SPL. TO ILMRED FROM (3837 M - 3852 M)]
NPHILSED .V/V    : NEUTRON POROSITY LIMESTONE FROM DENSITY LOG [ADJ. TO DILSFL LOG]
NPHILSRED.V/V    : NEUTRON POROSITY LIMESTONE FROM DENSITY LOG ( REPEAT SECTION) [ADJ. TO DILSFL LOG]
NPHISSED .V/V    : NEUTRON POROSITY SANDSTONE FROM DENSITY LOG [ADJ. TO DILSFL LOG]
NPOLSWS  .V/V    : NEUTRON POROSITY LIMESTONE [NPHISSED CONVERTED INTO LIMESTONE MATRIX & SPL. TO NPHILSED @ 3600 M & SPL. TO NPHILSRED@ (3818 M - 3849 M)]
RHOBED   .KG/M3  : BULK DENSITY FROM DENSITY LOG [ADJ. TO DILSFL LOG]
SFLED    .OHMM   : SPHERICALLY FOCUSED RESISTIVITY FROM DILSFL LOG
SFLRED   .OHMM   : SPHERICALLY FOCUSED RESISTIVITY FROM DILSFL LOG ( REPEAT SECTION) [ADJ. TO SFLED]
SRESWS   .OHMM   : SHALLOW RESISTIVITY [SFLED SPL. TO SFLRED FROM (3833 M - 3852 M)]
~Params ----------------------------------------------------
PD  .                         GL : PERMANENT DATUM
EPD .M                      1268 : ELEVATION PERMANENT DATUM
LMF .                         KB : LOG MEASURED FROM
DAPD.M                        10 : FEET ABOVE PERMANENT DATUM
DMF .                         KB : DRILLING MEASURED FROM
EKB .M                      1278 : KELLY BUSHING
EGL .M                      1268 : GROUND LEVEL
DATE.                   12/31/80 : RUN DATE
RUN .                          3 : RUN NUMBER
DD  .M                    5075.6 : DEPTH DRILLER
DL  .M                      5070 : DEPTH LOGGER
BLI .M                      5068 : BOTTOM LOG INTERVAL
TLI .M                      3810 : TOP LOG INTERVAL
CS  .MM                      340 : CASING SIZE
CBD .M                      3810 : CASING BOTTOM DRILLER
CBL .M                      3810 : CASING BOTTOM LOGGER
BS  .MM                      215 : BIT SIZE
BSD .M                    5075.6 : BIT SIZE AT DEPTH
DFT .                 GEL BARITE : DRILLING FLUID TYPE
DFD .                       1250 : DRILLING FLUID DENSITY
DFV .                        133 : DRILLING FLUID VISCOSITY
DFPH.                       10.5 : DRILLING FLUID PH
DFL .                          9 : DRILLING FLUID LOSS
MSS .                   FLOWLINE : MUD SAMPLE SOURCE
RMS .OHMM                    0.8 : RESISTIVITY MUD SAMPLE
MST .DEGC                   24.4 : MUD SAMPLE TEMPERATURE
MFSS.               FILTER PRESS : MUD FILTRATE SAMPLE SOURCE
MCSS.               FILTER PRESS : MUD CAKE SAMPLE SOURCE
RMB .OHMM                   0.21 : RESISTIVITY MUD AT BHT
TCS .HRS                     930 : TIME CIRCULATED STOPPED
TLAB.HRS                     400 : TIME LOGGER AT BOTTOM
LUN .                       8063 : LOGGING UNIT NUMBER
LUL .                         RD : LOGGING UNIT LOCATION
ENGI.                JASTRZEBSKI : RECORDING ENGINEER
WITN.                        WAY : WITNESSED BY
CLNT.                    A2DTECH : CLIENT CODE
ORIG. 6.5"/100M 16.5"/100M PRINT : ORIGIN OF DATA
UWI .           100082304316W500 : UNIQUE WELL ID
DICO.     A2D Technologies, Inc. : DIGITIZING COMPANY
~Other -----------------------------------------------------
CNFD-DILSFL-DLL-BCS LOG RUN
RUN#2 : BCS-GR-DILSFL LOG RUN IM COMBOINATION
CNL RUN ONLY FROM 3761 M TO T.D
~ASCII -----------------------------------------------------
# ...
 1400.00000  315.62620    -999.25  323.00800  323.00800    -999.25   29.49880   -4.66570   -4.66570 2468.85470    -999.25    -999.25    0.10970    0.14100   33.89970  228.77670  228.77670   67.99770    -999.25    -999.25   52.01820    -999.25   55.83070   55.83070   33.89970    -999.25   28.52310    -999.25    -999.25    -999.25   28.52310    -999.25    -999.25    -999.25    -999.25 2468.85470    -999.25    -999.25    -999.25
 1450.00000  315.98440    -999.25  324.25660  324.25660    -999.25   27.79650  -10.47370  -10.47370 2540.16890    -999.25    -999.25    0.06930    0.09930   35.97580  232.78690  232.78690   55.11550    -999.25    -999.25   41.76170    -999.25   44.81010   44.81010   35.97580    -999.25   34.02140    -999.25    -999.25    -999.25   34.02140    -999.25    -999.25    -999.25    -999.25 2540.16890    -999.25    -999.25    -999.25
 1500.00000  328.15770    -999.25  313.94630  313.94630    -999.25   42.76170   -9.89230   -9.89230 2587.76100    -999.25    -999.25    0.03550    0.07150   23.38540  212.97960  212.97960   54.30880    -999.25    -999.25   47.21730    -999.25   42.16420   42.16420   23.38540    -999.25   21.26230    -999.25    -999.25    -999.25   21.26230    -999.25    -999.25    -999.25    -999.25 2587.76100    -999.25    -999.25    -999.25
 1550.00000  340.01080    -999.25  320.61030  320.61030    -999.25   50.63860  -16.33740  -16.33740 2574.04250    -999.25    -999.25    0.03310    0.07950   19.74780  260.25070  260.25070   79.93910    -999.25    -999.25   56.90370    -999.25   74.84640   74.84640   19.74780    -999.25   20.64190    -999.25    -999.25    -999.25   20.64190    -999.25    -999.25    -999.25    -999.25 2574.04250    -999.25    -999.25    -999.25
 1600.00000  316.03750    -999.25  313.40490  313.40490    -999.25   72.10690   -8.33060   -8.33060 2563.49950    -999.25    -999.25    0.05180    0.08570   13.86830  259.29570  259.29570   85.67860    -999.25    -999.25   65.14860    -999.25   68.89200   68.89200   13.86830    -999.25   13.17470    -999.25    -999.25    -999.25   13.17470    -999.25    -999.25    -999.25    -999.25 2563.49950    -999.25    -999.25    -999.25
 1650.00000  312.61670    -999.25  320.93570  320.93570    -999.25   38.41560  -24.97640  -24.97640 2567.41940    -999.25    -999.25    0.04870    0.08340   26.03110  220.86830  220.86830   52.13070    -999.25    -999.25   44.81340    -999.25   46.80170   46.80170   26.03110    -999.25   23.81030    -999.25    -999.25    -999.25   23.81030    -999.25    -999.25    -999.25    -999.25 2567.41940    -999.25    -999.25    -999.25
 1700.00000  314.33230    -999.25  325.26210  325.26210    -999.25   64.41850   -3.22060   -3.22060 2548.26290    -999.25    -999.25    0.06510    0.09460   15.52350  251.58260  251.58260   73.03840    -999.25    -999.25   58.70310    -999.25   62.29860   62.29860   15.52350    -999.25   16.35860    -999.25    -999.25    -999.25   16.35860    -999.25    -999.25    -999.25    -999.25 2548.26290    -999.25    -999.25    -999.25
 1750.00000  324.52650    -999.25  319.95880  319.95880    -999.25   66.04500  -10.15740  -10.15740 2492.41630    -999.25    -999.25    0.09370    0.12720   15.14120  267.86710  267.86710   85.68900    -999.25    -999.25   68.20740    -999.25   66.59210   66.59210   15.14120    -999.25   15.74640    -999.25    -999.25    -999.25   15.74640    -999.25    -999.25    -999.25    -999.25 2492.41630    -999.25    -999.25    -999.25
 1800.00000  323.10260    -999.25  317.45020  317.45020    -999.25   61.62110  -39.31980  -39.31980 2566.52760    -999.25    -999.25    0.05380    0.08390   16.22820  241.18080  241.18080   99.37460    -999.25    -999.25   66.95220    -999.25   68.25070   68.25070   16.22820    -999.25   18.31410    -999.25    -999.25    -999.25   18.31410    -999.25    -999.25    -999.25    -999.25 2566.52760    -999.25    -999.25    -999.25
 1850.00000  326.05230    -999.25  313.79580  313.79580    -999.25   44.23530   -9.24680   -9.24680 2550.71240    -999.25    -999.25    0.06170    0.09320   22.60640  243.24970  243.24970   75.68790    -999.25    -999.25   60.19380    -999.25   61.52700   61.52700   22.60640    -999.25   23.85650    -999.25    -999.25    -999.25   23.85650    -999.25    -999.25    -999.25    -999.25 2550.71240    -999.25    -999.25    -999.25
 1900.00000  339.14650    -999.25  325.12900  325.12900    -999.25  184.15530   -2.39210   -2.39210 2440.07010    -999.25    -999.25    0.13180    0.15790    5.43020  298.88150  298.88150  208.45790    -999.25    -999.25  142.25950    -999.25  141.08270  141.08270    5.43020    -999.25    6.11920    -999.25    -999.25    -999.25    6.11920    -999.25    -999.25    -999.25    -999.25 2440.07010    -999.25    -999.25    -999.25
 1950.00000  325.88850    -999.25  322.63130  322.63130    -999.25   29.05310   -1.60850   -1.60850 2574.03610    -999.25    -999.25    0.03200    0.07950   34.41970  221.62240  221.62240   80.30380    -999.25    -999.25   53.96140    -999.25   63.55660   63.55660   34.41970    -999.25   41.39770    -999.25    -999.25    -999.25   41.39770    -999.25    -999.25    -999.25    -999.25 2574.03610    -999.25    -999.25    -999.25
 2000.00000  324.21110    -999.25  318.72490  318.72490    -999.25   83.82510   -6.63990   -6.63990 2540.28610    -999.25    -999.25    0.06710    0.09920   11.92960  254.67290  254.67290   84.59430    -999.25    -999.25   62.36700    -999.25   69.17870   69.17870   11.92960    -999.25   14.50070    -999.25    -999.25    -999.25   14.50070    -999.25    -999.25    -999.25    -999.25 2540.28610    -999.25    -999.25    -999.25
 2050.00000  331.86890    -999.25  318.63510  318.63510    -999.25   29.80440  -37.00840  -37.00840 2582.78390    -999.25    -999.25    0.04370    0.07440   33.55210  217.00300  217.00300   47.16750    -999.25    -999.25   30.59040    -999.25   33.94790   33.94790   33.55210    -999.25   37.91260    -999.25    -999.25    -999.25   37.91260    -999.25    -999.25    -999.25    -999.25 2582.78390    -999.25    -999.25    -999.25
 2100.00000  320.21800    -999.25  315.95460  315.95460    -999.25   20.83770   -5.70430   -5.70430 2544.65410    -999.25    -999.25    0.05840    0.09670   47.98990  212.93870  212.93870   45.17460    -999.25    -999.25   34.45410    -999.25   35.62440   35.62440   47.98990    -999.25   41.02430    -999.25    -999.25    -999.25   41.02430    -999.25    -999.25    -999.25    -999.25 2544.65410    -999.25    -999.25    -999.25
 2150.00000  418.04500    -999.25  335.00110  335.00110    -999.25   50.20480 -132.62610 -132.62610 2453.48730    -999.25    -999.25    0.11790    0.15000   19.91840  258.86610  258.86610   61.02220    -999.25    -999.25   46.94720    -999.25   49.86440   49.86440   19.91840    -999.25   21.24580    -999.25    -999.25    -999.25   21.24580    -999.25    -999.25    -999.25    -999.25 2453.48730    -999.25    -999.25    -999.25
 2200.00000  334.22640    -999.25  316.66020  316.66020    -999.25    5.55870  -21.78140  -21.78140 2669.79320    -999.25    -999.25   -0.00670    0.02350  179.89770  188.26330  188.26330   38.41870    -999.25    -999.25   30.83810    -999.25   38.01090   38.01090  179.89770    -999.25  191.85290    -999.25    -999.25    -999.25  191.85290    -999.25    -999.25    -999.25    -999.25 2669.79320    -999.25    -999.25    -999.25
 2250.00000  345.35770    -999.25  334.34830  334.34830    -999.25   69.55070  -11.20110  -11.20110 2592.24460    -999.25    -999.25    0.03870    0.06890   14.37800  247.99390  247.99390   72.01550    -999.25    -999.25   52.24670    -999.25   54.26600   54.26600   14.37800    -999.25   15.09650    -999.25    -999.25    -999.25   15.09650    -999.25    -999.25    -999.25    -999.25 2592.24460    -999.25    -999.25    -999.25
 2300.00000  329.15700    -999.25  324.48300  324.48300    -999.25   89.91590   -5.69800   -5.69800 2572.66650    -999.25    -999.25    0.04670    0.08030   11.12150  254.23390  254.23390   63.85570    -999.25    -999.25   49.38510    -999.25   51.36950   51.36950   11.12150    -999.25   12.04970    -999.25    -999.25    -999.25   12.04970    -999.25    -999.25    -999.25    -999.25 2572.66650    -999.25    -999.25    -999.25
