~Version ---------------------------------------------------
VERS. 2.0 : CWLS log ASCII Standard -VERSION 2.0
WRAP.  NO : ONE LINE PER DEPTH STEP
~Well ------------------------------------------------------
STRT.F                         300.0 : START DEPTH
STOP.F                       17800.0 : STOP DEPTH
STEP.F                      50.00000 : STEP LENGTH
NULL.                        -999.25 : NULL VALUE
COMP.           BPOG OPERATIONS LTD. : COMPANY
WELL. BP MOBIL CREE ROUGH 4-21-38-12 : WELL
FLD .                                : FIELD
LOC .                                : LOCATION
CTRY.                         CANADA : COUNTRY
SRVC.                   Schlumberger : SERVICE COMPANY
DATE.                    26-Oct-1973 : LOGDATE
PROV.                        Alberta : PROVINCE
UWI .               100042103812W500 : UNIQUE WELL ID
SLAT.WGS84                  52.27739 : SURFACE LATITUDE
SLON.WGS84                 -115.6641 : SURFACE LONGITUDE
~Curve Information -----------------------------------------
DEPT.F    0   1   0  0 : 1 MEASURED DEPTH
NEUT.CU   35 330 22 00 : NEUTRON
GRN .CU   35 310 22 00 : GAMMA RAY FROM GRN LOG
ILD .OHMM 07 120 46 00 : INDUCTION DEEP RESISTIVITY
ILM .OHMM 07 120 44 00 : INDUCTION MEDIUM RESISTIVITY
LL8 .OHMM 07 220 08 00 : LATEROLOG 8
SPR .MV   07 010 01 00 : SPONTANEOUS POTENTIAL FROM RESISTIVITY LOG
CILD.MMHO 05 110 46 00 : INDUCTION DEEP CONDUCTIVITY
SN  .OHMM 05 040 16 00 : SHORT NORMAL RESISTIVITY
CALS.IN   60 280 50 00 : CALIPER FROM SONIC LOG
DT  .US/F 60 500 00 00 : DELTA-T (INTERVAL TRANSIT TIME)
GRS .GAPI 60 310 01 00 : GAMMA RAY FROM SONIC LOG
~Params ----------------------------------------------------
PD  .                     GL : PERMANENT DATUM
EPD .FT                 5371 : ELEVATION PERMANENT DATUM
LMF .                     KB : LOG MEASURED FROM
DAPD.FT                   24 : FEET ABOVE PERMANENT DATUM
EKB .FT                 5395 : KELLY BUSHING
EGL .FT                 5371 : GROUND LEVEL
DATE.               10/26/73 : RUN DATE
RUN .                      2 : RUN NUMBER
DD  .FT                17815 : DEPTH DRILLER
DL  .FT                17792 : DEPTH LOGGER
BLI .FT                17791 : BOTTOM LOG INTERVAL
TLI .FT                13299 : TOP LOG INTERVAL
CBD .FT                13265 : CASING BOTTOM DRILLER
CBL .FT                13299 : CASING BOTTOM LOGGER
BS  .IN                 8.25 : BIT SIZE
BSD .FT                17815 : BIT SIZE AT DEPTH
DFT .               GEL CHEM : DRILLING FLUID TYPE
DFD .                    8.9 : DRILLING FLUID DENSITY
DFV .                     41 : DRILLING FLUID VISCOSITY
DFPH.                    9.5 : DRILLING FLUID PH
DFL .                   11.9 : DRILLING FLUID LOSS
RMS .OHMM               1.05 : RESISTIVITY MUD SAMPLE
MST .DEGF                 72 : MUD SAMPLE TEMPERATURE
RMF .OHMM               0.76 : RESISTIVITY MUD FILTRATE SAMPLE
MFST.DEGF                 70 : MUD FILTRATE SAMPLE TEMPERATURE
RMB .OHMM               0.31 : RESISTIVITY MUD AT BHT
TCS .HRS                   5 : TIME CIRCULATED STOPPED
LUN .                   7640 : LOGGING UNIT NUMBER
LUL .                     RD : LOGGING UNIT LOCATION
ENGI.           NIXON KOVACS : RECORDING ENGINEER
WITN.      WILLIAMS COSTELLO : WITNESSED BY
CLNT.                A2DTECH : CLIENT CODE
ORIG.            2" 5" PRINT : ORIGIN OF DATA
UWI .       100042103812W500 : UNIQUE WELL ID
DICO. A2D Technologies, Inc. : DIGITIZING COMPANY
~Other -----------------------------------------------------
~ASCII -----------------------------------------------------
# ...
 15450.00000  765.87790   11.38030  143.91440    -999.25    -999.25  -32.97760    8.03260  176.22960    8.68260   48.59970   11.81640
 15500.00000  612.50230   10.74510  193.86920    -999.25    -999.25  -26.10990    6.23650  120.06100    8.64940   48.99120    8.63030
 15550.00000  415.01530   13.73080  132.57140    -999.25    -999.25  -31.99810   10.17040  149.19590    9.21840   50.10110    9.34600
 15600.00000  467.72630   18.44810  208.28580    -999.25    -999.25  -38.63140    6.21390  120.72880    8.93360   48.07270   15.77040
 15650.00000  317.20050   10.60200  140.15260    -999.25    -999.25  -58.56050    8.16020    -999.25    9.11140   47.91900   11.14530
 15700.00000  509.13200   10.68010  209.13120    -999.25    -999.25  -66.35240    6.35000  126.64070    9.18370   58.36770    7.30960
 15750.00000  452.85330   12.24090   64.41010    -999.25    -999.25  -72.54490   16.40080   70.63710    8.23150   50.80900    6.39120
 15800.00000  479.44170   14.22100   64.13650    -999.25    -999.25  -66.06060   16.46240   66.19020    8.31860   48.84750    6.17770
 15850.00000  463.01040   11.61790   87.42840    -999.25    -999.25  -67.72870   12.29110   98.27770    8.86730   48.97560   12.39830
 15900.00000  475.29910   12.73950   70.41070    -999.25    -999.25  -66.06830   15.51560   99.21160    8.05690   56.13720   11.25610
 15950.00000  590.93460   10.33110  199.21340    -999.25    -999.25  -48.95920    5.87190  133.01960    8.74690   60.40140    7.51830
 16000.00000  896.30930   10.52120  297.24480    -999.25    -999.25  -44.47410    4.53990  172.67060    8.25560   49.94210    9.44270
 16050.00000    -999.25    -999.25  194.23000    -999.25    -999.25  -34.25150    6.10410  143.70990    8.56940   49.51240   11.69240
 16100.00000    -999.25    -999.25  557.09400    -999.25    -999.25  -37.27680    2.65850  132.38600    8.78680   54.64850    7.78810
 16150.00000    -999.25    -999.25   86.89580    -999.25    -999.25  -41.69200   14.73040   64.79300    9.65120   53.37140   12.41990
 16200.00000    -999.25    -999.25 1096.40030    -999.25    -999.25  -56.49920   -2.99780   63.39880   10.03640   64.79660    9.45170
 16250.00000    -999.25    -999.25   42.17190    -999.25    -999.25  -71.76170   24.60710   70.20010    8.21690   49.12020    5.73820
 16300.00000    -999.25    -999.25  171.77180    -999.25    -999.25  -65.10760    7.09750  113.87070    9.07100   46.26900   13.23380
 16350.00000    -999.25    -999.25   95.22870    -999.25    -999.25  -55.63890   11.65440   96.06350    9.60140   53.15380   19.24440
 16400.00000    -999.25    -999.25  307.27350    -999.25    -999.25  -31.10960    4.13590  107.35140    9.03640   46.33580   20.63940
 16450.00000    -999.25    -999.25   55.53640    -999.25    -999.25  -16.43140   19.06710   51.62270    9.17900   52.42680   45.62200
 16500.00000    -999.25    -999.25   14.80370    -999.25    -999.25  -25.76680   63.63540   16.88720    9.26290   66.17760   72.39270
 16550.00000    -999.25    -999.25   21.02910    -999.25    -999.25  -21.95530   52.73940   20.31310    8.57640   59.40290   77.11180
 16600.00000    -999.25    -999.25   15.70900    -999.25    -999.25  -23.24520   61.04270   17.36090    8.63600   60.95720   71.43050
 16650.00000    -999.25    -999.25   16.04950    -999.25    -999.25  -31.56570   64.43830   15.79580    8.98640   60.22770   66.34530
 16700.00000    -999.25    -999.25   11.76930    -999.25    -999.25  -35.45450   88.97680   11.60520    9.26230   64.19510   76.17140
 16750.00000    -999.25    -999.25   15.23460    -999.25    -999.25  -31.75640   71.53840   13.65530    9.31720   62.19070   73.22980
 16800.00000    -999.25    -999.25   13.94400    -999.25    -999.25  -41.59340   73.24080   12.38640    9.29840   64.36110   89.34630
 16850.00000    -999.25    -999.25   12.04030    -999.25    -999.25  -29.35550   87.21420   11.40950    9.49460   67.09070   97.40600
 16900.00000    -999.25    -999.25   15.03860    -999.25    -999.25  -10.45280   69.29470   13.72470    9.40580   65.46190   96.13950
 16950.00000    -999.25    -999.25   17.31630    -999.25    -999.25  -10.31420   60.01370   15.59580    9.42490   64.57870   95.19900
 17000.00000    -999.25    -999.25   15.05870    -999.25    -999.25  -27.64170   72.53640   13.36010    9.25980   66.33920   83.76420
 17050.00000    -999.25    -999.25  653.26250    -999.25    -999.25  -31.86040    2.02160  145.14590    8.30480   52.11570   28.63490
 17100.00000    -999.25    -999.25  477.10650    -999.25    -999.25  -37.99730    2.48390  126.86270    8.60170   53.72750   41.51320
 17150.00000    -999.25    -999.25  662.64050    -999.25    -999.25  -27.14380    2.08830  130.47660    8.63910   52.35640   21.93560
 17200.00000    -999.25    -999.25  379.83620    -999.25    -999.25  -13.54440    3.21580    -999.25    8.77750   50.12280   22.20800
 17250.00000    -999.25    -999.25  227.89310    -999.25    -999.25  -18.90780    5.00100   97.64390    8.57190   65.67260   91.18260
 17300.00000    -999.25    -999.25   19.87250    -999.25    -999.25  -18.43140   47.51630   21.32680    8.58440   57.26800   46.30770
 17350.00000    -999.25    -999.25   38.07180    -999.25    -999.25  -14.07090   26.52630   35.02720    8.92840   54.85320   33.85880
 17400.00000    -999.25    -999.25   67.35600    -999.25    -999.25  -16.00470   15.58000   39.14780    8.64350   52.59100   29.82030
 17450.00000    -999.25    -999.25    3.76670    -999.25    -999.25  -20.57350  265.68710    4.58860    9.09430   70.88330   83.68560
 17500.00000    -999.25    -999.25  375.39940    -999.25    -999.25  -21.73610    3.11380   72.62080    9.25670   63.59180   13.71930
 17550.00000    -999.25    -999.25   51.09220    -999.25    -999.25  -15.48540   21.58950   28.75390    8.53870   52.32310   26.57550
 17600.00000    -999.25    -999.25   56.79170    -999.25    -999.25  -19.89240   18.26870   33.82350    8.50900   54.26830   34.17560
 17650.00000    -999.25    -999.25   26.45370    -999.25    -999.25  -29.47100   39.25000   40.64930    8.57070   60.48340   58.49510
 17700.00000    -999.25    -999.25  452.63610    -999.25    -999.25  -51.45720    2.83980  123.20990    8.82090   52.59210   27.13220
 17750.00000    -999.25    -999.25  556.53050    -999.25    -999.25  -35.83000    2.19300  112.37800    8.87890   48.92340   17.40870
 17800.00000    -999.25    -999.25   61.38350    -999.25    -999.25  -25.35000   17.02420  159.23510    8.09110   52.66490    -999.25
