~Version ---------------------------------------------------
VERS.      2.0 : CWLS log ASCII Standard -VERSION 2.0
WRAP.       NO : One line per depth step
CREA. 08/16/13 : LAS Creation Date
~Well ------------------------------------------------------
STRT.M                         400.0 : START DEPTH
STOP.M                        2700.0 : STOP DEPTH
STEP.M                      50.00000 : STEP LENGTH
NULL.                        -999.25 : NULL VALUE
COMP.            ROXY PETROLEUM LTD. : COMPANY
WELL. ROXY MURPHY PRAIRIE RIVER 1-15 : WELL
FLD .                                : FIELD
LOC .                                : LOCATION
CTRY.                         CANADA : COUNTRY
SRVC.                        Unknown : SERVICE COMPANY
DATE.                    15-Mar-1984 : LOGDATE
PROV.                        Alberta : PROVINCE
UWI .               100011506915W500 : UNIQUE WELL ID
SLAT.WGS84                  54.96893 : SURFACE LATITUDE
SLON.WGS84                 -116.1868 : SURFACE LONGITUDE
~Curve Information -----------------------------------------
DEPT    .M      : DEPTH METER
CALDED  .MM     : CALIPER FROM DENSITY LOG [ADJ. TO RESISTIVITY LOG]
CALSED  .MM     : CALIPER FROM SONIC LOG
CALWS   .MM     : CALIPER [CALSED SPL. TO CALDED @ 2698M]
CONDWS  .MMHO   : CONDUCTIVITY [1000/DRESWS]
DCORWS  .KG/M3  : DENSITY CORRECTION [DRHOED]
DENWS   .KG/M3  : FORMATION BULK DENSITY [CALC. FROM DPOLSWS M=2710,F=1000]
DPHILSED.V/V    : DENSITY POROSITY LIMESTONE [M=2710,F=1000] FROM DENSITY LOG [ADJ. TO RESISTIVITY LOG]
DPHISSED.V/V    : DENSITY POROSITY SANDSTONE [M=2650,F=1000] FROM DENSITY LOG [ADJ. TO RESISTIVITY LOG]
DPOLSWS .V/V    : DENSITY POROSITY LIMESTONE [DPHISSED CONVERTED TO LIMESTONE MATRIX, M=2710,F=1000, SPL. TO DPHILSED @ 1326M]
DRESWS  .OHMM   : DEEP RESISTIVITY [ILDED]
DRHOED  .KG/M3  : BULK DENSITY CORRECTION FROM DENSITY LOG [ADJ. TO RESISTIVITY LOG]
DTED    .US/M   : TRANSIT TIME FROM SONIC LOG
DTWS    .US/M   : COMPRESSIONAL SONIC [DTED]
GRDED   .GAPI   : GAMMA RAY FROM DENSITY LOG [ADJ. TO RESISTIVITY LOG]
GRSED   .GAPI   : GAMMA RAY FROM SONIC LOG
GRWS    .GAPI   : GAMMA RAY [GRSED SPL. TO GRDED @ 2688M]
ILDED   .OHMM   : DEEP INDUCTION FROM RESISTIVITY LOG
ILMED   .OHMM   : MEDIUM INDUCTION FROM RESISTIVITY LOG
MRESWS  .OHMM   : MEDIUM RESISTIVITY [ILMED]
NPHILSED.V/V    : NEUTRON POROSITY LIMESTONE FROM DENSITY LOG [ADJ. TO RESISTIVITY LOG]
NPHISSED.V/V    : NEUTRON POROSITY SANDSTONE FROM DENSITY LOG [ADJ. TO RESISTIVITY LOG]
NPOLSWS .V/V    : NEUTRON POROSITY LIMESTONE [NPHISSED MATRIX CONVERSION FOR LIMESTONE (SLB) SPL. TO NPHILSED @ 1326M]
PEFED   .B/E    : PHOTOELECTRIC FACTOR FROM DENSITY LOG [ADJ. TO RESISTIVITY LOG]
PEFWS   .B/E    : PHOTOELECTRIC FACTOR [PEFED]
RHOBED  .KG/M3  : BULK DENSITY FROM DENSITY LOG [ADJ. TO RESISTIVITY LOG]
SFLUED  .OHMM   : SHALLOW FOCUS FROM RESISTIVITY LOG
SPRED   .MV     : SPONTANEOUS POTENTIAL FROM RESISTIVITY LOG
SPWS    .MV     : SPONTANEOUS POTENTIAL [BASELINE 0 MV, SPRED]
SRESWS  .OHMM   : SHALLOW RESISTIVITY [SFLUED]
~Params ----------------------------------------------------
PD  .                         GL : PERMANENT DATUM
EPD .M                    867.26 : ELEVATION PERMANENT DATUM
LMF .                         KB : LOG MEASURED FROM
DAPD.M                      5.85 : FEET ABOVE PERMANENT DATUM
DMF .                         KB : DRILLING MEASURED FROM
EKB .M                    873.11 : KELLY BUSHING
EGL .M                    867.26 : GROUND LEVEL
DATE.                   03/15/84 : RUN DATE
RUN .                          1 : RUN NUMBER
DD  .M                      2710 : DEPTH DRILLER
DL  .M                      2709 : DEPTH LOGGER
BLI .M                      2708 : BOTTOM LOG INTERVAL
TLI .M                       401 : TOP LOG INTERVAL
CS  .MM                    244.5 : CASING SIZE
CBD .M                       401 : CASING BOTTOM DRILLER
CBL .M                       401 : CASING BOTTOM LOGGER
BSD .M                      2710 : BIT SIZE AT DEPTH
DFT .                        GEL : DRILLING FLUID TYPE
DFD .                       1150 : DRILLING FLUID DENSITY
DFV .                         83 : DRILLING FLUID VISCOSITY
DFPH.                         11 : DRILLING FLUID PH
DFL .                        9.5 : DRILLING FLUID LOSS
MSS .                   FLOWLINE : MUD SAMPLE SOURCE
RMS .OHMM                   1.17 : RESISTIVITY MUD SAMPLE
MST .DEGC                     17 : MUD SAMPLE TEMPERATURE
RMF .OHMM                   0.84 : RESISTIVITY MUD FILTRATE SAMPLE
MFST.DEGC                     18 : MUD FILTRATE SAMPLE TEMPERATURE
RMC .OHMM                  0.371 : RESISTIVITY MUD CAKE
MCST.DEGC                     68 : MUD CAKE SAMPLE TEMPERATURE
MFSS.                      PRESS : MUD FILTRATE SAMPLE SOURCE
MCSS.                      PRESS : MUD CAKE SAMPLE SOURCE
RMB .OHMM                  0.504 : RESISTIVITY MUD AT BHT
TCS .HRS                     930 : TIME CIRCULATED STOPPED
TLAB.HRS                    1500 : TIME LOGGER AT BOTTOM
LUN .                       8110 : LOGGING UNIT NUMBER
LUL .                        EDM : LOGGING UNIT LOCATION
ENGI.                     CSIKOS : RECORDING ENGINEER
WITN.                    DIAMOND : WITNESSED BY
CLNT.                    A2DTECH : CLIENT CODE
ORIG. 6.5"/100M 16.5"/100M PRINT : ORIGIN OF DATA
UWI .           100011506915W500 : UNIQUE WELL ID
DICO.     A2D Technologies, Inc. : DIGITIZING COMPANY
~Other -----------------------------------------------------
DIFL-BHC LOG RUN IN COMBO & CNFD LOG RUN
RHOB & DRHO FROM SMALL SCALE SECTION
~ASCII -----------------------------------------------------
  400.00000    -999.25    -999.25    -999.25    -999.25    -999.25    -999.25    -999.25    -999.25    -999.25    -999.25    -999.25    -999.25    -999.25    -999.25   30.50910   30.50910    -999.25    -999.25    -999.25    -999.25    -999.25    -999.25    -999.25    -999.25    -999.25    -999.25    -999.25    -999.25    -999.25
  450.00000    -999.25  268.92390  268.92390  287.63730    -999.25    -999.25    -999.25    -999.25    -999.25    3.47660    -999.25  403.20840  403.20840    -999.25   56.93940   56.93940    3.47660    3.03160    3.03160    -999.25    -999.25    -999.25    -999.25    -999.25    -999.25    2.82470  -67.17880   -2.85180    2.82470
  500.00000    -999.25  268.65170  268.65170  295.37730    -999.25    -999.25    -999.25    -999.25    -999.25    3.38550    -999.25  390.93170  390.93170    -999.25   48.18640   48.18640    3.38550    3.04160    3.04160    -999.25    -999.25    -999.25    -999.25    -999.25    -999.25    2.97330  -66.54540   -3.08960    2.97330
  550.00000    -999.25  254.23850  254.23850  291.79190    -999.25    -999.25    -999.25    -999.25    -999.25    3.42710    -999.25  423.11020  423.11020    -999.25   59.73710   59.73710    3.42710    3.13630    3.13630    -999.25    -999.25    -999.25    -999.25    -999.25    -999.25    3.03820  -67.24520   -4.05160    3.03820
  600.00000    -999.25  294.67970  294.67970  220.06560    -999.25    -999.25    -999.25    -999.25    -999.25    4.54410    -999.25  381.95130  381.95130    -999.25   87.02300   87.02300    4.54410    3.97860    3.97860    -999.25    -999.25    -999.25    -999.25    -999.25    -999.25    4.09650  -67.78250   -4.85100    4.09650
  650.00000    -999.25  257.63900  257.63900  177.04760    -999.25    -999.25    -999.25    -999.25    -999.25    5.64820    -999.25  396.51660  396.51660    -999.25  147.98200  147.98200    5.64820    4.83260    4.83260    -999.25    -999.25    -999.25    -999.25    -999.25    -999.25    5.72050  -67.42960   -4.76020    5.72050
  700.00000    -999.25  249.21860  249.21860  107.72500    -999.25    -999.25    -999.25    -999.25    -999.25    9.28290    -999.25  304.90600  304.90600    -999.25   98.22090   98.22090    9.28290    8.82460    8.82460    -999.25    -999.25    -999.25    -999.25    -999.25    -999.25    8.01980  -76.49810   -7.71210    8.01980
  750.00000    -999.25  242.25920  242.25920  173.22920    -999.25    -999.25    -999.25    -999.25    -999.25    5.77270    -999.25  351.45510  351.45510    -999.25  112.34660  112.34660    5.77270    5.07070    5.07070    -999.25    -999.25    -999.25    -999.25    -999.25    -999.25    4.94010  -75.46690   -3.13520    4.94010
  800.00000    -999.25  253.11980  253.11980  134.11840    -999.25    -999.25    -999.25    -999.25    -999.25    7.45610    -999.25  329.18730  329.18730    -999.25   88.94810   88.94810    7.45610    6.29030    6.29030    -999.25    -999.25    -999.25    -999.25    -999.25    -999.25    6.21990  -72.97190   -4.88070    6.21990
  850.00000    -999.25  258.09550  258.09550  181.16600    -999.25    -999.25    -999.25    -999.25    -999.25    5.51980    -999.25  373.74080  373.74080    -999.25  113.01730  113.01730    5.51980    5.08940    5.08940    -999.25    -999.25    -999.25    -999.25    -999.25    -999.25    5.43850  -66.65850   -2.97500    5.43850
  900.00000    -999.25  230.89200  230.89200  255.96400    -999.25    -999.25    -999.25    -999.25    -999.25    3.90680    -999.25  346.61690  346.61690    -999.25   99.13820   99.13820    3.90680    3.74040    3.74040    -999.25    -999.25    -999.25    -999.25    -999.25    -999.25    4.08450  -64.58980   -5.08660    4.08450
  950.00000    -999.25  267.46140  267.46140  273.86760    -999.25    -999.25    -999.25    -999.25    -999.25    3.65140    -999.25  332.11920  332.11920    -999.25  108.70390  108.70390    3.65140    3.44370    3.44370    -999.25    -999.25    -999.25    -999.25    -999.25    -999.25    3.70750  -60.97980   -5.65670    3.70750
 1000.00000  320.79760  239.51330  239.51330  469.39540   -5.91430 2309.11000    -999.25    0.20660    0.23440    2.13040   -5.91430  381.18520  381.18520   96.76940  102.13180  102.13180    2.13040    2.03080    2.03080    -999.25    0.44560    0.40380    2.54590    2.54590 2309.41430    2.10910  -54.89870   -2.71400    2.10910
 1050.00000  323.39630  250.89400  250.89400  291.35830  -27.91090 2173.81000    -999.25    0.28860    0.31360    3.43220  -27.91090  328.87730  328.87730   91.31390   96.36260   96.36260    3.43220    3.31890    3.31890    -999.25    0.40370    0.36090    2.19020    2.19020 2171.93970    3.58010  -57.27130   -6.62590    3.58010
 1100.00000  223.29380  214.81040  214.81040  384.17210  -45.81920 2211.76000    -999.25    0.26560    0.29140    2.60300  -45.81920  297.22490  297.22490   32.14980   33.23400   33.23400    2.60300    3.94890    3.94890    -999.25    0.27130    0.22730    1.80320    1.80320 2213.41140    7.27140 -113.92310  -63.40280    7.27140
 1150.00000  224.69040  213.10150  213.10150  401.13920  -17.52710 2254.66000    -999.25    0.23960    0.26630    2.49290  -17.52710  309.76560  309.76560   57.09350   59.22980   59.22980    2.49290    2.98610    2.98610    -999.25    0.35880    0.31530    2.15780    2.15780 2249.64870    2.74460  -89.46380  -35.97850    2.74460
 1200.00000  238.20990  227.70860  227.70860  325.54200   75.15790 2312.24500    -999.25    0.20470    0.23260    3.07180   75.15790  301.33670  301.33670   73.96490   74.47770   74.47770    3.07180    3.54810    3.54810    -999.25    0.39850    0.35560    2.40910    2.40910 2309.71780    4.43930  -64.91010  -10.01490    4.43930
 1250.00000  248.07410  243.95070  243.95070  256.85810  -38.42670 2429.06500    -999.25    0.13390    0.16430    3.89320  -38.42670  300.29740  300.29740   81.17600   78.09450   78.09450    3.89320    3.92650    3.92650    -999.25    0.35350    0.30990    2.80520    2.80520 2430.33110    4.11730  -56.99670   -1.57700    4.11730
 1300.00000  282.58750  263.97850  263.97850  270.73120  -46.28100 2439.29500    -999.25    0.12770    0.15830    3.69370  -46.28100  290.74350  290.74350   83.20970   78.82150   78.82150    3.69370    3.88800    3.88800    -999.25    0.31330    0.26940    2.99420    2.99420 2442.67070    4.09760  -61.91070  -10.24150    4.09760
 1350.00000  298.11080  267.15730  267.15730  174.71520  131.37400 2356.71400    0.20660    0.17700    0.20660    5.72360  131.37400  300.96410  300.96410   82.22830   94.54370   94.54370    5.72360    5.45910    5.45910    0.29730    0.34020    0.29730    2.30370    2.30370 2357.14990    6.46570  -61.04030  -12.34880    6.46570
 1400.00000  231.99150  231.91420  231.91420    9.99640  -46.93740 2594.23300    0.06770    -999.25    0.06770  100.03560  -46.93740  196.23110  196.23110   38.52770   42.84010   42.84010  100.03560  105.46290  105.46290    0.07930    -999.25    0.07930    4.11980    4.11980 2595.74930   85.29770  -67.94020  -21.01810   85.29770
 1450.00000  236.05570  225.59980  225.59980   32.90790   26.34490 2599.36300    0.06470    -999.25    0.06470   30.38780   26.34490  179.72080  179.72080   14.84160   17.84070   17.84070   30.38780   55.88600   55.88600    0.02280    -999.25    0.02280    3.93620    3.93620 2596.61870  210.79750  -84.16960  -38.20030  210.79750
 1500.00000  244.06630  231.71260  231.71260  345.17280  -25.88980 2577.47500    0.07750    -999.25    0.07750    2.89710  -25.88980  224.57190  224.57190   27.16680   29.19050   29.19050    2.89710    4.97900    4.97900    0.19050    -999.25    0.19050    3.32280    3.32280 2548.12260   27.07230 -106.86190  -63.85240   27.07230
 1550.00000  251.15680  245.35070  245.35070   33.11740  -26.47640 2658.35800    0.03020    -999.25    0.03020   30.19560  -26.47640  177.74370  177.74370   38.54660   34.13400   34.13400   30.19560   29.95190   29.95190    0.03580    -999.25    0.03580    4.24680    4.24680 2663.74000   44.53330 -118.68770  -80.37520   44.53330
 1600.00000  262.84140  259.23320  259.23320  704.72160  -13.60500 2531.64700    0.10430    -999.25    0.10430    1.41900  -13.60500  249.64130  249.64130   72.23200   62.48600   62.48600    1.41900    1.50880    1.50880    0.25160    -999.25    0.25160    2.90410    2.90410 2531.64700    1.33090  -80.35170  -46.73610    1.33090
