~Version ---------------------------------------------------
VERS.      2.0 : CWLS log ASCII Standard -VERSION 2.0
WRAP.       NO : One line per depth step
CREA. 08/04/17 : LAS Creation Date
~Well ------------------------------------------------------
STRT.FT                             1100.0 : START DEPTH
STOP.FT                            11250.0 : STOP DEPTH
STEP.FT                           50.00000 : STEP LENGTH
NULL.                              -999.25 : NULL VALUE
COMP.                 PETROFINA CANADA LTD : COMPANY
WELL. FINA AMOCO HB SAKWATAMAU 10-21-62-15 : WELL
FLD .                                   WC : FIELD
LOC .                                      : LOCATION
CTRY.                               CANADA : COUNTRY
SRVC.                         Schlumberger : SERVICE COMPANY
DATE.                          21-Aug-1976 : LOGDATE
PROV.                              Alberta : PROVINCE
UWI .                     100102106215W500 : UNIQUE WELL ID
SLAT.WGS84                        54.37886 : SURFACE LATITUDE
SLON.WGS84                       -116.1857 : SURFACE LONGITUDE
~Curve Information -----------------------------------------
DEPT    .FT    : Depth Curve
CALDED  .IN    : CALIPER FROM CND LOG [ADJ. TO ILDED]
CALSED  .IN    : CALIPER FROM BCS LOG [ADJ. TO GRDED]
CALWS   .IN    : CALIPER [CALSED]
CILDED  .MMHO  : DEEP INDUCTION CONDUCTIVITY FROM DIL-LAT LOG
CONDWS  .MMHO  : CONDUCTIVITY [CILDED]
DCORWS  .G/C3  : DENSITY CORRECTION [DRHOED]
DENWS   .G/C3  : FROMATION BILK DENSITY [RHOBED]
DPHILSED.V/V   : DENSITY POROSITY LIMESTONE [M=2.71, F=1000] FROM CND LOG [ADJ. TO RHOBED]
DPHISSED.V/V   : DENSITY POROSITY SANDSTONE [M=2.65, F=1.00] FROM CND LOG [ADJ. TO RHOBED]
DPOLSWS .V/V   : DENSITY POROSITY LIMESTONE [CALCULATED FROM DENWS, M=2.71, F=1.00]
DRESWS  .OHMM  : DEEP RESISTIVITY [spl. 1000/CONDWS, IF ILDED <=1, ILDED/ILDED at 4490']
DRHOED  .G/C3  : BULK DENSITY CORRECTION FROM CND LOG [ADJ. TO ILDED]
DTED    .US/F  : DELTA-T (INTERVAL TRANSIT TIME) FROM BCS LOG  [ADJ. TO GRDED]
DTWS    .US/F  : COMPRESSIONA L SONIC [DTED]
GRDED   .GAPI  : GAMMA RAY FROM CND LOG [ADJ. TO ILDED]
GRSED   .GAPI  : GAMMA RAY FROM BCS LOG  [ADJ. TO GRDED]
GRWS    .GAPI  : GAMMA RAY [GRSED SPL. TO GRDED @ 11233.5']
ILDED   .OHMM  : DEEP INDUCTION RESISTIVITY FROM DIL-LAT LOG
ILMED   .OHMM  : MEDIUM INDUCTION  RESISTIVITY FROM DIL-LAT LOG
LL8ED   .OHMM  : LATEROLOG 8 FROM DIL-LAT LOG
MRESWS  .OHMM  : MEDIUM RESISTIVITY [ILMED]
NPHILSED.V/V   : NEUTRON POROSITY LIMESTONE FROM CND LOG [ADJ. TO RHOBED]
NPHISSED.V/V   : NEUTRON POROSITY SANDSTONE FROM CND LOG [ADJ. TO RHOBED]
NPOLSWS .V/V   : NEUTRON POROSITY LIMESTONE [NPHISSED MATRIX CONVERSION FRO LIMESTONE,SPL TO NPHILSED @ 6345']
RHOBED  .G/C3  : BULK DENSITY FROM CND LOG [ADJ. TO ILDED]
SPRED   .MV    : SPONTANEOUS POTENTIAL FROM DIL-LAT LOG
SPWS    .MV    : SPONTANEOUS POTENTIAL [BASELINE 0 MV, SPRED]
SRESWS  .OHMM  : SHALLOW RESISTIVITY [LL8ED]
~Params ----------------------------------------------------
PD  .                     GL : PERMANENT DATUM
EPD .FT               3315.9 : ELEVATION PERMANENT DATUM
LMF .                     KB : LOG MEASURED FROM
DAPD.FT                 15.1 : FEET ABOVE PERMANENT DATUM
EKB .FT                 3331 : KELLY BUSHING
EGL .FT               3315.9 : GROUND LEVEL
DATE.               08/21/76 : RUN DATE
RUN .                      1 : RUN NUMBER
DD  .FT                11275 : DEPTH DRILLER
DL  .FT                11270 : DEPTH LOGGER
BLI .FT                11267 : BOTTOM LOG INTERVAL
TLI .FT                 1134 : TOP LOG INTERVAL
CBD .FT                 1134 : CASING BOTTOM DRILLER
CBL .FT                 1134 : CASING BOTTOM LOGGER
BS  .IN                 8.75 : BIT SIZE
BSD .FT                11275 : BIT SIZE AT DEPTH
DFT .               GEL CHEM : DRILLING FLUID TYPE
DFD .                    9.5 : DRILLING FLUID DENSITY
DFV .                     95 : DRILLING FLUID VISCOSITY
DFPH.                   10.5 : DRILLING FLUID PH
DFL .                      7 : DRILLING FLUID LOSS
MSS .               FLOWLINE : MUD SAMPLE SOURCE
RMS .OHMM                2.7 : RESISTIVITY MUD SAMPLE
MST .DEGF                 55 : MUD SAMPLE TEMPERATURE
RMF .OHMM               2.65 : RESISTIVITY MUD FILTRATE SAMPLE
MFST.DEGF                 56 : MUD FILTRATE SAMPLE TEMPERATURE
RMB .OHMM               0.56 : RESISTIVITY MUD AT BHT
TCS .HRS                 3.5 : TIME CIRCULATED STOPPED
LUN .                   7691 : LOGGING UNIT NUMBER
LUL .                    WCT : LOGGING UNIT LOCATION
ENGI.                GOODMAN : RECORDING ENGINEER
WITN.                 TIFFIN : WITNESSED BY
CLNT.                A2DTECH : CLIENT CODE
ORIG.            2" 5" PRINT : ORIGIN OF DATA
UWI .       100102106215W500 : UNIQUE WELL ID
DICO. A2D Technologies, Inc. : DIGITIZING COMPANY
~Other -----------------------------------------------------
~ASCII -----------------------------------------------------
# ...
 7350.00000   10.43270   10.81230   10.81230    -999.25   43.34920    0.12140    2.49470    0.12860    -999.25    0.12590   23.06850    0.12140   83.45440   83.45440  221.17090  216.56360  216.56360   23.06850   26.78780   28.78890   26.78780    0.19170    -999.25    0.19170    2.49470   38.03240   -0.55660   28.78890
 7400.00000   11.26150   10.24490   10.24490    -999.25    5.60040    0.04520    2.70510    0.00250    -999.25    0.00290  178.55740    0.04520   53.56000   53.56000   19.03150   18.95570   18.95570  178.55740  193.30520  199.39910  193.30520    0.00610    -999.25    0.00610    2.70510  -32.69650  -67.34980  199.39910
 7450.00000   10.92740   10.07720   10.07720    -999.25    1.63670    0.02620    2.73390   -0.01270    -999.25   -0.01400  610.98560    0.02620   49.83860   49.83860   20.31600   19.33120   19.33120  610.98560  352.83230  432.62180  352.83230    0.00230    -999.25    0.00230    2.73390   -5.51490  -39.75020  432.62180
 7500.00000   10.83810    9.88180    9.88180    -999.25    0.69930    0.02320    2.73550   -0.01960    -999.25   -0.01490 1430.07890    0.02320   50.30610   50.30610   19.33070   20.70410   20.70410 1430.07890  476.32770  839.16190  476.32770   -0.00090    -999.25   -0.00090    2.73550  -40.54040  -74.36050  839.16190
 7550.00000   10.96900    9.85490    9.85490    -999.25    7.12180    0.03570    2.69720    0.00870    -999.25    0.00750  140.41480    0.03570   50.23570   50.23570   16.48670   13.95920   13.95920  140.41480  107.74630  153.96530  107.74630    0.00150    -999.25    0.00150    2.69720  -57.50940  -90.91420  153.96530
 7600.00000   10.29460    9.53700    9.53700    -999.25    3.05460    0.04220    2.74980   -0.03150    -999.25   -0.02330  327.37910    0.04220   48.69920   48.69920   15.86320   15.67080   15.67080  327.37910  306.53530  391.20440  306.53530    0.00310    -999.25    0.00310    2.74980  -36.90310  -69.88990  391.20440
 7650.00000   12.46100   10.42820   10.42820    -999.25    3.16320    0.19830    2.60760    0.06140    -999.25    0.05990  316.13270    0.19830   51.64080   51.64080   11.93780   14.86400   14.86400  316.13270  413.95660  478.06900  413.95660    0.00510    -999.25    0.00510    2.60760  -54.62470  -87.19630  478.06900
 7700.00000    9.93110    9.49520    9.49520    -999.25   23.22240    0.18920    2.70540    0.00180    -999.25    0.00270   43.06180    0.18920   52.31710   52.31710   14.13010   10.05330   10.05330   43.06180   82.95380  543.02340   82.95380    0.02580    -999.25    0.02580    2.70540 -112.40830 -144.56190  543.02340
 7750.00000   10.73900    9.75330    9.75330    -999.25    6.45940    0.09470    2.77050   -0.04000    -999.25   -0.03540  154.81240    0.09470   51.34270   51.34270   14.04120   13.87980   13.87980  154.81240  196.37160  314.45800  196.37160    0.00430    -999.25    0.00430    2.77050  -58.61030  -90.34870  314.45800
 7800.00000   10.96470    9.78770    9.78770    -999.25    1.91500    0.11660    2.80680   -0.06050    -999.25   -0.05660  522.20090    0.11660   53.32500   53.32500   15.90240   15.27210   15.27210  522.20090 1016.63700  729.91680 1016.63700   -0.00080    -999.25   -0.00080    2.80680  -37.85950  -69.18270  729.91680
 7850.00000   10.46030    9.56220    9.56220    -999.25    5.28450    0.06060    2.74330   -0.03400    -999.25   -0.01940  189.23350    0.06060   50.35480   50.35480   14.59070   14.44450   14.44450  189.23350  253.77270  265.11330  253.77270    0.00150    -999.25    0.00150    2.74330  -38.79620  -69.70140  265.11330
 7900.00000   10.69100    9.64720    9.64720    -999.25    8.10980    0.08370    2.75230   -0.02610    -999.25   -0.02470  123.30810    0.08370   50.72570   50.72570   13.94540   14.15580   14.15580  123.30810  145.87940  203.69820  145.87940    0.00710    -999.25    0.00710    2.75230  -55.32940  -85.81930  203.69820
 7950.00000   11.82760   10.12100   10.12100    -999.25    4.10040    0.13900    2.75360   -0.03590    -999.25   -0.02550  243.87590    0.13900   51.89620   51.89620   14.78130   14.68240   14.68240  243.87590  245.18230  469.83960  245.18230    0.00140    -999.25    0.00140    2.75360  -68.40300  -98.47500  469.83960
 8000.00000    9.81290    9.45950    9.45950    -999.25    7.25170    0.08510    2.79660   -0.05320    -999.25   -0.05060  137.89920    0.08510   47.52290   47.52290   14.43070   15.88970   15.88970  137.89920  257.88060  432.67600  257.88060    0.00590    -999.25    0.00590    2.79660  -75.76870 -105.42550  432.67600
 8050.00000    9.57880    9.18460    9.18460    -999.25   18.70680    0.07950    2.79170   -0.05670    -999.25   -0.04780   53.45660    0.07950   48.52590   48.52590   19.80730   19.84540   19.84540   53.45660   98.09610  315.87920   98.09610    0.02730    -999.25    0.02730    2.79170 -114.84540 -144.08690  315.87920
 8100.00000   10.36930    9.90380    9.90380    -999.25    9.27900    0.09020    2.90890   -0.12310    -999.25   -0.11630  107.77010    0.09020   48.63380   48.63380   17.47440   17.15220   17.15220  107.77010  222.36550  561.15130  222.36550    0.01770    -999.25    0.01770    2.90890  -78.60710 -107.43070  561.15130
 8150.00000   10.16420    9.51200    9.51200    -999.25   66.75210    0.14650    2.83700   -0.07860    -999.25   -0.07430   14.98080    0.14650   51.48170   51.48170   34.81350   33.28380   33.28380   14.98080   18.53870   42.84930   18.53870    0.10510    -999.25    0.10510    2.83700  -55.15750  -83.56580   42.84930
 8200.00000   10.69310    9.83440    9.83440    -999.25   10.57190    0.18760    2.84530   -0.07960    -999.25   -0.07910   94.59040    0.18760   47.13310   47.13310   25.93460   26.94170   26.94170   94.59040  102.81030  313.13860  102.81030    0.04490    -999.25    0.04490    2.84530  -63.14820  -91.13860  313.13860
 8250.00000   10.30420    9.69950    9.69950    -999.25   39.13160    0.13020    2.84680   -0.08330    -999.25   -0.08000   25.55480    0.13020   52.14030   52.14030   35.19770   35.18920   35.18920   25.55480   29.26880   34.39350   29.26880    0.07710    -999.25    0.07710    2.84680  -48.75580  -76.33090   34.39350
 8300.00000    9.60950    9.40920    9.40920    -999.25   18.83580    0.04110    2.83220   -0.07420    -999.25   -0.07150   53.09050    0.04110   49.90640   49.90640   26.53360   25.80580   25.80580   53.09050   55.08350   72.17510   55.08350    0.03810    -999.25    0.03810    2.83220  -39.02000  -66.17990   72.17510
 8350.00000   10.01580    9.63250    9.63250    -999.25    9.17310    0.06930    2.77120   -0.03800    -999.25   -0.03580  109.01400    0.06930   51.74160   51.74160   35.18950   34.05030   34.05030  109.01400  118.96570  142.59650  118.96570    0.00970    -999.25    0.00970    2.77120   -3.18740  -29.92930  142.59650
 8400.00000   10.16210    9.82090    9.82090    -999.25   10.21290    0.03770    2.73190   -0.00930    -999.25   -0.01280   97.91500    0.03770   53.56460   53.56460   35.51750   32.67620   32.67620   97.91500   84.39540  111.33450   84.39540    0.01900    -999.25    0.01900    2.73190   -3.76580  -30.09250  111.33450
 8450.00000    9.68750    9.47270    9.47270    -999.25   16.09160    0.07300    2.76220   -0.03960    -999.25   -0.03050   62.14440    0.07300   55.07770   55.07770   38.80560   40.14040   40.14040   62.14440   64.79120   76.19260   64.79120    0.02530    -999.25    0.02530    2.76220    3.60470  -22.30400   76.19260
 8500.00000    9.88380    9.64340    9.64340    -999.25   32.24330    0.03590    2.73150   -0.02580    -999.25   -0.01260   31.01420    0.03590   56.88290   56.88290   46.99360   39.73680   39.73680   31.01420   31.64430   39.70410   31.64430    0.02660    -999.25    0.02660    2.73150   13.34520  -12.14830   39.70410
 8550.00000   10.75140   10.17440   10.17440    -999.25   62.66960    0.06170    2.72690   -0.01870    -999.25   -0.00990   15.95670    0.06170   60.02170   60.02170   57.44990   51.75660   51.75660   15.95670   16.55900   20.04010   16.55900    0.05700    -999.25    0.05700    2.72690   17.90910   -7.16910   20.04010
