~Version ---------------------------------------------------
VERS. 2.0 : CWLS log ASCII Standard -VERSION 2.0
WRAP. YES : MULTIPLE LINES PER DEPTH STEP
~Well ------------------------------------------------------
STRT.FT                      2000.0 : START DEPTH
STOP.FT                     17600.0 : STOP DEPTH
STEP.FT                    50.00000 : STEP LENGTH
NULL.                      -99925.0 : NULL VALUE
COMP.        SEAFORT PETROLEUM LTD. : COMPANY
WELL. SEAFORT ET AL KAKWA 2-20-61-7 : WELL
FLD .                               : FIELD
LOC .                               : LOCATION
CTRY.                        CANADA : COUNTRY
SRVC.        Schlumberger of Canada : SERVICE COMPANY
DATE.                   12-Aug-1975 : LOGDATE
PROV.                       Alberta : PROVINCE
UWI .              100022006107W600 : UNIQUE WELL ID
SLAT.WGS84                 54.28609 : SURFACE LATITUDE
SLON.WGS84                -119.0081 : SURFACE LONGITUDE
~Curve Information -----------------------------------------
DEPT    .FT    : DEPTH FEET
CALDED  .IN    : CALIPER FROM DENSITY LOG [ADJ TO GRRED]
CALSED  .IN    : CALIPER FROM SONIC LOG
CALWS   .IN    : CALIPER [CALSED]
CONDWS  .MMHO  : CONDUCTIVITY [1000/DRESWS]
DCORED  .G/C3  : DENSITY CORRECTION FROM DENSITY LOG [ADJ TO GRRED]
DCORWS  .G/C3  : DENSITY CORRECTION [DCORED]
DENWS   .G/C3  : BULK DENSITY [M=2.65 F=1.0] <14590> [M=2.71 F=1.0] [RHOBED]
DPHILSED.V/V   : DENSITY POROSITY [M=2.71 F=1.0] FROM DENSITY LOG [ADJ TO GRRED]
DPHISSED.V/V   : DENSITY POROSITY [M=2.65 F=1.0] FROM DENSITY LOG [ADJ TO GRRED]
DPOWS   .V/V   : DENSITY POROSITY [M=2.71 F=1.0] [CALCULATED FROM DENWS]
DRESWS  .OHMM  : DEEP RESISTIVITY [SPL ILDED <14590> LLDED]
DTED    .US/F  : DELTA TIME FROM SONIC LOG
DTWS    .US/F  : DELTA TIME [DTED]
GRDED   .GAPI  : GAMMA RAY FROM DENSITY LOG [ADJ TO GRRED]
GRRED   .GAPI  : GAMMA RAY FROM RESISTIVITY LOG
GRSED   .GAPI  : GAMMA RAY FROM SONIC LOG
GRWS    .GAPI  : GAMMA RAY [GRSED, CSG ABOVE 2005F]
ILDED   .OHMM  : INDUCTION LOG DEEP RESISTIVITY
ILMED   .OHMM  : INDUCTION LOG MEDIUM RESISTIVITY
LL8ED   .OHMM  : 8 INCH LATEROLOG RESISTIVITY
LLDED   .OHMM  : LATEROLOG DEEP RESISTIVITY
LLSED   .OHMM  : LATEROLOG SHALLOW RESISTIVITY
MRESWS  .OHMM  : MEDIUM RESISTIVITY [ILMED]
NPHILSED.V/V   : NEUTRON POROSITY LIMESTONE FROM DENSITY LOG [ADJ TO GRRED]
NPHISSED.V/V   : NEUTRON POROSITY SANDSTONE FROM DENSITY LOG [ADJ TO GRRED]
NPOWS   .V/V   : NEUTRON POROSITY LIMESTONE [CONVERTED NPHISSED TO LIMESTONE SPL WITH NPHILSED @14516F]
RHOBED  .G/C3  : BULK DENSITY FROM DENSITY LOG [ADJ TO GRRED]
SPRED   .MV    : SPONTANEOUS POTENTIAL FROM RESISTIVITY LOG
SPWS    .MV    : SPONTANEOUS POTENTIAL [BASELINE 0 MV] [SPRED]
SRESWS  .OHMM  : SHALLOW RESISTIVITY [SPL LL8ED <14590> LLSED]
~Params ----------------------------------------------------
PD  .                     GL : PERMANENT DATUM
EPD .FT                 3465 : ELEVATION PERMANENT DATUM
LMF .                     KB : LOG MEASURED FROM
DAPD.FT                   21 : FEET ABOVE PERMANENT DATUM
EKB .FT                 3486 : KELLY BUSHING
EGL .FT                 3465 : GROUND LEVEL
DATE.               10/06/75 : RUN DATE
RUN .                      2 : RUN NUMBER
DD  .FT                17618 : DEPTH DRILLER
DL  .FT                17600 : DEPTH LOGGER
BLI .FT                17600 : BOTTOM LOG INTERVAL
TLI .FT                14577 : TOP LOG INTERVAL
CBD .FT                14590 : CASING BOTTOM DRILLER
CBL .FT                14577 : CASING BOTTOM LOGGER
BS  .IN                  9.5 : BIT SIZE
BSD .FT                17618 : BIT SIZE AT DEPTH
DFT .                    GEL : DRILLING FLUID TYPE
DFD .                   13.8 : DRILLING FLUID DENSITY
DFV .                    115 : DRILLING FLUID VISCOSITY
DFPH.                     11 : DRILLING FLUID PH
DFL .                      7 : DRILLING FLUID LOSS
RMS .OHMM              0.809 : RESISTIVITY MUD SAMPLE
MST .DEGF                 75 : MUD SAMPLE TEMPERATURE
WITN.                  BROWN : WITNESSED BY
CLNT.                A2DTECH : CLIENT CODE
ORIG.               5" PRINT : ORIGIN OF DATA
UWI .       100022006107W600 : UNIQUE WELL ID
DICO. A2D Technologies, Inc. : DIGITIZING COMPANY
~Other -----------------------------------------------------
~ASCII -----------------------------------------------------
# ...
 12800.00000   12.58940   12.52840   12.52840   67.16100    0.02760    0.02760    2.67610   -99925.0   -0.02420    0.01980   14.88960   56.38610   56.38610   77.01210  284.61160   73.38730   73.38730   14.88960   57.56440   26.61080   74.18980   83.98720   57.56440   -99925.0    0.12790    0.08550    2.67610  -96.31330   -3.60900   26.61080
 12850.00000   12.03720   12.30250   12.30250   74.43910    0.05710    0.05710    2.67560   -99925.0   -0.02060    0.02010   13.43380   56.33370   56.33370   76.39220  285.49100   69.02280   69.02280   13.43380   40.26320   29.84320   95.04970  118.18030   40.26320   -99925.0    0.10980    0.06790    2.67560  -98.87970   -4.23860   29.84320
 12900.00000   12.09990   12.28080   12.28080   66.48410    0.03630    0.03630    2.67990   -99925.0   -0.02190    0.01760   15.04120   58.65630   58.65630   83.50750  287.66000   82.28020   82.28020   15.04120   47.49390   31.83060   86.79630  107.47030   47.49390   -99925.0    0.08640    0.04620    2.67990 -106.48070   -9.90280   31.83060
 12950.00000   12.26040   12.37790   12.37790   70.86870    0.02520    0.02520    2.68480   -99925.0   -0.02520    0.01470   14.11060   60.32330   60.32330   84.54160  271.13810   82.07020   82.07020   14.11060   29.52810   28.22090  117.59490  152.21450   29.52810   -99925.0    0.07050    0.03250    2.68480 -111.45880  -12.94420   28.22090
 13000.00000   12.01470   12.28770   12.28770   62.00900    0.00650    0.00650    2.70700   -99925.0   -0.03980    0.00180   16.12670   61.04690   61.04690  111.73580  301.45320   98.74560   98.74560   16.12670   54.16510   35.79410  118.51720  142.86510   54.16510   -99925.0    0.08650    0.04630    2.70700 -112.84010  -12.38870   35.79410
 13050.00000   12.19510   12.30580   12.30580   57.93170    0.01170    0.01170    2.67390   -99925.0   -0.01680    0.02110   17.26170   62.12600   62.12600   99.38020  288.42390   91.71730   91.71730   17.26170   60.31540   37.54360  156.85860  176.78500   60.31540   -99925.0    0.07690    0.03790    2.67390 -119.67700  -17.28880   37.54360
 13100.00000   12.20570   12.35780   12.35780   53.14910    0.04940    0.04940    2.67620   -99925.0   -0.01710    0.01980   18.81500   60.99290   60.99290  103.04120  298.83650   86.80440   86.80440   18.81500   89.35350   46.24590  249.65560  237.67430   89.35350   -99925.0    0.08030    0.04090    2.67620 -117.72800  -13.40300   46.24590
 13150.00000   12.28530   12.34670   12.34670   52.45190    0.05460    0.05460    2.67360   -99925.0   -0.01850    0.02130   19.06510   62.79590   62.79590  104.68620  296.78670   92.49920   92.49920   19.06510  131.52100   47.06240  287.03000  246.05270  131.52100   -99925.0    0.08440    0.04450    2.67360 -114.95790   -8.69620   47.06240
 13200.00000   12.13700   12.35480   12.35480   49.96400    0.03040    0.03040    2.67930   -99925.0   -0.02330    0.01800   20.01440   64.55800   64.55800   90.26770  284.90310   95.17280   95.17280   20.01440  120.28520   44.96440  295.37540  260.34400  120.28520   -99925.0    0.09250    0.05180    2.67930 -120.39740  -12.19890   44.96440
 13250.00000   12.21630   12.45000   12.45000   54.16000    0.02280    0.02280    2.64780   -99925.0   -0.00390    0.03640   18.46380   62.10000   62.10000  104.57420  301.33450   95.54180   95.54180   18.46380   96.19730   37.42990  146.32160  177.29500   96.19730   -99925.0    0.12340    0.08110    2.64780 -111.57700   -1.44170   37.42990
 13300.00000   12.21740   12.54750   12.54750   62.33830    0.01730    0.01730    2.67170   -99925.0   -0.01450    0.02240   16.04150   62.10070   62.10070  107.11950  299.81410   89.64240   89.64240   16.04150   80.75520   37.72560  177.95110  172.30170   80.75520   -99925.0    0.10440    0.06280    2.67170 -121.79980   -8.33910   37.72560
 13350.00000   12.14500   12.34640   12.34640   62.40130   -0.01160   -0.01160    2.85010   -99925.0   -0.10020   -0.08190   16.02530   54.80160   54.80160  117.98430  290.85430  139.96810  139.96810   16.02530   52.77020   31.88060   36.28410   41.57360   52.77020   -99925.0    0.02840    0.00000    2.85010 -122.15480   -4.90570   31.88060
 13400.00000   12.26000   12.37880   12.37880  164.25490    0.11590    0.11590    2.68620   -99925.0   -0.01910    0.01390    6.08810   55.71980   55.71980   57.61210  258.16200   51.95760   51.95760    6.08810   14.80610   11.04150   41.06830   33.78080   14.80610   -99925.0    0.09550    0.05450    2.68620 -120.57490    0.46250   11.04150
 13450.00000   17.39190   14.08320   14.08320   58.17440   -0.02170   -0.02170    1.61890   -99925.0    0.30000    0.63810   17.18970   63.30550   63.30550   26.37530  229.77920   25.75510   25.75510   17.18970  552.57730   14.51100  626.78440   18.38590  552.57730   -99925.0    0.08570    0.04560    1.61890 -132.79290   -7.96720   14.51100
 13500.00000   12.04240   12.31270   12.31270   57.93810    0.04780    0.04780    2.81840   -99925.0   -0.10110   -0.06340   17.25980   50.15240   50.15240   56.79890  248.89450   52.02610   52.02610   17.25980  188.89310   50.83560  176.99080  249.39980  188.89310   -99925.0    0.06060    0.02430    2.81840 -146.33760  -17.72350   50.83560
 13550.00000   12.01950   12.22910   12.22910   41.61570    0.04970    0.04970    2.83590   -99925.0    0.30000   -0.07360   24.02940   48.64360   48.64360   44.47070  246.14080   38.27960   38.27960   24.02940   96.77180   40.38850  371.21470  304.01710   96.77180   -99925.0    0.08370    0.04390    2.83590 -144.61030  -12.20790   40.38850
 13600.00000   12.51400   12.96710   12.96710   62.86500    0.05050    0.05050    2.92130   -99925.0    0.30000   -0.12360   15.90710   51.10790   51.10790   21.60420  223.28910   26.99810   26.99810   15.90710   46.92930   44.19030 19237.12300 2009.41040   46.92930   -99925.0    0.00580   -0.01530    2.92130 -153.77940  -17.58860   44.19030
 13650.00000   12.21150   13.00920   13.00920   66.21160    0.06990    0.06990    2.87370   -99925.0    0.30000   -0.09570   15.10310   52.17530   52.17530   38.97730  252.59530   33.12590   33.12590   15.10310  120.07910   43.53870  201.37180  231.79320  120.07910   -99925.0    0.03900    0.00770    2.87370 -152.78850  -12.80940   43.53870
 13700.00000   12.29280   13.63580   13.63580   59.47500    0.13620    0.13620    2.77960   -99925.0   -0.08450   -0.04070   16.81380   49.06690   49.06690   22.02550  227.04080   25.20680   25.20680   16.81380   69.25180   30.99720 8346.00290   77.19510   69.25180   -99925.0    0.06880    0.03110    2.77960 -181.65800  -37.89060   30.99720
 13750.00000   12.68430   13.72260   13.72260   81.60600    0.02950    0.02950    2.84210   -99925.0    0.30000   -0.07730   12.25400   49.05630   49.05630   14.92760  222.58060   18.83590   18.83590   12.25400   34.25320   35.36520 1524.32580  173.31880   34.25320   -99925.0    0.04620    0.01310    2.84210 -157.57500  -10.01920   35.36520
 13800.00000   12.23130   13.26520   13.26520   50.26840    0.09770    0.09770    2.85320   -99925.0    0.30000   -0.08370   19.89320   50.80600   50.80600   30.04420  236.03340   23.07310   23.07310   19.89320   47.18770   29.30810 1212.43300   44.94000   47.18770   -99925.0    0.11170    0.06970    2.85320 -177.13380  -25.78970   29.30810
 13850.00000   12.94870   12.53510   12.53510  104.66820    0.10850    0.10850    2.53960   -99925.0    0.06210    0.09960    9.55400   56.00550   56.00550   58.36640  258.29610   59.14970   59.14970    9.55400   34.50780   42.21530  238.78550  232.15640   34.50780   -99925.0    0.13840    0.09600    2.53960 -157.45550   -3.33190   42.21530
 13900.00000   16.44150   13.34200   13.34200   88.30650    0.00940    0.00940    2.18640   -99925.0    0.28290    0.30620   11.32420   52.23580   52.23580   42.22110  250.09140   43.07790   43.07790   11.32420   16.08580   34.71190  447.82710   90.49020   16.08580   -99925.0    0.13330    0.09090    2.18640 -179.81540  -36.31470   34.71190
 13950.00000   18.62890   14.08260   14.08260   79.05080    0.10850    0.10850    2.01310   -99925.0    0.30000    0.40750   12.65010   52.42890   52.42890   52.99630  253.00400   43.11540   43.11540   12.65010   34.43420   32.57650  614.34060  137.13480   34.43420   -99925.0    0.14070    0.09830    2.01310 -173.18410  -40.30640   32.57650
