~Version ---------------------------------------------------
VERS.      2.0 : CWLS log ASCII Standard -VERSION 2.0
WRAP.       NO : One line per depth step
CREA. 10/09/14 : LAS Creation Date
~Well ------------------------------------------------------
STRT.M                            300.0 : START DEPTH
STOP.M                           2900.0 : STOP DEPTH
STEP.M                         50.00000 : STEP LENGTH
NULL.                           -999.25 : NULL VALUE
COMP. PLACER C.E.G.O. PETROLEUM LIMITED : COMPANY
WELL.     CEGO ET AL MAHASKA 6-27-57-13 : WELL
FLD .                                   : FIELD
LOC .                                   : LOCATION
CTRY.                            CANADA : COUNTRY
SRVC.                      Schlumberger : SERVICE COMPANY
DATE.                       16-Apr-1979 : LOGDATE
PROV.                           Alberta : PROVINCE
UWI .                  100062705713W500 : UNIQUE WELL ID
SLAT.WGS84                     53.95296 : SURFACE LATITUDE
SLON.WGS84                    -115.8507 : SURFACE LONGITUDE
~Curve Information -----------------------------------------
DEPT    .M      : DEPTH METER
CALDED  .MM     : CALIPER FROM DENSITY LOG [ADJ. TO RESISTIVITY LOG]
CALSED  .MM     : CALIPER FROM SONIC LOG [ADJ. TO RESISTIVITY LOG]
CALWS   .MM     : CALIPER [CALDED]
CONDWS  .MMHO   : CONDUCTIVITY [1000/DRESWS]
DCORWS  .KG/M3  : DENSITY CORRECTION [DRHOED]
DENWS   .KG/M3  : FORMATION BULK DENSITY [RHOBED]
DPHILSED.V/V    : DENSITY POROSITY LIMESTONE FROM DENSITY LOG [ADJ. TO RESISTIVITY LOG]
DPHISSED.V/V    : DENSITY POROSITY SANDSTONE  FROM DENSITY LOG [ADJ. TO RESISTIVITY LOG]
DPOLSWS .V/V    : DENSITY POROSITY LIMESTONE [CALC. FROM DENWS M=2710,F=1000]
DRESWS  .OHMM   : DEEP RESISTIVITY [ILDED]
DRHOED  .KG/M3  : BULK DENSITY CORRECTION  FROM DENSITY LOG [ADJ. TO RESISTIVITY LOG]
DTED    .US/M   : DELTA-TIME FROM SONIC LOG [ADJ. TO RESISTIVITY LOG]
DTWS    .US/M   : COMPRESSIONAL SONIC [DTED]
GRDED   .GAPI   : GAMMA RAY FROM DENSITY LOG  FROM DENSITY LOG [ADJ. TO RESISTIVITY LOG]
GRSED   .GAPI   : GAMMA RAY FROM SONIC LOG [ADJ. TO RESISTIVITY LOG]
GRWS    .GAPI   : GAMMA RAY [GRDED]
ILDED   .OHMM   : DEEP INDUCTION  RESISTIVITY  FROM RESISTIVITY LOG
ILMED   .OHMM   : MEDIUM INDUCTION  RESISTIVITY  FROM RESISTIVITY LOG
MRESWS  .OHMM   : MEDIUM RESISTIVITY [ILMED]
NPHILSED.V/V    : NEUTRON POROSITY LIMESTONE  FROM DENSITY LOG [ADJ. TO RESISTIVITY LOG]
NPHISSED.V/V    : NEUTRON POROSITY SANDSTONE  FROM DENSITY LOG [ADJ. TO RESISTIVITY LOG]
NPOLSWS .V/V    : NEUTRON POROSITY LIMESTONE [NPHISSED MATRIX CONVERSION FOR LIMESTONE FROM SCHLUMBERGER (CNL), SPL. TO NPHILSED @ 1800M]
RHOBED  .KG/M3  : BULK DENSITY  FROM DENSITY LOG [ADJ. TO RESISTIVITY LOG/DPHISSED/DPHILSED]
SFLED   .OHMM   : SPHERICALLY FOCUSED LOG  FROM RESISTIVITY LOG
SPRED   .MV     : SPONTANEOUS POTENTIAL FROM RESISTIVITY LOG
SPWS    .MV     : SPONTANEOUS POTENTIAL [BASELINE 0 MV, SPRED]
SRESWS  .OHMM   : SHALLOW RESISTIVITY [SFLED]
TENDED  .N      : TENSION FROM DENSITY LOG [ADJ. TO RESISTIVITY LOG] [TENDED*4.44822162]
TENSED  .N      : TENSION FROM SONIC LOG [ADJ. TO RESISTIVITY LOG] [TENSED*4.44822162]
~Params ----------------------------------------------------
PD  .                         GL : PERMANENT DATUM
EPD .M                    759.63 : ELEVATION PERMANENT DATUM
LMF .                         KB : LOG MEASURED FROM
DAPD.M                      4.51 : FEET ABOVE PERMANENT DATUM
DMF .                         KB : DRILLING MEASURED FROM
EKB .M                    764.14 : KELLY BUSHING
EGL .M                    759.63 : GROUND LEVEL
DATE.                   04/16/79 : RUN DATE
RUN .                          1 : RUN NUMBER
DD  .M                      2892 : DEPTH DRILLER
DL  .M                    2893.5 : DEPTH LOGGER
BLI .M                    2892.5 : BOTTOM LOG INTERVAL
TLI .M                     311.3 : TOP LOG INTERVAL
CS  .MM                      245 : CASING SIZE
CBD .M                    311.76 : CASING BOTTOM DRILLER
CBL .M                     311.3 : CASING BOTTOM LOGGER
BS  .MM                      222 : BIT SIZE
BSD .M                      2892 : BIT SIZE AT DEPTH
DFT .                   GEL CHEM : DRILLING FLUID TYPE
DFD .                        115 : DRILLING FLUID DENSITY
DFV .                       2130 : DRILLING FLUID VISCOSITY
DFPH.                         11 : DRILLING FLUID PH
DFL .                          9 : DRILLING FLUID LOSS
MSS .                CIRCULATION : MUD SAMPLE SOURCE
RMS .OHMM                   1.59 : RESISTIVITY MUD SAMPLE
MST .DEGC                   13.8 : MUD SAMPLE TEMPERATURE
RMF .OHMM                   1.28 : RESISTIVITY MUD FILTRATE SAMPLE
MFST.DEGC                   12.7 : MUD FILTRATE SAMPLE TEMPERATURE
RMC .OHMM                   1.98 : RESISTIVITY MUD CAKE
MCST.DEGC                   11.6 : MUD CAKE SAMPLE TEMPERATURE
MFSS.                       CIRC : MUD FILTRATE SAMPLE SOURCE
TCS .HRS                    2330 : TIME CIRCULATED STOPPED
LUN .                       7809 : LOGGING UNIT NUMBER
LUL .                        EDM : LOGGING UNIT LOCATION
ENGI.                GRAY BOUTIN : RECORDING ENGINEER
WITN.                    SPRAGUE : WITNESSED BY
CLNT.                    A2DTECH : CLIENT CODE
ORIG. 6.5"/100M 16.5"/100M PRINT : ORIGIN OF DATA
UWI .           100062705713W500 : UNIQUE WELL ID
DICO.     A2D Technologies, Inc. : DIGITIZING COMPANY
~Other -----------------------------------------------------
CNFD-DILSFL-SONIC LOG RUN
~ASCII -----------------------------------------------------
  300.00000    -999.25    -999.25    -999.25    -999.25    -999.25    -999.25    -999.25    -999.25    -999.25    -999.25    -999.25    -999.25    -999.25   52.72420   59.61020   52.72420    -999.25    -999.25    -999.25    -999.25    0.50230    0.46260    -999.25    -999.25    -999.25    -999.25    -999.25    -999.25    -999.25
  350.00000  233.84130  272.38930  233.84130  163.03900   54.50350 2450.83720    -999.25    0.11660    0.15160    6.13350   54.50350  328.40080  328.40080   91.46710   90.08440   91.46710    6.13350    5.20430    5.20430    -999.25    0.40920    0.36650 2450.83720    3.97450  -85.82720   -6.11900    3.97450 17177.29440 16915.76570
  400.00000  255.46540  323.75310  255.46540  178.86850  188.66650 2099.40720    -999.25    0.33530    0.35710    5.59070  188.66650  338.54660  338.54660  100.24180  109.74960  100.24180    5.59070    5.38540    5.38540    -999.25    0.42590    0.38360 2099.40720    4.99580  -83.54720   -2.70090    4.99580 18735.91840 17358.05320
  450.00000  247.95060  303.58570  247.95060  228.91680  227.67260 2046.17160    -999.25    0.35720    0.38820    4.36840  227.67260  321.72150  321.72150   89.84140  110.52820   89.84140    4.36840    3.88490    3.88490    -999.25    0.41390    0.37130 2046.17160    3.60040  -82.41810   -2.33400    3.60040 18565.38070 18242.34370
  500.00000  278.33040  295.50830  278.33040  157.42330  235.29190 2274.44850    -999.25    0.22040    0.25470    6.35230  235.29190  322.28860  322.28860  102.69510  105.01830  102.69510    6.35230    5.56240    5.56240    -999.25    0.37460    0.33130 2274.44850    4.97270  -82.67470   -3.35280    4.97270 19623.70560 18464.83930
  550.00000  311.80170  374.92270  311.80170  183.20050  209.11240 2089.60670    -999.25    0.33180    0.36280    5.45850  209.11240  334.88050  334.88050   87.23760   87.79120   87.23760    5.45850    4.98590    4.98590    -999.25    0.37730    0.33400 2089.60670    4.33110  -81.09190   -2.53220    4.33110 19976.45930 19577.87240
  600.00000  375.32240  314.88800  375.32240  178.54270  219.48520 2165.08030    -999.25    0.28810    0.31870    5.60090  219.48520  319.88500  319.88500   88.22030  104.72160   88.22030    5.60090    4.92870    4.92870    -999.25    0.42440    0.38210 2165.08030    4.22780  -82.31690   -4.51940    4.22780 20427.93870 20262.70500
  650.00000  374.82770  386.25370  374.82770  394.25960   99.48220 1713.14260    -999.25    0.55160    0.58300    2.53640   99.48220  354.66350  354.66350   81.68580   94.59310   81.68580    2.53640    2.30580    2.30580    -999.25    0.54830    0.51100 1713.14260    2.17410  -79.27460   -2.23930    2.17410 20951.36710 20599.67520
  700.00000  351.23390  332.08640  351.23390  289.82990  177.43830 1881.92940    -999.25    0.46480    0.48430    3.45030  177.43830  350.55310  350.55310   65.84330   80.71700   65.84330    3.45030    3.17260    3.17260    -999.25    0.47480    0.43390 1881.92940    2.66290  -80.34570   -4.07260    2.66290 16549.60760 21568.74470
  750.00000  315.99980  326.53910  315.99980  254.79010  131.17870 1725.38700    -999.25    0.54310    0.57580    3.92480  131.17870  344.68000  344.68000   68.29910   77.63170   68.29910    3.92480    3.52520    3.52520    -999.25    0.51010    0.47080 1725.38700    3.40940  -77.20360   -1.69270    3.40940 16243.81730 21497.79470
  800.00000  230.39220  275.90450  230.39220  107.98550   68.04870 2553.79770    -999.25    0.05740    0.09130    9.26050   68.04870  283.19650  283.19650   75.40270   80.80120   75.40270    9.26050    8.33710    8.33710    -999.25    0.36410    0.32060 2553.79770    7.61720  -89.71160  -13.05330    7.61720 15858.42830 22193.62200
  850.00000  231.59500  259.69270  231.59500   60.56860  118.55730 2422.81320    -999.25    0.14140    0.16790   16.51020  118.55730  283.67630  283.67630   48.12320   57.00760   48.12320   16.51020   15.80810   15.80810    -999.25    0.32190    0.27800 2422.81320   15.49480 -100.57650  -22.07170   15.49480 16456.75640 22747.77970
  900.00000  263.59860  268.42640  263.59860  206.67560  245.39090 2163.48930    -999.25    0.32930    0.31960    4.83850  245.39090  330.93090  330.93090   64.87390   69.60100   64.87390    4.83850    4.14360    4.14360    -999.25    0.44570    0.40390 2163.48930    3.59920  -84.54450   -4.19320    3.59920 17679.15170 22834.01160
  950.00000  224.33080  277.51430  224.33080  138.79250   92.44000 2596.68970    -999.25    0.03220    0.06630    7.20500   92.44000  287.97560  287.97560   71.45140   80.01250   71.45140    7.20500    6.87030    6.87030    -999.25    0.38110    0.33790 2596.68970    6.69760  -86.94030   -4.74250    6.69760 17983.23790 24509.78160
 1000.00000  375.27450  388.07110  375.27450  138.44090  175.40740 2413.63160    -999.25    0.14400    0.17330    7.22330  175.40740  285.38350  285.38350   93.35760  105.69180   93.35760    7.22330    6.87880    6.87880    -999.25    0.39120    0.34820 2413.63160    6.38250  -86.73600   -4.84540    6.38250 17857.43240 24397.33770
 1050.00000  272.59810  313.27150  272.59810  121.94530  190.72100 2229.71800    -999.25    0.23880    0.28090    8.20040  190.72100  307.90610  307.90610  121.46900  128.24920  121.46900    8.20040    7.17590    7.17590    -999.25    0.42920    0.38700 2229.71800    7.63340  -85.22000   -4.56850    7.63340 19460.45720 24580.68140
 1100.00000  273.36000  358.73330  273.36000  129.40630  216.21550 2376.45170    -999.25    0.16750    0.19510    7.72760  216.21550  287.42360  287.42360  108.29290  119.31710  108.29290    7.72760    6.99690    6.99690    -999.25    0.38450    0.34130 2376.45170    7.57290  -86.14800   -6.10120    7.57290 20218.09250 25393.81320
 1150.00000  301.74500  362.32460  301.74500  139.17880  257.98260 2300.73680    -999.25    0.22070    0.23930    7.18500  257.98260  288.38870  288.38870  116.74860  133.30680  116.74860    7.18500    6.81970    6.81970    -999.25    0.35250    0.30890 2300.73680    6.64410  -84.69070   -4.64390    6.64410 21045.41410 26097.71400
 1200.00000  275.72960  330.88850  275.72960  107.19840  181.74450 2500.90670    -999.25    0.09290    0.12230    9.32850  181.74450  265.34200  265.34200  109.31200  115.32150  109.31200    9.32850    8.91060    8.91060    -999.25    0.30170    0.25770 2500.90670    8.46470  -83.92810   -3.88130    8.46470 21106.53800 27025.16380
 1250.00000  251.29730  374.79790  251.29730  118.15020  161.42350 2360.47530    -999.25    0.17100    0.20440    8.46380  161.42350  262.11130  262.11130  112.61990  116.10400  112.61990    8.46380    8.16180    8.16180    -999.25    0.32490    0.28100 2360.47530    9.00740  -84.28970   -5.33160    9.00740 21289.09750 27005.86380
 1300.00000  309.64070  328.89320  309.64070  150.08250  231.23080 2137.40580    -999.25    0.32680    0.33490    6.66300  231.23080  310.67190  310.67190  121.05160  128.51820  121.05160    6.66300    6.19640    6.19640    -999.25    0.44980    0.40810 2137.40580    6.92650  -80.02130   -2.79130    6.92650 21656.79020 27379.02560
 1350.00000  307.09410  315.49400  307.09410  116.24260  264.20450 2371.23100    -999.25    0.16760    0.19810    8.60270  264.20450  302.72830  302.72830  133.77110  141.81160  133.77110    8.60270    8.08480    8.08480    -999.25    0.43560    0.39350 2371.23100    9.90360  -77.99720   -2.49530    9.90360 22519.92570 19005.46550
 1400.00000  401.40960  375.00000  401.40960  166.36720  206.00650 1947.87500    -999.25    0.40640    0.44570    6.01080  206.00650  300.30510  300.30510   97.67050  105.95510   97.67050    6.01080    5.34300    5.34300    -999.25    0.48720    0.44680 1947.87500    5.78620  -78.69690   -4.92310    5.78620 23577.43620 20059.17490
 1450.00000  375.10940  386.35260  375.10940  159.44130  254.66130 2169.97610    -999.25    0.28600    0.31580    6.27190  254.66130  277.15820  277.15820  104.96620  123.57170  104.96620    6.27190    6.05500    6.05500    -999.25    0.41300    0.37040 2169.97610    6.75440  -76.08690   -4.04120    6.75440 23001.32390 19703.08500
 1500.00000  404.92320  308.74620  404.92320  351.67930   50.27830 2000.66090    -999.25    0.38980    0.41480    2.84350   50.27830  299.99700  299.99700   99.80340  113.74990   99.80340    2.84350    2.63440    2.63440    -999.25    0.55210    0.51510 2000.66090    3.11320  -73.82010   -3.73810    3.11320 23940.83720 20251.71930
