~Version ---------------------------------------------------
VERS.      2.0 : CWLS log ASCII Standard -VERSION 2.0
WRAP.       NO : One line per depth step
CREA. 12/15/17 : LAS Creation Date
~Well ------------------------------------------------------
STRT.FT                          300.0 : START DEPTH
STOP.FT                         9800.0 : STOP DEPTH
STEP.FT                       50.00000 : STEP LENGTH
NULL.                          -999.25 : NULL VALUE
COMP.        CANADIAN GULF OIL COMPANY : COMPANY
WELL.              CGOC  IOSEGUN 15-28 : WELL
FLD .                                  : FIELD
LOC .                                  : LOCATION
CTRY.                           CANADA : COUNTRY
SRVC. Schlumberger Well Surveying Corp : SERVICE COMPANY
DATE.                      08-Aug-1954 : LOGDATE
PROV.                          Alberta : PROVINCE
UWI .                 100152806721W500 : UNIQUE WELL ID
SLAT.WGS84                    54.83244 : SURFACE LATITUDE
SLON.WGS84                   -117.1373 : SURFACE LONGITUDE
~Curve Information -----------------------------------------
DEPT   .FT         : Depth Curve
CONDWS .MMHO       : CONDUCTIVITY [1000/DRESWS]
DRESWS .OHMM       : DEEP RESISTIVITY [LNED]
GRN1ED .UgRa-Eq/T  : GAMMA RAY FROM GRN LOG [ADJ. TO EL LOG]
GRNED  .GAPI       : GAMMA RAY FROM NEUTRON LOG [ADJ. TO EL LOG]
GRWS   .GAPI       : GAMMA RAY [GRNED SPL. TO GRN1ED*16.50 @ 9390']
LNED   .OHMM       : 64 INCH LONG NORMAL RESISTIVITY FROM EL LOG
LT18ED .OHMM       : LATERAL 18' FROM EL LOG
NEUT1ED.NAPI       : NEUTRON FROM GRN LOG [ADJ. TO EL LOG]
NEUTED .NAPI       : NEUTRON FROM NEUTRON LOG [ADJ. TO EL LOG]
NEUTWS .NAPI       : NEUTRON [NEUTED SPL. TO NEUT1ED @ 9596']
SNED   .OHMM       : 16 INCH SHORT NORMAL RESISTIVITY FROM EL LOG
SPRED  .MV         : SPONTANEOUS POTENTIAL FROM EL LOG
SPWS   .MV         : SPONTANEOUS POTENTIAL [BASELINE 0 MV, SPRED]
SRESWS .OHMM       : SHALLOW RESISTIVITY [SNED]
~Params ----------------------------------------------------
LMF .                     KB : LOG MEASURED FROM
DMF .                     KB : DRILLING MEASURED FROM
EKB .FT                 2318 : KELLY BUSHING
DATE.               08/08/54 : RUN DATE
RUN .                      2 : RUN NUMBER
DD  .FT                 9832 : DEPTH DRILLER
DL  .FT                 9832 : DEPTH LOGGER
BLI .FT                 9832 : BOTTOM LOG INTERVAL
TLI .FT                 9667 : TOP LOG INTERVAL
CBD .FT                  597 : CASING BOTTOM DRILLER
CBL .FT                  597 : CASING BOTTOM LOGGER
BS  .IN                    9 : BIT SIZE
BSD .FT                 9832 : BIT SIZE AT DEPTH
DFT .                AQUAGEL : DRILLING FLUID TYPE
DFD .                   10.5 : DRILLING FLUID DENSITY
DFV .                    250 : DRILLING FLUID VISCOSITY
DFPH.                     10 : DRILLING FLUID PH
DFL .                    5.2 : DRILLING FLUID LOSS
MSS .               FLOWLINE : MUD SAMPLE SOURCE
RMS .OHMM                2.0 : RESISTIVITY MUD SAMPLE
MST .DEGF                 59 : MUD SAMPLE TEMPERATURE
RMB .OHMM                0.7 : RESISTIVITY MUD AT BHT
TCS .HRS                   2 : TIME CIRCULATED STOPPED
LUN .                    770 : LOGGING UNIT NUMBER
LUL .                     PR : LOGGING UNIT LOCATION
ENGI.                 CARSON : RECORDING ENGINEER
WITN.              SCHOMAKER : WITNESSED BY
CLNT.                A2DTECH : CLIENT CODE
ORIG.            2" 5" PRINT : ORIGIN OF DATA
UWI .       100152806721W500 : UNIQUE WELL ID
DICO. A2D Technologies, Inc. : DIGITIZING COMPANY
~Other -----------------------------------------------------
~ASCII -----------------------------------------------------
# ...
 5200.00000  177.09150    5.64680    -999.25   50.23000   50.23000    5.64680    5.05310    -999.25  121.86580  121.86580    5.25030 -160.28090   -8.17390    5.25030
 5250.00000   95.92510   10.42480    -999.25   52.57940   52.57940   10.42480    5.04670    -999.25   95.58450   95.58450    9.96920 -156.03510   -3.92810    9.96920
 5300.00000    6.76930  147.79510    -999.25   80.18910   80.18910  147.79510   81.79380    -999.25  156.34430  156.34430   64.41260 -158.11850   -6.22250   64.41260
 5350.00000    1.25580  796.27620    -999.25  192.56110  192.56110  796.27620  830.00860    -999.25  308.61710  308.61710  216.66830 -183.22760  -31.91230  216.66830
 5400.00000   55.86840   17.90000    -999.25   40.59550   40.59550   17.90000   12.77190    -999.25  338.35030  338.35030   24.04010 -218.45650  -67.71620   24.04010
 5450.00000   57.09750   17.51390    -999.25   35.07370   35.07370   17.51390    7.33210    -999.25  342.27440  342.27440   21.93800 -216.56240  -66.40280   21.93800
 5500.00000   44.70430   22.36920    -999.25   34.50340   34.50340   22.36920   11.31410    -999.25  383.00240  383.00240   24.50140 -225.67920  -76.09750   24.50140
 5550.00000   83.22660   12.01820    -999.25   43.46630   43.46630   12.01820    9.11700    -999.25  306.68840  306.68840   14.78120 -181.59740  -32.59070   14.78120
 5600.00000   65.96350   15.15990    -999.25   38.35630   38.35630   15.15990   10.13700    -999.25  354.15360  354.15360   15.38500 -181.37070  -32.94480   15.38500
 5650.00000   63.81610   15.67790    -999.25   98.47360   98.47360   15.67790   10.39430    -999.25  449.62760  449.62760   22.36860 -208.84740  -60.99640   22.36860
 5700.00000   14.90430   67.09470    -999.25   28.91520   28.91520   67.09470   12.98280    -999.25  539.39290  539.39290   47.01960 -300.49260 -153.22240   47.01960
 5750.00000   18.56180   53.87420    -999.25   37.66590   37.66590   53.87420   10.04960    -999.25  528.98430  528.98430   39.87520 -214.09140  -67.39910   39.87520
 5800.00000   18.21080   54.91250    -999.25   48.44620   48.44620   54.91250   51.64860    -999.25  472.53870  472.53870   31.81070 -221.14780  -75.03050   31.81070
 5850.00000    2.76460  361.71270    -999.25   28.85850   28.85850  361.71270  543.14530    -999.25  576.36980  576.36980  130.21740 -279.13740 -133.60090  130.21740
 5900.00000   11.76910   85.07700    -999.25   22.33540   22.33540   85.07700  763.75520    -999.25  584.77470  584.77470   51.58960 -243.25090  -98.28940   51.58960
 5950.00000    1.87710  532.74440    -999.25    6.65170    6.65170  532.74440  263.76910    -999.25  735.97250  735.97250  195.73190 -284.73070 -140.34990  195.73190
 6000.00000   18.86260   53.01510    -999.25   15.79010   15.79010   53.01510   46.43150    -999.25  541.46080  541.46080   41.05030 -278.12430 -134.32140   41.05030
 6050.00000    8.98570  112.29860    -999.25    6.72300    6.72300  112.29860  102.91000    -999.25  616.25030  616.25030   80.28650 -303.53650 -160.30850   80.28650
 6100.00000   32.87990   30.41370    -999.25    9.02460    9.02460   30.41370   17.59230    -999.25  295.30090  295.30090   34.67820 -319.49880 -176.85170   34.67820
 6150.00000   23.21470   43.07780    -999.25   25.80870   25.80870   43.07780   99.32160    -999.25  554.73070  554.73070   27.95260 -214.54130  -72.46910   27.95260
 6200.00000   10.35040   96.61460    -999.25   22.04390   22.04390   96.61460   49.71220    -999.25  539.62930  539.62930   54.83940 -177.91200  -36.42060   54.83940
 6250.00000   48.65920   20.55110    -999.25   20.94640   20.94640   20.55110  136.87720    -999.25  336.49150  336.49150   24.46260 -261.24860 -120.33510   24.46260
 6300.00000   34.30290   29.15310    -999.25   21.20800   21.20800   29.15310   32.13550    -999.25  390.49290  390.49290   22.23730 -220.06260  -79.72410   22.23730
 6350.00000   17.64000   56.68950    -999.25   16.45060   16.45060   56.68950   15.64680    -999.25  517.63430  517.63430   34.26350 -219.73700  -79.97930   34.26350
 6400.00000   35.15810   28.44360    -999.25   21.91340   21.91340   28.44360   20.82120    -999.25  595.05200  595.05200   30.60980 -211.02420  -71.84140   30.60980
 6450.00000    3.50850  285.02160    -999.25   14.24800   14.24800  285.02160  641.72360    -999.25  569.79680  569.79680  116.01220 -306.31920 -167.71720  116.01220
 6500.00000    4.04770  247.05280    -999.25   15.65100   15.65100  247.05280  211.18000    -999.25  651.72440  651.72440  115.00450 -311.71220 -173.68810  115.00450
 6550.00000    2.24380  445.68140    -999.25   14.60820   14.60820  445.68140  853.83560    -999.25  743.42830  743.42830  145.29190 -284.03670 -146.58750  145.29190
 6600.00000   70.81000   14.12230    -999.25   63.02940   63.02940   14.12230   78.05640    -999.25  237.61650  237.61650    8.84050 -166.93710  -30.06880    8.84050
 6650.00000   97.01490   10.30770    -999.25   39.06410   39.06410   10.30770    5.52040    -999.25  436.76100  436.76100   11.99160 -183.27390  -46.98050   11.99160
 6700.00000   40.23140   24.85620    -999.25   35.69340   35.69340   24.85620   16.68620    -999.25  271.11270  271.11270   32.41600 -176.77580  -40.34460   32.41600
 6750.00000   56.37300   17.73900    -999.25   23.58750   23.58750   17.73900    5.59020    -999.25  447.79530  447.79530   12.20220 -140.19670   -3.12540   12.20220
 6800.00000   14.17160   70.57380    -999.25   20.50950   20.50950   70.57380   99.31380    -999.25  446.72220  446.72220   38.43240 -155.37070  -17.66250   38.43240
 6850.00000   18.90580   52.89390    -999.25   17.89260   17.89260   52.89390   68.33840    -999.25  473.87090  473.87090   30.93270 -160.47130  -22.11980   30.93270
 6900.00000   14.04600   71.19620    -999.25   25.99260   25.99260   71.19620   61.19500    -999.25  477.14900  477.14900   39.13810 -164.71510  -25.72670   39.13810
 6950.00000    7.49720  133.38270    -999.25   14.17810   14.17810  133.38270  155.19090    -999.25  575.52160  575.52160   67.20010 -168.32550  -28.69380   67.20010
 7000.00000    7.15370  139.78760    -999.25   25.79560   25.79560  139.78760  201.19890    -999.25  567.37510  567.37510   62.15510 -182.82540  -42.55360   62.15510
 7050.00000    5.28010  189.39150    -999.25   17.44940   17.44940  189.39150  285.28100    -999.25  594.62370  594.62370   74.99590 -181.79750  -40.88890   74.99590
 7100.00000   10.62630   94.10620    -999.25   20.04480   20.04480   94.10620  129.71530    -999.25  594.57220  594.57220   54.33060 -182.96730  -41.41540   54.33060
 7150.00000   11.30220   88.48240    -999.25   31.23800   31.23800   88.48240   70.78650    -999.25  496.05270  496.05270   45.88700 -176.83230  -34.64350   45.88700
 7200.00000   10.72520   93.23870    -999.25   27.15520   27.15520   93.23870  157.82510    -999.25  531.01130  531.01130   49.37470 -163.51580  -20.68370   49.37470
 7250.00000    4.05980  246.31750    -999.25    9.55680    9.55680  246.31750  359.07800    -999.25  568.86620  568.86620   94.68060 -187.54970  -44.07750   94.68060
 7300.00000   23.97800   41.75020    -999.25  151.92000  151.92000   41.75020   47.85920    -999.25  254.98790  254.98790   25.52020 -155.29330  -11.25120   25.52020
 7350.00000    1.95070  512.63560    -999.25   12.35540   12.35540  512.63560  977.49290    -999.25  587.90280  587.90280  138.91500 -229.06560  -85.87550  138.91500
 7400.00000    2.79070  358.33150    -999.25   10.58690   10.58690  358.33150  572.01900    -999.25  743.44700  743.44700  113.68470 -225.69450  -83.34790  113.68470
 7450.00000    3.14580  317.88000    -999.25    6.00800    6.00800  317.88000 1038.41210    -999.25  766.82260  766.82260   95.48710 -214.47470  -72.98010   95.48710
 7500.00000    3.24500  308.16550    -999.25    6.99580    6.99580  308.16550  736.16260    -999.25  677.04800  677.04800   99.62810 -261.59400 -120.94720   99.62810
 7550.00000    4.80730  208.02160    -999.25    5.69820    5.69820  208.02160  363.97320    -999.25  690.71970  690.71970   77.41260 -248.98030 -109.17710   77.41260
 7600.00000    2.74740  363.98560    -999.25    7.37360    7.37360  363.98560  516.71770    -999.25  593.15340  593.15340  132.85220 -323.19620 -184.24500  132.85220
