~Version ---------------------------------------------------
VERS.      2.0 : CWLS log ASCII Standard -VERSION 2.0
WRAP.       NO : ONE LINE PER DEPTH STEP
CREA. 06/21/13 : LAS CREATION DATE
~Well ------------------------------------------------------
STRT.M                            350.0 : START DEPTH
STOP.M                           2350.0 : STOP DEPTH
STEP.M                         50.00000 : STEP LENGTH
NULL.                           -999.25 : NULL VALUE
COMP. CANADIAN RESERVE OIL AND GAS LTD. : COMPANY
WELL.   CDNRES ET AL OBERLIN 12-9-38-21 : WELL
FLD .                                   : FIELD
LOC .                                   : LOCATION
CTRY.                            CANADA : COUNTRY
SRVC.                           Unknown : SERVICE COMPANY
DATE.                       08-Feb-1984 : LOGDATE
PROV.                           Alberta : PROVINCE
UWI .                  100120903821W400 : UNIQUE WELL ID
SLAT.WGS84                     52.25356 : SURFACE LATITUDE
SLON.WGS84                    -112.9546 : SURFACE LONGITUDE
~Curve Information -----------------------------------------
DEPT    .M      : DEPTH METERS
CALDED  .MM     : CALIPER FROM DENSITY LOG
CALSED  .MM     : CALIPER FROM SONIC LOG
CALWS   .MM     : CALIPER [CALSED]
CONDWS  .MMHO   : CONDUCTIVITY [1000/DRESWS]
DCORWS  .KG/M3  : DENSITY CORRECTION [DRHOED]
DENWS   .KG/M3  : BULK DENSITY [RHOBED]
DPHILSED.V/V    : DENSITY POROSITY [M=2710 F=1000] FROM DENSITY LOG
DPHISSED.V/V    : DENSITY POROSITY [M=2650 F=1000] FROM DENSITY LOG
DPOLSWS .V/V    : DENSITY POROSITY LIMESTONE [CALCULATED FROM DENWS]
DRESWS  .OHMM   : DEEP RESISTIVITY [ILDED]
DRHOED  .KG/M3  : DENSITY CORRECTION FROM DENSITY LOG
DTED    .US/M   : DELTA TIME FROM SONIC LOG
DTWS    .US/M   : DELTA TIME [DTED]
GRDED   .GAPI   : GAMMA RAY FROM DENSITY LOG
GRSED   .GAPI   : GAMMA RAY FROM SONIC LOG
GRWS    .GAPI   : GAMMA RAY [GRSED], SPLICED WITH [GRDED] AT 2349
ILDED   .OHMM   : INDUCTION LOG DEEP RESISTIVITY
ILMED   .OHMM   : INDUCTION LOG MEDIUM RESISTIVITY
MRESWS  .OHMM   : MEDIUM RESISTIVITY [ILMED]
NPHILSED.V/V    : NEUTRON POROSITY LIMESTONE FROM DENSITY LOG
NPHISSED.V/V    : NEUTRON POROSITY SANDSTONE FROM DENSITY LOG
NPOLSWS .V/V    : NEUTRON POROSITY LIMESTONE, MATRIX CONVERTED [NPHISSED] FROM TOP TO 1390
RHOBED  .KG/M3  : BULK DENSITY FROM DENSITY LOG
SFLUED  .OHMM   : SPHERICALLY FOCUSED LOG RESISTIVITY
SPRED   .MV     : SPONTANEOUS POTENTIAL FROM RESISTIVITY LOG
SPWS    .MV     : SPONTANEOUS POTENTIAL [BASELINE 0 MV] [SPRED]
SRESWS  .OHMM   : SHALLOW RESISTIVITY [SFLUED]
TENDED  .N      : TENSION FROM DENSITY LOG
TENSED  .N      : TENSION FROM SONIC LOG
~Params ----------------------------------------------------
PD  .                         GL : PERMANENT DATUM
EPD .M                       846 : ELEVATION PERMANENT DATUM
LMF .                         KB : LOG MEASURED FROM
DAPD.M                         5 : FEET ABOVE PERMANENT DATUM
DMF .                         KB : DRILLING MEASURED FROM
EKB .M                       851 : KELLY BUSHING
EGL .M                       846 : GROUND LEVEL
DATE.                   02/08/84 : RUN DATE
RUN .                          1 : RUN NUMBER
DD  .M                      2370 : DEPTH DRILLER
DL  .M                    2369.5 : DEPTH LOGGER
BLI .M                    2368.5 : BOTTOM LOG INTERVAL
TLI .M                       389 : TOP LOG INTERVAL
CS  .MM                      219 : CASING SIZE
CBD .M                       390 : CASING BOTTOM DRILLER
CBL .M                       389 : CASING BOTTOM LOGGER
BS  .MM                      200 : BIT SIZE
BSD .M                      2370 : BIT SIZE AT DEPTH
DFT .                   GEL CHEM : DRILLING FLUID TYPE
DFD .                       1140 : DRILLING FLUID DENSITY
DFV .                         50 : DRILLING FLUID VISCOSITY
DFPH.                         11 : DRILLING FLUID PH
DFL .                       10.6 : DRILLING FLUID LOSS
MSS .                CIRCULATION : MUD SAMPLE SOURCE
RMS .OHMM                  0.661 : RESISTIVITY MUD SAMPLE
MST .DEGC                   17.7 : MUD SAMPLE TEMPERATURE
RMF .OHMM                  0.615 : RESISTIVITY MUD FILTRATE SAMPLE
MFST.DEGC                   18.3 : MUD FILTRATE SAMPLE TEMPERATURE
RMC .OHMM                  0.262 : RESISTIVITY MUD CAKE
MCST.DEGC                     72 : MUD CAKE SAMPLE TEMPERATURE
MFSS.                      PRESS : MUD FILTRATE SAMPLE SOURCE
RMB .OHMM                  0.278 : RESISTIVITY MUD AT BHT
TCS .HRS                    1200 : TIME CIRCULATED STOPPED
TLAB.HRS                     230 : TIME LOGGER AT BOTTOM
LUN .                       8210 : LOGGING UNIT NUMBER
LUL .                        EDM : LOGGING UNIT LOCATION
ENGI.                 BRANDSTROM : RECORDING ENGINEER
WITN.                     DAVIES : WITNESSED BY
CLNT.                    A2DTECH : CLIENT CODE
ORIG. 6.5"/100M 16.5"/100M PRINT : ORIGIN OF DATA
UWI .           100120903821W400 : UNIQUE WELL ID
DICO.     A2D Technologies, Inc. : DIGITIZING COMPANY
~Other -----------------------------------------------------
~ASCII -----------------------------------------------------
  350.00000    -999.25    -999.25    -999.25    -999.25    -999.25    -999.25    -999.25    -999.25    -999.25    -999.25    -999.25    -999.25    -999.25    -999.25   48.69150   68.69150    -999.25    -999.25    -999.25    -999.25    -999.25    -999.25    -999.25    -999.25    -999.25    -999.25    -999.25    -999.25    -999.25
  400.00000  264.32790  261.18600  261.18600  160.31290  193.81390 2307.23390    -999.25    0.19190    0.23550    6.23780  193.81390  331.39240  331.39240   69.45200   70.23740   70.23740    6.23780    4.79060    4.79060    -999.25    0.25680    0.20420 2307.23390    4.64210  -76.07730   -6.33020    4.64210 39885.53110 52682.25130
  450.00000  257.40040  245.37300  245.37300  117.00970   12.05030 2308.65940    -999.25    0.20760    0.23470    8.54630   12.05030  335.44260  335.44260   59.03250   53.64610   53.64610    8.54630    7.47600    7.47600    -999.25    0.28780    0.23600 2308.65940    6.67810  -76.09780   -6.96200    6.67810 41814.85630 54323.27920
  500.00000  272.77380  298.07490  298.07490  176.56930   53.02170 2100.53440    -999.25    0.59750    0.35640    5.66350   53.02170  370.54750  370.54750   91.92550   84.37280   84.37280    5.66350    3.76390    3.76390    -999.25    0.43610    0.39470 2100.53440    3.12060  -73.96860   -5.63590    3.12060 42783.95090 53370.10740
  550.00000  337.97190  246.25790  246.25790  181.31380  181.32180 1883.83620    -999.25    0.46640    0.48310    5.51530  181.32180  350.54390  350.54390   72.62230   69.63460   69.63460    5.51530    4.74150    4.74150    -999.25    0.46880    0.43110 1883.83620    5.12910  -72.48700   -5.25510    5.12910 45267.65260 54734.01890
  600.00000  268.91000  221.19090  221.19090  153.67830    1.93850 2384.16430    -999.25    0.17680    0.19050    6.50710    1.93850  306.85070  306.85070   63.34920   58.41760   58.41760    6.50710    6.04950    6.04950    -999.25    0.34650    0.29740 2384.16430    6.74030  -70.87690   -4.74580    6.74030 48863.85210 57095.83500
  650.00000  274.27800  217.40430  217.40430  238.12360   89.11360 1931.91970    -999.25    0.42100    0.45500    4.19950   89.11360  327.05860  327.05860   64.46140   66.26780   66.26780    4.19950    4.02060    4.02060    -999.25    0.47070    0.43320 1931.91970    3.85070  -69.65350   -4.62320    3.85070 53185.21340 61232.94900
  700.00000  293.85920  232.49690  232.49690  236.29490  212.48960 2361.83030    -999.25    0.17440    0.20360    4.23200  212.48960  338.49410  338.49410   62.87790   60.58940   60.58940    4.23200    3.53020    3.53020    -999.25    0.40140    0.35650 2361.83030    3.65630  -66.84130   -2.91180    3.65630 51098.17870 61949.46240
  750.00000  326.47790  237.28420  237.28420  224.68880  228.49940 2200.44410    -999.25    0.28060    0.29800    4.45060  228.49940  335.80380  335.80380   77.67540   71.61790   71.61790    4.45060    3.87720    3.87720    -999.25    0.42020    0.37710 2200.44410    4.12200  -66.11330   -3.28460    4.12200 52669.50770 64712.67830
  800.00000  238.95000  221.61650  221.61650   78.63060  243.38830 2714.59670    -999.25   -0.00650   -0.00270   12.71770  243.38830  279.71240  279.71240   75.84860   77.39050   77.39050   12.71770   11.15800   11.15800    -999.25    0.24350    0.19090 2714.59670   11.97200  -70.48570   -8.75780   11.97200 56558.53080 63171.86560
  850.00000  312.65970  248.02600  248.02600  120.45730  135.97110 2376.53390    -999.25    0.17070    0.19500    8.30170  135.97110  314.35640  314.35640  112.16750  101.46810  101.46810    8.30170    7.19950    7.19950    -999.25    0.35790    0.30960 2376.53390    8.00850  -67.83130   -7.20420    8.00850 56029.27330 66322.38170
  900.00000  298.92790  244.76440  244.76440  149.14240  173.12170 2442.41460    -999.25    0.12680    0.15650    6.70500  173.12170  321.64230  321.64230  120.44850  114.71450  114.71450    6.70500    6.03400    6.03400    -999.25    0.38760    0.34150 2442.41460    7.07000  -62.82720   -4.17370    7.07000 57803.66410 69669.55630
  950.00000  308.43710  240.64780  240.64780  151.69670  134.01310 2437.90480    -999.25    0.13100    0.15910    6.59210  134.01310  313.80330  313.80330  107.38640  110.94740  110.94740    6.59210    6.00040    6.00040    -999.25    0.33420    0.28440 2437.90480    5.67670  -60.90930   -5.46460    5.67670 60589.62800 69274.37110
 1000.00000  359.65530  246.26450  246.26450  141.95870   38.39150 2459.57180    -999.25    0.11610    0.14640    7.04430   38.39150  302.49400  302.49400  117.32480  112.04500  112.04500    7.04430    6.20380    6.20380    -999.25    0.29630    0.24480 2459.57180    6.59760  -59.63340   -7.39750    6.59760 63331.79330 73121.44560
 1050.00000  317.13050  259.83180  259.83180  116.08070   77.59760 2443.68800    -999.25    0.12120    0.15570    8.61470   77.59760  277.42840  277.42840  120.64650  118.58600  118.58600    8.61470    7.30580    7.30580    -999.25    0.30250    0.25120 2443.68800    7.67370  -58.11760   -9.09050    7.67370 65214.44600 75890.38210
 1100.00000  221.17760  212.64600  212.64600  127.47790    8.54970 2472.25220    -999.25    0.10580    0.13900    7.84450    8.54970  317.23590  317.23590  145.16860  145.59350  145.59350    7.84450    7.58190    7.58190    -999.25    0.35590    0.30740 2472.25220    9.65010  -51.78120   -5.96290    9.65010 66188.47990 75278.60130
 1150.00000  232.61000  216.86650  216.86650   98.00270   39.90230 2507.13110    -999.25    0.09350    0.11860   10.20380   39.90230  322.47630  322.47630  179.54230  161.72040  161.72040   10.20380    9.64760    9.64760    -999.25    0.38610    0.33990 2507.13110   12.06010  -49.70650   -7.09700   12.06010 67929.87580 78765.44330
 1200.00000  308.48510  238.44540  238.44540  273.99510  195.63570 2453.19510    -999.25    0.10950    0.15020    3.64970  195.63570  317.15750  317.15750  100.12940   97.90260   97.90260    3.64970    3.43740    3.43740    -999.25    0.33340    0.28360 2453.19510    4.10520  -46.18690   -6.78630    4.10520 68477.80410 81405.05830
 1250.00000  238.45640  217.07140  217.07140   94.10610    3.08370 2549.77490    -999.25    0.06080    0.09370   10.62630    3.08370  241.58300  241.58300   80.78200   81.96910   81.96910   10.62630   10.60470   10.60470    -999.25    0.20440    0.15330 2549.77490   13.93940  -45.18270   -8.99090   13.93940 72439.04070 84214.57850
 1300.00000  239.18530  221.90760  221.90760   82.30660    2.50400 2535.65870    -999.25    0.06740    0.10200   12.14970    2.50400  243.16950  243.16950   83.51670   74.58100   74.58100   12.14970   11.64810   11.64810    -999.25    0.26340    0.21080 2535.65870   14.39740  -41.39990   -8.41690   14.39740 74181.11010 86104.56840
 1350.00000  242.65140  214.77920  214.77920   60.87840   -1.33270 2614.53860    -999.25    0.02240    0.05580   16.42620   -1.33270  248.26700  248.26700   89.43140   80.87550   80.87550   16.42620   14.73860   14.73860    -999.25    0.26260    0.21000 2614.53860   16.89070  -39.01520   -9.24100   16.89070 74638.51340 87309.76470
 1400.00000  227.07810  208.85190  208.85190   22.06980   -2.86160 2518.57280    0.15830    0.07560    0.11190   45.31080   -2.86160  182.36340  182.36340   27.91420   26.77710   26.77710   45.31080  150.05080  150.05080    0.10310    0.16200    0.10310 2518.57280 1707.90270  -38.61400  -12.04860 1707.90270 76584.45280 87404.66340
 1450.00000  518.27950  324.12550  324.12550  200.74680  103.01400 2503.62520    0.11330    0.08180    0.12070    4.98140  103.01400  278.49780  278.49780  111.32100   91.49240   91.49240    4.98140    4.04900    4.04900    0.21660    0.26210    0.21660 2503.62520    5.19880  -32.21160   -8.85510    5.19880 78382.11260 90730.11380
 1500.00000  241.67900  222.32440  222.32440   48.35150  110.09440 2652.46800    0.02100   -0.01490    0.03360   20.68190  110.09440  213.35220  213.35220   43.91860   57.46050   57.46050   20.68190   13.25920   13.25920    0.05880    0.09470    0.05880 2652.46800   15.45230  -29.53740   -4.70490   15.45230 82652.13140 93574.21860
 1550.00000  239.79650  221.96740  221.96740    1.77380   -6.78420 2926.09620   -0.13770    -999.25   -0.12640  563.75360   -6.78420  164.54540  164.54540    9.52510   11.85800   11.85800  563.75360 1951.18190 1951.18190   -0.00380    -999.25   -0.00380 2926.09620 1992.97190  -42.39700  -18.70450 1992.97190 82485.60290 93992.35830
