~Version ---------------------------------------------------
VERS. 2.0 : CWLS log ASCII Standard -VERSION 2.0
WRAP.  NO : ONE LINE PER DEPTH STEP
~Well ------------------------------------------------------
STRT.M                            400.0 : START DEPTH
STOP.M                           2750.0 : STOP DEPTH
STEP.M                         50.00000 : STEP LENGTH
NULL.                           -999.25 : NULL VALUE
COMP.                MONT RESOURCES LTD : COMPANY
WELL. LINK ET AL SNIPE LAKE 16-36-69-18 : WELL
FLD .                                   : FIELD
LOC .                                   : LOCATION
CTRY.                            CANADA : COUNTRY
SRVC.                           Unknown : SERVICE COMPANY
DATE.                       27-Jan-1980 : LOGDATE
PROV.                           Alberta : PROVINCE
UWI .                  100163606918W500 : UNIQUE WELL ID
SLAT.WGS84                     55.02242 : SURFACE LATITUDE
SLON.WGS84                    -116.5976 : SURFACE LONGITUDE
~Curve Information -----------------------------------------
DEPT   .M                 : 
ILD    .OHMM 07 120 46 00 : INDUCTION DEEP RESISTIVITY
ILM    .OHMM 07 120 44 00 : INDUCTION MEDIUM RESISTIVITY
SFL    .OHMM 07 220 01 00 : SPHERICALLY FOCUSED LOG
SPR    .MV   07 010 01 00 : SPONTANEOUS POTENTIAL FROM RESISTIVITY LOG
GRS    .GAPI 60 310 01 00 : GAMMA RAY FROM SONIC LOG
CALS   .MM   60 280 50 00 : CALIPER FROM SONIC LOG
DT     .US/M 60 500 00 00 : DELTA-T (INTERVAL TRANSIT TIME)
GRD    .GAPI 45 310 01 00 : GAMMA RAY FROM DENSITY LOG
DCOR   .K/M3 45 356 01 00 : DENSITY CORRECTION
RHOB   .K/M3 45 350 01 00 : BULK DENSITY
CALD   .MM   45 280 60 00 : CALIPER FROM DENSITY LOG
NPHI_SS.DEC  42 890 03 00 : NEUTRON POROSITY SANDSTONE
DPHI_SS.DEC  45 890 12 00 : DENSITY POROSITY SANDSTONE
NPHI_LS.DEC  42 890 01 00 : NEUTRON POROSITY LIMESTONE
DPHI_LS.DEC  45 890 10 00 : DENSITY POROSITY LIMESTONE
~Params ----------------------------------------------------
PD  .                         GL : PERMANENT DATUM
EPD .M                     889.8 : ELEVATION PERMANENT DATUM
LMF .                         KB : LOG MEASURED FROM
DAPD.M                       5.2 : FEET ABOVE PERMANENT DATUM
DMF .                         KB : DRILLING MEASURED FROM
EKB .M                       895 : KELLY BUSHING
EGL .M                     889.8 : GROUND LEVEL
DATE.                   01/27/80 : RUN DATE
RUN .                          1 : RUN NUMBER
DD  .M                      2765 : DEPTH DRILLER
DL  .M                    2766.4 : DEPTH LOGGER
BLI .M                    2765.4 : BOTTOM LOG INTERVAL
TLI .M                     371.1 : TOP LOG INTERVAL
CS  .MM                      244 : CASING SIZE
CBD .M                       370 : CASING BOTTOM DRILLER
CBL .M                     371.1 : CASING BOTTOM LOGGER
BS  .MM                      222 : BIT SIZE
BSD .M                      2765 : BIT SIZE AT DEPTH
DFT .                        GEL : DRILLING FLUID TYPE
DFD .                       1165 : DRILLING FLUID DENSITY
DFV .                         83 : DRILLING FLUID VISCOSITY
DFPH.                        9.5 : DRILLING FLUID PH
DFL .                          7 : DRILLING FLUID LOSS
MSS .                CIRCULATION : MUD SAMPLE SOURCE
RMS .OHMM                   2.22 : RESISTIVITY MUD SAMPLE
MST .DEGC                     16 : MUD SAMPLE TEMPERATURE
RMF .OHMM                   1.86 : RESISTIVITY MUD FILTRATE SAMPLE
MFST.DEGC                     20 : MUD FILTRATE SAMPLE TEMPERATURE
MFSS.                  MUD PRESS : MUD FILTRATE SAMPLE SOURCE
MCSS.                  MUD PRESS : MUD CAKE SAMPLE SOURCE
RMB .OHMM                  0.927 : RESISTIVITY MUD AT BHT
TCS .HRS                    1030 : TIME CIRCULATED STOPPED
TLAB.HRS                    1700 : TIME LOGGER AT BOTTOM
LUN .                       7802 : LOGGING UNIT NUMBER
LUL .                        EDM : LOGGING UNIT LOCATION
ENGI.                 RIVOLLIMER : RECORDING ENGINEER
WITN.                     HOMMEL : WITNESSED BY
CLNT.                    A2DTECH : CLIENT CODE
ORIG. 6.5"/100M 16.5"/100M PRINT : ORIGIN OF DATA
UWI .           100163606918W500 : UNIQUE WELL ID
DICO.     A2D Technologies, Inc. : DIGITIZING COMPANY
~Other -----------------------------------------------------
~ASCII -----------------------------------------------------
  400.00000    3.03820    2.86630    2.61790  -43.39220    -999.25  233.98460    -999.25   53.76710   89.21780 1943.44750  231.76290    0.59920    0.42270    -999.25    -999.25
  450.00000    5.49760    5.03310    4.78740  -68.56790    -999.25  250.19670    -999.25   60.51580   66.02700 2190.85570  284.74700    0.52750    0.31720    -999.25    -999.25
  500.00000    4.49100    4.18710    3.83350  -67.67140    -999.25  257.99520    -999.25   51.93610   21.93460 2207.21510  259.06770    0.47690    0.29300    -999.25    -999.25
  550.00000    4.57180    4.29910    3.89090  -63.83020    -999.25  229.86260    -999.25   54.83530  122.12170 2090.95750  234.54200    0.51770    0.32710    -999.25    -999.25
  600.00000    3.96220    3.68700    3.65570  -63.53090    -999.25  279.02590    -999.25   67.75940  112.33520 2181.79390  329.33970    0.49670    0.27640    -999.25    -999.25
  650.00000    5.63540    5.01720    5.27020  -69.74540    -999.25  316.77800    -999.25    -999.25    -999.25    -999.25    -999.25    -999.25    -999.25    -999.25    -999.25
  700.00000    4.92520    4.53060    5.08510  -65.50340    -999.25  267.84270    -999.25    -999.25    -999.25    -999.25    -999.25    -999.25    -999.25    -999.25    -999.25
  750.00000    6.51710    5.83780    5.67560  -72.11950    -999.25  297.34200    -999.25    -999.25    -999.25    -999.25    -999.25    -999.25    -999.25    -999.25    -999.25
  800.00000    6.86660    6.00720    5.75180  -71.54780    -999.25  365.16100    -999.25    -999.25    -999.25    -999.25    -999.25    -999.25    -999.25    -999.25    -999.25
  850.00000    4.66870    4.39580    4.90060  -63.85460    -999.25  249.98410    -999.25    -999.25    -999.25    -999.25    -999.25    -999.25    -999.25    -999.25    -999.25
  900.00000    6.18260    5.91630    7.31720  -61.70100    -999.25  251.32370    -999.25    -999.25    -999.25    -999.25    -999.25    -999.25    -999.25    -999.25    -999.25
  950.00000    4.50210    4.36210    4.57890  -57.76480    -999.25  248.65180    -999.25    -999.25    -999.25    -999.25    -999.25    -999.25    -999.25    -999.25    -999.25
 1000.00000    4.40330    4.06380    4.23900  -58.66060    -999.25  243.16210    -999.25    -999.25    -999.25    -999.25    -999.25    -999.25    -999.25    -999.25    -999.25
 1050.00000    2.02480    1.90620    2.25740  -52.23930    -999.25  263.03180    -999.25    -999.25    -999.25    -999.25    -999.25    -999.25    -999.25    -999.25    -999.25
 1100.00000    3.02980    2.92810    3.31530  -56.05830    -999.25  255.09600    -999.25  100.34650   71.45610 2416.04390  285.93610    0.40640    0.15100    -999.25    -999.25
 1150.00000    3.07830    3.23270    4.12790  -55.29870    -999.25  245.42430    -999.25   76.03090   48.51520 2455.61990  253.58270    0.40440    0.11730    -999.25    -999.25
 1200.00000    3.39220    4.15820    7.20870  -91.04550    -999.25  238.97500    -999.25   48.44650   23.34990 2393.83910  236.41930    0.26850    0.11860    -999.25    -999.25
 1250.00000    2.26880    3.36950    4.74520 -111.57750    -999.25  233.75930    -999.25   59.92160   12.44460 2237.89330  234.58730    0.40470    0.26390    -999.25    -999.25
 1300.00000    3.51380    6.03990   13.29850 -134.21480    -999.25  214.16040    -999.25   48.51090   57.11240 2382.65010  215.69110    0.31130    0.17470    -999.25    -999.25
 1350.00000    3.04700    4.91390   10.20460 -120.07150    -999.25  227.03670    -999.25   65.82990   12.09370 2270.63130  223.81990    0.38160    0.20740    -999.25    -999.25
 1400.00000    4.37210    4.65010    4.90500  -64.36070    -999.25  265.85870    -999.25  100.65760    1.44490 2513.23730  281.91090    0.37320    0.11700    -999.25    -999.25
 1450.00000    8.42010    9.12260   13.00540  -78.15740    -999.25  252.38490    -999.25   79.72490   -0.20590 2459.16670  245.78660    0.40760    0.20920    -999.25    -999.25
 1500.00000    2.35600    3.46490    7.48810 -141.56340   50.13620  219.82550  266.65350   46.85920   68.56790 2428.51710  231.39400    0.26400    0.11260    -999.25    -999.25
 1550.00000    1.79300    2.96460   10.26870 -144.83430   73.57480  215.17380  253.09700   76.11960   43.05710 2450.79050  214.71000    0.27770    0.14420    0.23030    0.16340
 1600.00000    3.36760    4.57850   16.19100 -163.65590   25.74770  219.75000  170.39940   26.53470   68.58800 2755.36180  219.00710    -999.25    -999.25    0.12430   -0.02010
 1650.00000   13.10060   15.17960   17.45990  -67.08890   77.74780  255.37070  225.17050   71.46280  123.52250 2496.66940  258.75640    -999.25    -999.25    0.15800    0.15780
 1700.00000    6.42660    7.98940   16.07090  -85.70260   30.35300  244.44270  186.47050   23.45930    0.00910 2651.17720  238.77850    -999.25    -999.25    0.10110    0.04200
 1750.00000   24.01040   33.74710  136.70330 -165.12930   19.44830  232.94280  179.13910   14.97250   47.68420 2597.97240  231.43000    -999.25    -999.25    0.06610    0.06550
 1800.00000    3.58660    3.90030    5.66010  -77.17870    -999.25  275.83360    -999.25    -999.25    -999.25    -999.25    -999.25    -999.25    -999.25    -999.25    -999.25
 1850.00000   30.26560   43.54450   84.72820  -64.72940    -999.25  259.65260    -999.25    -999.25    -999.25    -999.25    -999.25    -999.25    -999.25    -999.25    -999.25
 1900.00000   20.58020   22.22690   25.17670  -71.27790    -999.25  226.91190    -999.25    -999.25    -999.25    -999.25    -999.25    -999.25    -999.25    -999.25    -999.25
 1950.00000   11.25870   12.39240   16.38350  -50.34230    -999.25  225.80550    -999.25    -999.25    -999.25    -999.25    -999.25    -999.25    -999.25    -999.25    -999.25
 2000.00000   43.94280   49.36300   78.36730 -106.97110   14.61050  219.98750  171.71300   13.19400   21.22940 2676.00510  220.16880    -999.25    -999.25    0.18780    0.17210
 2050.00000   43.17710   44.83590  116.70120 -124.05410   14.66560  220.42520  169.85360   12.96070   -4.68260 2658.46580  220.86510    -999.25    -999.25    0.17010    0.17530
 2100.00000   42.99570   62.16760  111.02110 -156.74730   12.89310  223.42260  164.81750   10.41260   16.80250 2689.98440  224.48550    -999.25    -999.25    0.17620    0.18740
 2150.00000  136.31960  225.88600  279.66740 -153.57380   15.32910  224.77190  160.85980   12.99940   -1.11200 2699.82030  223.49490    -999.25    -999.25    0.16640    0.17520
 2200.00000   94.08460  138.07710  292.76240 -181.16590   11.46380  231.10270  169.31900   12.07170   56.11630 2661.53690  251.57660    -999.25    -999.25    0.20080    0.21050
 2250.00000    0.89100    1.38620    8.64580 -210.16310   30.88990  211.83910  210.15970   29.72700   75.33510 2524.36500  213.23810    -999.25    -999.25    0.38340    0.24150
 2300.00000   24.05940   30.27210   36.70770 -110.91960   25.18670  226.05870  166.48940   23.99290   11.01930 2756.05860  224.38420    -999.25    -999.25    0.24910    0.10390
 2350.00000   13.66090   15.55680   17.51970  -45.75180    -999.25  224.53550  202.49420   51.78310  105.02840 2703.68360  223.68830    -999.25    -999.25    0.25370    0.14190
 2400.00000    3.32350    3.48490    3.80320  -69.47060    -999.25  283.98600    -999.25    -999.25    -999.25    -999.25    -999.25    -999.25    -999.25    -999.25    -999.25
 2450.00000    3.78720    4.02570    4.56480  -65.10830    -999.25  314.00040    -999.25    -999.25    -999.25    -999.25    -999.25    -999.25    -999.25    -999.25    -999.25
 2500.00000    8.65930   10.01100   11.52350  -39.02400    -999.25  222.73890    -999.25    -999.25    -999.25    -999.25    -999.25    -999.25    -999.25    -999.25    -999.25
 2550.00000    7.41290    8.20170   10.95650  -37.02080    -999.25  222.03580    -999.25    -999.25    -999.25    -999.25    -999.25    -999.25    -999.25    -999.25    -999.25
 2600.00000    5.57530    6.09790    7.77960  -54.97050    -999.25  225.06890    -999.25    -999.25    -999.25    -999.25    -999.25    -999.25    -999.25    -999.25    -999.25
 2650.00000   20.34140   23.12850   29.30930  -16.17530    -999.25  221.89780    -999.25    -999.25    -999.25    -999.25    -999.25    -999.25    -999.25    -999.25    -999.25
