~Version ---------------------------------------------------
VERS.      2.0 : CWLS log ASCII Standard -VERSION 2.0
WRAP.       NO : One line per depth step
CREA. 01/02/18 : LAS Creation Date
~Well ------------------------------------------------------
STRT.FT                          1500.0 : START DEPTH
STOP.FT                         13000.0 : STOP DEPTH
STEP.FT                        50.00000 : STEP LENGTH
NULL.                           -999.25 : NULL VALUE
COMP.  AMOCO CANADA PETROLEUM CO., LTD. : COMPANY
WELL. AMOCO ET AL BERLAND D-1 6-7-60-22 : WELL
FLD .                                   : FIELD
LOC .                                   : LOCATION
CTRY.                            CANADA : COUNTRY
SRVC.                      Schlumberger : SERVICE COMPANY
DATE.                       10-Dec-1976 : LOGDATE
PROV.                           Alberta : PROVINCE
UWI .                  100060706022W500 : UNIQUE WELL ID
SLAT.WGS84                     54.17117 : SURFACE LATITUDE
SLON.WGS84                    -117.2921 : SURFACE LONGITUDE
~Curve Information -----------------------------------------
DEPT    .FT    : Depth Curve
CALDED  .IN    : CALIPER FROM DENSITY LOG
CALSED  .IN    : CALIPER FROM SONIC LOG
CALWS   .IN    : CALIPER [CALDED]
CONDWS  .MMHO  : CONDUCTIVITY [1000/DRESWS]
DCORED  .G/C3  : DENSITY CORRECTION FROM DENSITY LOG
DCORWS  .G/C3  : DENSITY CORRECTION [DCORED]
DENWS   .G/C3  : BULK DENSITY [M=2.71 F=1.00] [TOP RHOBED 2287.5 M CALC. DPHISSED 7505' DPHILSED]
DPHILSED.V/V   : DENSITY POROSITY [M=2.71 F=1.00] FROM DENSITY LOG
DPHISSED.V/V   : DENSITY POROSITY [M=2.65 F=1.00] FROM DENSITY LOG
DPOLSWS .V/V   : DENSITY POROSITY [M=2.71 F=1.00] [CALC. FROM DENWS]
DRESWS  .OHMM  : DEEP RESISTIVITY [ILDED]
DTED    .US/F  : DELTA TIME FROM SONIC LOG [DEPTH ADJ TO LL8]
DTWS    .US/F  : DELTA TIME [DTED]
GRDED   .GAPI  : GAMMA RAY FROM DENSITY LOG
GRSED   .GAPI  : GAMMA RAY FROM SONIC LOG
GRWS    .GAPI  : GAMMA RAY [GRSED]
ILDED   .OHMM  : INDUCTION LOG DEEP RESISTIVITY
ILMED   .OHMM  : INDUCTION LOG MEDIUM RESISTIVITY
LL8ED   .OHMM  : 8 INCH LATEROLOG RESISTIVITY
MRESWS  .OHMM  : MEDIUM RESISTIVITY [ILMED]
NPHILSED.V/V   : NEUTRON POROSITY LIMESTONE FROM DENSITY LOG
NPHISSED.V/V   : NEUTRON POROSITY SANDSTONE FROM DENSITY LOG
NPOLSWS .V/V   : NEUTRON POROSITY LIMESTONE [TOP NPHISSED CONVERTED TO LIME FROM POWER LOG, 8750' NPHILSED]
RHOBED  .G/C3  : BULK DENSITY FROM DENSITY LOG [DEPTH ADJ TO LL8]
SPRED   .MV    : SPONTANEOUS POTENTIAL FROM RESISTIVITY LOG
SPWS    .MV    : SPONTANEOUS POTENTIAL [BASELINE 0 MV] [SPRED]
SRESWS  .OHMM  : SHALLOW RESISTIVITY [LL8ED]
~Params ----------------------------------------------------
PD  .                     GL : PERMANENT DATUM
EPD .M                  3639 : ELEVATION PERMANENT DATUM
LMF .                     KB : LOG MEASURED FROM
DAPD.M                    16 : FEET ABOVE PERMANENT DATUM
EKB .M                  3655 : KELLY BUSHING
EGL .M                  3639 : GROUND LEVEL
DATE.             12/10/1976 : RUN DATE
RUN .                      2 : RUN NUMBER
DD  .M                 12990 : DEPTH DRILLER
DL  .M                 13000 : DEPTH LOGGER
BLI .M                 12994 : BOTTOM LOG INTERVAL
TLI .M                  7504 : TOP LOG INTERVAL
CBD .M                  7499 : CASING BOTTOM DRILLER
CBL .M                  7504 : CASING BOTTOM LOGGER
BS  .MM                  8.5 : BIT SIZE
BSD .M                 13000 : BIT SIZE AT DEPTH
DFT .             GEL BARITE : DRILLING FLUID TYPE
DFD .                    9.1 : DRILLING FLUID DENSITY
DFV .                     73 : DRILLING FLUID VISCOSITY
DFPH.                    9.5 : DRILLING FLUID PH
DFL .                    8.9 : DRILLING FLUID LOSS
MSS .               FLOWLINE : MUD SAMPLE SOURCE
RMS .OHMM               1.44 : RESISTIVITY MUD SAMPLE
MST .DEGC                 60 : MUD SAMPLE TEMPERATURE
RMF .OHMM               1.12 : RESISTIVITY MUD FILTRATE SAMPLE
MFST.DEGC                 55 : MUD FILTRATE SAMPLE TEMPERATURE
RMB .OHMM               0.26 : RESISTIVITY MUD AT BHT
TCS .HRS                 6.5 : TIME CIRCULATED STOPPED
LUN .                   7635 : LOGGING UNIT NUMBER
LUL .                    EDM : LOGGING UNIT LOCATION
ENGI.                 MACKAY : RECORDING ENGINEER
WITN.                SHIRLEY : WITNESSED BY
CLNT.                A2DTECH : CLIENT CODE
ORIG.            2" 5" PRINT : ORIGIN OF DATA
UWI .       100060706022W500 : UNIQUE WELL ID
DICO. A2D Technologies, Inc. : DIGITIZING COMPANY
~Other -----------------------------------------------------
SPRED INTERFERENCE CAUSING RANDOM DRIFTING OF THE BASE LINE ABOVE 7218'
~ASCII -----------------------------------------------------
# ...
 11900.00000    7.79160    8.65300    7.79160   16.49480    0.16310    0.16310    2.75050   -0.02370    -999.25   -0.02370   60.62500   50.57500   50.57500   17.46180   14.84970   14.84970   60.62500   66.99520  200.08450   66.99520    0.11250    -999.25    0.11250    2.74990  -68.11600 -103.60840  200.08450
 11950.00000    9.02550    9.11700    9.02550    0.92690    0.25370    0.25370    2.71340   -0.00200    -999.25   -0.00200 1078.91000   47.08010   47.08010   19.84200   19.39470   19.39470 1078.91000  147.51990 1365.98470  147.51990    0.04590    -999.25    0.04590    2.71180   16.58370  -15.30550 1365.98470
 12000.00000    7.94670    8.97400    7.94670    3.38700    0.01210    0.01210    2.84990   -0.08180    -999.25   -0.08180  295.24480   48.26520   48.26520   11.54420   12.07630   12.07630  295.24480  234.83630 1403.19140  234.83630    0.03810    -999.25    0.03810    2.84380   27.07120   -1.32650 1403.19140
 12050.00000    8.47430    9.15300    8.47430    0.80130    0.09830    0.09830    2.74250   -0.01900    -999.25   -0.01900 1248.01430   48.47420   48.47420   22.17930   20.66260   20.66260 1248.01430  310.17150 1370.67430  310.17150    0.04750    -999.25    0.04750    2.74820   12.22480  -14.80520 1370.67430
 12100.00000   11.21220    9.69800   11.21220    3.14380    0.24960    0.24960    2.39550    0.18390    -999.25    0.18390  318.08710   52.04800   52.04800   19.67890   19.11380   19.11380  318.08710  638.71820  886.04820  638.71820    0.03820    -999.25    0.03820    2.40580    7.61190  -18.05040  886.04820
 12150.00000    7.50970    8.11000    7.50970   56.59440    0.04350    0.04350    2.66960    0.02360    -999.25    0.02360   17.66960   53.11660   53.11660   23.86730   24.69870   24.69870   17.66960   27.21960  102.74100   27.21960    0.09120    -999.25    0.09120    2.66970  -55.14240  -79.43690  102.74100
 12200.00000    9.88520    9.47300    9.88520    0.68530    0.17590    0.17590    2.74400   -0.01990    -999.25   -0.01990 1459.23250   47.68660   47.68660   19.04440   18.56040   18.56040 1459.23250 1516.85300 1400.32790 1516.85300    0.02910    -999.25    0.02910    2.74710   20.86500   -2.06180 1400.32790
 12250.00000    7.77770    8.81500    7.77770    0.66540    0.02320    0.02320    2.79570   -0.05010    -999.25   -0.05010 1502.76590   48.30510   48.30510   14.02500   14.10900   14.10900 1502.76590 1085.01540 1403.51340 1085.01540    0.02480    -999.25    0.02480    2.79900   15.18150   -6.37760 1403.51340
 12300.00000    8.03590    8.82000    8.03590    0.82510    0.07050    0.07050    2.75720   -0.02760    -999.25   -0.02760 1212.02440   45.99240   45.99240   14.85240   11.51520   11.51520 1212.02440 1346.60290 1332.25770 1346.60290    0.02830    -999.25    0.02830    2.74130  -10.23720  -30.42860 1332.25770
 12350.00000    9.78570    9.76900    9.78570    0.85070    0.21330    0.21330    2.31600    0.23040    -999.25    0.23040 1175.57090   46.97070   46.97070   13.54590   13.36010   13.36010 1175.57090  568.28160 1138.39070  568.28160    0.02630    -999.25    0.02630    2.34640   15.10620   -3.71750 1138.39070
 12400.00000   11.83070    9.74500   11.83070    3.02050    0.24950    0.24950    2.45080    0.15160    -999.25    0.15160  331.06620   51.39860   51.39860   14.93590   14.33230   14.33230  331.06620 1591.75650  388.72330 1591.75650    0.05670    -999.25    0.05670    2.46170    4.42850  -13.02740  388.72330
 12450.00000    8.09180    8.99400    8.09180    0.64830    0.00980    0.00980    2.69530    0.00860    -999.25    0.00860 1542.55710   52.39640   52.39640   29.19960   31.86660   31.86660 1542.55710  560.21370 1399.95740  560.21370    0.00700    -999.25    0.00700    2.69510    6.21440   -9.87380 1399.95740
 12500.00000    8.56720    9.38800    8.56720    0.65200    0.16920    0.16920    2.71050   -0.00030    -999.25   -0.00030 1533.65470   48.95050   48.95050   12.34550   13.55310   13.55310 1533.65470  424.28940 1343.64100  424.28940   -0.00110    -999.25   -0.00110    2.72290   -7.63090  -22.35140 1343.64100
 12550.00000    8.49450    9.14100    8.49450    0.64730    0.05530    0.05530    2.63630    0.04310    -999.25    0.04310 1544.77730   50.13160   50.13160   14.76540   12.93380   12.93380 1544.77730  846.88040 1398.88720  846.88040   -0.00130    -999.25   -0.00130    2.61720  -22.97780  -36.33060 1398.88720
 12600.00000    7.91370    9.26350    7.91370    0.66760    0.08940    0.08940    2.72540   -0.00900    -999.25   -0.00900 1497.84790   48.29320   48.29320   14.08840   12.77990   12.77990 1497.84790  542.42710 1417.35850  542.42710    0.00020    -999.25    0.00020    2.70930  -31.03020  -43.01520 1417.35850
 12650.00000    8.83910    9.56700    8.83910    0.66410    0.16020    0.16020    2.67000    0.02340    -999.25    0.02340 1505.69010   48.66160   48.66160   10.48090   10.05450   10.05450 1505.69010 1449.42100 1394.32230 1449.42100    0.00570    -999.25    0.00570    2.68700   -3.39140  -14.00870 1394.32230
 12700.00000   10.40760    9.80700   10.40760    0.95750    0.24850    0.24850    2.43080    0.16330    -999.25    0.16330 1044.42550   49.44270   49.44270   20.33560   21.54350   21.54350 1044.42550  223.01830 1141.86950  223.01830   -0.00130    -999.25   -0.00130    2.43830  -11.04410  -20.29370 1141.86950
 12750.00000    8.11190    9.13500    8.11190    0.65910    0.00920    0.00920    2.71870   -0.00510    -999.25   -0.00510 1517.31020   49.76800   49.76800   18.98070   15.37240   15.37240 1517.31020 1423.29150 1401.15220 1423.29150   -0.00130    -999.25   -0.00130    2.72520  -39.34040  -47.22230 1401.15220
 12800.00000   10.28390    9.49800   10.28390    0.60690    0.22180    0.22180    2.36920    0.19930    -999.25    0.19930 1647.81140   48.82190   48.82190   25.42370   24.10680   24.10680 1647.81140 1465.43810 1434.39390 1465.43810    0.00390    -999.25    0.00390    2.41680   -9.68860  -16.20280 1434.39390
 12850.00000   10.44280    9.85100   10.44280    1.20560    0.25010    0.25010    2.26190    0.26210    -999.25    0.26210  829.48210   47.80000   47.80000   17.48230   15.52750   15.52750  829.48210  539.26410  759.85020  539.26410    0.00190    -999.25    0.00190    2.28970   -2.68570   -7.83210  759.85020
 12900.00000    9.81660    9.22600    9.81660    1.74350    0.24510    0.24510    2.43460    0.16110    -999.25    0.16110  573.54600   49.54990   49.54990   25.45600   23.45140   23.45140  573.54600  400.58510 1360.56920  400.58510    0.01610    -999.25    0.01610    2.43690   -7.02240  -10.80110 1360.56920
 12950.00000    7.81940    8.81700    7.81940   15.42340    0.06330    0.06330    2.62340    0.05070    -999.25    0.05070   64.83640   55.28430   55.28430  133.64750  130.52660  130.52660   64.83640   44.39710  120.39560   44.39710    0.03060    -999.25    0.03060    2.62240  -28.31380  -31.13510  120.39560
 13000.00000    -999.25    8.86200    -999.25    -999.25    -999.25    -999.25    -999.25    -999.25    -999.25    -999.25    -999.25    -999.25    -999.25    -999.25   26.68820   26.68820    -999.25    -999.25    -999.25    -999.25    -999.25    -999.25    -999.25    -999.25    -999.25    -999.25    -999.25
