~Version ---------------------------------------------------
VERS. 2.0 : CWLS log ASCII Standard -VERSION 2.0
WRAP.  NO : ONE LINE PER DEPTH STEP
~Well ------------------------------------------------------
STRT.F                            1100.0 : START DEPTH
STOP.F                           10400.0 : STOP DEPTH
STEP.F                          50.00000 : STEP LENGTH
NULL.                            -999.25 : NULL VALUE
COMP.               CHEVRON STANDARD LTD : COMPANY
WELL. CHEVRON GULF PASS CREEK 7-36-61-18 : WELL
FLD .                                    : FIELD
LOC .                                    : LOCATION
CTRY.                             CANADA : COUNTRY
SRVC.                       Schlumberger : SERVICE COMPANY
DATE.                        11-Jan-1976 : LOGDATE
PROV.                            Alberta : PROVINCE
UWI .                   100073606118W500 : UNIQUE WELL ID
SLAT.WGS84                      54.31663 : SURFACE LATITUDE
SLON.WGS84                      -116.558 : SURFACE LONGITUDE
~Curve Information -----------------------------------------
DEPT   .F    0   1   0  0 : 1 MEASURED DEPTH
SPR    .MV   07 010 01 00 : SPONTANEOUS POTENTIAL FROM RESISTIVITY LOG
ILD    .OHMM 07 120 46 00 : INDUCTION DEEP RESISTIVITY
ILM    .OHMM 07 120 44 00 : INDUCTION MEDIUM RESISTIVITY
LL8    .OHMM 07 220 08 00 : LATEROLOG 8
GRS    .GAPI 60 310 01 00 : GAMMA RAY FROM SONIC LOG
DT     .US/F 60 500 00 00 : DELTA-T (INTERVAL TRANSIT TIME)
CALS   .IN   60 280 50 00 : CALIPER FROM SONIC LOG
DCOR   .G/C3 45 356 01 00 : DENSITY CORRECTION
CALD   .IN   45 280 60 00 : CALIPER FROM DENSITY LOG
RHOB   .G/C3 45 350 01 00 : BULK DENSITY
GRD    .GAPI 45 310 01 00 : GAMMA RAY FROM DENSITY LOG
DPHI_SS.DEC  45 890 12 00 : DENSITY POROSITY SANDSTONE
NPHI_SS.DEC  42 890 03 00 : NEUTRON POROSITY SANDSTONE
NPHI_LS.DEC  42 890 01 00 : NEUTRON POROSITY LIMESTONE
DPHI_LS.DEC  45 890 10 00 : DENSITY POROSITY LIMESTONE
~Params ----------------------------------------------------
PD  .                     GL : PERMANENT DATUM
EPD .FT                 2874 : ELEVATION PERMANENT DATUM
LMF .                     KB : LOG MEASURED FROM
DAPD.FT                   15 : FEET ABOVE PERMANENT DATUM
EKB .FT                 2889 : KELLY BUSHING
EGL .FT                 2874 : GROUND LEVEL
DATE.               01/11/76 : RUN DATE
RUN .                      1 : RUN NUMBER
DD  .FT                10410 : DEPTH DRILLER
DL  .FT                10421 : DEPTH LOGGER
BLI .FT                10415 : BOTTOM LOG INTERVAL
TLI .FT                 1118 : TOP LOG INTERVAL
CBD .FT                 1118 : CASING BOTTOM DRILLER
CBL .FT                 1121 : CASING BOTTOM LOGGER
BS  .IN                 8.75 : BIT SIZE
BSD .FT                10410 : BIT SIZE AT DEPTH
DFT .               GEL CHEM : DRILLING FLUID TYPE
DFD .                    9.5 : DRILLING FLUID DENSITY
DFV .                    137 : DRILLING FLUID VISCOSITY
DFPH.                    9.5 : DRILLING FLUID PH
DFL .                      9 : DRILLING FLUID LOSS
MSS .               FLOWLINE : MUD SAMPLE SOURCE
RMS .OHMM               2.38 : RESISTIVITY MUD SAMPLE
MST .DEGF                 54 : MUD SAMPLE TEMPERATURE
RMF .OHMM               2.06 : RESISTIVITY MUD FILTRATE SAMPLE
MFST.DEGF                 60 : MUD FILTRATE SAMPLE TEMPERATURE
RMC .OHMM               1.88 : RESISTIVITY MUD CAKE
MCST.DEGF                 42 : MUD CAKE SAMPLE TEMPERATURE
RMB .OHMM               0.66 : RESISTIVITY MUD AT BHT
TCS .HRS                 5.5 : TIME CIRCULATED STOPPED
LUN .                   7657 : LOGGING UNIT NUMBER
ENGI.                STANDEN : RECORDING ENGINEER
WITN.                   WONG : WITNESSED BY
CLNT.                A2DTECH : CLIENT CODE
ORIG.            2" 5" PRINT : ORIGIN OF DATA
UWI .       100073606118W500 : UNIQUE WELL ID
DICO. A2D Technologies, Inc. : DIGITIZING COMPANY
~Other -----------------------------------------------------
~ASCII -----------------------------------------------------
 1100.00000    -999.25    -999.25    -999.25    -999.25   39.94330    -999.25    -999.25    -999.25    -999.25    -999.25    -999.25    -999.25    -999.25    -999.25    -999.25
 1150.00000  -29.72630   10.94760   10.12640    9.28260   56.37990   82.62180    9.89900    -999.25    -999.25    -999.25    -999.25    -999.25    -999.25    -999.25    -999.25
 1200.00000  -39.62780    9.60650    8.88650    7.20680   73.08400  101.18020   10.40710    -999.25    -999.25    -999.25    -999.25    -999.25    -999.25    -999.25    -999.25
 1250.00000  -42.62070    5.11420    4.59200    4.11540   84.89520  110.83900   10.47040    -999.25    -999.25    -999.25    -999.25    -999.25    -999.25    -999.25    -999.25
 1300.00000  -48.18150    3.11060    3.51610    3.58080   66.82940  147.88640   11.11170    -999.25    -999.25    -999.25    -999.25    -999.25    -999.25    -999.25    -999.25
 1350.00000  -47.37920    4.55460    5.08220    4.99260   75.48350  122.29670   10.41590    -999.25    -999.25    -999.25    -999.25    -999.25    -999.25    -999.25    -999.25
 1400.00000  -45.36420    4.26840    4.42340    4.88240   89.73220  107.98020   10.92220    -999.25    -999.25    -999.25    -999.25    -999.25    -999.25    -999.25    -999.25
 1450.00000  -49.31850    3.27190    3.81890    3.82990   74.28770  163.82860   13.34720    -999.25    -999.25    -999.25    -999.25    -999.25    -999.25    -999.25    -999.25
 1500.00000  -48.72200    4.87980    5.00530    5.66770   79.09780   86.30370   10.66740    -999.25    -999.25    -999.25    -999.25    -999.25    -999.25    -999.25    -999.25
 1550.00000  -47.43110    2.62040    2.93900    3.14040  116.79330  113.65890   10.52080    -999.25    -999.25    -999.25    -999.25    -999.25    -999.25    -999.25    -999.25
 1600.00000  -50.50350    4.57630    4.17950    4.06750   80.60680  111.18210   12.51860    -999.25    -999.25    -999.25    -999.25    -999.25    -999.25    -999.25    -999.25
 1650.00000  -47.10070    2.97210    3.36300    3.21770   68.27920  151.51270   12.44200    -999.25    -999.25    -999.25    -999.25    -999.25    -999.25    -999.25    -999.25
 1700.00000  -42.67270    3.08530    3.38040    3.55110   81.10700  115.01310   11.55940    -999.25    -999.25    -999.25    -999.25    -999.25    -999.25    -999.25    -999.25
 1750.00000  -41.70380    2.34650    2.67020    2.93540   78.63160  108.07200   11.44790    -999.25    -999.25    -999.25    -999.25    -999.25    -999.25    -999.25    -999.25
 1800.00000  -38.79310    4.43340    4.78500    5.91350   92.71050   98.37370   10.56990    -999.25    -999.25    -999.25    -999.25    -999.25    -999.25    -999.25    -999.25
 1850.00000  -37.74420    3.12890    3.60710    3.53740   87.39410  118.08950   10.43440    -999.25    -999.25    -999.25    -999.25    -999.25    -999.25    -999.25    -999.25
 1900.00000  -36.23520    2.95880    3.12970    3.32780   83.34560  124.64140   10.82260    -999.25    -999.25    -999.25    -999.25    -999.25    -999.25    -999.25    -999.25
 1950.00000  -33.87540    4.12600    4.36260    4.76210   95.51000  110.66200   10.26380    -999.25    -999.25    -999.25    -999.25    -999.25    -999.25    -999.25    -999.25
 2000.00000  -35.90440    6.80990    7.64360    8.25090   86.55210   92.79910   10.38350    -999.25    -999.25    -999.25    -999.25    -999.25    -999.25    -999.25    -999.25
 2050.00000  -32.53740    5.99630    6.19350    6.01660   73.41150   93.58780   10.72710    -999.25    -999.25    -999.25    -999.25    -999.25    -999.25    -999.25    -999.25
 2100.00000  -31.48120    4.16650    4.31750    4.66230   85.70770   99.54750   10.59350    -999.25    -999.25    -999.25    -999.25    -999.25    -999.25    -999.25    -999.25
 2150.00000  -31.81920    2.99510    3.22910    3.68140  102.82800  125.59340   10.14370    -999.25    -999.25    -999.25    -999.25    -999.25    -999.25    -999.25    -999.25
 2200.00000  -28.24280    5.00390    4.72380    4.45510   75.55370   88.23560   10.69640    -999.25    -999.25    -999.25    -999.25    -999.25    -999.25    -999.25    -999.25
 2250.00000  -30.97850    2.79670    2.97230    3.08480   97.75250  105.00050   10.40300    -999.25    -999.25    -999.25    -999.25    -999.25    -999.25    -999.25    -999.25
 2300.00000  -42.10390   10.29250   10.69990   11.91530   63.22500   97.29610    9.72960    -999.25    -999.25    -999.25    -999.25    -999.25    -999.25    -999.25    -999.25
 2350.00000  -28.60660    3.12240    2.88520    2.74150   99.09500  106.90010   10.46770    -999.25    -999.25    -999.25    -999.25    -999.25    -999.25    -999.25    -999.25
 2400.00000  -32.23250   14.17310   13.02040   10.65200   52.89400   87.83250    9.66520    -999.25    -999.25    -999.25    -999.25    -999.25    -999.25    -999.25    -999.25
 2450.00000  -32.73940    4.36260    4.02350    3.74800   70.93140  109.84930   12.49120    -999.25    -999.25    -999.25    -999.25    -999.25    -999.25    -999.25    -999.25
 2500.00000  -30.93710    2.03360    2.19620    2.44790   89.34760  122.79470   13.39710    -999.25    -999.25    -999.25    -999.25    -999.25    -999.25    -999.25    -999.25
 2550.00000  -32.23720    5.25990    4.94320    4.60970   70.37440  100.14330   13.08540    -999.25    -999.25    -999.25    -999.25    -999.25    -999.25    -999.25    -999.25
 2600.00000  -38.79960   11.98430   13.57430   16.23110   64.57000   92.91470   10.90340    -999.25    -999.25    -999.25    -999.25    -999.25    -999.25    -999.25    -999.25
 2650.00000  -32.26840    6.06150    6.66540    6.92700   71.01770   90.30480   11.13860    -999.25    -999.25    -999.25    -999.25    -999.25    -999.25    -999.25    -999.25
 2700.00000  -29.04550   12.76700   11.87970   10.33070   46.23190   87.83390   11.03540    -999.25    -999.25    -999.25    -999.25    -999.25    -999.25    -999.25    -999.25
 2750.00000  -27.48010    5.13660    4.97780    4.62180   63.66070   93.13530   10.57000    -999.25    -999.25    -999.25    -999.25    -999.25    -999.25    -999.25    -999.25
 2800.00000  -26.88550    5.32400    6.23500    6.32650   64.19890   90.42270   10.29870    0.20600   11.89350    2.14190   62.94710    0.28140    0.35990    -999.25    -999.25
 2850.00000  -31.56170    4.76930    4.46900    4.20300   75.57800  103.41800   10.34930    0.09320   12.54660    1.92390   77.43910    0.40990    0.45350    -999.25    -999.25
 2900.00000  -43.75800   22.60820   23.14380   20.00700   46.85450   84.65210    9.73120    0.19650   10.11710    2.34460   50.61270    0.19490    0.32390    -999.25    -999.25
 2950.00000  -36.42090   17.53650   19.72080   30.71150   46.79040   68.35630    9.75750    0.03120    9.86440    2.48940   49.67670    0.09610    0.23710    -999.25    -999.25
 3000.00000  -31.78210    6.17600    6.80410    7.49180   57.88850   87.07220   10.03880    0.04180    9.97920    2.45510   59.37730    0.12970    0.36530    -999.25    -999.25
 3050.00000  -29.85200   13.40760   14.96170   21.24020   53.28920   71.39320   10.09490    0.01780    9.81050    2.40060   57.51010    0.11680    0.24350    -999.25    -999.25
 3100.00000  -33.57210   14.95480   15.77570   16.31220   49.79950   83.06870   10.29880   -0.01300    9.83480    2.20420   48.59120    0.20870    0.24500    -999.25    -999.25
 3150.00000  -23.93450    7.38670    8.19270    5.77980   63.25310   90.19840   10.85630    0.10490   11.75270    2.29350   66.44910    0.26200    0.33170    -999.25    -999.25
 3200.00000  -31.20010    4.81260    5.14160    5.72290   60.37090   94.04530   10.87150    0.04380   10.17320    2.37230   67.83880    0.15290    0.39020    -999.25    -999.25
 3250.00000  -23.24670    5.99160    6.39840    6.92450   67.22700  100.23940   11.06510    0.05580   11.18390    2.51470   69.62980    0.10240    0.37540    -999.25    -999.25
 3300.00000  -25.13160    5.21730    5.49590    5.72770   73.48660   87.64160   11.64040    0.01080   12.83690    2.46250   68.56940    0.11010    0.31600    -999.25    -999.25
 3350.00000  -27.98570    9.26990    9.58500   12.69570   62.87900   77.18860   10.64800    0.03720   12.10550    2.54380   62.94140    0.05660    0.25280    -999.25    -999.25
