~Version ---------------------------------------------------
VERS.      2.0 : CWLS log ASCII Standard -VERSION 2.0
WRAP.       NO : One line per depth step
CREA. 12/01/17 : LAS Creation Date
~Well ------------------------------------------------------
STRT.FT                        300.0 : START DEPTH
STOP.FT                      17800.0 : STOP DEPTH
STEP.FT                     50.00000 : STEP LENGTH
NULL.                        -999.25 : NULL VALUE
COMP.           BPOG OPERATIONS LTD. : COMPANY
WELL. BP MOBIL CREE ROUGH 4-21-38-12 : WELL
FLD .                                : FIELD
LOC .                                : LOCATION
CTRY.                         CANADA : COUNTRY
SRVC.                   Schlumberger : SERVICE COMPANY
DATE.                    26-Oct-1973 : LOGDATE
PROV.                        Alberta : PROVINCE
UWI .               100042103812W500 : UNIQUE WELL ID
SLAT.WGS84                  52.27739 : SURFACE LATITUDE
SLON.WGS84                 -115.6641 : SURFACE LONGITUDE
~Curve Information -----------------------------------------
DEPT  .FT    : Depth Curve
CALSED.IN    : CALIPER FROM SONIC LOG [ADJ. TO RESISTIVITY LOG]
CALWS .IN    : CALIPER [CALSED]
CILDED.MMHO  : CONDUCTIVITY FROM RESISTIVITY LOG
CONDWS.MMHO  : CONDUCTIVITY [1000/DRESWS]
DRESWS.OHMM  : DEEP RESISTIVITY [ILDED]
DTED  .US/F  : DELTA-T FROM SONIC LOG [ADJ. TO RESISTIVITY LOG]
DTWS  .US/F  : COMPRESSIONAL SONIC [DTED]
GRNED .CU    : GAMMA RAY FROM GRN LOG [ADJ. TO RESISTIVITY LOG]
GRSED .CU    : GAMMA RAY FROM SONIC LOG [ADJ. TO RESISTIVITY LOG]
GRWS  .GAPI  : GAMMA RAY [GRSED] GRWS IN CSG. @ 13195'-13297' @ 10API ADDED
ILDED .OHMM  : DEEP INDUCTION RESISTIVITY FROM RESISTIVITY LOG
ILMED .OHMM  : MEDIUM INDUCTION RESISTIVITY FROM RESISTIVITY LOG
LL8ED .OHMM  : LATEROLOG 8 FROM RESISTIVITY LOG
MRESWS.OHMM  : MEDIUM RESISTIVITY [ILMED]
NEUTED.CU    : NEUTRON FROM GRN LOG [ADJ. TO RESISTIVITY LOG]
NEUTWS.CU    : NEUTRON [NEUTED]
SNED  .OHMM  : SHORT NORMAL RESISTIVITY 16" FROM RESISTIVITY LOG
SPRED .MV    : SPONTANEOUS POTENTIAL FROM RESISTIVITY LOG
SPWS  .MV    : SPONTANEOUS POTENTIAL [BASELINE 0 MV,SPRED]
SRESWS.OHMM  : SHALLOW RESISTIVITY [LL8ED SPL. TO SNED @ 2008']
~Params ----------------------------------------------------
PD  .                     GL : PERMANENT DATUM
EPD .FT                 5371 : ELEVATION PERMANENT DATUM
LMF .                     KB : LOG MEASURED FROM
DAPD.FT                   24 : FEET ABOVE PERMANENT DATUM
EKB .FT                 5395 : KELLY BUSHING
EGL .FT                 5371 : GROUND LEVEL
DATE.               10/26/73 : RUN DATE
RUN .                      2 : RUN NUMBER
DD  .FT                17815 : DEPTH DRILLER
DL  .FT                17792 : DEPTH LOGGER
BLI .FT                17791 : BOTTOM LOG INTERVAL
TLI .FT                13299 : TOP LOG INTERVAL
CBD .FT                13265 : CASING BOTTOM DRILLER
CBL .FT                13299 : CASING BOTTOM LOGGER
BS  .IN                 8.25 : BIT SIZE
BSD .FT                17815 : BIT SIZE AT DEPTH
DFT .               GEL CHEM : DRILLING FLUID TYPE
DFD .                    8.9 : DRILLING FLUID DENSITY
DFV .                     41 : DRILLING FLUID VISCOSITY
DFPH.                    9.5 : DRILLING FLUID PH
DFL .                   11.9 : DRILLING FLUID LOSS
RMS .OHMM               1.05 : RESISTIVITY MUD SAMPLE
MST .DEGF                 72 : MUD SAMPLE TEMPERATURE
RMF .OHMM               0.76 : RESISTIVITY MUD FILTRATE SAMPLE
MFST.DEGF                 70 : MUD FILTRATE SAMPLE TEMPERATURE
RMB .OHMM               0.31 : RESISTIVITY MUD AT BHT
TCS .HRS                   5 : TIME CIRCULATED STOPPED
LUN .                   7640 : LOGGING UNIT NUMBER
LUL .                     RD : LOGGING UNIT LOCATION
ENGI.           NIXON KOVACS : RECORDING ENGINEER
WITN.      WILLIAMS COSTELLO : WITNESSED BY
CLNT.                A2DTECH : CLIENT CODE
ORIG.            2" 5" PRINT : ORIGIN OF DATA
UWI .       100042103812W500 : UNIQUE WELL ID
DICO. A2D Technologies, Inc. : DIGITIZING COMPANY
~Other -----------------------------------------------------
DIL-IEL-BHC-GRN LOG RUN.
SNED MISSING IN SEVERAL DEPTH AS PER PRINT.
~ASCII -----------------------------------------------------
# ...
 7300.00000   12.97900   12.97900   97.24650  100.08710    9.99130   78.80300   78.80300    -999.25   74.22530   74.22530    9.99130    -999.25    -999.25    -999.25    -999.25    -999.25    -999.25    -999.25    -999.25    -999.25
 7350.00000   12.53190   12.53190   92.76850   91.42190   10.93830   76.05970   76.05970    -999.25   65.12490   65.12490   10.93830    -999.25    -999.25    -999.25    -999.25    -999.25    -999.25    -999.25    -999.25    -999.25
 7400.00000   12.75100   12.75100   92.03500   93.80420   10.66050   77.91980   77.91980    -999.25   67.64480   67.64480   10.66050    -999.25    -999.25    -999.25    -999.25    -999.25    -999.25    -999.25    -999.25    -999.25
 7450.00000   12.40410   12.40410   83.53050   86.27330   11.59220   72.17860   72.17860    -999.25   71.83440   71.83440   11.59220    -999.25    -999.25    -999.25    -999.25    -999.25    -999.25    -999.25    -999.25    -999.25
 7500.00000   12.34520   12.34520   93.47600   96.93300   10.31640   75.36470   75.36470    -999.25   99.09140   99.09140   10.31640    -999.25    -999.25    -999.25    -999.25    -999.25    -999.25    -999.25    -999.25    -999.25
 7550.00000   12.14770   12.14770   92.93500   92.86090   10.76880   82.67760   82.67760    -999.25   79.70560   79.70560   10.76880    -999.25    -999.25    -999.25    -999.25    -999.25    -999.25    -999.25    -999.25    -999.25
 7600.00000   12.11460   12.11460   92.75800   96.64260   10.34740   75.44860   75.44860    -999.25   84.23490   84.23490   10.34740    -999.25    -999.25    -999.25    -999.25    -999.25    -999.25    -999.25    -999.25    -999.25
 7650.00000   12.10350   12.10350  117.72100  123.57730    8.09210   79.83500   79.83500    -999.25  155.18370  155.18370    8.09210    -999.25    -999.25    -999.25    -999.25    -999.25    -999.25    -999.25    -999.25    -999.25
 7700.00000   12.49810   12.49810  104.96160  107.68870    9.28610   79.75110   79.75110    -999.25   77.47000   77.47000    9.28610    -999.25    -999.25    -999.25    -999.25    -999.25    -999.25    -999.25    -999.25    -999.25
 7750.00000   12.46930   12.46930   85.48770   89.33120   11.19430   72.48960   72.48960    -999.25   87.74720   87.74720   11.19430    -999.25    -999.25    -999.25    -999.25    -999.25    -999.25    -999.25    -999.25    -999.25
 7800.00000   12.34600   12.34600   99.68110  104.12550    9.60380   74.92410   74.92410    -999.25   84.55240   84.55240    9.60380    -999.25    -999.25    -999.25    -999.25    -999.25    -999.25    -999.25    -999.25    -999.25
 7850.00000   12.06940   12.06940   81.08440   83.93980   11.91330   70.93750   70.93750    -999.25   77.42360   77.42360   11.91330    -999.25    -999.25    -999.25    -999.25    -999.25    -999.25    -999.25    -999.25    -999.25
 7900.00000   12.11390   12.11390   42.98070   42.13100   23.73550   65.15210   65.15210    -999.25   43.75780   43.75780   23.73550    -999.25    -999.25    -999.25    -999.25    -999.25    -999.25    -999.25    -999.25    -999.25
 7950.00000   12.43270   12.43270   83.03830   82.65160   12.10430   75.64010   75.64010    -999.25   54.53600   54.53600   12.10430    -999.25    -999.25    -999.25    -999.25    -999.25    -999.25    -999.25    -999.25    -999.25
 8000.00000   12.59540   12.59540   95.26540   97.87420   10.21720   80.64540   80.64540    -999.25   75.62030   75.62030   10.21720    -999.25    -999.25    -999.25    -999.25    -999.25    -999.25    -999.25    -999.25    -999.25
 8050.00000   12.32820   12.32820   57.87270   59.26700   16.87280   70.20380   70.20380    -999.25   62.02230   62.02230   16.87280    -999.25    -999.25    -999.25    -999.25    -999.25    -999.25    -999.25    -999.25    -999.25
 8100.00000   12.20040   12.20040   88.86780   95.53930   10.46690   79.88410   79.88410    -999.25   75.44190   75.44190   10.46690    -999.25    -999.25    -999.25    -999.25    -999.25    -999.25    -999.25    -999.25    -999.25
 8150.00000   12.56250   12.56250   58.89190   58.79380   17.00860   69.13050   69.13050    -999.25   49.11240   49.11240   17.00860    -999.25    -999.25    -999.25    -999.25    -999.25    -999.25    -999.25    -999.25    -999.25
 8200.00000   12.50300   12.50300   79.47800   81.07890   12.33520   72.11880   72.11880    -999.25   74.67400   74.67400   12.33520    -999.25    -999.25    -999.25    -999.25    -999.25    -999.25    -999.25    -999.25    -999.25
 8250.00000   12.24650   12.24650   78.77250   79.99170   12.50130   72.87500   72.87500    -999.25   68.69630   68.69630   12.50130    -999.25    -999.25    -999.25    -999.25    -999.25    -999.25    -999.25    -999.25    -999.25
 8300.00000   12.62910   12.62910   75.87590   76.36270   13.09540   76.57200   76.57200    -999.25   72.92430   72.92430   13.09540    -999.25    -999.25    -999.25    -999.25    -999.25    -999.25    -999.25    -999.25    -999.25
 8350.00000   12.44190   12.44190   65.57750   66.45000   15.04890   76.45130   76.45130    -999.25   72.64110   72.64110   15.04890    -999.25    -999.25    -999.25    -999.25    -999.25    -999.25    -999.25    -999.25    -999.25
 8400.00000   12.53920   12.53920   84.23700   86.11930   11.61180   75.75060   75.75060    -999.25   67.25690   67.25690   11.61180    -999.25    -999.25    -999.25    -999.25    -999.25    -999.25    -999.25    -999.25    -999.25
 8450.00000   12.57990   12.57990   86.14460   89.23480   11.21400   78.03390   78.03390    -999.25   73.18310   73.18310   11.21400    -999.25    -999.25    -999.25    -999.25    -999.25    -999.25    -999.25    -999.25    -999.25
 8500.00000   12.33290   12.33290   83.38500   85.57390   11.68580   74.33200   74.33200    -999.25   59.40650   59.40650   11.68580    -999.25    -999.25    -999.25    -999.25    -999.25    -999.25    -999.25    -999.25    -999.25
 8550.00000   12.06390   12.06390  119.82180  122.49650    8.16350   76.83260   76.83260    -999.25   77.84650   77.84650    8.16350    -999.25    -999.25    -999.25    -999.25    -999.25    -999.25    -999.25    -999.25    -999.25
 8600.00000   12.81350   12.81350  105.25240  111.45040    8.97260   74.80350   74.80350    -999.25   79.98610   79.98610    8.97260    -999.25    -999.25    -999.25    -999.25    -999.25    -999.25    -999.25    -999.25    -999.25
 8650.00000   12.37510   12.37510   62.05460   62.82430   15.91740   71.92830   71.92830    -999.25   58.57800   58.57800   15.91740    -999.25    -999.25    -999.25    -999.25    -999.25    -999.25    -999.25    -999.25    -999.25
 8700.00000   12.48790   12.48790  102.10430  108.48300    9.21910   73.34590   73.34590    -999.25   79.04490   79.04490    9.21910    -999.25    -999.25    -999.25    -999.25    -999.25    -999.25    -999.25    -999.25    -999.25
 8750.00000   12.51850   12.51850   78.38190   81.04910   12.33820   69.74020   69.74020    -999.25   66.10300   66.10300   12.33820    -999.25    -999.25    -999.25    -999.25    -999.25    -999.25    -999.25    -999.25    -999.25
 8800.00000   12.60680   12.60680   73.53330   75.84320   13.18510   66.88010   66.88010    -999.25   42.66720   42.66720   13.18510    -999.25    -999.25    -999.25    -999.25    -999.25    -999.25    -999.25    -999.25    -999.25
 8850.00000   12.49040   12.49040   79.94940   80.60160   12.40670   68.90130   68.90130    -999.25   41.14020   41.14020   12.40670    -999.25    -999.25    -999.25    -999.25    -999.25    -999.25    -999.25    -999.25    -999.25
 8900.00000   12.35380   12.35380   66.54810   66.70090   14.99230   68.37790   68.37790    -999.25   36.81740   36.81740   14.99230    -999.25    -999.25    -999.25    -999.25    -999.25    -999.25    -999.25    -999.25    -999.25
 8950.00000   12.18330   12.18330  147.01600  158.03860    6.32870   79.73930   79.73930   70.31910   84.49820   84.49820    6.32870    -999.25    -999.25    -999.25  513.85910  513.85910    -999.25    -999.25    -999.25    -999.25
 9000.00000   12.24470   12.24470   80.38300   81.99070   12.19650   73.96190   73.96190   50.13670   63.12790   63.12790   12.19650    -999.25    -999.25    -999.25  575.46220  575.46220    -999.25    -999.25    -999.25    -999.25
