~Version ---------------------------------------------------
VERS.      2.0 : CWLS log ASCII Standard -VERSION 2.0
WRAP.       NO : One line per depth step
CREA. 10/07/14 : LAS Creation Date
~Well ------------------------------------------------------
STRT.M                           300.0 : START DEPTH
STOP.M                          2200.0 : STOP DEPTH
STEP.M                        50.00000 : STEP LENGTH
NULL.                          -999.25 : NULL VALUE
COMP.         ANDERSON EXPLORATION LTD : COMPANY
WELL. ANDERSON ESSO WESTLOCK 7-19-61-1 : WELL
FLD .                                  : FIELD
LOC .                                  : LOCATION
CTRY.                           CANADA : COUNTRY
SRVC.                     Schlumberger : SERVICE COMPANY
DATE.                      27-Dec-1979 : LOGDATE
PROV.                          Alberta : PROVINCE
UWI .                 100071906101W500 : UNIQUE WELL ID
SLAT.WGS84                    54.28987 : SURFACE LATITUDE
SLON.WGS84                   -114.1324 : SURFACE LONGITUDE
~Curve Information -----------------------------------------
DEPT    .M      : DEPTH METER
CALDED  .MM     : CALIPER FROM DENSITY LOG [ADJ. TO RESISTIVITY LOG]
CALSED  .MM     : CALIPER FROM SONIC LOG [ADJ. TO RESISTIVITY LOG]
CALWS   .MM     : CALIPER [CALSED]
CONDWS  .MMHO   : CONDUCTIVITY [1000/DRESWS]
DCORED  .KG/M3  : DENSITY CORRECTION FROM DENSITY LOG [ADJ. TO RESISTIVITY LOG]
DCORWS  .KG/M3  : DENSITY CORRECTION [DCORED]
DENWS   .KG/M3  : FORMATION BULK DENSITY [RHOBED]
DPHILSED.V/V    : DENSITY POROSITY LIMESTONE [M=2710,F=1000] FROM DENSITY LOG [ADJ. TO RESISTIVITY LOG]
DPHISSED.V/V    : DENSITY POROSITY SANDSTONE [M=2650,F=1000] FROM DENSITY LOG [ADJ. TO RESISTIVITY LOG]
DPOLSWS .V/V    : DENSITY POROSITY LIMESTONE [CALC. FROM DENWS M=2710,F=1000]
DRESWS  .OHMM   : DEEP RESISTIVITY [ILDED]
DTED    .US/M   : DELTA-T FROM SONIC LOG [ADJ. TO RESISTIVITY LOG]
DTWS    .US/M   : COMPRESSIONAL SONIC [DTED]
GRDED   .GAPI   : GAMMA RAY FROM DENSITY LOG [ADJ. TO RESISTIVITY LOG]
GRSED   .GAPI   : GAMMA RAY FROM SONIC LOG [ADJ. TO RESISTIVITY LOG]
GRWS    .GAPI   : GAMMA RAY [GRSED SPL. TO GRDED @ 2238.3 M]
ILDED   .OHMM   : DEEP INDUCTIONRESISTIVITY FROM RESISTIVITY LOG
ILMED   .OHMM   : MEDIUM INDUCTION RESISTIVITY FROM RESISTIVITY LOG
MRESWS  .OHMM   : MEDIUM RESISTIVITY [ILMED]
NPHILSED.V/V    : NEUTRON POROSITY LIMESTONE FROM DENSITY LOG [ADJ. TO RESISTIVITY LOG]
NPHISSED.V/V    : NEUTRON POROSITY SANDSTONE FROM DENSITY LOG [ADJ. TO RESISTIVITY LOG]
NPOLSWS .V/V    : NEUTRON POROSITY LIMESTONE [NPHISSED (SCHUL.) MATRIX CONVERSION FOR LIMESTONE, SPL. TO NPHILSED @ 948.6M]
RHOBED  .KG/M3  : BULK DENSITY FROM DENSITY LOG [ADJ. TO RESISTIVITY LOG]
SFLED   .OHMM   : SPHERICALLY FOCUSED LOG FROM RESISTIVITY LOG
SPHILSED.V/V    : SONIC POROSITY LIMESTONE FROM SONIC LOG [ADJ. TO RESISTIVITY LOG]
SPHISSED.V/V    : SONIC POROSITY SANDSTONE FROM SONIC LOG [ADJ. TO RESISTIVITY LOG]
SPOLSWS .V/V    : SONIC POROSITY [SPHISSED SPL. TO SPHILSED @ 998M]
SPRED   .MV     : SPONTANEOUS POTENTIAL FROM RESISTIVITY LOG
SPWS    .MV     : SPONTANEOUS POTENTIAL [BASELINE 0MV, SPRED]
SRESWS  .OHMM   : SHALLOW RESISTIVITY [SFLED]
~Params ----------------------------------------------------
PD  .                         GL : PERMANENT DATUM
EPD .M                    635.73 : ELEVATION PERMANENT DATUM
LMF .                         KB : LOG MEASURED FROM
DAPD.M                       4.4 : FEET ABOVE PERMANENT DATUM
DMF .                         KB : DRILLING MEASURED FROM
EKB .M                    640.13 : KELLY BUSHING
EGL .M                    635.73 : GROUND LEVEL
DATE.                   12/27/79 : RUN DATE
RUN .                          1 : RUN NUMBER
DD  .M                      2250 : DEPTH DRILLER
DL  .M                      2250 : DEPTH LOGGER
BLI .M                      2247 : BOTTOM LOG INTERVAL
TLI .M                       216 : TOP LOG INTERVAL
CS  .MM                      219 : CASING SIZE
CBD .M                     216.4 : CASING BOTTOM DRILLER
CBL .M                       216 : CASING BOTTOM LOGGER
BS  .MM                      200 : BIT SIZE
BSD .M                      2250 : BIT SIZE AT DEPTH
DFT .                   GEL CHEM : DRILLING FLUID TYPE
DFD .                       1140 : DRILLING FLUID DENSITY
DFV .                         92 : DRILLING FLUID VISCOSITY
DFPH.                         10 : DRILLING FLUID PH
DFL .                        7.8 : DRILLING FLUID LOSS
MSS .                   FLOWLINE : MUD SAMPLE SOURCE
RMS .OHMM                  0.858 : RESISTIVITY MUD SAMPLE
MST .DEGC                    7.2 : MUD SAMPLE TEMPERATURE
RMF .OHMM                  0.596 : RESISTIVITY MUD FILTRATE SAMPLE
MFST.DEGC                   13.9 : MUD FILTRATE SAMPLE TEMPERATURE
MFSS.                      WATER : MUD FILTRATE SAMPLE SOURCE
MCSS.                       LOSS : MUD CAKE SAMPLE SOURCE
RMB .OHMM                  0.325 : RESISTIVITY MUD AT BHT
TCS .HRS                    2200 : TIME CIRCULATED STOPPED
TLAB.HRS                     430 : TIME LOGGER AT BOTTOM
LUN .                       7767 : LOGGING UNIT NUMBER
LUL .                        EDM : LOGGING UNIT LOCATION
ENGI.                WALTERHOUSE : RECORDING ENGINEER
WITN.                     BRAZEL : WITNESSED BY
CLNT.                    A2DTECH : CLIENT CODE
ORIG. 6.5"/100M 16.5"/100M PRINT : ORIGIN OF DATA
UWI .           100071906101W500 : UNIQUE WELL ID
DICO.     A2D Technologies, Inc. : DIGITIZING COMPANY
~Other -----------------------------------------------------
DIL-SFL-BHC-FDC-CNL LOG RUN.
~ASCII -----------------------------------------------------
# ...
 1500.00000  293.92970  267.80710  267.80710  195.24390  204.70000  204.70000 2130.55080    0.32670    -999.25    0.33890    5.12180  277.20100  277.20100   75.36250   83.04120   83.04120    5.12180    4.95390    4.95390    0.32900    -999.25    0.32900 2130.55080    5.72560    0.27140    -999.25    0.27140  -94.77100  -18.98180    5.72560
 1550.00000  239.16350  229.49410  229.49410   89.27850    3.40000    3.40000 2673.60420    0.01770    -999.25    0.02130   11.20090  213.43680  213.43680   49.17860   60.47800   60.47800   11.20090   12.00330   12.00330    0.11490    -999.25    0.11490 2673.60420   12.67470    0.13890    -999.25    0.13890  -78.54220   -3.73840   12.67470
 1600.00000  375.00000  267.09490  267.09490  250.96620   62.30000   62.30000 2572.92480    0.08270    -999.25    0.08020    3.98460  276.25930  276.25930   94.51540   98.96140   98.96140    3.98460    3.83850    3.83850    0.23020    -999.25    0.23020 2572.92480    4.48080    0.27180    -999.25    0.27180  -92.77250   -8.07960    4.48080
 1650.00000  226.89090  224.47160  224.47160   43.33090   79.30000   79.30000 2747.73610   -0.02950    -999.25   -0.02210   23.07820  195.26600  195.26600   37.33440   43.32520   43.32520   23.07820   25.49020   25.49020    0.08930    -999.25    0.08930 2747.73610   26.84110    0.10110    -999.25    0.10110  -84.20400   -7.40180   26.84110
 1700.00000  233.67950  236.68380  236.68380   20.47550   26.90000   26.90000 2756.92720   -0.03020    -999.25   -0.02740   48.83880  171.23060  171.23060   22.09760   27.82210   27.82210   48.83880   66.19120   66.19120    0.02550    -999.25    0.02550 2756.92720   74.91290    0.04950    -999.25    0.04950  -85.07440  -14.34240   74.91290
 1750.00000  263.89950  258.72980  258.72980   94.88660   91.30000   91.30000 2604.32250    0.06750    -999.25    0.06180   10.53890  213.27170  213.27170   52.07400   64.04580   64.04580   10.53890   11.19320   11.19320    0.12290    -999.25    0.12290 2604.32250   11.81840    0.14140    -999.25    0.14140  -77.44060   -9.24450   11.81840
 1800.00000  243.93610  248.86730  248.86730   88.05450   17.00000   17.00000 2701.79320    0.00110    -999.25    0.00480   11.35660  213.20280  213.20280   57.36530   70.39920   70.39920   11.35660   12.29920   12.29920    0.15830    -999.25    0.15830 2701.79320   13.66430    0.13480    -999.25    0.13480  -73.55390   -7.84690   13.66430
 1850.00000  236.88520  238.40100  238.40100   98.95600   15.20000   15.20000 2672.86790    0.02150    -999.25    0.02170   10.10550  232.23530  232.23530   82.43030   91.44920   91.44920   10.10550   10.35490   10.35490    0.16300    -999.25    0.16300 2672.86790   14.15750    0.17830    -999.25    0.17830  -90.95500  -26.91640   14.15750
 1900.00000  251.66160  250.38070  250.38070  185.84940  132.30000  132.30000 2502.76780    0.12660    -999.25    0.12120    5.38070  259.83770  259.83770   87.85990   90.01930   90.01930    5.38070    4.97460    4.97460    0.31950    -999.25    0.31950 2502.76780    6.27310    0.24350    -999.25    0.24350 -118.35580  -55.98560    6.27310
 1950.00000  248.20720  246.01030  246.01030  154.10700  117.40000  117.40000 2601.60620    0.07340    -999.25    0.06340    6.48900  215.13720  215.13720  122.21870  133.54680  133.54680    6.48900    6.91800    6.91800    0.22320    -999.25    0.22320 2601.60620    7.11990    0.15380    -999.25    0.15380 -120.17690  -59.47510    7.11990
 2000.00000  227.16800  226.80260  226.80260   84.75440   30.30000   30.30000 2741.10130   -0.01880    -999.25   -0.01820   11.79880  166.07180  166.07180   31.93300   40.55190   40.55190   11.79880   13.42090   13.42090    0.13400    -999.25    0.13400 2741.10130   12.18700    0.03530    -999.25    0.03530 -178.83590 -119.80250   12.18700
 2050.00000  234.08700  229.81260  229.81260  101.50220   30.00000   30.00000 2762.93210   -0.03940    -999.25   -0.03100    9.85200  188.84960  188.84960   56.88790   68.61500   68.61500    9.85200   11.02360   11.02360    0.12910    -999.25    0.12910 2762.93210   13.42070    0.08990    -999.25    0.08990 -144.04500  -86.67990   13.42070
 2100.00000  262.86810  275.68920  275.68920  160.99430   65.80000   65.80000 2456.14650    0.13680    -999.25    0.14850    6.21140  232.29510  232.29510  139.95560  154.89950  154.89950    6.21140    6.53820    6.53820    0.14860    -999.25    0.14860 2456.14650    8.00500    0.17980    -999.25    0.17980 -216.46120 -160.76450    8.00500
 2150.00000  330.79030  280.69880  280.69880  397.85160   91.20000   91.20000 2364.51980    0.19490    -999.25    0.20200    2.51350  273.64390  273.64390  139.60790  155.04170  155.04170    2.51350    2.69710    2.69710    0.30310    -999.25    0.30310 2364.51980    3.26240    0.27050    -999.25    0.27050 -112.93810  -58.90980    3.26240
 2200.00000  234.76000  217.28110  217.28110  168.04180  168.80000  168.80000 2595.10720    0.07430    -999.25    0.06720    5.95090  230.04750  230.04750  110.13760  117.74980  117.74980    5.95090    7.03350    7.03350    0.25420    -999.25    0.25420 2595.10720    8.53160    0.17580    -999.25    0.17580  -67.72190  -14.96830    8.53160
