~Version ---------------------------------------------------
VERS.      2.0 : CWLS log ASCII Standard -VERSION 2.0
WRAP.       NO : One line per depth step
CREA. 07/27/17 : LAS Creation Date
~Well ------------------------------------------------------
STRT.FT                       700.0 : START DEPTH
STOP.FT                     10900.0 : STOP DEPTH
STEP.FT                    50.00000 : STEP LENGTH
NULL.                       -999.25 : NULL VALUE
COMP.   SHELL CANADA RESOURCES LTD. : COMPANY
WELL. SHELL ET AL PEERS 11-34-53-14 : WELL
FLD .                               : FIELD
LOC .                               : LOCATION
CTRY.                        CANADA : COUNTRY
SRVC.        Schlumberger of Canada : SERVICE COMPANY
DATE.                   29-Aug-1977 : LOGDATE
PROV.                       Alberta : PROVINCE
UWI .              100113405314W500 : UNIQUE WELL ID
SLAT.WGS84                 53.62396 : SURFACE LATITUDE
SLON.WGS84                -115.9841 : SURFACE LONGITUDE
~Curve Information -----------------------------------------
DEPT    .FT    : Depth Curve
CALDED  .IN    : CALIPER FROM FDC/CNL LOG
CALSED  .IN    : CALIPER FROM BHC/GR LOG
CALWS   .IN    : CALIPER [CALDED]
CONDWS  .MMHO  : CONDUCTIVITY [1000/DRESWS]
DCORED  .G/C3  : DENSITY CORRECTION FROM FDC/CNL LOG
DCORWS  .G/C3  : DENSITY CORRECTION [DCORED]
DENWS   .G/C3  : BULK DENSITY [M=2.650,2.710 F=1000] [RHOBED]
DPHILSED.V/V   : DENSITY POROSITY [M=2.710 F=1.000] FROM FDC/CNL LOG
DPHISSED.V/V   : DENSITY POROSITY [M=2.650 F=1.000] FROM FDC/CNL LOG
DPOLSWS .V/V   : DENSITY POROSITY [M=2.710 F=1.000] [CALCULATED FROM DENWS]
DRESWS  .OHMM  : DEEP RESISTIVITY [LLDED]
DTED    .US/F  : DELTA TIME FROM BHC/GR LOG
DTWS    .US/F  : DELTA TIME [DTED]
GRDED   .GAPI  : GAMMA RAY FROM FDC/CNL LOG
GRRED   .GAPI  : GAMMA RAY FROM DLL LOG
GRSED   .GAPI  : GAMMA RAY FROM BHC/GR LOG
GRWS    .GAPI  : GAMMA RAY [MERGED GRSED/GRRED at 1160.5']
LLDED   .OHMM  : LATEROLOG DEEP RESISTIVITY FROM DLL LOG
LLSED   .OHMM  : LATEROLOG SHALLOW RESISTIVITY FROM DLL LOG
MCALED  .IN    : CALIPER MICROLOG FROM PML LOG
NPHILSED.V/V   : NEUTRON POROSITY LIMESTONE FROM FDC/CNL LOG
NPHISSED.V/V   : NEUTRON POROSITY SANDSTONE FROM FDC/CNL LOG
NPOLSWS .V/V   : NEUTRON POROSITY LIMESTONE [MERGED NPHISSED CONVERTED TO LS/NPHILSED at 7316']
PROXED  .OHMM  : PROXIMITY RESISTIVITY FROM PML LOG
RHOBED  .G/C3  : BULK DENSITY FROM FDC/CNL LOG
SRESWS  .OHMM  : SHALLOW RESISTIVITY [LLSED]
~Params ----------------------------------------------------
PD  .                     GL : PERMANENT DATUM
EPD .FT               2853.7 : ELEVATION PERMANENT DATUM
LMF .                     KB : LOG MEASURED FROM
DAPD.FT                 20.6 : FEET ABOVE PERMANENT DATUM
EKB .FT               2874.3 : KELLY BUSHING
EGL .FT               2853.7 : GROUND LEVEL
DATE.               08/29/77 : RUN DATE
RUN .                      1 : RUN NUMBER
DD  .FT                10950 : DEPTH DRILLER
DL  .FT                10935 : DEPTH LOGGER
BLI .FT                10932 : BOTTOM LOG INTERVAL
TLI .FT                 1159 : TOP LOG INTERVAL
CS  .IN                9.625 : CASING SIZE
CBD .FT                 1159 : CASING BOTTOM DRILLER
CBL .FT                 1159 : CASING BOTTOM LOGGER
BS  .IN                 8.75 : BIT SIZE
BSD .FT                10950 : BIT SIZE AT DEPTH
DFT .             KCL BARITE : DRILLING FLUID TYPE
DFD .                    9.2 : DRILLING FLUID DENSITY
DFV .                     65 : DRILLING FLUID VISCOSITY
DFPH.                   10.5 : DRILLING FLUID PH
DFL .                   14.2 : DRILLING FLUID LOSS
RMS .OHMM              0.243 : RESISTIVITY MUD SAMPLE
MST .DEGF                 60 : MUD SAMPLE TEMPERATURE
RMF .OHMM              0.172 : RESISTIVITY MUD FILTRATE SAMPLE
MFST.DEGF                 74 : MUD FILTRATE SAMPLE TEMPERATURE
RMB .OHMM              0.069 : RESISTIVITY MUD AT BHT
TCS .HRS                   5 : TIME CIRCULATED STOPPED
LUN .                   7772 : LOGGING UNIT NUMBER
LUL .                    EDM : LOGGING UNIT LOCATION
ENGI.               BERNISKY : RECORDING ENGINEER
WITN.                  CRAIG : WITNESSED BY
CLNT.                A2DTECH : CLIENT CODE
ORIG.            2" 5" PRINT : ORIGIN OF DATA
UWI .       100113405314W500 : UNIQUE WELL ID
DICO. A2D Technologies, Inc. : DIGITIZING COMPANY
~Other -----------------------------------------------------
~ASCII -----------------------------------------------------
# ...
 10150.00000    8.68750    9.00550    9.00550    1.46190    0.01840    0.01840    2.73230   -0.01960    -999.25   -0.01300  684.06340   51.31900   51.31900   34.14180   34.54250   34.51450   34.54250  684.06340  598.70040    8.70100    0.02470    -999.25    0.02470  507.71560    2.73230  598.70040
 10200.00000   10.49700    9.56830    9.56830   57.28310    0.16730    0.16730    2.52470    0.10980    -999.25    0.10840   17.45710   78.80130   78.80130  150.84210  141.97970  148.19420  141.97970   17.45710   18.55490   10.52350    0.23100    -999.25    0.23100    5.92010    2.52470   18.55490
 10250.00000    8.58190    9.00050    9.00050   59.46050    0.07150    0.07150    2.68010    0.01420    -999.25    0.01750   16.81790   72.81870   72.81870  124.37080  128.15880  131.11040  128.15880   16.81790   19.31270    8.58600    0.21320    -999.25    0.21320   10.19000    2.68010   19.31270
 10300.00000    8.68910    8.97200    8.97200    0.57970    0.01100    0.01100    2.74150   -0.01890    -999.25   -0.01840 1725.07530   52.86950   52.86950   38.22620   44.85310   39.35090   44.85310 1725.07530 1010.54290    8.53000    0.04640    -999.25    0.04640 1210.63650    2.74150 1010.54290
 10350.00000    9.04740    9.03020    9.03020    3.93020    0.00660    0.00660    2.69830    0.00440    -999.25    0.00680  254.43820   53.34470   53.34470   47.73430   51.25880   48.70820   51.25880  254.43820  252.52340    8.40400    0.04860    -999.25    0.04860  225.57200    2.69830  252.52340
 10400.00000    9.10500    8.79780    8.79780   18.24640   -0.01290   -0.01290    2.67170    0.02100    -999.25    0.02240   54.80530   54.59300   54.59300   71.79220   75.91760   72.76920   75.91760   54.80530   62.82710    8.66000    0.08980    -999.25    0.08980   48.13890    2.67170   62.82710
 10450.00000    8.82820    9.40600    9.40600    0.71190    0.03980    0.03980    2.71530   -0.00570    -999.25   -0.00310 1404.69410   48.18050   48.18050   43.53500   36.49880   36.83230   36.49880 1404.69410  513.59610    8.72450    0.00660    -999.25    0.00660   22.42230    2.71530  513.59610
 10500.00000    8.92550    8.97010    8.97010    0.02700    0.07680    0.07680    2.76000   -0.04760    -999.25   -0.02920 37006.48440   48.11570   48.11570   23.55690   24.03480   25.82330   24.03480 37006.48440  672.61440    8.39500    0.00110    -999.25    0.00110 3336.82760    2.76000  672.61440
 10550.00000    8.89020    8.90120    8.90120    6.27720   -0.00080   -0.00080    2.69380    0.00550    -999.25    0.00950  159.30690   48.09730   48.09730   16.65660   15.21480   12.45040   15.21480  159.30690   99.37200    8.41900    0.00900    -999.25    0.00900  218.18830    2.69380   99.37200
 10600.00000    9.09770    9.27710    9.27710    0.02710    0.13670    0.13670    2.77400   -0.04320    -999.25   -0.03740 36844.84960   49.35180   49.35180   22.10530   20.75810   21.69420   20.75810 36844.84960  684.53520    8.57850    0.00200    -999.25    0.00200   31.51070    2.77400  684.53520
 10650.00000   10.27590    9.31650    9.31650    0.10440    0.20860    0.20860    2.63180    0.04830    -999.25    0.04570 9575.14060   51.15640   51.15640   25.54970   26.14490   22.71610   26.14490 9575.14060 1202.95080    9.31700    0.00220    -999.25    0.00220    7.73550    2.63180 1202.95080
 10700.00000    8.95130    9.04370    9.04370    2.19800    0.02220    0.02220    2.71660   -0.00840    -999.25   -0.00380  454.96200   51.15230   51.15230   73.52640   74.20700   71.18420   74.20700  454.96200  366.85440    8.40900    0.03040    -999.25    0.03040  335.12190    2.71660  366.85440
 10750.00000    9.73250    9.13120    9.13120   27.50210    0.24970    0.24970    2.54150    0.09900    -999.25    0.09850   36.36080   59.98170   59.98170   80.17060   78.52510   64.59820   78.52510   36.36080   34.42250    8.66600    0.02690    -999.25    0.02690    8.61800    2.54150   34.42250
 10800.00000    8.93680    8.92380    8.92380    8.20950   -0.00220   -0.00220    2.69600    0.00850    -999.25    0.00820  121.80940   55.93320   55.93320  136.85790  136.04770  144.26660  136.04770  121.80940  129.41410    8.30500    0.10780    -999.25    0.10780  107.02240    2.69600  129.41410
 10850.00000    8.97670    9.01710    9.01710    6.15890    0.01610    0.01610    2.73800   -0.01900    -999.25   -0.01640  162.36550   51.17890   51.17890  120.96740  117.16140  118.03410  117.16140  162.36550  159.49750    8.24100    0.06780    -999.25    0.06780  104.62280    2.73800  159.49750
 10900.00000   10.28070    9.43380    9.43380   19.86460    0.24030    0.24030    2.62660    0.04600    -999.25    0.04880   50.34090   50.27470   50.27470   33.04940   30.11330   26.77310   30.11330   50.34090   37.12330    9.00100    0.07290    -999.25    0.07290    3.33310    2.62660   37.12330
