~Version ---------------------------------------------------
VERS.      2.0 : CWLS log ASCII Standard -VERSION 2.0
WRAP.       NO : One line per depth step
CREA. 12/18/17 : LAS Creation Date
~Well ------------------------------------------------------
STRT.FT                             1350.0 : START DEPTH
STOP.FT                            11950.0 : STOP DEPTH
STEP.FT                           50.00000 : STEP LENGTH
NULL.                              -999.25 : NULL VALUE
COMP.                 CHEVRON STANDARD LTD : COMPANY
WELL. CHEVRON AMOCO WASKAHIGAN 10-17-64-24 : WELL
FLD .                                      : FIELD
LOC .                                      : LOCATION
CTRY.                               CANADA : COUNTRY
SRVC.                         Schlumberger : SERVICE COMPANY
DATE.                          17-Sep-1977 : LOGDATE
PROV.                              Alberta : PROVINCE
UWI .                     100101706424W500 : UNIQUE WELL ID
SLAT.WGS84                        54.54045 : SURFACE LATITUDE
SLON.WGS84                       -117.5875 : SURFACE LONGITUDE
~Curve Information -----------------------------------------
DEPT    .FT    : Depth Curve
CALDED  .IN    : CALIPER FROM DENSITY LOG [ADJ. TO RESISTIVITY LOG]
CALSED  .IN    : CALIPER FROM SONIC LOG  [ADJ. TO RESISTIVITY LOG]
CALWS   .IN    : CALIPER [CALSED]
CONDWS  .MMHO  : CONDUCTIVITY [1000/DRESWS]
DCORWS  .G/C3  : DENSITY CORRECTION [DRHOED]
DENWS   .G/C3  : FORMATION BULK DENSITY [RHOBED SPL. TO CALC, FROM DPHILSED M=2.71, F=1.00 FROM 11478'-11488']
DPHILSED.V/V   : DENSITY POROSITY LIMESTONE [M=2.71, F=1.00] FROM DENSITY LOG  [ADJ. TO RESISTIVITY LOG]
DPHISSED.V/V   : DENSITY POROSITY SANDSTONE [M=2.65, F=1.00] FROM DENSITY LOG  [ADJ. TO RESISTIVITY LOG]
DPOLSWS .V/V   : DENSITY POROSITY SANDSTONE [CALC. FROM DENWS  [M=2.71, F=1.00]
DRESWS  .OHMM  : DEEP RESISTIVITY [ILDED]
DRHOED  .G/C3  : DENSITY CORRECTION FROM DENSITY LOG [ [ADJ. TO RESISTIVITY / DPHISSED & DPHILSED]
DTED    .US/F  : DELTA TIME FROM SONIC LOG  [ADJ. TO RESISTIVITY LOG]
DTWS    .US/F  : COMPRSSIONAL SONIC[ DTED]
GRDED   .GAPI  : GAMMA RAY FROM DENSITY LOG  [ADJ. TO RESISTIVITY LOG]
GRSED   .GAPI  : GAMMA RAY FROM SONIC LOG  [ADJ. TO RESISTIVITY LOG]
GRWS    .GAPI  : GAMMA RAY [GRSED SPL. TO GRDED @ 11900']
ILDED   .OHMM  : DEEP INDUCTION LOG RESISTIVITY FROM RESISTIVITY LOG
ILMED   .OHMM  : MEDIUM INDUCTION LOG RESISTIVITY FROM RESISTIVITY LOG
LL8ED   .OHMM  : LATEROLOG FROM RESISTIVITY LOG
MRESWS  .OHMM  : MEDIUM RESISTIVITY [ILMED]
NPHILSED.V/V   : NEUTRON POROSITY LIMESTONE FROM DENSITY LOG  [ADJ. TO RESISTIVITY LOG]
NPHISSED.V/V   : NEUTRON POROSITY SANDSTONE FROM DENSITY LOG  [ADJ. TO RESISTIVITY LOG]
NPOLSWS .V/V   : NEUTRON POROSITY LIMESTONE[NPHISSED MATRIX CONVERSION FOR LIMESTONE SPL. TO NPHILSED @ 9050'
RHOBED  .G/C3  : BULK DENSITY FROM DENSITY LOG [ [ADJ. TO RESISTIVITY/ DPHISSED & DPHILSED]
SPRED   .MV    : SPONTANEOUS POTENTIAL FROM RESISTIVITY LOG
SPWS    .MV    : SPONTANEOUS POTENTIAL [BASELINE 0 MV,SPRED]
SRESWS  .OHMM  : SHALLOW RESISTIVITY [LL8ED]
TENDED  .LBF   : TENSION FROM DENSITY LOG  [ADJ. TO RESISTIVITY LOG]
TENSED  .LBF   : TENSION FROM SONIC LOG  [ADJ. TO RESISTIVITY LOG]
~Params ----------------------------------------------------
PD  .                     GL : PERMANENT DATUM
EPD .FT               2874.1 : ELEVATION PERMANENT DATUM
LMF .                     KB : LOG MEASURED FROM
DAPD.FT                 18.5 : FEET ABOVE PERMANENT DATUM
EKB .FT               2892.6 : KELLY BUSHING
EGL .FT               2874.1 : GROUND LEVEL
DATE.               09/17/77 : RUN DATE
RUN .                      1 : RUN NUMBER
DD  .FT                11989 : DEPTH DRILLER
DL  .FT                11985 : DEPTH LOGGER
BLI .FT                11979 : BOTTOM LOG INTERVAL
TLI .FT                 1516 : TOP LOG INTERVAL
CBD .FT              1516.87 : CASING BOTTOM DRILLER
CBL .FT                 1516 : CASING BOTTOM LOGGER
BS  .IN                 8.75 : BIT SIZE
BSD .FT                11989 : BIT SIZE AT DEPTH
DFT .                    GEL : DRILLING FLUID TYPE
DFD .                      9 : DRILLING FLUID DENSITY
DFV .                     90 : DRILLING FLUID VISCOSITY
DFPH.                    9.5 : DRILLING FLUID PH
DFL .                    8.4 : DRILLING FLUID LOSS
MSS .               FLOWLINE : MUD SAMPLE SOURCE
RMS .OHMM               1.53 : RESISTIVITY MUD SAMPLE
MST .DEGF                 68 : MUD SAMPLE TEMPERATURE
RMF .OHMM               1.36 : RESISTIVITY MUD FILTRATE SAMPLE
MFST.DEGF                 62 : MUD FILTRATE SAMPLE TEMPERATURE
RMC .OHMM               1.37 : RESISTIVITY MUD CAKE
MCST.DEGF                 62 : MUD CAKE SAMPLE TEMPERATURE
TCS .HRS                   5 : TIME CIRCULATED STOPPED
LUN .                   7772 : LOGGING UNIT NUMBER
LUL .                    EDM : LOGGING UNIT LOCATION
ENGI.         BERNISKY TRACY : RECORDING ENGINEER
WITN.             RICHARDSON : WITNESSED BY
CLNT.                A2DTECH : CLIENT CODE
ORIG.            2" 5" PRINT : ORIGIN OF DATA
UWI .       100101706424W500 : UNIQUE WELL ID
DICO. A2D Technologies, Inc. : DIGITIZING COMPANY
~Other -----------------------------------------------------
DIL-CNFD-SONIC LOG RUN
SONIC 2' DEEP TO DIL. GAP IN GRDED FROM 6074'-6090'& 6110' -6132' & GAP IN NPHISSED FROM 6087'-6102' & 6124'-6138' DUE TO REMOVE INVALID VALUE
~ASCII -----------------------------------------------------
# ...
 2600.00000   10.42140    9.62720    9.62720  151.71280    0.04790    2.37010    -999.25    0.17610    0.19880    6.59140    0.04790   93.15590   93.15590   72.39110   65.41370   65.41370    6.59140    5.97710    5.48360    5.97710    -999.25    0.33830    0.29450    2.37010  -46.85710   -5.42080    5.48360 3238.19610 4274.58220
 2650.00000   11.90470    9.76650    9.76650  185.60450    0.16640    2.42220    -999.25    0.14110    0.16830    5.38780    0.16640   92.63200   92.63200   89.38380   83.24780   83.24780    5.38780    6.19430    5.64250    6.19430    -999.25    0.37040    0.32700    2.42220  -44.42300   -2.65430    5.64250 3186.56770 4306.98400
 2700.00000   12.97290    9.58730    9.58730  195.94780    0.07770    2.36070    -999.25    0.17970    0.20430    5.10340    0.07770  103.57310  103.57310   84.20540   81.05260   81.05260    5.10340    4.50680    3.94960    4.50680    -999.25    0.43190    0.38970    2.36070  -44.14950   -2.08800    3.94960 3229.28840 4272.89420
 2750.00000   12.60830    9.39710    9.39710  229.15280    0.04840    2.30220    -999.25    0.21300    0.23850    4.36390    0.04840  108.34000  108.34000   67.51250   60.38900   60.38900    4.36390    4.23150    3.81690    4.23150    -999.25    0.43140    0.38920    2.30220  -45.17160   -3.08260    3.81690 3942.59130 4209.00310
 2800.00000    9.72860    9.16310    9.16310   93.62520    0.01640    2.55190    -999.25    0.05800    0.09250   10.68230    0.01640   70.54280   70.54280   50.76580   46.18180   46.18180   10.68230   12.90520   25.97530   12.90520    -999.25    0.20300    0.15950    2.55190  -44.08530   -1.96900   25.97530 3959.75080 4043.05890
 2850.00000   12.36390    8.91430    8.91430  279.25160    0.14030    2.04990    -999.25    0.37940    0.38600    3.58100    0.14030  103.43360  103.43360   79.83090   72.97650   72.97650    3.58100    3.36920    3.16300    3.36920    -999.25    0.47090    0.42980    2.04990  -43.38510   -1.40830    3.16300 3813.44700 4061.90310
 2900.00000   10.58640    9.17540    9.17540  206.29190    0.21010    1.98240    -999.25    0.42450    0.42550    4.84750    0.21010  107.20260  107.20260   73.34830   66.29450   66.29450    4.84750    3.98670    3.82950    3.98670    -999.25    0.50480    0.46520    1.98240  -44.28880   -2.46430    3.82950 3663.68890 4089.02980
 2950.00000   10.20570    9.74880    9.74880  185.56320    0.06220    2.45490    -999.25    0.11740    0.14920    5.38900    0.06220   88.12200   88.12200   69.40830   71.47580   71.47580    5.38900    4.70020    5.01330    4.70020    -999.25    0.38920    0.34610    2.45490  -43.57210   -1.89980    5.01330 3856.03270 3872.83990
 3000.00000   10.99480   10.15060   10.15060  171.73570    0.17820    2.39080    -999.25    0.16570    0.18670    5.82290    0.17820   88.80380   88.80380   64.01840   61.47030   61.47030    5.82290    5.58420    5.38980    5.58420    -999.25    0.38030    0.33710    2.39080  -44.67510   -3.15500    5.38980 3883.99470 3865.20140
 3050.00000   11.47370   10.11210   10.11210  192.38910    0.13240    2.31350    -999.25    0.20380    0.23190    5.19790    0.13240  101.23600  101.23600   71.23870   70.70290   70.70290    5.19790    4.73340    4.18970    4.73340    -999.25    0.46050    0.41910    2.31350  -44.26040   -2.89180    4.18970 3769.18300 3703.11960
 3100.00000   11.30730    9.78010    9.78010  157.11170    0.07190    2.29010    -999.25    0.20910    0.24560    6.36490    0.07190   83.81990   83.81990   68.38360   63.00640   63.00640    6.36490    6.12930    7.87330    6.12930    -999.25    0.42350    0.38110    2.29010  -43.84560   -2.63000    7.87330 3756.65130 3825.84940
 3150.00000   10.99440    9.66810    9.66810  197.94920    0.13280    2.27020    -999.25    0.24130    0.25720    5.05180    0.13280   93.22850   93.22850   70.83100   60.04130   60.04130    5.05180    4.91810    4.52330    4.91810    -999.25    0.41680    0.37430    2.27020  -44.68230   -3.45870    4.52330 3756.51520 3647.42910
 3200.00000   10.72900    9.38290    9.38290  225.83050    0.10550    2.27520    -999.25    0.23170    0.25430    4.42810    0.10550   95.02080   95.02080   68.23580   70.82930   70.82930    4.42810    4.17000    4.00760    4.17000    -999.25    0.43590    0.39380    2.27520  -44.34370   -2.77170    4.00760 3684.93400 3657.97750
 3250.00000   10.27880    9.37640    9.37640  214.04570    0.14050    2.22640    -999.25    0.25510    0.28280    4.67190    0.14050  102.11540  102.11540   71.71240   66.14640   66.14640    4.67190    4.28030    4.04600    4.28030    -999.25    0.45540    0.41390    2.22640  -43.56140   -1.64090    4.04600 3617.21720 3442.86880
 3300.00000    9.71150    9.24650    9.24650  225.93150    0.14670    2.19730    -999.25    0.28210    0.29980    4.42690    0.14670  101.80020  101.80020   68.35320   68.76120   68.76120    4.42690    4.19790    4.06420    4.19790    -999.25    0.49820    0.45830    2.19730  -43.35190   -2.02500    4.06420 3637.09120 3541.46500
 3350.00000    9.81390    9.16710    9.16710  204.79210    0.12550    2.36360    -999.25    0.18070    0.20260    4.88300    0.12550   93.41230   93.41230   76.70580   73.39400   73.39400    4.88300    4.56870    4.19070    4.56870    -999.25    0.45350    0.41190    2.36360  -44.23720   -2.41770    4.19070 3662.69770 3386.72130
 3400.00000    9.19370    8.98100    8.98100   57.54600    0.02400    2.38040    -999.25    0.16520    0.19270   17.37740    0.02400   87.68270   87.68270   42.48970   38.06890   38.06890   17.37740   18.21650   19.22370   18.21650    -999.25    0.33450    0.29080    2.38040  -53.10820  -10.79850   19.22370 3439.51700 4348.93520
 3450.00000   10.66120    9.17480    9.17480  158.76290    0.10420    2.42970    -999.25    0.13350    0.16390    6.29870    0.10420   86.69510   86.69510   73.56400   68.15930   68.15930    6.29870    5.85170    5.49520    5.85170    -999.25    0.36310    0.31970    2.42970  -45.41830   -2.61850    5.49520 3490.32650 4408.03770
 3500.00000   12.41910    9.72310    9.72310  218.43600    0.07200    2.44900    -999.25    0.12370    0.15270    4.57800    0.07200   96.40510   96.40510   79.48020   71.49150   71.49150    4.57800    4.90770    4.24130    4.90770    -999.25    0.38270    0.33950    2.44900  -44.45780   -1.16780    4.24130 3476.84220 4351.64070
 3550.00000    -999.25    9.67820    9.67820  142.96900    -999.25    -999.25    -999.25    -999.25    -999.25    6.99450    -999.25   89.74380   89.74380    -999.25   79.18480   79.18480    6.99450    6.90340    6.45240    6.90340    -999.25    -999.25    -999.25    -999.25  -45.36040   -1.58280    6.45240    -999.25 4189.01010
 3600.00000    -999.25    9.91740    9.91740  122.79280    -999.25    -999.25    -999.25    -999.25    -999.25    8.14380    -999.25   87.15870   87.15870    -999.25   97.30940   97.30940    8.14380    7.27420    7.05980    7.27420    -999.25    -999.25    -999.25    -999.25  -46.66670   -2.72900    7.05980    -999.25 4190.08650
 3650.00000    -999.25    9.85470    9.85470   99.39570    -999.25    -999.25    -999.25    -999.25    -999.25   10.06080    -999.25   84.33120   84.33120    -999.25   93.06590   93.06590   10.06080    9.39900    8.83990    9.39900    -999.25    -999.25    -999.25    -999.25  -48.17250   -4.11950    8.83990    -999.25 4160.91320
 3700.00000    -999.25    9.65160    9.65160  114.67360    -999.25    -999.25    -999.25    -999.25    -999.25    8.72040    -999.25   90.31920   90.31920    -999.25  112.98380  112.98380    8.72040    8.32060    9.18730    8.32060    -999.25    -999.25    -999.25    -999.25  -46.34540   -2.21930    9.18730    -999.25 4120.50150
 3750.00000    -999.25    9.85610    9.85610   88.30720    -999.25    -999.25    -999.25    -999.25    -999.25   11.32410    -999.25   87.63360   87.63360    -999.25  117.24910  117.24910   11.32410   11.87540   13.28490   11.87540    -999.25    -999.25    -999.25    -999.25  -46.99480   -2.79550   13.28490    -999.25 4191.40340
 3800.00000    -999.25   10.31890   10.31890   97.07140    -999.25    -999.25    -999.25    -999.25    -999.25   10.30170    -999.25   88.26690   88.26690    -999.25  111.54150  111.54150   10.30170   10.91340   11.66800   10.91340    -999.25    -999.25    -999.25    -999.25  -45.62710   -1.35500   11.66800    -999.25 4032.50700
