~Version ---------------------------------------------------
VERS.      2.0 : CWLS log ASCII Standard -VERSION 2.0
WRAP.       NO : One line per depth step
CREA. 11/15/17 : LAS Creation Date
~Well ------------------------------------------------------
STRT.FT                            1100.0 : START DEPTH
STOP.FT                           11050.0 : STOP DEPTH
STEP.FT                          50.00000 : STEP LENGTH
NULL.                             -999.25 : NULL VALUE
COMP.        CANADIAN HOMESTEAD OILS LTD. : COMPANY
WELL. HOMESTEAD ET AL ROSEVEAR 9-34-53-15 : WELL
FLD .                                     : FIELD
LOC .                                     : LOCATION
CTRY.                              CANADA : COUNTRY
SRVC.              Schlumberger of Canada : SERVICE COMPANY
DATE.                         06-May-1975 : LOGDATE
PROV.                             Alberta : PROVINCE
UWI .                    100093405315W500 : UNIQUE WELL ID
SLAT.WGS84                       53.62182 : SURFACE LATITUDE
SLON.WGS84                      -116.1151 : SURFACE LONGITUDE
~Curve Information -----------------------------------------
DEPT    .FT    : Depth Curve
CALDED  .IN    : CALIPER FROM CND LOG[DSH TO GRSED/ILDED]
CALSED  .IN    : CALIPER FROM SONIC LOG
CALWS   .IN    : CALIPER [CALSED]
CONDWS  .MMHO  : CONDUCTIVITY [1000/DRESWS]
DCORED  .G/C3  : DENSITY CORRECTION FROM CND LOG[DSH TO GRSED/ILDED]
DCORWS  .G/C3  : DENSITY CORRECTION DCORED]
DENWS   .G/C3  : BULK FORMATION DENSITY[RHOBED]
DPHILSED.V/V   : DENSITY POROSITY LIMESTONE[M=2.71, F=1.00]FROM CND LOG[DSH TO GRSED/ILDED]
DPHISSED.V/V   : DENSITY POROSITY SANDSTONE[M=2.65, F=1.00]FROM CND LOG[DSH TO GRSED/ILDED]
DPOLSWS .V/V   : DENSITY POROSITY LIMESTONE[M=2.71, F=1.00][CALCULATED FROM DENWS]
DRESWS  .OHMM  : DEEP RESISTIVITY [ILDED]
DTED    .US/F  : ACOUSTIC TRANSIT TIME SLOWNESS, DELTA T
DTWS    .US/F  : ACOUSTIC TRANSIT TIME SLOWNESS[DTED]
GRDED   .GAPI  : GAMMA RAY FROM DENSITY LOG[DSH TO GRSED/ILDED]
GRSED   .GAPI  : GAMMA RAY FROM SONIC LOG
GRWS    .GAPI  : GAMMA RAY [GRSED]
ILDED   .OHMM  : INDUCTION LOG DEEP RESISTIVITY
ILMED   .OHMM  : INDUCTION LOG MEDIUM RESISTIVITY
LL8ED   .OHMM  : 8 INCH LATEROLOG RESISTIVITY
MRESWS  .OHMM  : MEDIUM RESISTIVITY [ILMED]
NPHILSED.V/V   : NEUTRON POROSITY LIMESTONE FROM CND LOG[DSH TO GRSED/ILDED]
NPHISSED.V/V   : NEUTRON POROSITY SANDSTONE FROM CND LOG[DSH TO GRSED/ILDED]
NPOLSWS .V/V   : NEUTRON POROSITY LIMESTONE[ NPHSSED CONVERTED TO LIMESTONE AND SPLICED TO NPHILSED AT 7521']
RHOBED  .G/C3  : BULK FORMATION DENSITY FROM CND LOG[DSH TO GRSED/ILDED]
SPHIED  .V/V   : SONIC POROSITY [DTM=55.6, DF=189<7520' and 47.6 DF=189>7520']FROM SONIC LOG
SPOWS   .V/V   : SONIC POROSITY [SPHIED]
SPRED   .MV    : SPONTANEOUS POTENTIAL FROM RESISTIVITY LOG
SPWS    .MV    : SPONTANEOUS POTENTIAL [BASELINE 0 MV] [SPRED]
SRESWS  .OHMM  : SHALLOW RESISTIVITY [LL8ED]
~Params ----------------------------------------------------
PD  .                     GL : PERMANENT DATUM
EPD .FT               2932.7 : ELEVATION PERMANENT DATUM
LMF .                     KB : LOG MEASURED FROM
DAPD.FT                 18.3 : FEET ABOVE PERMANENT DATUM
EKB .FT                 2951 : KELLY BUSHING
EGL .FT               2932.7 : GROUND LEVEL
DATE.               05/06/75 : RUN DATE
RUN .                      1 : RUN NUMBER
DD  .FT                11081 : DEPTH DRILLER
DL  .FT                11087 : DEPTH LOGGER
BLI .FT                11081 : BOTTOM LOG INTERVAL
TLI .FT                 1136 : TOP LOG INTERVAL
CBD .FT                 1136 : CASING BOTTOM DRILLER
CBL .FT                 1134 : CASING BOTTOM LOGGER
BS  .IN                 8.75 : BIT SIZE
BSD .FT                11081 : BIT SIZE AT DEPTH
DFT .               CHEM GEL : DRILLING FLUID TYPE
DFD .                    9.2 : DRILLING FLUID DENSITY
DFV .                     90 : DRILLING FLUID VISCOSITY
DFPH.                     11 : DRILLING FLUID PH
DFL .                    8.4 : DRILLING FLUID LOSS
MSS .              CIRULATED : MUD SAMPLE SOURCE
RMS .OHMM               1.22 : RESISTIVITY MUD SAMPLE
MST .DEGF                 72 : MUD SAMPLE TEMPERATURE
RMF .OHMM               0.98 : RESISTIVITY MUD FILTRATE SAMPLE
MFST.DEGF                 70 : MUD FILTRATE SAMPLE TEMPERATURE
LUN .                   7690 : LOGGING UNIT NUMBER
LUL .                    EDM : LOGGING UNIT LOCATION
ENGI.                  BORLE : RECORDING ENGINEER
WITN.                   KING : WITNESSED BY
CLNT.                A2DTECH : CLIENT CODE
ORIG.            2" 5" PRINT : ORIGIN OF DATA
UWI .       100093405315W500 : UNIQUE WELL ID
DICO. A2D Technologies, Inc. : DIGITIZING COMPANY
~Other -----------------------------------------------------
~ASCII -----------------------------------------------------
# ...
 4850.00000    -999.25   11.69420   11.69420   74.17630    -999.25    -999.25    -999.25    -999.25    -999.25    -999.25   13.48140   83.13880   83.13880    -999.25  103.52730  103.52730   13.48140   14.30800   17.34550   14.30800    -999.25    -999.25    -999.25    -999.25    0.21700    0.21700 -104.06290   -3.02420   17.34550
 4900.00000    -999.25   12.58330   12.58330  100.40160    -999.25    -999.25    -999.25    -999.25    -999.25    -999.25    9.96000   90.18370   90.18370    -999.25   98.98350   98.98350    9.96000   10.67180   12.15230   10.67180    -999.25    -999.25    -999.25    -999.25    0.27400    0.27400 -104.36730   -3.46600   12.15230
 4950.00000    -999.25   12.44560   12.44560   95.76800    -999.25    -999.25    -999.25    -999.25    -999.25    -999.25   10.44190   77.57420   77.57420    -999.25   93.94710   93.94710   10.44190   10.87600   12.01010   10.87600    -999.25    -999.25    -999.25    -999.25    0.17440    0.17440 -104.78430   -4.13470   12.01010
 5000.00000    -999.25   12.50050   12.50050  130.31180    -999.25    -999.25    -999.25    -999.25    -999.25    -999.25    7.67390   81.84470   81.84470    -999.25   89.84350   89.84350    7.67390    8.11150    9.61020    8.11150    -999.25    -999.25    -999.25    -999.25    0.21700    0.21700 -105.05150   -4.67700    9.61020
 5050.00000    -999.25   12.24830   12.24830  125.94930    -999.25    -999.25    -999.25    -999.25    -999.25    -999.25    7.93970   82.46290   82.46290    -999.25   95.72850   95.72850    7.93970    8.57530    8.89450    8.57530    -999.25    -999.25    -999.25    -999.25    0.21950    0.21950 -105.18620   -5.08680    8.89450
 5100.00000    -999.25   11.71310   11.71310  121.68410    -999.25    -999.25    -999.25    -999.25    -999.25    -999.25    8.21800   81.83280   81.83280    -999.25   94.74120   94.74120    8.21800    8.72920    9.70290    8.72920    -999.25    -999.25    -999.25    -999.25    0.20040    0.20040 -104.00020   -4.17590    9.70290
 5150.00000    -999.25   11.96380   11.96380  105.99510    -999.25    -999.25    -999.25    -999.25    -999.25    -999.25    9.43440   80.61020   80.61020    -999.25   92.75660   92.75660    9.43440    9.79790   10.12330    9.79790    -999.25    -999.25    -999.25    -999.25    0.19870    0.19870 -104.08090   -4.53170   10.12330
 5200.00000    -999.25   11.57450   11.57450  110.84630    -999.25    -999.25    -999.25    -999.25    -999.25    -999.25    9.02150   83.61370   83.61370    -999.25  108.11030  108.11030    9.02150    9.36040   10.54350    9.36040    -999.25    -999.25    -999.25    -999.25    0.21990    0.21990 -102.48830   -3.21420   10.54350
 5250.00000    -999.25   11.53260   11.53260  108.69450    -999.25    -999.25    -999.25    -999.25    -999.25    -999.25    9.20010   82.78450   82.78450    -999.25  100.31960  100.31960    9.20010    9.94340   10.74810    9.94340    -999.25    -999.25    -999.25    -999.25    0.20470    0.20470 -100.85440   -1.85540   10.74810
 5300.00000    -999.25   12.23490   12.23490  154.21390    -999.25    -999.25    -999.25    -999.25    -999.25    -999.25    6.48450   84.88020   84.88020    -999.25  100.33110  100.33110    6.48450    6.66340    7.49910    6.66340    -999.25    -999.25    -999.25    -999.25    0.23370    0.23370 -101.56670   -2.84280    7.49910
 5350.00000   14.03750   11.24660   11.24660  123.50710    -999.25    -999.25    -999.25    -999.25    -999.25    -999.25    8.09670   82.83780   82.83780  102.86740   92.72450   92.72450    8.09670    8.45640    9.47470    8.45640    -999.25    -999.25    -999.25    -999.25    0.21720    0.21720 -101.63360   -3.18470    9.47470
 5400.00000   13.97640   11.13290   11.13290  100.41170    0.13740    0.13740    2.11450    -999.25    0.33000    0.34820    9.95900   78.19030   78.19030   94.44930   91.19070   91.19070    9.95900   10.48380   11.08980   10.48380    -999.25    0.32900    0.28520    2.11450    0.18160    0.18160 -101.86920   -3.69540   11.08980
 5450.00000   12.14400   10.19700   10.19700   54.13890    0.25690    0.25690    2.29250    -999.25    0.22270    0.24420   18.47100   69.78650   69.78650   76.82350   74.06240   74.06240   18.47100   19.44200   20.79010   19.44200    -999.25    0.19130    0.14800    2.29250    0.11310    0.11310 -106.22950   -8.33080   20.79010
 5500.00000   13.68720   11.25660   11.25660   90.39300    0.20570    0.20570    2.15060    -999.25    0.30440    0.32710   11.06280   74.48460   74.48460   95.94710   95.60840   95.60840   11.06280   11.43090   12.10360   11.43090    -999.25    0.30970    0.26580    2.15060    0.15800    0.15800 -100.09050   -2.46690   12.10360
 5550.00000   14.17650   11.74990   11.74990   95.10950    0.18760    0.18760    1.91370    -999.25    0.43860    0.46570   10.51420   76.96260   76.96260    -999.25   98.06250   98.06250   10.51420   11.05880   11.93240   11.05880    -999.25    -999.25    -999.25    1.91370    0.16770    0.16770 -100.65350   -3.30500   11.93240
 5600.00000    -999.25   11.18960   11.18960  107.24320    -999.25    -999.25    -999.25    -999.25    -999.25    -999.25    9.32460   79.21680   79.21680    -999.25  103.66110  103.66110    9.32460   10.01590   10.37120   10.01590    -999.25    -999.25    -999.25    -999.25    0.18880    0.18880  -99.91970   -2.84630   10.37120
 5650.00000    -999.25   10.95440   10.95440   89.59610    -999.25    -999.25    -999.25    -999.25    -999.25    -999.25   11.16120   76.68440   76.68440    -999.25   93.31570   93.31570   11.16120   11.78740   10.27990   11.78740    -999.25    -999.25    -999.25    -999.25    0.16630    0.16630 -100.83610   -4.03780   10.27990
 5700.00000    -999.25   10.96860   10.96860  107.29380    -999.25    -999.25    -999.25    -999.25    -999.25    -999.25    9.32020   79.59910   79.59910    -999.25  100.26900  100.26900    9.32020    9.95280   10.65330    9.95280    -999.25    -999.25    -999.25    -999.25    0.19210    0.19210  -99.47560   -2.97720   10.65330
 5750.00000    -999.25   10.55430   10.55430  116.01870    -999.25    -999.25    -999.25    -999.25    -999.25    -999.25    8.61930   88.41850   88.41850    -999.25   98.26010   98.26010    8.61930    9.11970   10.12640    9.11970    -999.25    -999.25    -999.25    -999.25    0.26260    0.26260  -99.13040   -2.93590   10.12640
 5800.00000    -999.25   10.23030   10.23030   71.40660    -999.25    -999.25    -999.25    -999.25    -999.25    -999.25   14.00430   85.92550   85.92550    -999.25  112.52470  112.52470   14.00430   14.97490   17.36790   14.97490    -999.25    -999.25    -999.25    -999.25    0.24080    0.24080  -99.23490   -3.34430   17.36790
 5850.00000    -999.25   10.18750   10.18750   86.34160    -999.25    -999.25    -999.25    -999.25    -999.25    -999.25   11.58190   84.48420   84.48420    -999.25  112.39480  112.39480   11.58190   12.93820   15.42530   12.93820    -999.25    -999.25    -999.25    -999.25    0.23280    0.23280  -98.59460   -3.00790   15.42530
 5900.00000    -999.25   10.37370   10.37370   76.71950    -999.25    -999.25    -999.25    -999.25    -999.25    -999.25   13.03450   86.22230   86.22230    -999.25  107.07340  107.07340   13.03450   14.06980   16.50420   14.06980    -999.25    -999.25    -999.25    -999.25    0.24920    0.24920  -98.56760   -3.28480   16.50420
 5950.00000    -999.25   10.11760   10.11760   58.71230    -999.25    -999.25    -999.25    -999.25    -999.25    -999.25   17.03220   86.27920   86.27920    -999.25  127.12310  127.12310   17.03220   19.01770   25.51390   19.01770    -999.25    -999.25    -999.25    -999.25    0.24250    0.24250  -98.47340   -3.49460   25.51390
 6000.00000    -999.25   10.16870   10.16870   46.55470    -999.25    -999.25    -999.25    -999.25    -999.25    -999.25   21.48010   91.10130   91.10130    -999.25  127.86950  127.86950   21.48010   24.11900   30.34720   24.11900    -999.25    -999.25    -999.25    -999.25    0.28190    0.28190  -99.30770   -4.63280   30.34720
 6050.00000    -999.25   10.42850   10.42850   68.22170    -999.25    -999.25    -999.25    -999.25    -999.25    -999.25   14.65810   85.57530   85.57530    -999.25  117.90400  117.90400   14.65810   17.43860   22.55780   17.43860    -999.25    -999.25    -999.25    -999.25    0.23330    0.23330  -97.62880   -3.25780   22.55780
