~Version ---------------------------------------------------
VERS.      2.0 : CWLS log ASCII Standard -VERSION 2.0
WRAP.       NO : One line per depth step
CREA. 08/13/13 : LAS Creation Date
~Well ------------------------------------------------------
STRT.M                         300.0 : START DEPTH
STOP.M                        2850.0 : STOP DEPTH
STEP.M                      50.00000 : STEP LENGTH
NULL.                        -999.25 : NULL VALUE
COMP.      GULF CANADA RESOURCES INC : COMPANY
WELL. GULF UNIT GOOSE RIVER 2-15-67- : WELL
FLD .                                : FIELD
LOC .                                : LOCATION
CTRY.                         CANADA : COUNTRY
SRVC.                        Unknown : SERVICE COMPANY
DATE.                    24-Jan-1984 : LOGDATE
PROV.                        Alberta : PROVINCE
UWI .               100021506718W500 : UNIQUE WELL ID
SLAT.WGS84                  54.79387 : SURFACE LATITUDE
SLON.WGS84                 -116.6546 : SURFACE LONGITUDE
~Curve Information -----------------------------------------
DEPT    .M      : DEPTH METER
C2ED    .MM     : CALIPER 2 FROM DENSITY LOG [ADJ.TO RESISTIVITY LOG]
CALDED  .MM     : CALIPER FROM DENSITY LOG [ADJ.TO RESISTIVITY LOG]
CALSED  .MM     : CALIPER FROM SONIC LOG
CALWS   .MM     : CALIPER [CALSED SPL.TO CALDED @ 2888M]
CILDED  .MMHO   : CONDUCTIVITY FROM RESISTIVITY LOG
CONDWS  .MMHO   : CONDUCTIVITY [1000/DRESWS]
DCORWS  .KG/M3  : DENSITY CORRECTION [DRHOED]
DENWS   .KG/M3  : FORMATION BULK DENSITY [RHOBED]
DPHILSED.V/V    : DENSITY POROSITY LIMESTONE [M=2710, F=1000] FROM DENSITY LOG [ADJ.TO RESISTIVITY LOG]
DPHISSED.V/V    : DENSITY POROSITY SANDSTONE [M=2650, F=1000] FROM DENSITY LOG [ADJ.TO RESISTIVITY LOG]
DPOLSWS .V/V    : DENSITY POROSITY LIMESTONE [CALC FROM DENWS, M=2710, F=1000]
DRESWS  .OHMM   : DEEP RESISTIVITY [1000/CILDED IF ILDED <1, ILDED, SPL @1096M TO ILDED]
DRHOED  .KG/M3  : DENSITY CORRECTION FROM DENSITY LOG [ADJ.TO RESISTIVITY LOG]
DTED    .US/M   : DELTA TIME FROM SONIC LOG
DTWS    .US/M   : COMPRESSIONAL SONIC [DTED]
GRDED   .GAPI   : GAMMA RAY FROM DENSITY LOG [ADJ.TO RESISTIVITY LOG]
GRSED   .GAPI   : GAMMA RAY FROM SONIC LOG
GRWS    .GAPI   : GAMMA RAY [GRSED SPL.TO GRDED @ 2880.5M]
ILDED   .OHMM   : DEEP INDUCTION FROM RESISTIVITY LOG
ILMED   .OHMM   : MEDIUM INDUCTION FROM RESISTIVITY LOG
MRESWS  .OHMM   : MEDIUM RESISTIVITY [ILMED]
NPHILSED.V/V    : NEUTRON POROSITY LIMESTONE FROM DENSITY LOG [ADJ.TO RESISTIVITY LOG]
NPHISSED.V/V    : NEUTRON POROSITY SANDSTONE FROM DENSITY LOG [ADJ.TO RESISTIVITY LOG]
NPOLSWS .V/V    : NEUTRON POROSITY LIMESTONE [NPHISSED MATRIX (SLB) CONVERSION FOR LIMESTONE, SPL.TO NPHILSED @ 1600.8M]
RHOBED  .KG/M3  : BULK DENSITY FROM DENSITY LOG [ADJ.TO RESISTIVITY LOG]
SFLUED  .OHMM   : SHALLOW FOCUSED FROM RESISTIVITY LOG
SPRED   .MV     : SPONTANEOUS POTENTIAL FROM RESISTIVITY LOG
SPWS    .MV     : SPONTANEOUS POTENTIAL [BASELINE 0 MV, SPRED]
SRESWS  .OHMM   : SHALLOW RESISTIVITY [SFLUED]
~Params ----------------------------------------------------
PD  .                         GL : PERMANENT DATUM
EPD .M                    810.15 : ELEVATION PERMANENT DATUM
LMF .                         KB : LOG MEASURED FROM
DAPD.M                       5.2 : FEET ABOVE PERMANENT DATUM
DMF .                         KB : DRILLING MEASURED FROM
EKB .M                    815.35 : KELLY BUSHING
EDF .M                    815.05 : DRILLING FLOOR
EGL .M                    810.15 : GROUND LEVEL
DATE.                   01/24/84 : RUN DATE
RUN .                          1 : RUN NUMBER
DD  .M                      2900 : DEPTH DRILLER
DL  .M                    2900.5 : DEPTH LOGGER
BLI .M                    2889.6 : BOTTOM LOG INTERVAL
TLI .M                     301.5 : TOP LOG INTERVAL
CS  .MM                      244 : CASING SIZE
CBD .M                       301 : CASING BOTTOM DRILLER
CBL .M                     301.5 : CASING BOTTOM LOGGER
BS  .MM                    222.2 : BIT SIZE
BSD .M                      2900 : BIT SIZE AT DEPTH
DFT .                   GEL CHEM : DRILLING FLUID TYPE
DFD .                       1110 : DRILLING FLUID DENSITY
DFV .                         96 : DRILLING FLUID VISCOSITY
DFPH.                        7.5 : DRILLING FLUID PH
DFL .                        9.5 : DRILLING FLUID LOSS
MSS .                   FLOWLINE : MUD SAMPLE SOURCE
RMS .OHMM                   2.68 : RESISTIVITY MUD SAMPLE
MST .DEGC                     19 : MUD SAMPLE TEMPERATURE
RMF .OHMM                   2.36 : RESISTIVITY MUD FILTRATE SAMPLE
MFST.DEGC                     17 : MUD FILTRATE SAMPLE TEMPERATURE
RMC .OHMM                  0.847 : RESISTIVITY MUD CAKE
MCST.DEGC                     86 : MUD CAKE SAMPLE TEMPERATURE
MFSS.                      PRESS : MUD FILTRATE SAMPLE SOURCE
RMB .OHMM                  1.012 : RESISTIVITY MUD AT BHT
TCS .HRS                    1000 : TIME CIRCULATED STOPPED
TLAB.HRS                    2030 : TIME LOGGER AT BOTTOM
LUN .                       8156 : LOGGING UNIT NUMBER
LUL .                        EDM : LOGGING UNIT LOCATION
ENGI.                    GAGGINO : RECORDING ENGINEER
WITN.                   GILKISON : WITNESSED BY
CLNT.                    A2DTECH : CLIENT CODE
ORIG. 6.5"/100M 16.5"/100M PRINT : ORIGIN OF DATA
UWI .           100021506718W500 : UNIQUE WELL ID
DICO.     A2D Technologies, Inc. : DIGITIZING COMPANY
~Other -----------------------------------------------------
DI-SFL-BHC LOG RUN IN COMBO & CN-FDC LOG RUN
SPRED,CILDED,ILDED,SFLU CURVE DIG IN SMALL SCALE @ CSG.TO 1196M
RHOBED DIG IN SMALL SCALE & GRSED,CALSED,DTED FROM TOP TO 1100M
RHOB/DPHI_SS  NOT OVERLAPING BUT CURVE DATA MATCHING  WITH LOG IMAGE. FROM DEPTH 1109.9M TO 1158.5M
~ASCII -----------------------------------------------------
  300.00000    -999.25    -999.25    -999.25    -999.25    -999.25    -999.25    -999.25    -999.25    -999.25    -999.25    -999.25    -999.25    -999.25    -999.25    -999.25    -999.25   51.02560   51.02560    -999.25    -999.25    -999.25    -999.25    -999.25    -999.25    -999.25    -999.25    -999.25    -999.25    -999.25
  350.00000    -999.25    -999.25  319.80000  319.80000  308.49090  308.40400    -999.25    -999.25    -999.25    -999.25    -999.25    3.24250    -999.25  418.45450  418.45450    -999.25   69.75740   69.75740    3.24250    -999.25    -999.25    -999.25    -999.25    -999.25    -999.25    2.74050 -162.84360   -3.86310    2.74050
  400.00000    -999.25    -999.25  294.38050  294.38050  257.67520  257.99790    -999.25    -999.25    -999.25    -999.25    -999.25    3.87600    -999.25  417.08170  417.08170    -999.25   63.71580   63.71580    3.87600    -999.25    -999.25    -999.25    -999.25    -999.25    -999.25    2.69770 -160.38670   -4.81290    2.69770
  450.00000    -999.25    -999.25  280.22850  280.22850  196.07180  179.85930    -999.25    -999.25    -999.25    -999.25    -999.25    5.55990    -999.25  401.67560  401.67560    -999.25   54.49390   54.49390    5.55990    -999.25    -999.25    -999.25    -999.25    -999.25    -999.25    4.11570 -154.61710   -7.48650    4.11570
  500.00000    -999.25    -999.25  222.82330  222.82330   83.26100   81.67270    -999.25    -999.25    -999.25    -999.25    -999.25   12.24400    -999.25  365.46920  365.46920    -999.25   43.72120   43.72120   12.24400    -999.25    -999.25    -999.25    -999.25    -999.25    -999.25   10.38020 -145.20770  -19.34270   10.38020
  550.00000    -999.25    -999.25  225.56410  225.56410  116.25990  116.23990    -999.25    -999.25    -999.25    -999.25    -999.25    8.60290    -999.25  352.74400  352.74400    -999.25   46.80020   46.80020    8.60290    -999.25    -999.25    -999.25    -999.25    -999.25    -999.25    7.51140 -136.90120  -11.05240    7.51140
  600.00000    -999.25    -999.25  249.31900  249.31900  232.72670  217.16000    -999.25    -999.25    -999.25    -999.25    -999.25    4.60490    -999.25  353.23450  353.23450    -999.25   61.58690   61.58690    4.60490    -999.25    -999.25    -999.25    -999.25    -999.25    -999.25    3.91300 -128.03550   -4.50780    3.91300
  650.00000    -999.25    -999.25  230.32500  230.32500  178.26150  173.46660    -999.25    -999.25    -999.25    -999.25    -999.25    5.76480    -999.25  342.39940  342.39940    -999.25   51.14430   51.14430    5.76480    -999.25    -999.25    -999.25    -999.25    -999.25    -999.25    4.95470 -130.68210   -8.95170    4.95470
  700.00000    -999.25    -999.25  294.07350  294.07350  199.00610  199.02870    -999.25    -999.25    -999.25    -999.25    -999.25    5.02440    -999.25  309.86840  309.86840    -999.25   63.21200   63.21200    5.02440    -999.25    -999.25    -999.25    -999.25    -999.25    -999.25    4.65020 -124.82320   -2.38030    4.65020
  750.00000    -999.25    -999.25  278.72480  278.72480  171.46500  171.47660    -999.25    -999.25    -999.25    -999.25    -999.25    5.83170    -999.25  349.56230  349.56230    -999.25   97.85530   97.85530    5.83170    -999.25    -999.25    -999.25    -999.25    -999.25    -999.25    5.65750 -124.82440   -3.66150    5.65750
  800.00000    -999.25    -999.25  261.39620  261.39620  163.70630  163.73850    -999.25    -999.25    -999.25    -999.25    -999.25    6.10730    -999.25  338.95350  338.95350    -999.25   93.32530   93.32530    6.10730    -999.25    -999.25    -999.25    -999.25    -999.25    -999.25    5.64300 -127.46320   -7.58040    5.64300
  850.00000    -999.25    -999.25  278.17200  278.17200  144.24300  144.74710    -999.25    -999.25    -999.25    -999.25    -999.25    6.90860    -999.25  316.09340  316.09340    -999.25   98.56080   98.56080    6.90860    -999.25    -999.25    -999.25    -999.25    -999.25    -999.25    6.07840 -125.35520   -6.75250    6.07840
  900.00000    -999.25    -999.25  264.38780  264.38780  110.01770  110.01340    -999.25    -999.25    -999.25    -999.25    -999.25    9.08980    -999.25  297.71080  297.71080    -999.25   96.24890   96.24890    9.08980    -999.25    -999.25    -999.25    -999.25    -999.25    -999.25    8.21410 -123.90110   -6.76550    8.21410
  950.00000    -999.25    -999.25  270.76240  270.76240  169.79730  173.19920    -999.25    -999.25    -999.25    -999.25    -999.25    5.77370    -999.25  315.30560  315.30560    -999.25   97.87030   97.87030    5.77370    -999.25    -999.25    -999.25    -999.25    -999.25    -999.25    5.54080 -120.47600   -6.45480    5.54080
 1000.00000    -999.25    -999.25  294.41560  294.41560  165.27790  165.20730    -999.25    -999.25    -999.25    -999.25    -999.25    6.05300    -999.25  346.62750  346.62750    -999.25   96.89790   96.89790    6.05300    -999.25    -999.25    -999.25    -999.25    -999.25    -999.25    6.29480 -114.11320   -3.18710    6.29480
 1050.00000    -999.25    -999.25  261.77860  261.77860  159.88570  161.95640    -999.25    -999.25    -999.25    -999.25    -999.25    6.17450    -999.25  296.24650  296.24650    -999.25   90.01460   90.01460    6.17450    -999.25    -999.25    -999.25    -999.25    -999.25    -999.25    5.95000 -114.21420   -6.36340    5.95000
 1100.00000  270.23430  256.86640  264.14950  264.14950    -999.25  180.35240  147.60080 2127.08590    -999.25    -999.25    0.34090    5.54470  147.60080  287.46050  287.46050   92.74270   98.63260   98.63260    5.54470    5.68400    5.68400    -999.25    -999.25    -999.25 2127.08590    5.94470 -109.87540   -5.09990    5.94470
 1150.00000  290.90440  294.11110  299.17390  299.17390    -999.25  222.05940  144.72180 2027.48500    -999.25    0.16200    0.39910    4.50330  144.72180  307.78490  307.78490  101.85660   96.76900   96.76900    4.50330    4.31330    4.31330    -999.25    0.39360    0.35060 2027.48500    4.64420 -107.24560   -5.54540    4.64420
 1200.00000  327.45360  356.03730  329.79080  329.79080    -999.25  430.29260   70.66460 1716.24950    -999.25    0.56660    0.58110    2.32400   70.66460  354.32420  354.32420   84.41400   87.92550   87.92550    2.32400    2.13910    2.13910    -999.25    0.54490    0.50740 1716.24950    2.45800 -102.96960   -3.38750    2.45800
 1250.00000  246.18860  224.18290  226.71120  226.71120    -999.25  144.66340   69.81770 2353.59790    -999.25    0.18060    0.20840    6.91260   69.81770  282.94270  282.94270   60.87620   65.63770   65.63770    6.91260    7.34700    7.34700    -999.25    0.35200    0.30840 2353.59790    6.85110 -114.47320  -15.64470    6.85110
 1300.00000  224.47180  223.20380  222.04230  222.04230    -999.25  165.03280    6.75850 2354.60640    -999.25    0.17930    0.20780    6.05940    6.75850  268.00850  268.00850   24.96590   25.78110   25.78110    6.05940    9.50310    9.50310    -999.25    0.24220    0.19830 2354.60640   16.32170 -166.02750  -68.48750   16.32170
 1350.00000  322.93490  245.61890  262.30660  262.30660    -999.25  142.29410   13.19010 2488.22800    -999.25    0.10000    0.12970    7.02770   13.19010  273.28290  273.28290   79.42600   73.88980   73.88980    7.02770    7.39560    7.39560    -999.25    0.30690    0.26290 2488.22800    7.77600 -107.28410  -10.94620    7.77600
 1400.00000  282.35240  260.90270  259.96680  259.96680    -999.25  205.73170  187.68740 2411.06840    -999.25    0.14630    0.17480    4.86070  187.68740  262.32140  262.32140   56.95930   58.40060   58.40060    4.86070    6.41000    6.41000    -999.25    0.26310    0.21910 2411.06840   10.42720 -132.70080  -37.56500   10.42720
 1450.00000  248.08870  254.81740  236.35780  236.35780    -999.25  172.99540   80.69120 2421.95460    -999.25    0.13780    0.16840    5.78050   80.69120  247.22990  247.22990   55.44100   54.19220   54.19220    5.78050    8.84520    8.84520    -999.25    0.27440    0.23040 2421.95460   14.83240 -149.02360  -55.42360   14.83240
 1500.00000  375.34180  322.92410  320.30460  320.30460    -999.25  439.44450   45.92560 2088.52150    -999.25    0.31740    0.36340    2.27560   45.92560  325.32920  325.32920   63.12770   62.53300   62.53300    2.27560    2.11630    2.11630    -999.25    0.51880    0.47990 2088.52150    2.41850  -98.49350  -10.33900    2.41850
