~Version ---------------------------------------------------
VERS.      2.0 : CWLS log ASCII Standard -VERSION 2.0
WRAP.       NO : One line per depth step
CREA. 08/12/13 : LAS Creation Date
~Well ------------------------------------------------------
STRT.M                       450.0 : START DEPTH
STOP.M                      3550.0 : STOP DEPTH
STEP.M                    50.00000 : STEP LENGTH
NULL.                      -999.25 : NULL VALUE
COMP. HUSKY OIL OPERATIONS LIMITED : COMPANY
WELL.  HUSKY ANTE CREEK 7-27-66-26 : WELL
FLD .                              : FIELD
LOC .                              : LOCATION
CTRY.                       CANADA : COUNTRY
SRVC.                      Unknown : SERVICE COMPANY
DATE.                  24-Feb-1984 : LOGDATE
PROV.                      Alberta : PROVINCE
UWI .             100072706626W500 : UNIQUE WELL ID
SLAT.WGS84                54.74152 : SURFACE LATITUDE
SLON.WGS84               -117.8404 : SURFACE LONGITUDE
~Curve Information -----------------------------------------
DEPT    .M      : DEPTH METER
CALDED  .MM     : CALIPER FROM DENSITY LOG [ADJ. TO RESISTIVITY LOG]
CALRED  .MM     : CALIPER FROM RESISTIVITY LOG
CALSED  .MM     : CALIPER FROM SONIC LOG [ADJ. TO RESISTIVITY LOG]
CALWS   .MM     : CALIPER [CALRED]
CONDWS  .MMHO   : CONDUCTIVITY [1000/DRESWS]
DCORWS  .KG/M3  : DENSITY CORRECTION [DRHOED]
DENWS   .KG/M3  : FORMATION BULK DENSITY [RHOBED]
DPHILSED.V/V    : DENSITY POROSITY LIMESTONE [M=2710, F=1000] FROM DENSITY LOG [ADJ. TO RESISTIVITY LOG/RHOBED]
DPHISSED.V/V    : DENSITY POROSITY SANDSTONE [M=2650, F=1000] FROM DENSITY LOG  [ADJ. TO RESISTIVITY LOG/RHOBED]
DPOLSWS .V/V    : DENSITY POROSITY LIMESTONE [CALC. FROM DENWS, M=2710, F=1000]
DRESWS  .OHMM   : DEEP RESISTIVITY [LLDED]
DRHOED  .KG/M3  : BULK DENSITY CORRECTION FROM DENSITY LOG [ADJ. TO RESISTIVITY LOG]
DTED    .US/M   : DELTA TIME FROM SONIC LOG [ADJ. TO RESISTIVITY LOG]
DTWS    .US/M   : COMPRESSIONAL SONIC [DTED]
GRDED   .GAPI   : GAMMA RAY FROM DENSITY LOG [ADJ. TO RESISTIVITY LOG]
GRRED   .GAPI   : GAMMA RAY FROM RESISTIVITY LOG
GRSED   .GAPI   : GAMMA RAY FROM SONIC LOG [ADJ. TO RESISTIVITY LOG]
GRWS    .GAPI   : GAMMA RAY [GRSED SPL. TO GRRED @ 483 M]
LLDED   .OHMM   : DEEP LATEROLOG RESISTIVITY FROM RESISTIVITY LOG
LLSED   .OHMM   : SHALLOW LATEROLOG RESISTIVITY FROM RESISTIVITY LOG
MCALED  .MM     : MICRO CALIPER FROM ML LOG
MSFLED  .OHMM   : MICROSPHERICALLY FOCUSED FROM RESISTIVITY LOG
NPHILSED.V/V    : NEUTRON POROSITY LIMESTONE FROM DENSITY LOG [ADJ. TO RESISTIVITY LOG/RHOBED]
NPHISSED.V/V    : NEUTRON POROSITY SANDSTONE FROM DENSITY LOG [ADJ. TO RESISTIVITY LOG/RHOBED]
NPOLSWS .V/V    : NEUTRON POROSITY LIMESTONE [NPHISSED CONVERTED TO LIMESTONE MATRIX, SPL. TO NPHILSED @ 2268 M]
PROXED  .OHMM   : PROXIMITY RESISTIVITY FROM RESISTIVITY LOG
RHOBED  .KG/M3  : BULK DENSITY FROM DENSITY LOG [ADJ. TO RESISTIVITY LOG]
SPRED   .MV     : SPONTANEOUS POTENTIAL FROM RESISTIVITY LOG
SRESWS  .OHMM   : SHALLOW RESISTIVITY [LLSED]
TENDED  .N      : TENSION FROM DENSITY LOG [ADJ. TO RESISTIVITY LOG]
TENSED  .N      : TENSION FROM SONIC LOG [ADJ. TO RESISTIVITY LOG]
~Params ----------------------------------------------------
PD  .                         GL : PERMANENT DATUM
EPD .M                    785.37 : ELEVATION PERMANENT DATUM
LMF .                         KB : LOG MEASURED FROM
DAPD.M                      7.45 : FEET ABOVE PERMANENT DATUM
DMF .                         KB : DRILLING MEASURED FROM
EKB .M                    792.82 : KELLY BUSHING
EGL .M                    785.37 : GROUND LEVEL
DATE.                   02/24/84 : RUN DATE
RUN .                          1 : RUN NUMBER
DD  .M                      3597 : DEPTH DRILLER
DL  .M                      3595 : DEPTH LOGGER
BLI .M                      3595 : BOTTOM LOG INTERVAL
TLI .M                       486 : TOP LOG INTERVAL
CS  .MM                    244.5 : CASING SIZE
CBD .M                       486 : CASING BOTTOM DRILLER
CBL .M                       486 : CASING BOTTOM LOGGER
BS  .MM                      222 : BIT SIZE
BSD .M                      3597 : BIT SIZE AT DEPTH
DFT .                   GEL CHEM : DRILLING FLUID TYPE
DFD .                       1125 : DRILLING FLUID DENSITY
DFV .                         69 : DRILLING FLUID VISCOSITY
DFPH.                       10.5 : DRILLING FLUID PH
DFL .                          9 : DRILLING FLUID LOSS
MSS .                   FLOWLINE : MUD SAMPLE SOURCE
RMS .OHMM                   1.36 : RESISTIVITY MUD SAMPLE
MST .DEGC                   15.6 : MUD SAMPLE TEMPERATURE
RMF .OHMM                   1.08 : RESISTIVITY MUD FILTRATE SAMPLE
MFST.DEGC                   17.8 : MUD FILTRATE SAMPLE TEMPERATURE
RMC .OHMM                   1.62 : RESISTIVITY MUD CAKE
MCST.DEGC                   21.1 : MUD CAKE SAMPLE TEMPERATURE
MFSS.                   MEASURED : MUD FILTRATE SAMPLE SOURCE
MCSS.                   MEASURED : MUD CAKE SAMPLE SOURCE
RMB .OHMM                  0.506 : RESISTIVITY MUD AT BHT
TCS .HRS                     100 : TIME CIRCULATED STOPPED
TLAB.HRS                     915 : TIME LOGGER AT BOTTOM
LUN .                       8211 : LOGGING UNIT NUMBER
LUL .                        EDM : LOGGING UNIT LOCATION
ENGI.             PIERACCI PENNY : RECORDING ENGINEER
WITN.                      STIEL : WITNESSED BY
CLNT.                    A2DTECH : CLIENT CODE
ORIG. 6.5"/100M 16.5"/100M PRINT : ORIGIN OF DATA
UWI .           100072706626W500 : UNIQUE WELL ID
DICO.     A2D Technologies, Inc. : DIGITIZING COMPANY
~Other -----------------------------------------------------
CNFD-DLL-MSFL-ML-PL-BCS LOG RAN.
OCCASIONAL CYCLE SKIPPING ON DELTA T CURVE.
HOLE RUGOSITY AND ECCENTRICITY AFFECTING MSFL REPEATABILITY.
BOW SPRING ECCENTRALIZER USED ON CNT.
SPWS NOT GENERETED, AS SPR OFF-DEPTH.
~ASCII -----------------------------------------------------
# ...
 2750.00000  258.33470  264.85830  263.28090  264.85830   11.10460    1.40800 2690.64090    0.01040    -999.25    0.01130   90.05280    1.40800  183.26850  183.26850   45.03720   49.78080   49.15630   49.78080   90.05280   86.69500    -999.25  102.09880    0.02130    -999.25    0.02130    -999.25 2690.64090   84.93180   86.69500 173359.22780 169294.26450
 2800.00000  305.82650  265.83430  257.42380  265.83430    3.09010  249.95280 2710.61430    0.00160    -999.25   -0.00040  323.60950  249.95280  164.89610  164.89610   20.14930   21.28010   20.44210   21.28010  323.60950  322.18250    -999.25    8.39270    0.00510    -999.25    0.00510    -999.25 2710.61430  -76.51120  322.18250 179826.13280 169637.75690
 2850.00000  319.24450  228.70950  249.60010  228.70950    1.10640  251.17870 2526.58590    0.09220    -999.25    0.10730  903.84660  251.17870  163.17730  163.17730   16.18510   17.17420   19.08580   17.17420  903.84660  711.64740    -999.25   95.21710   -0.00060    -999.25   -0.00060    -999.25 2526.58590  -95.67230  711.64740 187829.84510 174849.28170
 2900.00000  312.37000  227.87940  250.01590  227.87940    1.20830  249.11850 2798.29320   -0.05190    -999.25   -0.05160  827.61220  249.11850  161.12130  161.12130    9.47090    9.95490   10.34270    9.95490  827.61220  687.77620    -999.25  286.77260   -0.00380    -999.25   -0.00380    -999.25 2798.29320 -108.17730  687.77620 188533.03120 174920.85760
 2950.00000  352.54100  233.55850  249.03070  233.55850    1.33710  249.69590 2647.51760    0.03660    -999.25    0.03650  747.88670  249.69590  172.92220  172.92220   11.84740   12.43370    9.11690   12.43370  747.88670  465.78060    -999.25  114.80400    0.00220    -999.25    0.00220    -999.25 2647.51760  -63.99020  465.78060 192213.41550 179653.63220
 3000.00000  292.18640  224.46480  236.03890  224.46480    0.18070  126.86160 2524.93190    0.10790    -999.25    0.10820 5533.19140  126.86160  164.76210  164.76210    9.17920   12.09640   10.88650   12.09640 5533.19140 2218.23510    -999.25  345.92250    0.00010    -999.25    0.00010    -999.25 2524.93190  -63.06500 2218.23510 190241.63860 180507.30720
 3050.00000  247.45340  224.70520  235.92540  224.70520   13.21690  158.17750 2682.77950    0.01160    -999.25    0.01590   75.66090  158.17750  159.12070  159.12070   11.59380   12.87790   14.54620   12.87790   75.66090   95.08320    -999.25  287.03580    0.00900    -999.25    0.00900    -999.25 2682.77950  -31.59260   95.08320 195954.93110 183378.70420
 3100.00000  237.38780  244.82380  235.81980  244.82380    0.03930  -13.68110 2757.72190   -0.02800    -999.25   -0.02790 25455.42190  -13.68110  158.23500  158.23500   17.42200   18.52550   18.70190   18.52550 25455.42190 15841.94820    -999.25 1842.10990    0.00290    -999.25    0.00290    -999.25 2757.72190   13.80630 15841.94820 197099.78630 185906.18670
 3150.00000  229.92370  249.57640  249.48640  249.57640    0.06520   15.35730 2881.67900   -0.10000    -999.25   -0.10040 15333.02830   15.35730  162.90220  162.90220   10.91220   10.95570   11.95140   10.95570 15333.02830 10622.61130    -999.25 1886.00770    0.00070    -999.25    0.00070    -999.25 2881.67900    9.94030 10622.61130 198189.41940 186874.28440
 3200.00000  248.14380  250.77920  256.02460  250.77920    8.30260   -2.33560 2679.06910    0.01780    -999.25    0.01810  120.44420   -2.33560  189.40650  189.40650   35.45390   39.48370   44.42410   39.48370  120.44420   88.81330    -999.25   75.47310    0.04920    -999.25    0.04920    -999.25 2679.06910  -12.21660   88.81330 200259.68720 190430.81630
 3250.00000  280.83420  233.95710  256.47620  233.95710   76.51520    3.90230 2640.41630    0.03870    -999.25    0.04070   13.06930    3.90230  235.76450  235.76450   85.85040   84.51670   79.12200   84.51670   13.06930   15.03620    -999.25   12.39920    0.16570    -999.25    0.16570    -999.25 2640.41630  271.21450   15.03620 202569.94530 191697.72770
 3300.00000  438.37260  283.21530  334.15810  283.21530  303.82210  166.01860 2236.42800    0.27440    -999.25    0.27690    3.29140  166.01860  270.91800  270.91800   78.44990   79.25860   78.72570   79.25860    3.29140    3.11610    -999.25    5.26790    0.33540    -999.25    0.33540    -999.25 2236.42800   -0.95620    3.11610 208644.97000 200268.89240
 3350.00000  333.91780  254.81320  280.96850  254.81320  182.48840  251.71660 2636.22410    0.04470    -999.25    0.04310    5.47980  251.71660  236.59540  236.59540   73.44640   81.85050   85.66610   81.85050    5.47980    5.79620    -999.25    7.62400    0.22210    -999.25    0.22210    -999.25 2636.22410   19.42260    5.79620 222072.52800 203381.97700
 3400.00000  261.02950  240.91660  257.28750  240.91660  159.33210    3.48920 2685.04570    0.01260    -999.25    0.01460    6.27620    3.48920  229.21390  229.21390   75.03940   72.91930   77.16270   72.91930    6.27620    6.75440    -999.25    9.26290    0.19560    -999.25    0.19560    -999.25 2685.04570  190.85310    6.75440 221515.53820 206390.72430
 3450.00000  236.20720  230.81250  239.70460  230.81250   26.95830   -5.25390 2629.56930    0.04730    -999.25    0.04700   37.09430   -5.25390  207.41480  207.41480   53.64350   51.24050   61.48850   51.24050   37.09430   40.25080  230.91030   83.43730    0.12710    -999.25    0.12710   54.04310 2629.56930   63.37570   40.25080 214139.24210 209410.97580
 3500.00000  240.04390  245.45870  234.94100  245.45870   13.77550    9.47150 2690.71530    0.01330    -999.25    0.01130   72.59280    9.47150  181.10980  181.10980   26.09880   31.17840   32.54660   31.17840   72.59280   57.44400  244.38070   23.94110    0.03450    -999.25    0.03450   99.79380 2690.71530   21.11500   57.44400 214345.93210 207693.37880
 3550.00000  217.84720  218.50990  238.17870  218.50990    1.60940    5.23800 2669.53830    0.02420    -999.25    0.02370  621.36410    5.23800  174.10200  174.10200   27.82020   53.27660   29.73930   53.27660  621.36410  314.95750  221.38100   55.68100    0.01770    -999.25    0.01770   11.36190 2669.53830  -17.27250  314.95750 217801.78180 210600.89600
