~Version ---------------------------------------------------
VERS.      2.0 : CWLS log ASCII Standard -VERSION 2.0
WRAP.       NO : One line per depth step
CREA. 07/26/13 : LAS Creation Date
~Well ------------------------------------------------------
STRT.M                             400.0 : START DEPTH
STOP.M                            2500.0 : STOP DEPTH
STEP.M                          50.00000 : STEP LENGTH
NULL.                            -999.25 : NULL VALUE
COMP. CALPINE CANADA NATURAL GAS COMPANY : COMPANY
WELL.  NORWICH ET AL TWINING 10-14-33-24 : WELL
FLD .                                    : FIELD
LOC .                                    : LOCATION
CTRY.                             CANADA : COUNTRY
SRVC.                                BPB : SERVICE COMPANY
DATE.                        26-Feb-1988 : LOGDATE
PROV.                            Alberta : PROVINCE
UWI .                   102101403324W400 : UNIQUE WELL ID
SLAT.WGS84                      51.83447 : SURFACE LATITUDE
SLON.WGS84                     -113.2957 : SURFACE LONGITUDE
~Curve Information -----------------------------------------
DEPT    .M      : DEPTH METER
CALSED  .MM     : CALIPER FROM SONIC LOG [ADJ. TO RESISTIVITY LOG]
CALWS   .MM     : CALIPER [CALSED SPL. TO CALXDED @ 2516.4M]
CALXDED .MM     : CALIPER X FROM DENSITY LOG [ADJ. TO RESISTIVITY LOG/CALSED]
CALYDED .MM     : CALIPER Y FROM DENSITY LOG [ADJ. TO RESISTIVITY LOG/CALSED]
CONDWS  .MMHO   : CONDUCTIVITY [1000/DRESWS]
DCORED  .KG/M3  : DENSITY CORRECTION FROM DENSITY LOG [ADJ. TO RESISTIVITY LOG]
DCORWS  .KG/M3  : DENSITY CORRECTION [DCORED]
DENED   .KG/M3  : BULK DENSITY FROM DENSITY LOG [ADJ. TO RESISTIVITY LOG/DPHILSED]
DENWS   .KG/M3  : FORMATION BULK DENSITY [CALC FROM DPOLSWS, M=2710,F=1000]
DPHILSED.V/V    : DENSITY POROSITY LIMESTONE [M=2710,F=1000] FROM DENSITY LOG [ADJ. TO RESISTIVITY LOG]
DPOLSWS .V/V    : DENSITY POROSITY LIMESTONE [DPHILSED]
DRESWS  .OHMM   : DEEP RESISTIVITY [ILDED]
DTED    .US/M   : DELTA TIME FROM SONIC LOG [ADJ. TO RESISTIVITY LOG]
DTWS    .US/M   : COMPRESSIONAL SONIC [DTED]
GRDED   .GAPI   : GAMMA RAY FROM DENSITY LOG [ADJ. TO RESISTIVITY LOG]
GRSED   .GAPI   : GAMMA RAY FROM SONIC LOG [ADJ. TO RESISTIVITY LOG]
GRWS    .GAPI   : GAMMA RAY [GRSED SPL. TO GRDED @ 2521.5M]
ILDED   .OHMM   : DEEP INDUCTION RESISTIVITY FROM RESISTIVITY LOG
ILMED   .OHMM   : MEDIUM INDUCTION RESISTIVITY FROM RESISTIVITY LOG
MRESWS  .OHMM   : MEDIUM RESISTIVITY [ILMED]
NPHILSED.V/V    : NEUTRON POROSITY LIMESTONE FROM DENSITY LOG [ADJ. TO RESISTIVITY LOG]
NPOLSWS .V/V    : NEUTRON POROSITY LIMESTONE [NPHILSED]
SFLED   .OHMM   : SPHERICALLY FOCUSED LOG FROM RESISTIVITY LOG
SPRED   .MV     : SPONTANEOUS POTENTIAL FROM RESISTIVITY LOG
SPWS    .MV     : SPONTANEOUS POTENTIAL [BASELINE 0 MV, SPRED]
SRESWS  .OHMM   : SHALLOW RESISTIVITY [SFLED]
TENDED  .N      : TENSION FROM DENSITY LOG [ADJ. TO RESISTIVITY LOG]
TENSRED .N      : TENSION FROM SONIC LOG [ADJ. TO RESISTIVITY LOG]
~Params ----------------------------------------------------
PD  .                         GL : PERMANENT DATUM
EPD .M                    889.28 : ELEVATION PERMANENT DATUM
DAPD.M                      7.25 : FEET ABOVE PERMANENT DATUM
DMF .                         KB : DRILLING MEASURED FROM
EKB .M                    896.53 : KELLY BUSHING
EGL .M                    889.28 : GROUND LEVEL
DATE.                   02/26/88 : RUN DATE
RUN .                          1 : RUN NUMBER
DD  .M                      2530 : DEPTH DRILLER
DL  .M                      2531 : DEPTH LOGGER
BLI .M                      2531 : BOTTOM LOG INTERVAL
TLI .M                       397 : TOP LOG INTERVAL
CBD .M                       397 : CASING BOTTOM DRILLER
CBL .M                       397 : CASING BOTTOM LOGGER
BS  .MM                      222 : BIT SIZE
BSD .M                      2530 : BIT SIZE AT DEPTH
DFT .                   GEL CHEM : DRILLING FLUID TYPE
DFD .                       1140 : DRILLING FLUID DENSITY
DFV .                         50 : DRILLING FLUID VISCOSITY
DFPH.                         11 : DRILLING FLUID PH
DFL .                       16.5 : DRILLING FLUID LOSS
MSS .                   FLOWLINE : MUD SAMPLE SOURCE
RMS .OHMM                   0.51 : RESISTIVITY MUD SAMPLE
MST .DEGC                     23 : MUD SAMPLE TEMPERATURE
RMF .OHMM                    0.4 : RESISTIVITY MUD FILTRATE SAMPLE
MFST.DEGC                     23 : MUD FILTRATE SAMPLE TEMPERATURE
RMC .OHMM                    0.6 : RESISTIVITY MUD CAKE
MCST.DEGC                     23 : MUD CAKE SAMPLE TEMPERATURE
MFSS.                      PRESS : MUD FILTRATE SAMPLE SOURCE
MCSS.                      PRESS : MUD CAKE SAMPLE SOURCE
RMB .OHMM                   0.25 : RESISTIVITY MUD AT BHT
TCS .HRS                       6 : TIME CIRCULATED STOPPED
LUN .                       1023 : LOGGING UNIT NUMBER
LUL .                       HRDD : LOGGING UNIT LOCATION
ENGI.                 NOWAKOWSKI : RECORDING ENGINEER
WITN.                     MULLER : WITNESSED BY
CLNT.                    A2DTECH : CLIENT CODE
ORIG. 6.5"/100M 16.5"/100M PRINT : ORIGIN OF DATA
UWI .           102101403324W400 : UNIQUE WELL ID
DICO.     A2D Technologies, Inc. : DIGITIZING COMPANY
~Other -----------------------------------------------------
DIL-SFL-CDL-DNL-BHC SONIC TOOL RUN
DEN HAS TAKEN FROM SMALL SECTION
GRD VERIFIED (0-100 GAPI) RESCALED TO (0-150 GAPI)
DT VERIFIED 150-50 US/F SCALE CONVERTED TO US/M DTED*3.28084
~ASCII -----------------------------------------------------
# ...
 1650.00000  271.80000  271.80000  287.16450  258.45790   12.53550    -999.25    -999.25    -999.25    -999.25    -999.25    -999.25   79.77360  282.35200  282.35200    -999.25   16.76070   16.76070   79.77360   69.10840   69.10840    -999.25    -999.25  150.24660  -16.57190   -7.74830  150.24660 6543.64400    -999.25
 1700.00000  263.92000  263.92000  276.98070  255.92210   26.05460    -999.25    -999.25    -999.25    -999.25    -999.25    -999.25   38.38090  317.26610  317.26610    -999.25   48.05880   48.05880   38.38090   42.97150   42.97150    -999.25    -999.25   47.76560  -11.79850   -0.92620   47.76560 6668.16490    -999.25
 1750.00000  269.78000  269.78000  282.65480  261.02070   59.22590    -999.25    -999.25    -999.25    -999.25    -999.25    -999.25   16.88450  354.91700  354.91700    -999.25   55.72360   55.72360   16.88450   21.44610   21.44610    -999.25    -999.25   23.51130  -20.37490   -7.45390   23.51130 7089.24420    -999.25
 1800.00000  302.02500  302.02500  299.82370  285.89350   75.68300    -999.25    -999.25    -999.25    -999.25    -999.25    -999.25   13.21300  454.92130  454.92130    -999.25  105.78480  105.78480   13.21300   15.84640   15.84640    -999.25    -999.25   17.73880  -17.08140   -2.11180   17.73880 6926.32540    -999.25
 1850.00000  300.37250  300.37250  310.81440  270.41520   25.48280    -999.25    -999.25    -999.25    -999.25    -999.25    -999.25   39.24220  302.72340  302.72340    -999.25   17.32020   17.32020   39.24220   37.40780   37.40780    -999.25    -999.25   73.03590  -27.16020  -13.01520   73.03590 7011.67210    -999.25
 1900.00000  294.62000  294.62000  308.25370  268.93610   15.51950    -999.25    -999.25    -999.25    -999.25    -999.25    -999.25   64.43510  273.31000  273.31000    -999.25   11.29370   11.29370   64.43510   54.78200   54.78200    -999.25    -999.25  317.03470  -30.07560  -24.15110  317.03470 7104.77830    -999.25
 1950.00000  261.36500  261.36500  279.33840  266.17110   27.82710   28.40000   28.40000 2822.40000 2828.84500   -0.06950   -0.06950   35.93620  266.29070  266.29070   13.38990   13.61080   13.61080   35.93620   43.50610   43.50610    0.15380    0.15380   72.59770  -53.35550  -55.65150   72.59770 7275.02240    -999.25
 2000.00000  250.29250  250.29250  260.85810  244.13010    3.79370   32.90000   32.90000 2880.10000 2889.37900   -0.10490   -0.10490  263.59570  278.61550  278.61550   20.07390   19.18410   19.18410  263.59570  294.59000  294.59000    0.08340    0.08340  755.62840  -24.35940  -41.03580  755.62840 7479.17980    -999.25
 2050.00000  268.09500  268.09500  279.65390  249.72460    2.34090   52.60000   52.60000 2911.20000 2909.89900   -0.11690   -0.11690  427.18610  266.38120  266.38120   16.61000   16.59030   16.59030  427.18610  168.59260  168.59260    0.05250    0.05250 1652.56380   13.64200  -33.13080 1652.56380 7591.14820    -999.25
 2100.00000  267.38750  267.38750  304.26650  261.14770  124.59040  142.60000  142.60000 2619.10000 2627.74900    0.04810    0.04810    8.02630  394.85340  394.85340   77.05510   69.95470   69.95470    8.02630   10.18980   10.18980    0.27410    0.27410   11.22610   25.88620  -50.98290   11.22610 7776.70980    -999.25
 2150.00000  282.55000  282.55000  300.80270  261.95130   83.99830   30.80000   30.80000 2681.70000 2683.15300    0.01570    0.01570   11.90500  350.98070  350.98070   74.70690   74.50400   74.50400   11.90500   15.07770   15.07770    0.25390    0.25390   15.17960   43.00090  -45.23440   15.17960 7931.82410    -999.25
 2200.00000  257.95250  257.95250  269.35260  242.75370   54.14360   22.50000   22.50000 2742.70000 2739.07000   -0.01700   -0.01700   18.46940  338.58070  338.58070   51.50120   55.23140   55.23140   18.46940   25.32710   25.32710    0.19160    0.19160   30.25110    5.65630  -70.59460   30.25110 8133.83430    -999.25
 2250.00000  261.16750  261.16750  272.82080  222.92770    5.29100   55.30000   55.30000 2727.00000 2705.72500    0.00250    0.00250  188.99970  282.44460  282.44460   34.95270   35.08160   35.08160  188.99970  234.65470  234.65470    0.07640    0.07640  564.87540  -84.00070 -148.26720  564.87540 8215.38230    -999.25
 2300.00000  295.01250  295.01250  297.71910  230.65290   14.18220  144.80000  144.80000 2573.70000 2614.58200    0.05580    0.05580   70.51110  285.55810  285.55810    9.43240   13.11320   13.11320   70.51110   76.57110   76.57110    0.12200    0.12200  116.96500  -48.89610 -101.17820  116.96500 8284.13220    -999.25
 2350.00000  256.65250  256.65250  265.12350  231.52610   16.51120   15.30000   15.30000 2699.20000 2698.88500    0.00650    0.00650   60.56510  273.59780  273.59780    8.83170   11.11950   11.11950   60.56510   78.14500   78.14500    0.08100    0.08100  124.62810 -127.43690 -167.73460  124.62810 8487.45730    -999.25
 2400.00000  229.25250  229.25250  239.17780  227.19030   19.46330   26.60000   26.60000 2751.30000 2750.35600   -0.02360   -0.02360   51.37880  330.86680  330.86680   54.63990   57.25790   57.25790   51.37880   70.68780   70.68780    0.16170    0.16170   91.67820   -2.06860  -30.41890   91.67820 8548.62300    -999.25
 2450.00000  331.32250  331.32250  231.01080  334.06090    5.70060   24.90000   24.90000 2745.90000 2748.47500   -0.02250   -0.02250  175.41930  275.68770  275.68770   18.50590   15.21160   15.21160  175.41930  198.46890  198.46890    0.10130    0.10130  430.17630  -77.78810  -76.08890  430.17630 8622.00130    -999.25
 2500.00000  230.33000  230.33000  234.46470  231.15600   19.26730   21.00000   21.00000 2769.70000 2763.86500   -0.03150   -0.03150   51.90150  282.91340  282.91340   33.00350   32.42300   32.42300   51.90150  128.07510  128.07510    0.09040    0.09040  544.18120  -96.93880  -54.26780  544.18120 8829.51570 26710.63670
