~Version ---------------------------------------------------
VERS.      2.0 : CWLS log ASCII Standard -VERSION 2.0
WRAP.       NO : One line per depth step
CREA. 10/25/17 : LAS Creation Date
~Well ------------------------------------------------------
STRT.FT                       1050.0 : START DEPTH
STOP.FT                      10200.0 : STOP DEPTH
STEP.FT                     50.00000 : STEP LENGTH
NULL.                        -999.25 : NULL VALUE
COMP.           MARATHON OIL COMPANY : COMPANY
WELL. MARATHON HEAVYSOUND 7-16-62-17 : WELL
FLD .                                : FIELD
LOC .                                : LOCATION
CTRY.                         CANADA : COUNTRY
SRVC.                        Unknown : SERVICE COMPANY
DATE.                    27-Feb-1976 : LOGDATE
PROV.                        Alberta : PROVINCE
UWI .               100071606217W500 : UNIQUE WELL ID
SLAT.WGS84                  54.36142 : SURFACE LATITUDE
SLON.WGS84                 -116.4847 : SURFACE LONGITUDE
~Curve Information -----------------------------------------
DEPT    .FT                                       : Depth Curve
CALDED  .IN                                       : CALIPER FROM DENSITY LOG [DEP. ADJ. TO GRSED]
CALSED  .IN                                       : CALIPER FROM SONIC LOG
CALWS   .IN                                       : CALIPER [1132' CALSED 5088' CALDED 8507' CALSED 10228' CALDED]
CILDED  .MMho : CONDUCTIVITY FROM RESISTIVITY LOG : 
CONDWS  .MMHO                                     : CONDUCTIVITY [1000/DRESWS]
DCORED  .G/C3                                     : DENSITY CORRECTION FROM DENSITY LOG [DEP. ADJ. TO GRSED]
DCORWS  .G/C3                                     : DENSITY CORRECTION [DCORED]
DENWS   .G/C3                                     : BULK DENSITY [M=2.71, F=1.00] [RHOBED]
DPHILSED.V/V                                      : DENSITY POROSITY [M=2.71, F=1.00] FROM DENSITY LOG [DEP. ADJ. TO GRSED]
DPHISSED.V/V                                      : DENSITY POROSITY [M=2.65, F=1.00] FROM DENSITY LOG [DEP. ADJ. TO GRSED]
DPOLSWS .V/V                                      : DENSITY POROSITY [M=2.71, F=1.00] [CAL. FROM DENWS]
DRESWS  .OHMM                                     : DEEP RESISTIVITY [1132' 1000/CILDED 5088' ILDED 8507' 1000/CILDED 10228' ILDED][REDUC. TO 2000 OHMM]
DTED    .US/F                                     : DELTA TIME FROM SONIC LOG
DTWS    .US/F                                     : DELTA TIME [DTED]
GRDED   .GAPI                                     : GAMMA RAY FROM DENSITY LOG [DEP. ADJ. TO GRSED]
GRSED   .GAPI                                     : GAMMA RAY FROM SONIC LOG
GRWS    .GAPI                                     : GAMMA RAY [1050' GRSED 10222' GRDED]
ILDED   .OHMM                                     : INDUCTION LOG DEEP RESISTIVITY
ILMED   .OHMM                                     : INDUCTION LOG MEDIUM RESISTIVITY
LL8ED   .OHMM                                     : 8 INCH LATEROLOG RESISTIVITY
MRESWS  .OHMM                                     : MEDIUM RESISTIVITY [ILMED]
NPHILSED.V/V                                      : NEUTRON POROSITY LIMESTONE FROM DENSITY LOG [DEP. ADJ. TO GRSED]
NPHISSED.V/V                                      : NEUTRON POROSITY SANDSTONE FROM DENSITY LOG [DEP. ADJ. TO GRSED]
NPOLSWS .V/V                                      : NEUTRON POROSITY SANDSTONE [5098' [NPHISSED IS CONVERTED TO LIMESTONE MATRIX] 6397' NPHILSED]
RHOBED  .G/C3                                     : BULK DENSITY FROM DENSITY LOG [DEP. ADJ. TO GRSED]
SPRED   .MV                                       : SPONTANEOUS POTENTIAL FROM RESISTIVITY LOG
SPWS    .MV                                       : SPONTANEOUS POTENTIAL [BASELINE 0 MV] [SPRED]
SRESWS  .OHMM                                     : SHALLOW RESISTIVITY [LL8ED] [FILLED GAPS]
~Params ----------------------------------------------------
PD  .                     GL : PERMANENT DATUM
EPD .FT                 2966 : ELEVATION PERMANENT DATUM
LMF .                     KB : LOG MEASURED FROM
DAPD.FT                   14 : FEET ABOVE PERMANENT DATUM
EKB .FT                 2980 : KELLY BUSHING
EGL .FT                 2966 : GROUND LEVEL
DATE.               02/27/76 : RUN DATE
RUN .                      1 : RUN NUMBER
DD  .FT                10240 : DEPTH DRILLER
DL  .FT                10242 : DEPTH LOGGER
BLI .FT                10239 : BOTTOM LOG INTERVAL
TLI .FT                 1133 : TOP LOG INTERVAL
CS  .IN                9.625 : CASING SIZE
CBD .FT                 1128 : CASING BOTTOM DRILLER
CBL .FT                 1133 : CASING BOTTOM LOGGER
BS  .IN                 8.75 : BIT SIZE
BSD .FT                10240 : BIT SIZE AT DEPTH
RMS .OHMM                2.3 : RESISTIVITY MUD SAMPLE
MST .DEGF                 68 : MUD SAMPLE TEMPERATURE
RMF .OHMM                2.1 : RESISTIVITY MUD FILTRATE SAMPLE
MFST.DEGF                 68 : MUD FILTRATE SAMPLE TEMPERATURE
TCS .HRS                   2 : TIME CIRCULATED STOPPED
LUN .                   7636 : LOGGING UNIT NUMBER
LUL .                    EDM : LOGGING UNIT LOCATION
ENGI.                  LAZOR : RECORDING ENGINEER
WITN.                 DEWULF : WITNESSED BY
CLNT.                A2DTECH : CLIENT CODE
ORIG.            2" 5" PRINT : ORIGIN OF DATA
UWI .       100071606217W500 : UNIQUE WELL ID
DICO. A2D Technologies, Inc. : DIGITIZING COMPANY
~Other -----------------------------------------------------
~ASCII -----------------------------------------------------
# ...
 3550.00000    -999.25   10.66810   10.66810  140.29300  140.29300    -999.25    -999.25    -999.25    -999.25    -999.25    -999.25    7.12790   91.21400   91.21400    -999.25  111.43000  111.43000    6.90310    -999.25    7.34650    -999.25    -999.25    -999.25    -999.25    -999.25  -32.98420   -6.02870    7.34650
 3600.00000    -999.25    9.99180    9.99180  116.75150  116.75150    -999.25    -999.25    -999.25    -999.25    -999.25    -999.25    8.56520   97.58390   97.58390    -999.25  152.51500  152.51500    8.29260    -999.25   10.25000    -999.25    -999.25    -999.25    -999.25    -999.25  -32.24470   -4.88460   10.25000
 3650.00000    -999.25   10.10320   10.10320  115.00720  115.00720    -999.25    -999.25    -999.25    -999.25    -999.25    -999.25    8.69510   88.54130   88.54130    -999.25  119.48810  119.48810    8.52600    -999.25    9.19230    -999.25    -999.25    -999.25    -999.25    -999.25  -34.27300   -6.51250    9.19230
 3700.00000    -999.25   10.45000   10.45000  139.58460  139.58460    -999.25    -999.25    -999.25    -999.25    -999.25    -999.25    7.16410   93.62430   93.62430    -999.25  112.72330  112.72330    7.08560    -999.25    7.61510    -999.25    -999.25    -999.25    -999.25    -999.25  -37.05450   -8.88940    7.61510
 3750.00000    -999.25   10.47260   10.47260  162.33570  162.33570    -999.25    -999.25    -999.25    -999.25    -999.25    -999.25    6.16010   91.99330   91.99330    -999.25  109.73030  109.73030    6.05140    -999.25    6.34970    -999.25    -999.25    -999.25    -999.25    -999.25  -35.73030   -7.16470    6.34970
 3800.00000    -999.25   10.59180   10.59180  136.60030  136.60030    -999.25    -999.25    -999.25    -999.25    -999.25    -999.25    7.32060   92.57590   92.57590    -999.25  109.72010  109.72010    7.36520    -999.25    7.51370    -999.25    -999.25    -999.25    -999.25    -999.25  -36.48360   -7.51550    7.51370
 3850.00000    -999.25   10.32740   10.32740  136.53500  136.53500    -999.25    -999.25    -999.25    -999.25    -999.25    -999.25    7.32410   88.38300   88.38300    -999.25  108.93900  108.93900    7.30290    -999.25    7.44510    -999.25    -999.25    -999.25    -999.25    -999.25  -37.37710   -8.00440    7.44510
 3900.00000    -999.25   10.11470   10.11470  127.88140  127.88140    -999.25    -999.25    -999.25    -999.25    -999.25    -999.25    7.81970   90.63310   90.63310    -999.25  111.06940  111.06940    7.49920    -999.25    7.86170    -999.25    -999.25    -999.25    -999.25    -999.25  -38.27260   -8.49950    7.86170
 3950.00000    -999.25   10.06870   10.06870  132.58510  132.58510    -999.25    -999.25    -999.25    -999.25    -999.25    -999.25    7.54230   94.47990   94.47990    -999.25  114.23380  114.23380    7.31980    -999.25    8.11590    -999.25    -999.25    -999.25    -999.25    -999.25  -37.64530   -7.46770    8.11590
 4000.00000    -999.25   10.12170   10.12170  150.83370  150.83370    -999.25    -999.25    -999.25    -999.25    -999.25    -999.25    6.62980   89.21630   89.21630    -999.25  108.33610  108.33610    6.54690    -999.25    6.69380    -999.25    -999.25    -999.25    -999.25    -999.25  -41.12540  -10.54730    6.69380
 4050.00000    -999.25   10.21160   10.21160  126.00960  126.00960    -999.25    -999.25    -999.25    -999.25    -999.25    -999.25    7.93590   86.50080   86.50080    -999.25  111.69420  111.69420    7.83600    -999.25    8.01770    -999.25    -999.25    -999.25    -999.25    -999.25  -42.91880  -11.93820    8.01770
 4100.00000    -999.25   10.02160   10.02160  152.45290  152.45290    -999.25    -999.25    -999.25    -999.25    -999.25    -999.25    6.55940   92.08610   92.08610    -999.25  107.82450  107.82450    6.42980    -999.25    6.71290    -999.25    -999.25    -999.25    -999.25    -999.25  -43.41390  -12.02880    6.71290
 4150.00000    -999.25    9.79630    9.79630   84.66790   84.66790    -999.25    -999.25    -999.25    -999.25    -999.25    -999.25   11.81090   79.57970   79.57970    -999.25  102.68550  102.68550   11.77470    -999.25   13.64390    -999.25    -999.25    -999.25    -999.25    -999.25  -47.65440  -15.86870   13.64390
 4200.00000    -999.25   10.89960   10.89960  132.34410  132.34410    -999.25    -999.25    -999.25    -999.25    -999.25    -999.25    7.55610   90.14630   90.14630    -999.25  118.72130  118.72130    7.36570    -999.25    7.67120    -999.25    -999.25    -999.25    -999.25    -999.25  -45.88310  -13.69290    7.67120
 4250.00000    -999.25   10.24340   10.24340  140.34230  140.34230    -999.25    -999.25    -999.25    -999.25    -999.25    -999.25    7.12540   88.24750   88.24750    -999.25  127.77700  127.77700    6.83290    -999.25    7.31860    -999.25    -999.25    -999.25    -999.25    -999.25  -45.41560  -12.82490    7.31860
 4300.00000    -999.25    9.96650    9.96650  131.03250  131.03250    -999.25    -999.25    -999.25    -999.25    -999.25    -999.25    7.63170   84.65680   84.65680    -999.25  118.27110  118.27110    7.42350    -999.25    7.89540    -999.25    -999.25    -999.25    -999.25    -999.25  -45.44130  -12.44810    7.89540
 4350.00000    -999.25   10.51450   10.51450  152.56880  152.56880    -999.25    -999.25    -999.25    -999.25    -999.25    -999.25    6.55440   90.98300   90.98300    -999.25  130.21040  130.21040    6.32480    -999.25    7.19650    -999.25    -999.25    -999.25    -999.25    -999.25  -45.34570  -11.94800    7.19650
 4400.00000    -999.25   10.64910   10.64910  142.07940  142.07940    -999.25    -999.25    -999.25    -999.25    -999.25    -999.25    7.03830   90.96190   90.96190    -999.25  124.71060  124.71060    6.80280    -999.25    8.28850    -999.25    -999.25    -999.25    -999.25    -999.25  -45.33920  -11.54100    8.28850
 4450.00000    -999.25   10.46360   10.46360  133.37990  133.37990    -999.25    -999.25    -999.25    -999.25    -999.25    -999.25    7.49740   93.06280   93.06280    -999.25  128.02450  128.02450    7.22170    -999.25    8.88540    -999.25    -999.25    -999.25    -999.25    -999.25  -46.15760  -11.95480    8.88540
 4500.00000    -999.25   10.21960   10.21960  132.40820  132.40820    -999.25    -999.25    -999.25    -999.25    -999.25    -999.25    7.55240   94.64680   94.64680    -999.25  137.08670  137.08670    7.30290    -999.25    9.37710    -999.25    -999.25    -999.25    -999.25    -999.25  -45.83200  -11.22870    9.37710
 4550.00000    -999.25    9.11980    9.11980  101.29350  101.29350    -999.25    -999.25    -999.25    -999.25    -999.25    -999.25    9.87230   94.91960   94.91960    -999.25  143.36330  143.36330    9.61850    -999.25   13.29840    -999.25    -999.25    -999.25    -999.25    -999.25  -46.81240  -11.80660   13.29840
 4600.00000    -999.25    9.29540    9.29540  104.74180  104.74180    -999.25    -999.25    -999.25    -999.25    -999.25    -999.25    9.54730   96.22480   96.22480    -999.25  153.43890  153.43890    9.41240    -999.25   13.16550    -999.25    -999.25    -999.25    -999.25    -999.25  -45.60030  -10.18990   13.16550
 4650.00000    -999.25    9.38920    9.38920  134.59650  134.59650    -999.25    -999.25    -999.25    -999.25    -999.25    -999.25    7.42960   92.43720   92.43720    -999.25  119.71870  119.71870    7.33150    -999.25    9.36140    -999.25    -999.25    -999.25    -999.25    -999.25  -44.99220   -9.18140    9.36140
 4700.00000    -999.25    9.05620    9.05620   82.00360   82.00360    -999.25    -999.25    -999.25    -999.25    -999.25    -999.25   12.19460   98.76110   98.76110    -999.25  177.11480  177.11480   11.57920    -999.25   18.30910    -999.25    -999.25    -999.25    -999.25    -999.25  -44.87770   -8.66240   18.30910
 4750.00000    -999.25    9.56230    9.56230  122.13560  122.13560    -999.25    -999.25    -999.25    -999.25    -999.25    -999.25    8.18760   80.20830   80.20830    -999.25   92.94810   92.94810    7.90590    -999.25    8.64430    -999.25    -999.25    -999.25    -999.25    -999.25  -50.33140  -13.71560    8.64430
