~Version ---------------------------------------------------
VERS.      2.0 : CWLS log ASCII Standard -VERSION 2.0
WRAP.       NO : One line per depth step
CREA. 12/19/14 : LAS Creation Date
~Well ------------------------------------------------------
STRT.FT                            1100.0 : START DEPTH
STOP.FT                           10850.0 : STOP DEPTH
STEP.FT                          50.00000 : STEP LENGTH
NULL.                             -999.25 : NULL VALUE
COMP.        PAN AMERICAN PETROLEUM CORP. : COMPANY
WELL. PAN AM ET AL E-3 KAYBOBS 6-26-59-18 : WELL
FLD .                        KAYBOB SOUTH : FIELD
LOC .                                     : LOCATION
CTRY.                              CANADA : COUNTRY
SRVC.                        Schlumberger : SERVICE COMPANY
DATE.                         16-Jul-1969 : LOGDATE
PROV.                             Alberta : PROVINCE
UWI .                    100062605918W500 : UNIQUE WELL ID
SLAT.WGS84                       54.12901 : SURFACE LATITUDE
SLON.WGS84                       -116.593 : SURFACE LONGITUDE
~Curve Information -----------------------------------------
DEPT .FT    : DEPTH FEET
CALS .IN    : CALIPER FROM SONIC LOG
DT   .US/F  : DELTA-T FROM SONIC LOG
GRS  .GAPI  : GAMMA RAY FROM SONIC LOG
GRT  .GAPI  : THEORETICAL GAMMA RAY VALUE TDT FROM TDT LOG
ILD  .OHMM  : DEEP INDUCTION RESISTIVITY FROM RESISTIVITY LOG
ILM  .OHMM  : MEDIUM INDUCTION RESISTIVITY FROM RESISTIVITY LOG
LL8  .OHMM  : LATEROLOG 8 FROM RESISTIVITY LOG
RATIO.N/A   : RATIO FROM TDT LOG
SIGM .CU    : FORMATION SIGMA (NEUTRON CAPTURE CROSS SECTION) FROM TDT LOG
SIGMA.OHMM  : CORRECTED SHALLOW SHORT GUARD LOG RESISTIVITY FROM TDT LOG
SPR  .MV    : SPONTANEOUS POTENTIAL FROM RESISTIVITY LOG
TAU  .HR    : NEUTRON DECAY TIME FROM TDT LOG
TRAT .N/A   : NEAR/FAR CAPTURE RATIO FROM TDT LOG
~Params ----------------------------------------------------
PD  .              2" OUTLET : PERMANENT DATUM
EPD .FT               2964.7 : ELEVATION PERMANENT DATUM
LMF .                     KB : LOG MEASURED FROM
DAPD.FT                 14.3 : FEET ABOVE PERMANENT DATUM
EKB .FT               2979.0 : KELLY BUSHING
EGL .FT               2964.7 : GROUND LEVEL
DATE.               07/16/69 : RUN DATE
RUN .                      1 : RUN NUMBER
DD  .FT                10855 : DEPTH DRILLER
DL  .FT                10862 : DEPTH LOGGER
BLI .FT                10858 : BOTTOM LOG INTERVAL
TLI .FT                 1104 : TOP LOG INTERVAL
CBD .FT                 1104 : CASING BOTTOM DRILLER
CBL .FT                 1104 : CASING BOTTOM LOGGER
BS  .IN                 8.75 : BIT SIZE
BSD .FT                10855 : BIT SIZE AT DEPTH
DFT .               GEL CHEM : DRILLING FLUID TYPE
DFD .                    9.3 : DRILLING FLUID DENSITY
DFV .                     90 : DRILLING FLUID VISCOSITY
DFPH.                    9.0 : DRILLING FLUID PH
DFL .                    9.2 : DRILLING FLUID LOSS
MSS .                   CIRC : MUD SAMPLE SOURCE
RMS .OHMM                1.6 : RESISTIVITY MUD SAMPLE
MST .DEGF                 62 : MUD SAMPLE TEMPERATURE
RMF .OHMM               1.29 : RESISTIVITY MUD FILTRATE SAMPLE
MFST.DEGF                 67 : MUD FILTRATE SAMPLE TEMPERATURE
RMC .OHMM               1.35 : RESISTIVITY MUD CAKE
MCST.DEGF                 62 : MUD CAKE SAMPLE TEMPERATURE
TCS .HRS                   2 : TIME CIRCULATED STOPPED
LUN .                   7502 : LOGGING UNIT NUMBER
LUL .                    EDM : LOGGING UNIT LOCATION
ENGI.                 EDGSON : RECORDING ENGINEER
WITN.                  REMUS : WITNESSED BY
CLNT.                A2DTECH : CLIENT CODE
ORIG.            2" 5" PRINT : ORIGIN OF DATA
UWI .       100062605918W500 : UNIQUE WELL ID
DICO. A2D Technologies, Inc. : DIGITIZING COMPANY
~Other -----------------------------------------------------
~ASCII -----------------------------------------------------
 1100.00000    -999.25    -999.25   34.86580    -999.25    -999.25    -999.25    -999.25    -999.25    -999.25    -999.25    -999.25    -999.25    -999.25
 1150.00000   10.00810   92.08020   60.46720    -999.25   13.20350   12.15030   11.55190    -999.25    -999.25    -999.25 -110.82200    -999.25    -999.25
 1200.00000   11.16560  138.59860   76.90990    -999.25    3.93980    3.48890    4.23410    -999.25    -999.25    -999.25 -109.65640    -999.25    -999.25
 1250.00000   11.24550  125.95400   86.54700    -999.25    2.83510    2.31120    2.63500    -999.25    -999.25    -999.25 -106.92050    -999.25    -999.25
 1300.00000   11.00030   96.16710   58.48960    -999.25    8.90990    7.91530    8.01130    -999.25    -999.25    -999.25 -104.23380    -999.25    -999.25
 1350.00000    9.80450  138.24940   66.90780    -999.25    4.61740    4.41340   10.31220    -999.25    -999.25    -999.25 -103.05840    -999.25    -999.25
 1400.00000   10.31160  101.40900   70.07330    -999.25    5.05610    4.56450    7.15160    -999.25    -999.25    -999.25 -102.89020    -999.25    -999.25
 1450.00000    9.86370  125.19580   79.21360    -999.25    4.50420    4.14040    7.60760    -999.25    -999.25    -999.25 -102.95390    -999.25    -999.25
 1500.00000   11.54150  122.93780   75.35900    -999.25    5.73700    5.32680    7.08850    -999.25    -999.25    -999.25 -103.76020    -999.25    -999.25
 1550.00000    9.69610   93.37040   72.12890    -999.25    7.12040    6.77400    6.66090    -999.25    -999.25    -999.25 -105.43540    -999.25    -999.25
 1600.00000    9.62920   96.95070   80.32930    -999.25    5.98690    5.46180    5.15700    -999.25    -999.25    -999.25 -103.37480    -999.25    -999.25
 1650.00000    9.99550  100.20920   70.97430    -999.25    5.12190    4.67800    4.97270    -999.25    -999.25    -999.25 -102.81790    -999.25    -999.25
 1700.00000    9.72550  108.45910   88.00560    -999.25    4.05310    3.60530    3.42310    -999.25    -999.25    -999.25 -101.71330    -999.25    -999.25
 1750.00000    9.49220   95.11670   75.38090    -999.25    5.48150    4.93880    5.09440    -999.25    -999.25    -999.25 -102.63730    -999.25    -999.25
 1800.00000    9.60750  102.88610   65.40510    -999.25    5.03470    4.62740    5.24950    -999.25    -999.25    -999.25 -103.41910    -999.25    -999.25
 1850.00000    9.70250   92.91920   71.05930    -999.25    4.92600    4.56560    4.33450    -999.25    -999.25    -999.25  -99.43620    -999.25    -999.25
 1900.00000    9.92530  133.72410   79.13330    -999.25    4.19580    3.90570    6.48610    -999.25    -999.25    -999.25  -99.49260    -999.25    -999.25
 1950.00000   10.43170  106.49540   79.72830    -999.25    3.75660    3.25200    3.61070    -999.25    -999.25    -999.25 -100.03820    -999.25    -999.25
 2000.00000   10.29100  111.57160   75.85590    -999.25    4.06720    3.57180    4.27010    -999.25    -999.25    -999.25  -99.77310    -999.25    -999.25
 2050.00000   10.41580   92.16040   75.73350    -999.25   13.35100   11.80620   11.61930    -999.25    -999.25    -999.25 -100.28630    -999.25    -999.25
 2100.00000   10.85100   95.23770   67.74690    -999.25    5.51340    4.68000    4.98320    -999.25    -999.25    -999.25  -98.47340    -999.25    -999.25
 2150.00000    9.34940   93.04060   48.27940    -999.25    7.98710    6.75110    9.01010    -999.25    -999.25    -999.25 -110.75740    -999.25    -999.25
 2200.00000   10.08350  100.90180   71.64220    -999.25    4.02390    3.45110    3.36650    -999.25    -999.25    -999.25  -98.19850    -999.25    -999.25
 2250.00000   10.19940  104.68460   68.21020    -999.25    3.68060    3.17870    3.53030    -999.25    -999.25    -999.25  -97.66170    -999.25    -999.25
 2300.00000   10.09370  110.88720   82.13820    -999.25    3.76900    3.30390    3.93570    -999.25    -999.25    -999.25  -96.56050    -999.25    -999.25
 2350.00000    9.52090  105.39800   71.80640    -999.25    4.17840    3.60530    4.19370    -999.25    -999.25    -999.25  -97.34250    -999.25    -999.25
 2400.00000   10.26360  126.70210   69.85920    -999.25    4.50210    4.31530    5.43000    -999.25    -999.25    -999.25  -96.06190    -999.25    -999.25
 2450.00000   10.17120  109.34170   80.03840    -999.25    4.76190    4.30120    5.19180    -999.25    -999.25    -999.25  -95.77760    -999.25    -999.25
 2500.00000    9.52260   84.00950   65.58410    -999.25   13.85520   13.25220   14.60840    -999.25    -999.25    -999.25  -97.71500    -999.25    -999.25
 2550.00000    9.60740   98.84300   69.78880    -999.25    6.81650    6.36440    7.94270    -999.25    -999.25    -999.25  -96.22950    -999.25    -999.25
 2600.00000    9.43700   90.74320   77.90470    -999.25    3.85140    3.25430    3.84790    -999.25    -999.25    -999.25  -95.84700    -999.25    -999.25
 2650.00000   11.29470  116.14160   92.91640    -999.25    3.95990    3.72200    4.48350    -999.25    -999.25    -999.25  -95.87510    -999.25    -999.25
 2700.00000    9.06360   84.05340   73.89980    -999.25    8.10550    6.28800    7.36590    -999.25    -999.25    -999.25  -99.72810    -999.25    -999.25
 2750.00000   10.13550  127.03590  105.27390    -999.25    3.09660    2.78200    2.75520    -999.25    -999.25    -999.25  -96.61990    -999.25    -999.25
 2800.00000    9.54800   83.05310   65.61670    -999.25    7.29040    6.85950    7.69460    -999.25    -999.25    -999.25  -94.24880    -999.25    -999.25
 2850.00000    9.50670   85.56430   55.35230    -999.25   11.29170   10.82200   10.28500    -999.25    -999.25    -999.25 -104.23950    -999.25    -999.25
 2900.00000   10.31860   91.67380   76.92650    -999.25    4.00130    3.87180    4.30320    -999.25    -999.25    -999.25  -94.23760    -999.25    -999.25
 2950.00000   12.12590   87.42600   80.09240    -999.25    6.00260    5.66200    6.12710    -999.25    -999.25    -999.25  -93.22540    -999.25    -999.25
 3000.00000   10.03910   85.41700   69.78240    -999.25    7.90600    7.65300    7.55510    -999.25    -999.25    -999.25  -94.25370    -999.25    -999.25
 3050.00000   10.87320   84.02610   57.61450    -999.25    5.80750    5.34560    5.15250    -999.25    -999.25    -999.25  -94.73580    -999.25    -999.25
 3100.00000    9.14210   81.78350   35.82390    -999.25   22.75320   20.75240   18.89980    -999.25    -999.25    -999.25 -102.20840    -999.25    -999.25
 3150.00000    9.64010   83.09930   50.39130    -999.25    9.89860    8.86040   14.43110    -999.25    -999.25    -999.25  -93.85800    -999.25    -999.25
 3200.00000   10.97820  113.71640   54.46950    -999.25    4.95410    4.12000    4.57400    -999.25    -999.25    -999.25  -94.46270    -999.25    -999.25
 3250.00000    9.40710   79.33060   43.37450    -999.25   12.97780   12.19740   11.49370    -999.25    -999.25    -999.25  -93.86070    -999.25    -999.25
 3300.00000    9.49100   91.31210   60.86540    -999.25    5.44800    4.99840    5.45380    -999.25    -999.25    -999.25  -93.90670    -999.25    -999.25
 3350.00000   10.30060  105.96360   66.92420    -999.25    4.86810    4.68580    4.31560    -999.25    -999.25    -999.25  -94.68780    -999.25    -999.25
 3400.00000   10.08110  101.64620   51.02330    -999.25    7.99730    7.09990    7.49080    -999.25    -999.25    -999.25  -93.64090    -999.25    -999.25
 3450.00000    9.77530   87.42280   58.59630    -999.25    6.99290    6.71100    8.46640    -999.25    -999.25    -999.25  -96.16670    -999.25    -999.25
 3500.00000   10.29660   98.98960   56.55100    -999.25    5.87740    5.40250    5.16920    -999.25    -999.25    -999.25  -92.60520    -999.25    -999.25
 3550.00000    9.34160   81.18160   39.70140    -999.25    9.62970    9.24730    9.66570    -999.25    -999.25    -999.25  -92.81900    -999.25    -999.25
 3600.00000   10.06710   91.91680   58.23860    -999.25    5.20800    4.93320    5.85780    -999.25    -999.25    -999.25  -91.73170    -999.25    -999.25
 3650.00000    9.60310   79.29910   57.55530    -999.25   21.57290   24.89320   30.72170    -999.25    -999.25    -999.25  -94.91210    -999.25    -999.25
