~Version ---------------------------------------------------
VERS.      2.0 : CWLS log ASCII Standard -VERSION 2.0
WRAP.       NO : One line per depth step
CREA. 12/29/17 : LAS Creation Date
~Well ------------------------------------------------------
STRT.FT                       1500.0 : START DEPTH
STOP.FT                      10000.0 : STOP DEPTH
STEP.FT                     50.00000 : STEP LENGTH
NULL.                        -999.25 : NULL VALUE
COMP. PHILLIPS PETROLEUM CANADA LTD. : COMPANY
WELL.    PHILLIPS KAYBOB 10-17-64-19 : WELL
FLD .                         KAYBOB : FIELD
LOC .                                : LOCATION
CTRY.                         CANADA : COUNTRY
SRVC.                          Welex : SERVICE COMPANY
DATE.                    17-Sep-1958 : LOGDATE
PROV.                        Alberta : PROVINCE
UWI .               100101706419W500 : UNIQUE WELL ID
SLAT.WGS84                  54.54004 : SURFACE LATITUDE
SLON.WGS84                 -116.8321 : SURFACE LONGITUDE
~Curve Information -----------------------------------------
DEPT   .FT    : Depth Curve
CALWS  .IN    : CALIPER [MCALED]
CONDED .MMHO  : CONDUCTIVITY  [RESCALED FR. 0.4-0 TO 400-0]]
CONDWS .MMHO  : CONDUCTIVITY [1000/DRESWS]
DRESWS .OHMM  : DEEP RESISTIVITY [GUARDED]
GRNED  .CPS   : GAMMA RAY FROM NEUTRON LOG [CASEDHOLE][DEP. ADJ TO SPRED]
GRWS   .CPS   : GAMMA RAY [GRNED]
GUARDED.OHMM  : GUARD LOG RESISTIVITY
MCALED .IN    : CALIPER FROM MICROLOG
NEUTED .CPS   : NEUTRON FROM NEUTRON LOG [CASEDHOLE][DEP. ADJ TO SPRED]
NEUTWS .CPS   : NEUTRON [NEUTED]
SPRED  .MV    : SPONTANEOUS POTENTIAL FROM RESISTIVITY LOG [REMOVED SHIFT]
SPWS   .MV    : SPONTANEOUS POTENTIAL [BASELINE 0 MV] [SPRED]
~Params ----------------------------------------------------
LMF .                              KB : LOG MEASURED FROM
DAPD.FT                            14 : FEET ABOVE PERMANENT DATUM
DMF .                              KB : DRILLING MEASURED FROM
EKB .FT                          2588 : KELLY BUSHING
EDF .FT                          2586 : DRILLING FLOOR
EGL .FT                          2575 : GROUND LEVEL
DATE.                        09/17/58 : RUN DATE
RUN .                               1 : RUN NUMBER
DD  .FT                         10049 : DEPTH DRILLER
DL  .FT                         10047 : DEPTH LOGGER
BLI .FT                         10042 : BOTTOM LOG INTERVAL
TLI .FT                          1498 : TOP LOG INTERVAL
CS  .IN                         9.625 : CASING SIZE
CBD .FT                          1504 : CASING BOTTOM DRILLER
CBL .FT                          1498 : CASING BOTTOM LOGGER
BS  .IN                         7.875 : BIT SIZE
BSD .FT                         10049 : BIT SIZE AT DEPTH
DFT . OIL EMULSION GEL CAUSTIC TANNEX : DRILLING FLUID TYPE
DFD .                            10.9 : DRILLING FLUID DENSITY
DFV .                             114 : DRILLING FLUID VISCOSITY
DFPH.                             8.5 : DRILLING FLUID PH
DFL .                             4.1 : DRILLING FLUID LOSS
MSS .                      CIRCULATED : MUD SAMPLE SOURCE
RMS .OHMM                        3.84 : RESISTIVITY MUD SAMPLE
MST .DEGF                          54 : MUD SAMPLE TEMPERATURE
RMF .OHMM                           2 : RESISTIVITY MUD FILTRATE SAMPLE
MFST.DEGF                          72 : MUD FILTRATE SAMPLE TEMPERATURE
RMC .OHMM                        2.62 : RESISTIVITY MUD CAKE
MCST.DEGF                          69 : MUD CAKE SAMPLE TEMPERATURE
RMB .OHMM                        1.15 : RESISTIVITY MUD AT BHT
ENGI.                          FOWLER : RECORDING ENGINEER
WITN.                    HANKINS MOTE : WITNESSED BY
CLNT.                         A2DTECH : CLIENT CODE
ORIG.                     2" 5" PRINT : ORIGIN OF DATA
UWI .                100101706419W500 : UNIQUE WELL ID
DICO.          A2D Technologies, Inc. : DIGITIZING COMPANY
~Other -----------------------------------------------------
~ASCII -----------------------------------------------------
# ...
 4300.00000    9.91470  172.50000  163.80020    6.10500  109.01450  109.01450    6.10500    9.91470  314.40490  314.40490  -73.19730  -41.51290
 4350.00000   10.46030  196.60000  186.12100    5.37280  109.16670  109.16670    5.37280   10.46030  310.18460  310.18460  -73.73610  -42.25140
 4400.00000   10.79710  175.30000  167.12350    5.98360  105.56660  105.56660    5.98360   10.79710  307.82070  307.82070  -78.47720  -47.19030
 4450.00000   10.77730  249.80000  256.40370    3.90010  103.63450  103.63450    3.90010   10.77730  285.78960  285.78960  -77.22130  -46.13420
 4500.00000   10.07170  210.50000  238.91440    4.18560   90.07530   90.07530    4.18560   10.07170  294.85940  294.85940  -75.90750  -45.01810
 4550.00000    9.60050  242.50000  231.65840    4.31670  110.12820  110.12820    4.31670    9.60050  280.19820  280.19820  -73.35990  -42.66930
 4600.00000   10.08430  321.90000  333.77840    2.99600  113.89990  113.89990    2.99600   10.08430  299.40110  299.40110  -75.94680  -45.45590
 4650.00000    9.43520  422.60000  398.32700    2.51050  110.13260  110.13260    2.51050    9.43520  281.59620  281.59620  -75.35840  -45.06540
 4700.00000    9.93340  356.40000  348.37740    2.87040  108.01640  108.01640    2.87040    9.93340  325.16440  325.16440  -75.51510  -45.42180
 4750.00000    9.64140  181.10000  174.95980    5.71560  103.96220  103.96220    5.71560    9.64140  327.09780  327.09780  -77.12780  -47.23230
 4800.00000    8.71060  117.80000  115.77420    8.63750   92.60250   92.60250    8.63750    8.71060  353.96710  353.96710  -77.75770  -48.06100
 4850.00000    9.83310  346.20000  310.05350    3.22530   99.70940   99.70940    3.22530    9.83310  307.68660  307.68660  -75.13600  -45.63910
 4900.00000    9.62650  384.30000  358.75730    2.78740  105.69500  105.69500    2.78740    9.62650  359.32700  359.32700  -74.48310  -45.18390
 4950.00000    8.29170  117.70000  121.54510    8.22740   66.54660   66.54660    8.22740    8.29170  407.81210  407.81210  -94.10050  -65.00110
 5000.00000    8.65170   68.30000   62.93460   15.88950   81.54540   81.54540   15.88950    8.65170  335.72310  335.72310  -81.32190  -52.42020
 5050.00000    8.75230   79.30000   73.37560   13.62850   95.58730   95.58730   13.62850    8.75230  293.96560  293.96560  -72.61510  -43.91220
 5100.00000    8.70700  101.00000   97.44070   10.26270   84.67140   84.67140   10.26270    8.70700  399.42080  399.42080  -73.23020  -44.79040
 5150.00000    8.30470   98.90000  106.01760    9.43240   82.41150   82.41150    9.43240    8.30470  369.46720  369.46720  -81.56750  -55.12760
 5200.00000    8.26370   90.55000   83.94860   11.91200   84.67800   84.67800   11.91200    8.26370  400.29360  400.29360  -74.07830  -49.65850
 5250.00000    8.60510    7.50000    2.88720  346.35960   45.32560   45.32560  346.35960    8.60510  352.05440  352.05440  -69.86880  -47.44880
 5300.00000    8.58300   56.10000   51.60150   19.37930   76.35660   76.35660   19.37930    8.58300  382.92620  382.92620  -76.76360  -56.35360
 5350.00000    8.75460  108.10000   99.05260   10.09570   79.89880   79.89880   10.09570    8.75460  417.64680  417.64670  -71.51250  -53.12250
 5400.00000    8.89200  160.10000  111.82680    8.94240   87.81970   87.81970    8.94240    8.89200  454.33340  454.33340  -76.52710  -60.13690
 5450.00000    8.64520  115.05000  104.59100    9.56110   90.66310   90.66310    9.56110    8.64520  404.89760  404.89760  -61.59220  -47.22200
 5500.00000    8.66390  110.50000  110.68560    9.03460   79.93630   79.93630    9.03460    8.66390  502.95570  502.95570  -67.73850  -55.36820
 5550.00000    8.56380   82.60000   87.29360   11.45560  101.65570  101.65570   11.45560    8.56380  384.36790  384.36790  -55.58070  -45.22040
 5600.00000   10.30400  188.40000  207.19380    4.82640   99.23890   99.23890    4.82640   10.30400  364.01580  364.01580  -52.62960  -44.28930
 5650.00000    8.64490   73.20000   83.86170   11.92440   60.34640   60.34640   11.92440    8.64490  411.40860  411.40860  -85.48500  -79.14460
 5700.00000    8.10720   45.80000   40.67860   24.58300   48.30360   48.30360   24.58300    8.10720  460.49780  460.49780  -98.84550  -94.52510
 5750.00000    8.45570   80.00000   70.90940   14.10250  112.19350  112.19350   14.10250    8.45570  460.04650  460.04650  -46.56590  -44.24530
 5800.00000    8.64380  131.30000  102.31330    9.77390  102.41360  102.41360    9.77390    8.64380  323.73010  323.73010  -40.26450  -39.95390
 5850.00000   10.21060  342.05000  295.17680    3.38780   95.26010   95.26010    3.38780   10.21060  281.68730  281.68730  -38.98550  -40.69480
 5900.00000   10.32080  264.20000  253.54330    3.94410   91.88210   91.88210    3.94410   10.32080  331.37710  331.37710  -32.32180  -36.03110
 5950.00000   10.48170  216.90000  234.54080    4.26370   99.43090   99.43090    4.26370   10.48170  361.71510  361.71510  -27.47810  -33.20740
 6000.00000    8.20140   15.90000   13.20230   75.74410  176.28040  176.28040   75.74410    8.20140  344.77080  344.77080  -21.73410  -29.46330
 6050.00000    8.15700    3.60000    0.51360 1947.20320  106.90280  106.90280 1947.20320    8.15700  459.63340  459.63340    1.64520   -7.69370
 6100.00000    8.38340  110.35000  106.02710    9.43150   97.69460   97.69460    9.43150    8.38340  438.73050  438.73040  -46.42310  -53.76040
 6150.00000    8.14860   70.50000   70.66940   14.15040   93.84510   93.84510   14.15040    8.14860  467.26190  467.26190  -45.16740  -50.52300
 6200.00000    8.10000   42.10000   43.71500   22.87550   86.68390   86.68390   22.87550    8.10000  494.90890  494.90890  -44.02190  -47.37590
 6250.00000    8.46540   53.30000   50.62730   19.75220  113.43580  113.43580   19.75220    8.46540  473.08790  473.08790  -46.40190  -47.77420
 6300.00000    7.95190   15.40000   14.93720   66.94710   36.30310   36.30310   66.94710    7.95190  511.82580  511.82580 -149.62080 -149.00140
 6350.00000    8.49480    6.05000    2.42040  413.15670   53.74890   53.74890  413.15670    8.49480  524.35360  524.35360  -67.37330  -64.75230
 6400.00000    7.79100   71.40000   29.06450   34.40620   37.77420   37.77420   34.40620    7.79100  653.86450  653.86450 -162.88060 -158.27790
 6450.00000    8.51230    5.55000    1.75300  570.46370   34.42450   34.42450  570.46370    8.51230  629.87180  629.87180  -55.69890  -49.09450
 6500.00000    8.49430    8.10000    1.10990  900.97110   76.75960   76.75960  900.97110    8.49430  598.43920  598.43920  -19.32620  -10.88440
 6550.00000    7.90640   31.60000   19.15830   52.19670   47.28160   47.28160   52.19670    7.90640  618.09360  618.09360 -164.45330 -155.33200
 6600.00000    8.27720   27.00000   21.33060   46.88110   46.61660   46.61660   46.88110    8.27720  586.93050  586.93050  -66.27750  -56.47320
 6650.00000    8.28350   32.90000   15.72370   63.59810   60.82260   60.82260   63.59810    8.28350  452.94720  452.94720  -55.81880  -45.33830
 6700.00000    8.23670    5.80000    3.42560  291.92080   33.91100   33.91100  291.92080    8.23670  749.40670  749.40670  -55.01560  -43.85210
 6750.00000    8.09560    7.30000    5.45610  183.28200   29.84940   29.84940  183.28200    8.09560  647.86680  647.86680 -182.79670 -170.95700
 6800.00000    8.34940    6.50000    2.73750  365.29330   37.17370   37.17370  365.29330    8.34940  675.33310  675.33310 -180.80560 -168.28640
 6850.00000    8.46780  153.55000  137.41450    7.27730   81.59860   81.59860    7.27730    8.46780  373.69920  373.69920  -61.98750  -48.78530
 6900.00000    8.42290  184.00000  210.69490    4.74620   89.44560   89.44560    4.74620    8.42290  396.00810  396.00810  -50.56110  -39.45480
 6950.00000    8.38330   27.15000   11.78860   84.82780   69.28330   69.28330   84.82780    8.38330  475.84200  475.84200  -59.50970  -51.70050
 7000.00000    8.47610   12.70000   11.78900   84.82460   50.52700   50.52700   84.82460    8.47610  610.44760  610.44760  -11.70160   -7.15660
 7050.00000    8.28400    9.90000    8.16300  122.50410   30.67870   30.67870  122.50410    8.28400  691.22950  691.22950  -85.86930  -83.33400
