~Version ---------------------------------------------------
VERS.      2.0 : CWLS log ASCII Standard -VERSION 2.0
WRAP.       NO : One line per depth step
CREA. 07/27/17 : LAS Creation Date
~Well ------------------------------------------------------
STRT.FT                            750.0 : START DEPTH
STOP.FT                           8550.0 : STOP DEPTH
STEP.FT                         50.00000 : STEP LENGTH
NULL.                            -999.25 : NULL VALUE
COMP.                 ENCANA CORPORATION : COMPANY
WELL. CENTRAL-DEL RIO HILDON 16-16-37-25 : WELL
FLD .                                    : FIELD
LOC .                                    : LOCATION
CTRY.                             CANADA : COUNTRY
SRVC.                       Schlumberger : SERVICE COMPANY
DATE.                        07-Feb-1960 : LOGDATE
PROV.                            Alberta : PROVINCE
UWI .                   100161603725W400 : UNIQUE WELL ID
SLAT.WGS84                       52.1845 : SURFACE LATITUDE
SLON.WGS84                     -113.5068 : SURFACE LONGITUDE
~Curve Information -----------------------------------------
DEPT  .FT         : Depth Curve
CALWS .IN         : CALIPER [MCALED]
CILDED.MMHO       : CONDUCTIVITY FROM IEL LOG
CONDWS.MMHO       : CONDUCTIVITY [1000/DRESWS]
DRESWS.OHMM       : DEEP RESISTIVITY [1000/CILDED, IF ILDED<1, ILDED]
DTED  .US/F       : DELTA TIME FROM SL LOG
DTWS  .US/F       : COMPRESSIONAL  SONIC [DTED]
GRSED .UgRa-Eq/T  : GAMMA RAY FROM SL LOG
GRWS  .GAPI       : GAMMA RAY [GRSED*16.50]
ILDED .OHMM       : DEEP INDUCTION FROM IEL LOG
MCALED.IN         : CALIPER FROM ML LOG
SNED  .OHMM       : 16 INCH SHORT NORMAL RESISTIVITY FROM IEL
SPRED .MV         : SPONTANEOUS POTENTIAL FROM IEL LOG
SPWS  .MV         : SPONTANEOUS POTENTIAL [BASELINE 0 MV, SPRED]
SRESWS.OHMM       : SHALLOW RESISTIVITY [SNED]
~Params ----------------------------------------------------
LMF .                     KB : LOG MEASURED FROM
DMF .                     KB : DRILLING MEASURED FROM
EKB .FT                 3118 : KELLY BUSHING
EGL .FT                 3105 : GROUND LEVEL
DATE.               02/07/60 : RUN DATE
RUN .                      2 : RUN NUMBER
DD  .FT                 6874 : DEPTH DRILLER
DL  .FT                 6871 : DEPTH LOGGER
BLI .FT                 6866 : BOTTOM LOG INTERVAL
TLI .FT                 5952 : TOP LOG INTERVAL
CBD .FT                  729 : CASING BOTTOM DRILLER
BS  .IN                6.125 : BIT SIZE
BSD .FT                 6874 : BIT SIZE AT DEPTH
DFT .               GYP BASE : DRILLING FLUID TYPE
DFD .                   10.1 : DRILLING FLUID DENSITY
DFV .                    102 : DRILLING FLUID VISCOSITY
DFL .                    6.6 : DRILLING FLUID LOSS
RMS .OHMM                1.6 : RESISTIVITY MUD SAMPLE
MST .DEGF                 52 : MUD SAMPLE TEMPERATURE
RMF .OHMM                1.2 : RESISTIVITY MUD FILTRATE SAMPLE
MFST.DEGF                 50 : MUD FILTRATE SAMPLE TEMPERATURE
RMC .OHMM                2.0 : RESISTIVITY MUD CAKE
MCST.DEGF                 50 : MUD CAKE SAMPLE TEMPERATURE
TCS .HRS                 2.5 : TIME CIRCULATED STOPPED
LUN .                   1575 : LOGGING UNIT NUMBER
LUL .                     RO : LOGGING UNIT LOCATION
ENGI.                 YUNKER : RECORDING ENGINEER
WITN.                 PAARUP : WITNESSED BY
CLNT.                A2DTECH : CLIENT CODE
ORIG.            2" 5" PRINT : ORIGIN OF DATA
UWI .       100161603725W400 : UNIQUE WELL ID
DICO. A2D Technologies, Inc. : DIGITIZING COMPANY
~Other -----------------------------------------------------
~ASCII -----------------------------------------------------
  750.00000    -999.25  113.01140  116.88520    8.55540    -999.25    -999.25    -999.25    -999.25    8.55540    -999.25   11.01500  -75.65770   -9.61530   11.01500
  800.00000    -999.25  241.18450  242.85400    4.11770    -999.25    -999.25    -999.25    -999.25    4.11770    -999.25    4.59580  -74.60110   -8.55870    4.59580
  850.00000    -999.25  101.42910  104.93290    9.52990    -999.25    -999.25    -999.25    -999.25    9.52990    -999.25   10.43240  -73.30280   -7.26040   10.43240
  900.00000    -999.25  114.79360  128.43240    7.78620    -999.25    -999.25    -999.25    -999.25    7.78620    -999.25    8.20540  -72.04180   -5.99940    8.20540
  950.00000    -999.25  145.28610  145.72370    6.86230    -999.25    -999.25    -999.25    -999.25    6.86230    -999.25   11.44670  -69.34110   -2.67450   11.44670
 1000.00000    -999.25  149.78760  153.38830    6.51940    -999.25    -999.25    -999.25    -999.25    6.51940    -999.25    7.38180  -73.32900   -5.75020    7.38180
 1050.00000    -999.25  164.09220  166.05230    6.02220    -999.25    -999.25    -999.25    -999.25    6.02220    -999.25    6.44740  -73.40600   -4.91500    6.44740
 1100.00000    -999.25  113.33470  112.96750    8.85210    -999.25    -999.25    -999.25    -999.25    8.85210    -999.25    9.46420  -79.31960   -9.91030    9.46420
 1150.00000    -999.25  244.87270  243.39780    4.10850    -999.25    -999.25    -999.25    -999.25    4.10850    -999.25    4.85380  -71.53710   -1.83920    4.85380
 1200.00000    -999.25  151.70840  158.52890    6.30800    -999.25    -999.25    -999.25    -999.25    6.30800    -999.25    6.77830  -73.26030   -3.93370    6.77830
 1250.00000    -999.25  190.61300  187.95930    5.32030    -999.25    -999.25    -999.25    -999.25    5.32030    -999.25    6.01480  -71.51320   -2.55530    6.01480
 1300.00000    -999.25  168.89310  173.53580    5.76250    -999.25    -999.25    -999.25    -999.25    5.76250    -999.25    7.08980  -72.12290   -3.53380    7.08980
 1350.00000    -999.25  194.32640  200.89600    4.97770    -999.25    -999.25    -999.25    -999.25    4.97770    -999.25    5.89560  -71.33170   -3.11380    5.89560
 1400.00000    -999.25  114.44520  105.15250    9.51000    -999.25    -999.25    -999.25    -999.25    9.51000    -999.25   10.37430  -72.17830   -4.32920   10.37430
 1450.00000    -999.25  161.71330  147.58620    6.77570    -999.25    -999.25    -999.25    -999.25    6.77570    -999.25    7.24980  -70.33850   -2.86060    7.24980
 1500.00000    -999.25  272.87570  298.21370    3.35330    -999.25    -999.25    -999.25    -999.25    3.35330    -999.25    5.31170  -71.63240   -4.52330    5.31170
 1550.00000    -999.25  201.59090  200.56160    4.98600    -999.25    -999.25    -999.25    -999.25    4.98600    -999.25    6.56340  -71.06540   -4.32510    6.56340
 1600.00000    -999.25  204.02650  213.20140    4.69040    -999.25    -999.25    -999.25    -999.25    4.69040    -999.25    5.43610  -71.15120   -4.78210    5.43610
 1650.00000    -999.25  186.49020  203.79470    4.90690    -999.25    -999.25    -999.25    -999.25    4.90690    -999.25    5.79870  -70.70690   -4.70660    5.79870
 1700.00000    -999.25  165.08580  168.73650    5.92640    -999.25    -999.25    -999.25    -999.25    5.92640    -999.25    8.68310  -71.77310   -6.14400    8.68310
 1750.00000    -999.25  122.37670  117.32540    8.52330    -999.25    -999.25    -999.25    -999.25    8.52330    -999.25    9.10170  -72.11300   -6.85270    9.10170
 1800.00000    -999.25  200.99900  216.74580    4.61370    -999.25    -999.25    -999.25    -999.25    4.61370    -999.25    5.62940  -69.65580   -4.76430    5.62940
 1850.00000    -999.25  212.87520  221.73930    4.50980    -999.25    -999.25    -999.25    -999.25    4.50980    -999.25    6.08320  -69.70230   -5.18200    6.08320
 1900.00000    -999.25  165.71580  165.76600    6.03260    -999.25    -999.25    -999.25    -999.25    6.03260    -999.25    7.53080  -68.37850   -4.22700    7.53080
 1950.00000    -999.25  172.62250  187.90630    5.32180    -999.25    -999.25    -999.25    -999.25    5.32180    -999.25    9.70830  -70.17710   -6.39680    9.70830
 2000.00000    -999.25  120.02340  125.01250    7.99920    -999.25    -999.25    -999.25    -999.25    7.99920    -999.25    9.27820  -69.43440   -6.02290    9.27820
 2050.00000    -999.25  201.76140  195.15240    5.12420    -999.25    -999.25    -999.25    -999.25    5.12420    -999.25    5.80870  -67.07960   -4.03680    5.80870
 2100.00000    -999.25  240.16280  257.70540    3.88040    -999.25    -999.25    -999.25    -999.25    3.88040    -999.25    5.73090  -67.62770   -4.95620    5.73090
 2150.00000    -999.25  171.24440  181.27440    5.51650    -999.25    -999.25    -999.25    -999.25    5.51650    -999.25    9.13920  -67.51200   -5.20920    9.13920
 2200.00000    -999.25  152.06480  154.11410    6.48870    -999.25    -999.25    -999.25    -999.25    6.48870    -999.25    7.79210  -67.71970   -5.78810    7.79210
 2250.00000    -999.25  250.52060  279.58730    3.57670    -999.25    -999.25    -999.25    -999.25    3.57670    -999.25    4.42410  -65.63850   -4.07570    4.42410
 2300.00000    -999.25  255.36130  277.82410    3.59940    -999.25    -999.25    -999.25    -999.25    3.59940    -999.25    4.52610  -64.96010   -3.76610    4.52610
 2350.00000   11.37760  377.48640  432.73180    2.31090    -999.25    -999.25    -999.25    -999.25    2.31090   11.37760    3.13680  -66.17510   -5.35230    3.13680
 2400.00000   11.32030  198.13780  208.56360    4.79470    -999.25    -999.25    -999.25    -999.25    4.79470   11.32030    5.60580  -65.58770   -5.13370    5.60580
 2450.00000    9.06290  101.80670  106.71680    9.37060    -999.25    -999.25    -999.25    -999.25    9.37060    9.06290   12.78440  -90.08590  -30.00310   12.78440
 2500.00000    9.74990  162.45960  160.32320    6.23740    -999.25    -999.25    -999.25    -999.25    6.23740    9.74990    7.61240  -67.28660   -7.57260    7.61240
 2550.00000   11.22770  171.68280  174.84960    5.71920    -999.25    -999.25    -999.25    -999.25    5.71920   11.22770    7.07020  -64.28730   -4.94210    7.07020
 2600.00000   10.53000  202.06220  204.45300    4.89110    -999.25    -999.25    -999.25    -999.25    4.89110   10.53000    5.84930  -62.24300   -3.26900    5.84930
 2650.00000    9.63870   47.99530   58.87650   16.98470    -999.25    -999.25    -999.25    -999.25   16.98470    9.63870   19.24620  -63.27400   -4.66880   19.24620
 2700.00000   10.59380  166.06740  172.66390    5.79160    -999.25    -999.25    -999.25    -999.25    5.79160   10.59380    6.74360  -60.75310   -2.35580    6.74360
 2750.00000   10.37880  156.27570  164.85060    6.06610    -999.25    -999.25    -999.25    -999.25    6.06610   10.37880    6.59140  -62.02110   -3.55720    6.59140
 2800.00000   10.95170  151.98110  157.33170    6.35600    -999.25    -999.25    -999.25    -999.25    6.35600   10.95170    7.47990  -62.00910   -3.47850    7.47990
 2850.00000    9.65590   98.92900  109.47150    9.13480    -999.25    -999.25    -999.25    -999.25    9.13480    9.65590   10.26390  -72.70320  -14.10550   10.26390
 2900.00000    9.54480  148.23300  154.10700    6.48900    -999.25    -999.25    -999.25    -999.25    6.48900    9.54480    7.08980  -65.72850   -7.06420    7.08980
 2950.00000   10.59700  169.97430  166.27320    6.01420    -999.25    -999.25    -999.25    -999.25    6.01420   10.59700    7.39630  -65.71490   -6.98350    7.39630
 3000.00000    9.64730  143.49410  162.87710    6.13960    -999.25    -999.25    -999.25    -999.25    6.13960    9.64730    6.94070  -66.23530   -7.43730    6.94070
 3050.00000   11.36110  180.39750  187.17130    5.34270    -999.25    -999.25    -999.25    -999.25    5.34270   11.36110    6.57340  -66.41310   -7.54840    6.57340
 3100.00000    9.24830  110.21590  109.47390    9.13460    -999.25    -999.25    -999.25    -999.25    9.13460    9.24830   15.77570  -65.80490   -6.87310   15.77570
 3150.00000    9.84420  172.87730  169.63530    5.89500    -999.25    -999.25    -999.25    -999.25    5.89500    9.84420    7.11630  -69.03240  -10.03400    7.11630
