~Version ---------------------------------------------------
VERS.      2.0 : CWLS log ASCII Standard -VERSION 2.0
WRAP.       NO : One line per depth step
CREA. 12/29/17 : LAS Creation Date
~Well ------------------------------------------------------
STRT.FT                            300.0 : START DEPTH
STOP.FT                          10550.0 : STOP DEPTH
STEP.FT                         50.00000 : STEP LENGTH
NULL.                            -999.25 : NULL VALUE
COMP.      HUDSON'S BAY OIL & GAS CO LTD : COMPANY
WELL. HB PAN AM FINA KAYBOBS 10-29-59-18 : WELL
FLD .                                    : FIELD
LOC .                                    : LOCATION
CTRY.                             CANADA : COUNTRY
SRVC.                      Dresser Atlas : SERVICE COMPANY
DATE.                        20-Nov-1968 : LOGDATE
PROV.                            Alberta : PROVINCE
UWI .                   100102905918W500 : UNIQUE WELL ID
SLAT.WGS84                      54.13226 : SURFACE LATITUDE
SLON.WGS84                     -116.6597 : SURFACE LONGITUDE
~Curve Information -----------------------------------------
DEPT  .FT    : Depth Curve
ACED  .US/F  : DELTA TIME (ACOUSTIC) FROM SONIC LOG [ADJ TO ILDED]
CALWS .IN    : CALIPER [MCALED]
CILDED.MMHO  : CONDUCTIVITY FROM RESISTIVITY LOG
CONDWS.MMHO  : CONDUCTIVITY [1000/DRESWS]
DRESWS.OHMM  : DEEP RESISTIVITY [ILDED] IF ILDED<2;1000/CILDED;ELSE ILDED
DTWS  .US/F  : DELTA TIME [ACED]
GRED  .GAPI  : GAMMA RAY FROM GR LOG [ADJ TO GRSED]
GRSED .GAPI  : GAMMA RAY FROM SONIC LOG [ADJ TO ILDED]
GRWS  .GAPI  : GAMMA RAY [SPL GRD3ED <1112'> GRSED]
ILDED .OHMM  : INDUCTION LOG DEEP RESISTIVITY
ILMED .OHMM  : INDUCTION LOG MEDIUM RESISTIVITY
MCALED.IN    : CALIPER MICROLOG
MRESWS.OHMM  : MEDIUM RESISTIVITY [ILMED]
SFLED .OHMM  : SPHERICALLY FOCUSED LOG RESISTIVITY
SPRED .MV    : SPONTANEOUS POTENTIAL FROM RESISTIVITY LOG
SPWS  .MV    : SPONTANEOUS POTENTIAL [BASELINE 0 MV] [SPRED]
SRESWS.OHMM  : SHALLOW RESISTIVITY [SFLED]
~Params ----------------------------------------------------
PD  .                     GL : PERMANENT DATUM
EPD .FT               2683.7 : ELEVATION PERMANENT DATUM
LMF .                     KB : LOG MEASURED FROM
DAPD.FT                 13.3 : FEET ABOVE PERMANENT DATUM
DMF .                     KB : DRILLING MEASURED FROM
EKB .FT               2697.0 : KELLY BUSHING
EGL .FT               2683.7 : GROUND LEVEL
DATE.               11/20/68 : RUN DATE
RUN .                      1 : RUN NUMBER
DD  .FT                10598 : DEPTH DRILLER
DL  .FT                10592 : DEPTH LOGGER
BLI .FT                10588 : BOTTOM LOG INTERVAL
TLI .FT                 1145 : TOP LOG INTERVAL
CS  .IN                9.625 : CASING SIZE
CBD .FT                 1145 : CASING BOTTOM DRILLER
CBL .FT                 1145 : CASING BOTTOM LOGGER
BS  .IN                7.875 : BIT SIZE
BSD .FT                10598 : BIT SIZE AT DEPTH
DFT .                MUD GEL : DRILLING FLUID TYPE
DFD .                    9.7 : DRILLING FLUID DENSITY
DFV .                     68 : DRILLING FLUID VISCOSITY
DFPH.                   10.5 : DRILLING FLUID PH
DFL .                    9.8 : DRILLING FLUID LOSS
MSS .                   CIRC : MUD SAMPLE SOURCE
RMS .OHMM                2.2 : RESISTIVITY MUD SAMPLE
MST .DEGF                 55 : MUD SAMPLE TEMPERATURE
RMF .OHMM                1.9 : RESISTIVITY MUD FILTRATE SAMPLE
MFST.DEGF                 55 : MUD FILTRATE SAMPLE TEMPERATURE
RMC .OHMM                1.4 : RESISTIVITY MUD CAKE
MCST.DEGF                 55 : MUD CAKE SAMPLE TEMPERATURE
MFSS.                   MEAS : MUD FILTRATE SAMPLE SOURCE
MCSS.                   MEAS : MUD CAKE SAMPLE SOURCE
RMB .OHMM               0.51 : RESISTIVITY MUD AT BHT
TCS .HRS                 4.5 : TIME CIRCULATED STOPPED
LUN .                   6002 : LOGGING UNIT NUMBER
LUL .                    V V : LOGGING UNIT LOCATION
ENGI.              KOWALCHUK : RECORDING ENGINEER
WITN.                 HARRIS : WITNESSED BY
CLNT.                A2DTECH : CLIENT CODE
ORIG.            2" 5" PRINT : ORIGIN OF DATA
UWI .       100102905918W500 : UNIQUE WELL ID
DICO. A2D Technologies, Inc. : DIGITIZING COMPANY
~Other -----------------------------------------------------
IE-DIL-ML-SONIC LOGS RUN
RHOBED CURVE DATA FROM 2" SCALE
MCALED CURVE TOP-5380' FROM 2" SCALE
IE LOG ALL CURVES TOP-5300' FROM 2" SCALE
SONIC LOG ALL CURVES TOP-5300' FROM 2" SCALE
~ASCII -----------------------------------------------------
# ...
 4400.00000   85.94260   13.83550  100.04800  103.22580    9.68750   85.94260   96.72060   90.86740   90.86740    9.68750    -999.25   13.83550    -999.25    9.16080  -91.44710   -2.34030    9.16080
 4450.00000   90.77010   12.17980  110.41900  111.34680    8.98100   90.77010   88.26800   87.05930   87.05930    8.98100    -999.25   12.17980    -999.25    7.98610  -91.31820   -2.05510    7.98610
 4500.00000   84.61760   14.64430   81.76990   83.03170   12.04360   84.61760   62.57240   72.47190   72.47190   12.04360    -999.25   14.64430    -999.25   11.33620  -91.86500   -2.44730   11.33620
 4550.00000   86.81400    8.25790   61.00210   64.36290   15.53690   86.81400   57.82730   53.14250   53.14250   15.53690    -999.25    8.25790    -999.25   19.31150 -108.50680  -19.99830   19.31150
 4600.00000   82.15190   12.00120   76.21000   80.93040   12.35630   82.15190   85.04020   88.56020   88.56020   12.35630    -999.25   12.00120    -999.25   12.78460  -91.29890   -3.98270   12.78460
 4650.00000   76.32680   11.57090   78.46560   84.10570   11.88980   76.32680   80.04550   87.83480   87.83480   11.88980    -999.25   11.57090    -999.25   12.33260  -91.23090   -5.10690   12.33260
 4700.00000   84.47750   10.81910   86.88270   88.42790   11.30860   84.47750   77.41690   88.79930   88.79930   11.30860    -999.25   10.81910    -999.25   10.74730  -90.04340   -5.11750   10.74730
 4750.00000   80.97490   11.17310   81.89500   85.64500   11.67610   80.97490   69.80130   87.56380   87.56380   11.67610    -999.25   11.17310    -999.25   10.55000  -91.26500   -7.52540   10.55000
 4800.00000   89.15880   12.00820   96.03730   97.69350   10.23610   89.15880   79.06520   90.12480   90.12480   10.23610    -999.25   12.00820    -999.25    9.64620  -90.88830   -8.34090    9.64620
 4850.00000   88.28290   13.18880   83.47860   87.43090   11.43760   88.28290   91.90240   88.62830   88.62830   11.43760    -999.25   13.18880    -999.25   11.04550  -89.97570   -8.62050   11.04550
 4900.00000   91.95030   11.88640   91.50430   93.87470   10.65250   91.95030   97.26430   92.24840   92.24840   10.65250    -999.25   11.88640    -999.25   10.02890  -89.20310   -9.04010   10.02890
 4950.00000   69.82100    8.69960   50.56720   50.52750   19.79120   69.82100   67.05370   61.79580   61.79580   19.79120    -999.25    8.69960    -999.25   29.65760  -88.07060   -9.10580   29.65760
 5000.00000   89.41860   11.93560   74.85910   77.76530   12.85920   89.41860   88.29440  101.59410  101.59410   12.85920    -999.25   11.93560    -999.25   13.49650  -87.86120  -10.08260   13.49650
 5050.00000   93.45880   10.36630   56.23800   58.96610   16.95890   93.45880  102.75720  110.60430  110.60430   16.95890    -999.25   10.36630    -999.25   21.38790  -85.60240   -9.01600   21.38790
 5100.00000   92.97830   10.84500   61.44440   65.10040   15.36090   92.97830   96.72490  116.09150  116.09150   15.36090    -999.25   10.84500    -999.25   17.98460  -77.01840   -1.62420   17.98460
 5150.00000   99.58870    9.93440   50.78460   53.57190   18.66650   99.58870  102.08370  133.02870  133.02870   18.66650    -999.25    9.93440    -999.25   30.48520  -77.81960   -3.20150   30.48520
 5200.00000  105.38060   10.31420   47.13040   50.03790   19.98490  105.38060  109.07730  140.74380  140.74380   19.98490    -999.25   10.31420    -999.25   31.69170  -76.88920   -2.23900   31.69170
 5250.00000   83.80190   13.09180   91.96630   98.02670   10.20130   83.80190   63.54950  108.85560  108.85560   10.20130    -999.25   13.09180    -999.25    9.62490  -79.91910   -5.23720    9.62490
 5300.00000   90.49460   12.46730  114.19400  120.39200    8.30620   90.49460   73.95290  102.89830  102.89830    8.30620    -999.25   12.46730    -999.25    7.88390  -78.05050   -3.33670    7.88390
 5350.00000   81.32490   11.93620   93.69650   97.16570   10.29170   81.32490   78.71690  104.00650  104.00650   10.29170    -999.25   11.93620    -999.25   11.47330  -77.61590   -2.87020   11.47330
 5400.00000   83.65670   11.52260  100.74650  102.34160    9.77120   83.65670   79.70460  109.40540  109.40540    9.77120    -999.25   11.52260    -999.25   10.82350  -77.72610   -2.94850   10.82350
 5450.00000   84.16560   11.84220   72.40550   73.00470   13.69770   84.16560   73.78180  102.07730  102.07730   13.69770    -999.25   11.84220    -999.25   15.97620  -79.16190   -4.35220   15.97620
 5500.00000   82.11350   12.49650   97.24800   97.44400   10.26230   82.11350   94.99410  114.42020  114.42020   10.26230    -999.25   12.49650    -999.25   10.67120  -78.64260   -3.80120   10.67120
 5550.00000   91.92360   12.91720  135.55040  145.55190    6.87040   91.92360   99.31040  106.55880  106.55880    6.87040    -999.25   12.91720    -999.25    7.34960  -79.13560   -4.26230    7.34960
 5600.00000   90.42860   13.98830  139.68460  148.09990    6.75220   90.42860  107.09390  133.51810  133.51810    6.75220    -999.25   13.98830    -999.25    7.40790  -77.83640   -2.93120    7.40790
 5650.00000   95.86380   11.52710  233.26000  245.58560    4.07190   95.86380   64.56420  102.91900  102.91900    4.07190    -999.25   11.52710    -999.25    4.28100  -78.02980   -3.09270    4.28100
 5700.00000  100.37740   11.93460  189.25700  192.71540    5.18900  100.37740   68.23690   95.37100   95.37100    5.18900    -999.25   11.93460    -999.25    4.96620  -79.20400   -4.23490    4.96620
 5750.00000   86.39000   11.71410  136.73880  141.34080    7.07510   86.39000   88.61950  111.43200  111.43200    7.07510    -999.25   11.71410    -999.25    6.57960  -78.54710   -3.54630    6.57960
 5800.00000   73.19810    9.54420   41.66320   39.79800   25.12690   73.19810   59.83270   80.31600   80.31600   25.12690    -999.25    9.54420    -999.25   26.94620  -86.75490  -11.72220   26.94620
 5850.00000   76.09310   10.44690   74.31550   74.44850   13.43210   76.09310   81.83650   96.39370   96.39370   13.43210    -999.25   10.44690    -999.25   12.35580  -77.64170   -2.57710   12.35580
 5900.00000   82.13270    9.82220   62.10750   58.78930   17.00990   82.13270   72.42710   93.59130   93.59130   17.00990    -999.25    9.82220    -999.25   14.30690  -77.82070   -2.72420   14.30690
 5950.00000   71.46770    9.67370   49.07100   47.85570   20.89620   71.46770   70.04380   87.83430   87.83430   20.89620    -999.25    9.67370    -999.25   17.47230  -80.11510   -4.98650   17.47230
 6000.00000   69.19720   12.28430   62.20210   62.13300   16.09450   69.19720   62.78400   86.26720   86.26720   16.09450    -999.25   12.28430    -999.25   20.22850  -80.76190   -5.70320   20.22850
 6050.00000   76.15660    9.59140   58.25360   59.58520   16.78270   76.15660   67.42630   84.49880   84.49880   16.78270    -999.25    9.59140    -999.25   16.67130  -81.41290   -7.33810   16.67130
 6100.00000   73.02450    9.65760   51.00150   52.23050   19.14590   73.02450   62.76100   90.57090   90.57090   19.14590    -999.25    9.65760    -999.25   20.63920  -78.89570   -5.80470   20.63920
 6150.00000   78.88520   10.13320   39.67020   38.78090   25.78590   78.88520   74.62380   96.31250   96.31250   25.78590    -999.25   10.13320    -999.25   29.22380  -79.40380   -7.29670   29.22380
 6200.00000   70.78860   10.08390   45.32310   43.31270   23.08790   70.78860   93.41180  110.37070  110.37070   23.08790    -999.25   10.08390    -999.25   25.51700  -74.20460   -3.08630   25.51700
 6250.00000   70.54330    8.63430   49.39870   48.36850   20.67460   70.54330   53.04850   54.81440   54.81440   20.67460    -999.25    8.63430    -999.25   30.60530 -120.31960  -50.18030   30.60530
 6300.00000   78.10120   10.78120   53.56330   53.10310   18.83130   78.10120   78.12180   96.23330   96.23330   18.83130    -999.25   10.78120    -999.25   23.56770  -77.87250   -8.71700   23.56770
 6350.00000   51.89170   12.20190   50.32250   50.16400   19.93460   51.89170   69.29370   96.24540   96.24540   19.93460    -999.25   12.20190    -999.25   30.66620  -73.26370   -5.09210   30.66620
 6400.00000   64.71720    9.12630   62.99280   62.82950   15.91610   64.71720   59.11920   70.87310   70.87310   15.91610    -999.25    9.12630    -999.25   20.44760  -70.65790   -3.47020   20.44760
