~Version ---------------------------------------------------
VERS.      2.0 : CWLS log ASCII Standard -VERSION 2.0
WRAP.       NO : One line per depth step
CREA. 01/03/18 : LAS Creation Date
~Well ------------------------------------------------------
STRT.FT                     900.0 : START DEPTH
STOP.FT                    8900.0 : STOP DEPTH
STEP.FT                  50.00000 : STEP LENGTH
NULL.                     -999.25 : NULL VALUE
COMP.        MOBIL OIL CANADA LTD : COMPANY
WELL. MOBIL PINE RIDGE 16-9-62-12 : WELL
FLD .                             : FIELD
LOC .                             : LOCATION
CTRY.                      CANADA : COUNTRY
SRVC.      Schlumberger of Canada : SERVICE COMPANY
DATE.                 07-Apr-1960 : LOGDATE
PROV.                     Alberta : PROVINCE
UWI .            100160906212W500 : UNIQUE WELL ID
SLAT.WGS84               54.35402 : SURFACE LATITUDE
SLON.WGS84              -115.7285 : SURFACE LONGITUDE
~Curve Information -----------------------------------------
DEPT  .FT         : Depth Curve
CALMED.IN         : CALIPER FROM MICROLOG
CALWS .IN         : CALIPER (CALMED)
CILDED.MMHO       : CONDUCTIVITY FROM LOG
CONDWS.MMHO       : CONDUCTIVITY (1000/DRESWS)
DRESWS.OHMM       : DEEP RESISTIVITY (IF ILDED<4, THEN 1000/CILDED)
DTED  .US/F       : DELTA TIME  (ADJ TO RES.)
DTWS  .US/F       : DELTA TIME  (DTED)
GRSED .UgRa-Eq/T  : GAMMA RAY SONIC (ADJ TO RES.)
GRWS  .GAPI       : GAMMA RAY (GRSED*16.5)
ILDED .OHMM       : DEEP INDUCTION RESISTIVITY
SNED  .OHMM       : SHORT NORMAL 16"
SPRED .MV         : Spontaneous Potential  IELOG
SPWS  .MV         : SPONTANEOUS POTENTIAL BASELINE 0 MV (SPRED)
SRESWS.OHMM       : SHALLOW RESISTIVITY (SNED)
~Params ----------------------------------------------------
LMF .                     KB : LOG MEASURED FROM
DMF .                     KB : DRILLING MEASURED FROM
EKB .FT                 2909 : KELLY BUSHING
EGL .FT               2897.6 : GROUND LEVEL
DATE.               04/07/60 : RUN DATE
RUN .                      2 : RUN NUMBER
DD  .FT                 8932 : DEPTH DRILLER
DL  .FT                 8932 : DEPTH LOGGER
BLI .FT                 8926 : BOTTOM LOG INTERVAL
TLI .FT                 1700 : TOP LOG INTERVAL
BS  .IN                    9 : BIT SIZE
BSD .FT                 8932 : BIT SIZE AT DEPTH
DFT .               OIL FMUL : DRILLING FLUID TYPE
DFD .                   10.4 : DRILLING FLUID DENSITY
DFV .                     86 : DRILLING FLUID VISCOSITY
MSS .            CURCULATION : MUD SAMPLE SOURCE
RMS .OHMM                4.8 : RESISTIVITY MUD SAMPLE
MST .DEGF                 52 : MUD SAMPLE TEMPERATURE
RMF .OHMM                  2 : RESISTIVITY MUD FILTRATE SAMPLE
MFST.DEGF                 72 : MUD FILTRATE SAMPLE TEMPERATURE
RMC .OHMM                3.8 : RESISTIVITY MUD CAKE
MCST.DEGF                 72 : MUD CAKE SAMPLE TEMPERATURE
RMB .OHMM                0.8 : RESISTIVITY MUD AT BHT
TCS .HRS                   4 : TIME CIRCULATED STOPPED
LUN .                   1574 : LOGGING UNIT NUMBER
LUL .                    SKW : LOGGING UNIT LOCATION
ENGI.                   GRAY : RECORDING ENGINEER
WITN.              MADELENER : WITNESSED BY
CLNT.                A2DTECH : CLIENT CODE
ORIG.            2" 5" PRINT : ORIGIN OF DATA
UWI .       100160906212W500 : UNIQUE WELL ID
DICO. A2D Technologies, Inc. : DIGITIZING COMPANY
~Other -----------------------------------------------------
~ASCII -----------------------------------------------------
# ...
 5800.00000    -999.25    -999.25   25.09830   25.86290   38.66590   54.08900   54.08900    0.90170   14.87800   38.66590   72.25200  -69.76710  -35.56640   72.25200
 5850.00000    -999.25    -999.25   49.24240   47.03310   21.26160   58.36300   58.36300    2.92850   48.32030   21.26160   34.55090  -36.37230   -2.31800   34.55090
 5900.00000    -999.25    -999.25   44.58630   45.08520   22.18450   58.27570   58.27570    2.00840   33.13860   22.18450   33.21680  -47.66890  -13.75950   33.21680
 5950.00000    -999.25    -999.25   46.17000   45.15960   22.14370   57.81700   57.81700    2.05610   33.92560   22.14370   32.46790  -49.64260  -15.87970   32.46790
 6000.00000    -999.25    -999.25   53.26490   54.95470   18.19680   58.97900   58.97900    2.18870   36.11350   18.19680   26.16380  -49.43240  -15.81520   26.16380
 6050.00000    -999.25    -999.25   44.03970   43.72780   22.86880   59.17250   59.17250    2.16790   35.76950   22.86880   33.71750  -51.07050  -17.59830   33.71750
 6100.00000    -999.25    -999.25   25.29960   25.72410   38.87410   57.38030   57.38030    1.80790   29.83040   38.87410   62.52000  -47.67820  -14.35250   62.52000
 6150.00000    -999.25    -999.25  140.77640  139.71950    7.15720   94.97400   94.97400    6.92050  114.18740    7.15720    9.91980  -35.14260   -1.96190    9.91980
 6200.00000    -999.25    -999.25  101.06170   98.65820   10.13600   63.68880   63.68880    4.92670   81.29060   10.13600   13.00280  -50.66970  -17.63540   13.00280
 6250.00000    -999.25    -999.25   37.35430   36.80390   27.17100   54.92000   54.92000    3.34800   55.24200   27.17100   64.99210  -45.87320  -12.98460   64.99210
 6300.00000    -999.25    -999.25   13.49430   12.71730   78.68080   51.03080   51.03080    1.21900   20.11350   78.68080  119.81510  -82.58160  -49.83800  119.81510
 6350.00000    -999.25    -999.25   10.28270   10.19240   98.11230   49.66130   49.66130    0.62990   10.39340   98.11230  166.64770  -96.48720  -63.89010  166.64770
 6400.00000    -999.25    -999.25    7.95060    7.30010  136.98770   51.37000   51.37000    1.02900   16.97770  136.98770  169.55930 -108.43660  -75.98450  169.55930
 6450.00000    -999.25    -999.25   10.73580    9.32700  107.21600   50.51160   50.51160    1.06760   17.61540  107.21600  173.11050 -110.40830  -78.10260  173.11050
 6500.00000    -999.25    -999.25    9.69260    8.96600  111.53190   48.31670   48.31670    0.72510   11.96420  111.53190  167.27980 -110.62650  -78.46650  167.27980
 6550.00000    -999.25    -999.25   19.16760   18.02970   55.49190   50.08000   50.08000    0.74210   12.24550   55.49190  145.46810 -131.67800  -99.66300  145.46810
 6600.00000    -999.25    -999.25    9.90550    9.23450  108.29000   48.19290   48.19290    0.78480   12.94920  108.29000  154.11730 -104.92620  -73.05770  154.11730
 6650.00000    -999.25    -999.25   11.52130    9.52230  105.01790   49.08410   49.08410    0.99440   16.40760  105.01790  176.66270  -96.37640  -64.65290  176.66270
 6700.00000    -999.25    -999.25    9.95440    8.47270  118.02560   49.75340   49.75340    1.05530   17.41250  118.02560  221.01350  -90.23300  -58.65590  221.01350
 6750.00000    -999.25    -999.25    9.73770    8.52180  117.34590   49.29760   49.29760    0.98730   16.29050  117.34590  229.27570  -91.25020  -59.81890  229.27570
 6800.00000    -999.25    -999.25   16.74130   15.13620   66.08470   50.66750   50.66750    1.14540   18.89990   66.08470  121.23100 -120.61510  -89.32870  121.23100
 6850.00000    -999.25    -999.25   27.93860   26.89700   37.17890   50.19820   50.19820    0.90610   14.95070   37.17890  124.90420 -180.83510 -149.69520  124.90420
 6900.00000    -999.25    -999.25   12.01070    9.83250  101.70780   48.97540   48.97540    0.91700   15.13050  101.70780  116.04490 -140.99290 -109.99800  116.04490
 6950.00000    -999.25    -999.25  133.67090  128.85100    7.76090   61.29740   61.29740    2.31160   38.14140    7.76090   17.83180  -81.30430  -50.45580   17.83180
 7000.00000    -999.25    -999.25   45.72600   43.67500   22.89640   48.64370   48.64370    1.36780   22.56870   22.89640   79.06800 -149.35510 -118.65240   79.06800
 7050.00000    -999.25    -999.25   35.35070   30.97660   32.36900   52.73260   52.73260    1.78120   29.38900   32.36900   67.78250 -133.85790 -103.30010   67.78250
 7100.00000    -999.25    -999.25   61.98090   62.65900   15.95940   52.55700   52.55700    1.57010   25.90660   15.95940   47.86980 -134.11540 -103.70410   47.86980
 7150.00000    -999.25    -999.25   33.30940   32.04500   31.21520   54.57780   54.57780    2.21870   36.60860   31.21520   46.53710  -46.55080  -16.28450   46.53710
 7200.00000    -999.25    -999.25   30.62950   29.73320   33.63240   55.81540   55.81540    2.54190   41.94140   33.63240   46.34710  -34.68170   -4.56190   46.34710
 7250.00000    -999.25    -999.25   49.09520   50.04930   19.98030   59.08210   59.08210    2.83870   46.83850   19.98030   27.20080  -33.40920   -3.43510   27.20080
 7300.00000    -999.25    -999.25   62.46220   62.68190   15.95360   60.63510   60.63510    3.07660   50.76470   15.95360   22.47680  -31.09370   -1.26460   22.47680
 7350.00000    -999.25    -999.25   82.62390   81.92290   12.20660   61.19590   61.19590    2.94990   48.67330   12.20660   16.75190  -33.27990   -3.92870   16.75190
 7400.00000    -999.25    -999.25   94.76170   94.84330   10.54420   64.62240   64.62240    2.81730   46.48460   10.54420   13.95140  -35.99370   -7.14210   13.95140
 7450.00000    -999.25    -999.25  234.56810  207.94780    4.80890   83.36200   83.36200    4.64140   76.58310    4.80890    6.05950  -37.47530   -9.12840    6.05950
 7500.00000    -999.25    -999.25  252.43320  224.50220    4.45430   84.05170   84.05170    5.04600   83.25900    4.45430    5.39100  -37.24540   -9.40060    5.39100
 7550.00000    -999.25    -999.25   87.73320   88.99740   11.24030   72.90660   72.90660    4.77870   78.84860   11.24030   15.16890  -41.97250  -14.62740   15.16890
 7600.00000    -999.25    -999.25  114.90050  111.67070    8.95490   64.72550   64.72550    4.06680   67.10220    8.95490   12.92580  -42.91820  -16.07770   12.92580
 7650.00000    -999.25    -999.25  203.71130  193.51450    5.16800   83.24290   83.24290    4.30510   71.03500    5.16800    6.48670  -49.25090  -22.91000    6.48670
 7700.00000    -999.25    -999.25  180.48390  172.86980    5.78470   74.81420   74.81420    3.89990   64.34830    5.78470    7.14320  -37.15120  -11.31500    7.14320
 7750.00000    -999.25    -999.25  139.26730  124.28840    8.04580   63.99430   63.99430    3.30540   54.53910    8.04580   11.62850  -41.20340  -15.86930   11.62850
 7800.00000    -999.25    -999.25  107.55720  110.49340    9.05210   70.07310   70.07310    4.36740   72.06210    9.05210   12.32360  -38.38230  -13.54790   12.32360
 7850.00000    -999.25    -999.25  123.92100  125.89860    7.94290   39.95800   39.95800    4.46630   73.69400    7.94290   10.83690  -38.49220  -14.16240   10.83690
 7900.00000    -999.25    -999.25  141.56660  141.66400    7.06050   68.60650   68.60650    3.95880   65.31940    7.06050    9.90180  -41.47560  -17.64550    9.90180
 7950.00000    -999.25    -999.25  158.96500  161.99320    6.17310   88.15010   88.15010    4.54570   75.00410    6.17310    7.97790  -45.03350  -21.70800    7.97790
 8000.00000    -999.25    -999.25  156.81010  156.07930    6.40700   71.38270   71.38270    4.49810   74.21860    6.40700    8.69020  -43.51690  -20.69360    8.69020
 8050.00000    -999.25    -999.25  158.47520  157.43820    6.35200   74.88680   74.88680    4.60610   76.00070    6.35200    8.79060  -41.15210  -18.82840    8.79060
 8100.00000    -999.25    -999.25  142.10140  145.82790    6.85740   75.07700   75.07700    4.26040   70.29660    6.85740    8.93440  -37.58700  -15.76800    8.93440
 8150.00000    -999.25    -999.25  126.80550  123.09240    8.13250   65.65440   65.65440    4.38110   72.28730    8.13250   12.09370  -34.77620  -13.45680   12.09370
 8200.00000    -999.25    -999.25  160.94160  159.37270    6.27460   76.50360   76.50360    4.65050   76.73320    6.27460    8.19510  -43.88060  -23.06580    8.19510
