~Version ---------------------------------------------------
VERS.      2.0 : CWLS log ASCII Standard -VERSION 2.0
WRAP.       NO : One line per depth step
CREA. 08/02/17 : LAS Creation Date
~Well ------------------------------------------------------
STRT.FT                       300.0 : START DEPTH
STOP.FT                     10150.0 : STOP DEPTH
STEP.FT                    50.00000 : STEP LENGTH
NULL.                       -999.25 : NULL VALUE
COMP.          MOBIL OIL CANADA LTD : COMPANY
WELL. MOBIL MCLEOD RIVER 11-1-57-14 : WELL
FLD .                               : FIELD
LOC .                               : LOCATION
CTRY.                        CANADA : COUNTRY
SRVC.        Schlumberger of Canada : SERVICE COMPANY
DATE.                   02-May-1978 : LOGDATE
PROV.                       Alberta : PROVINCE
UWI .              100110105714W500 : UNIQUE WELL ID
SLAT.WGS84                 53.89809 : SURFACE LATITUDE
SLON.WGS84                -115.9478 : SURFACE LONGITUDE
~Curve Information -----------------------------------------
DEPT    .FT    : Depth Curve
CALDED  .IN    : CALIPER FROM CNL-FDC LOG [ADJ. TO ILDED/CALSED]
CALSED  .IN    : CALIPER FROM BCS LOG
CALWS   .IN    : CALIPER [CALSED]
CONDWS  .MMHO  : CONDUCTIVITY [1000/DRESWS]
DCORED  .G/C3  : DENSITY CORRECTION FROM CNL-FDC LOG [ADJ. TO ILDED]
DCORWS  .G/C3  : DENSITY CORRECTION [DCORED]
DENWS   .G/C3  : FORMATION BULK DENSITY [RHOBED]
DPHILSED.V/V   : DENSITY POROSITY LIMESTONE [M=2.71, F=1.0] FROM CNL-FDC LOG [ADJ. TO ILDED]
DPHISSED.V/V   : DENSITY POROSITY SANDSTONE [M=2.65, F=1.0] FROM CNL-FDC LOG [ADJ. TO ILDED]
DPOLSWS .V/V   : DENSITY POROSITY LIMESTONE [CALCULATED FROM DENWS, M=2.71, F=1.0]
DRESWS  .OHMM  : DEEP RESISTIVITY [ILDED]
DTED    .US/F  : DELTA-T (INTERVAL TRANSIT TIME) FROM BCS LOG
DTWS    .US/F  : COMPRESSIONAL SONIC [DTED]
GRDED   .GAPI  : GAMMA RAY FROM CNL-FDC LOG  [ADJ. TO ILDED]
GRSED   .GAPI  : GAMMA RAY FROM BCS LOG
GRWS    .GAPI  : GAMMA RAY [GRDED SPL. TO GRSED @ 10161']
ILDED   .OHMM  : DEEP INDUCTION FROM DIL-LL LOG
ILMED   .OHMM  : MEDIUM INDUCTION FROM DIL-LL LOG
LL8ED   .OHMM  : LATEROLOG 8 FROM DIL-LL LOG
MRESWS  .OHMM  : MEDIUM RESISTIVITY [ILMED]
NPHILSED.V/V   : NEUTRON POROSITY LIMESTONE FROM CNL-FDC LOG [ADJ. TO ILDED]
NPHISSED.V/V   : NEUTRON POROSITY SANDSTONE FROM CNL-FDC LOG [ADJ. TO ILDED]
NPOLSWS .V/V   : NEUTRON POROSITY LIMESTONE [NPHISSED CONVERTED TO LIMESTONE MATRIX & SPL. TO NPHILSED @ 6700']
RHOBED  .G/C3  : BULK DENSITY FROM CNL-FDC LOG [ADJ. TO ILDED]
SPRED   .MV    : SPONTANEOUS POTENTIAL FROM DIL-LL LOG
SPWS    .MV    : SPONTANEOUS POTENTIAL [BASELINE 0 MV, SPRED]
SRESWS  .OHMM  : SHALLOW RESISTIVITY [LL8ED]
~Params ----------------------------------------------------
PD  .                     GL : PERMANENT DATUM
EPD .FT               2845.4 : ELEVATION PERMANENT DATUM
LMF .                     KB : LOG MEASURED FROM
DAPD.FT                   20 : FEET ABOVE PERMANENT DATUM
EKB .FT               2865.2 : KELLY BUSHING
EGL .FT               2845.4 : GROUND LEVEL
DATE.               05/02/78 : RUN DATE
RUN .                      1 : RUN NUMBER
DD  .FT                10200 : DEPTH DRILLER
DL  .FT                10189 : DEPTH LOGGER
BLI .FT                10183 : BOTTOM LOG INTERVAL
TLI .FT                 1217 : TOP LOG INTERVAL
CBD .FT                 1217 : CASING BOTTOM DRILLER
CBL .FT                 1217 : CASING BOTTOM LOGGER
BS  .IN                 8.75 : BIT SIZE
BSD .FT                10200 : BIT SIZE AT DEPTH
DFT .                    GEL : DRILLING FLUID TYPE
DFD .                    9.4 : DRILLING FLUID DENSITY
DFV .                    205 : DRILLING FLUID VISCOSITY
DFPH.                   10.0 : DRILLING FLUID PH
DFL .                    8.5 : DRILLING FLUID LOSS
MSS .               FLOWLINE : MUD SAMPLE SOURCE
RMS .OHMM               2.27 : RESISTIVITY MUD SAMPLE
MST .DEGF                 66 : MUD SAMPLE TEMPERATURE
RMF .OHMM               1.96 : RESISTIVITY MUD FILTRATE SAMPLE
MFST.DEGF                 65 : MUD FILTRATE SAMPLE TEMPERATURE
TCS .HRS                   4 : TIME CIRCULATED STOPPED
LUN .                   7800 : LOGGING UNIT NUMBER
LUL .                    EDM : LOGGING UNIT LOCATION
ENGI.                 KUBICA : RECORDING ENGINEER
WITN.                   RUSH : WITNESSED BY
CLNT.                A2DTECH : CLIENT CODE
ORIG.            2" 5" PRINT : ORIGIN OF DATA
UWI .       100110105714W500 : UNIQUE WELL ID
DICO. A2D Technologies, Inc. : DIGITIZING COMPANY
~Other -----------------------------------------------------
~ASCII -----------------------------------------------------
# ...
 6800.00000    8.34480    7.91710    7.91710  119.58150    0.03720    0.03720    2.54780    0.09400    -999.25    0.09490    8.36250   54.50490   54.50490   20.90100   21.78840   20.90100    8.36250   14.04160   51.36500   14.04160    0.17010    -999.25    0.17010    2.54780 -191.17700 -143.18690   51.36500
 6850.00000    8.92300    8.95330    8.95330  142.32360    0.24550    0.24550    2.55620    0.06930    -999.25    0.09000    7.03730   48.67600   48.67600   39.22780   34.90140   39.22780    7.03730   11.11620   58.90480   11.11620    0.08080    -999.25    0.08080    2.55620 -118.38290  -70.32380   58.90480
 6900.00000    9.93300    9.91400    9.91400  166.87530    0.04060    0.04060    2.73180   -0.00440    -999.25   -0.01270    5.99250   62.31150   62.31150   90.68580   82.45480   90.68580    5.99250    7.42320   11.52520    7.42320    0.18340    -999.25    0.18340    2.73180  -76.24520  -28.11760   11.52520
 6950.00000    9.25390    9.40220    9.40220   68.34350    0.00630    0.00630    2.69730    0.01060    -999.25    0.00740   14.63200   62.51980   62.51980  107.41680  105.20100  107.41680   14.63200   16.84410   21.56930   16.84410    0.13610    -999.25    0.13610    2.69730  -51.20880   -3.01220   21.56930
 7000.00000    9.56940    9.59830    9.59830  107.86210    0.01560    0.01560    2.65580    0.03390    -999.25    0.03170    9.27110   58.79570   58.79570   58.22820   51.85430   58.22820    9.27110   10.49240   21.15400   10.49240    0.08320    -999.25    0.08320    2.65580  -90.60580  -42.34060   21.15400
 7050.00000   10.02050    9.91690    9.91690   90.60350    0.03600    0.03600    2.72060   -0.00360    -999.25   -0.00620   11.03710   60.72490   60.72490   45.66520   40.46920   45.66520   11.03710   12.21340   16.11110   12.21340    0.11190    -999.25    0.11190    2.72060  -92.56910  -44.23540   16.11110
 7100.00000    9.46420    9.64460    9.64460   16.59240    0.03250    0.03250    2.75420   -0.03130    -999.25   -0.02590   60.29010   51.58110   51.58110   37.69680   28.01750   37.69680   60.29010   82.99830  126.85990   82.99830    0.02880    -999.25    0.02880    2.75420  -54.88130   -6.47860  126.85990
 7150.00000    9.31790    9.34900    9.34900   11.64980    0.01320    0.01320    2.71940   -0.00490    -999.25   -0.00550   85.83820   51.09800   51.09800   21.07270   22.11590   21.07270   85.83820  100.22400  167.11240  100.22400    0.01480    -999.25    0.01480    2.71940  -94.95940  -46.48820  167.11240
 7200.00000    9.30370    9.22980    9.22980    9.65460    0.00670    0.00670    2.71510   -0.00900    -999.25   -0.00300  103.64610   50.18830   50.18830   19.73590   18.89460   19.73590  103.64610  115.23310  165.49750  115.23310    0.01200    -999.25    0.01200    2.71510  -89.73480  -41.19460  165.49750
 7250.00000    9.21390    9.21750    9.21750   11.46300    0.00920    0.00920    2.72840   -0.01540    -999.25   -0.01080   87.23720   52.37790   52.37790   28.76780   29.65210   28.76780   87.23720  100.42840  115.56770  100.42840    0.02510    -999.25    0.02510    2.72840  -69.36130  -20.75260  115.56770
 7300.00000    9.27250    9.26710    9.26710   10.03020    0.00640    0.00640    2.73890   -0.02460    -999.25   -0.01690   99.69910   52.47910   52.47910   31.77680   32.02630   31.77680   99.69910  116.98740  147.82160  116.98740    0.02080    -999.25    0.02080    2.73890  -67.64590  -18.96870  147.82160
 7350.00000    9.16030    9.36000    9.36000   15.79210   -0.00530   -0.00530    2.69500    0.00840    -999.25    0.00880   63.33220   53.84480   53.84480   42.65010   40.52790   42.65010   63.33220   73.88330   93.12900   73.88330    0.03160    -999.25    0.03160    2.69500  -65.02860  -16.28240   93.12900
 7400.00000    9.35180    9.50090    9.50090   12.08440    0.02840    0.02840    2.63370    0.04060    -999.25    0.04460   82.75150   68.61150   68.61150  134.14110  127.07420  134.14110   82.75150  117.10310  192.00360  117.10310    0.14950    -999.25    0.14950    2.63370  -52.07320   -3.25380  192.00360
 7450.00000    9.05440    9.21740    9.21740   12.32390    0.00980    0.00980    2.35790    0.21120    -999.25    0.20590   81.45900   82.95530   82.95530    -999.25  300.38240    -999.25   81.45900  111.04540  215.44140  111.04540    0.26320    -999.25    0.26320    2.35790  -78.82100  -30.18310  215.44140
 7500.00000    9.89370    9.47490    9.47490    7.10100    0.00650    0.00650    2.65970    0.03570    -999.25    0.02940  140.82490   50.32030   50.32030   16.29950   17.02900   16.29950  140.82490  179.84680  331.01840  179.84680    0.00570    -999.25    0.00570    2.65970 -156.49870 -108.03770  331.01840
 7550.00000   10.70130    9.85180    9.85180    3.63480    0.25960    0.25960    2.66820    0.03110    -999.25    0.02440  275.11760   49.49650   49.49650   21.03190   20.11080   21.03190  275.11760  380.18850  592.90880  380.18850    0.00130    -999.25    0.00130    2.66820 -134.48250  -86.20330  592.90880
 7600.00000   11.04970    9.86330    9.86330    4.66680    0.23870    0.23870    2.68680    0.00640    -999.25    0.01350  214.37890   48.70600   48.70600   12.85440   14.70600   12.85440  214.37890  283.71510  373.86130  283.71510    0.00290    -999.25    0.00290    2.68680 -152.00190 -103.90430  373.86130
 7650.00000   11.70700    9.78820    9.78820    5.16680    0.18140    0.18140    2.56460    0.09010    -999.25    0.08500  193.54470   48.46450   48.46450   15.04960   14.40060   15.04960  193.54470  298.16920  273.25380  298.16920    0.00570    -999.25    0.00570    2.56460 -160.08070 -112.16000  273.25380
 7700.00000   12.71630    9.98450    9.98450    2.51190    0.22800    0.22800    2.43020    0.14800    -999.25    0.16370  398.62290   50.42930   50.42930   17.44610   17.71250   17.44610  398.62290  366.92150  490.14210  366.92150    0.00630    -999.25    0.00630    2.43020 -177.82840 -130.08910  490.14210
 7750.00000   10.60260    9.57790    9.57790    7.49700    0.15500    0.15500    2.61450    0.06670    -999.25    0.05580  133.38670   47.90520   47.90520   16.84810   17.51840   16.84810  133.38670  198.10990  236.49230  198.10990    0.00910    -999.25    0.00910    2.61450 -160.58630 -113.02400  236.49230
 7800.00000    9.09090    9.08530    9.08530   16.34490    0.01430    0.01430    2.73080   -0.02500    -999.25   -0.01220   61.18120   48.61170   48.61170   10.53650    9.29500   10.53650   61.18120   74.57160  154.05020   74.57160    0.01290    -999.25    0.01290    2.73080 -160.71360 -113.33300  154.05020
 7850.00000   10.68330    9.52510    9.52510    7.57370    0.19080    0.19080    2.66680    0.01900    -999.25    0.02530  132.14780   48.84540   48.84540   15.65080   13.30410   15.65080  132.14780  152.03350  161.12450  152.03350    0.00410    -999.25    0.00410    2.66680 -157.64010 -110.44100  161.12450
 7900.00000   12.22670    9.76820    9.76820    6.11530    0.21330    0.21330    2.57360    0.07020    -999.25    0.07980  163.52410   49.05190   49.05190   15.28960   16.76230   15.28960  163.52410  186.82900  222.24380  186.82900    0.00920    -999.25    0.00920    2.57360 -157.79360 -110.77140  222.24380
 7950.00000   11.48880    9.76640    9.76640    7.07010    0.24200    0.24200    2.60270    0.06150    -999.25    0.06280  141.44930   50.20330   50.20330   16.24450   15.64800   16.24450  141.44930  156.06110  193.48080  156.06110    0.00220    -999.25    0.00220    2.60270 -159.28760 -112.44690  193.48080
 8000.00000   12.02340    9.78020    9.78020    7.06820    0.18570    0.18570    2.53520    0.09550    -999.25    0.10220  141.47790   50.54670   50.54670   16.44560   18.63290   16.44560  141.47790  134.34890  161.71520  134.34890    0.01280    -999.25    0.01280    2.53520 -162.11490 -115.45120  161.71520
 8050.00000    9.44120    9.44530    9.44530   20.61000    0.03130    0.03130    2.70850    0.01170    -999.25    0.00090   48.52020   50.52680   50.52680   16.33140   16.01830   16.33140   48.52020   59.15520  183.95300   59.15520    0.02010    -999.25    0.02010    2.70850 -189.53100 -143.04910  183.95300
