~Version ---------------------------------------------------
VERS.      2.0 : CWLS log ASCII Standard -VERSION 2.0
WRAP.       NO : One line per depth step
CREA. 01/05/18 : LAS Creation Date
~Well ------------------------------------------------------
STRT.FT                          300.0 : START DEPTH
STOP.FT                         9300.0 : STOP DEPTH
STEP.FT                       50.00000 : STEP LENGTH
NULL.                          -999.25 : NULL VALUE
COMP.     PAN AMERICAN PETROLEUM CORP. : COMPANY
WELL. PAN AM A-1 HOPE CREEK 6-36-62-13 : WELL
FLD .                                  : FIELD
LOC .                                  : LOCATION
CTRY.                           CANADA : COUNTRY
SRVC.                     Schlumberger : SERVICE COMPANY
DATE.                      21-Feb-1958 : LOGDATE
PROV.                          Alberta : PROVINCE
UWI .                 100063606213W500 : UNIQUE WELL ID
SLAT.WGS84                    54.40496 : SURFACE LATITUDE
SLON.WGS84                   -115.8159 : SURFACE LONGITUDE
~Curve Information -----------------------------------------
DEPT  .FT     : Depth Curve
CALMED.IN     : CALIPER FROM MLL
CALWS .IN     : CALIPER [SPL. MCALED<6136'>CALMED]
CILDED.MMHO   : CONDUCTIVITY FROM RESISTIVITY IEL LOG
CONDWS.MMHO   : CONDUCTIVITY [1000/DRESWS]
DRESWS.OHMM   : DEEP RESISTIVITY [SPL. ILDED/LNED]
GRED  .UR/HR  : GAMMA RAY FROM CBL LOG [DAJ. TO RESISTIVITY]
GRWS  .GAPI   : GAMMA RAY [GRED*10.4]
ILDED .OHMM   : DEEP INDUCTION FROM RESISTIVITY LOG
LL7ED .OHMM   : LATEROLOG 7 FROM RESISTIVITY LL LOG
LNED  .OHMM   : LONG NORMAL RESISTIVITY FROM EL
LT18ED.OHMM   : LATERAL 18' FROM EL
MCALED.IN     : MLT CALIPER FROM CALIPER LOG
MLLED .OHMM   : MICRO FOCUSED LATEROLOG FROM MLL
SN1ED .OHMM   : SHORT NORMAL FROM RESISTIVITY IEL
SNED  .OHMM   : SHORT NORMAL 18" FROM RESISTIVITY LOG
SPR1ED.MV     : SPONTANEOUS POTENTIAL FROM RESISTIVITY
SPRED .MV     : SPONTANEOUS POTENTIAL FROM EL LOG
SPWS  .MV     : SPONTANEOUS POTENTIAL [BASELINE 0 MV, SPRED]
SRESWS.OHMM   : SHALLOW RESISTIVITY [SNED]
~Params ----------------------------------------------------
LMF .                     KB : LOG MEASURED FROM
DMF .                     KB : DRILLING MEASURED FROM
EKB .FT                 3030 : KELLY BUSHING
DATE.               02/21/58 : RUN DATE
RUN .                      2 : RUN NUMBER
DD  .FT                 9350 : DEPTH DRILLER
DL  .FT                 9344 : DEPTH LOGGER
BLI .FT                 9343 : BOTTOM LOG INTERVAL
TLI .FT                 6108 : TOP LOG INTERVAL
BS  .IN                    9 : BIT SIZE
BSD .FT                 9350 : BIT SIZE AT DEPTH
DFT .                    GEL : DRILLING FLUID TYPE
DFD .                    9.9 : DRILLING FLUID DENSITY
DFV .                    102 : DRILLING FLUID VISCOSITY
DFPH.                    9.5 : DRILLING FLUID PH
DFL .                    5.1 : DRILLING FLUID LOSS
RMS .OHMM                3.1 : RESISTIVITY MUD SAMPLE
MST .DEGF                 60 : MUD SAMPLE TEMPERATURE
RMF .OHMM                1.8 : RESISTIVITY MUD FILTRATE SAMPLE
MFST.DEGF                 70 : MUD FILTRATE SAMPLE TEMPERATURE
RMC .OHMM                2.7 : RESISTIVITY MUD CAKE
MCST.DEGF                 71 : MUD CAKE SAMPLE TEMPERATURE
RMB .OHMM                1.1 : RESISTIVITY MUD AT BHT
TCS .HRS                 6.5 : TIME CIRCULATED STOPPED
LUN .                   1785 : LOGGING UNIT NUMBER
ENGI.                LAVERTY : RECORDING ENGINEER
WITN.                JACKSON : WITNESSED BY
CLNT.                A2DTECH : CLIENT CODE
ORIG.            2" 5" PRINT : ORIGIN OF DATA
UWI .       100063606213W500 : UNIQUE WELL ID
DICO. A2D Technologies, Inc. : DIGITIZING COMPANY
~Other -----------------------------------------------------
ALL CURVES APPEAR ON DEPTH ACCEPTED CBL LOG. MERGED LNED TO ILDED AROUND:5727'-5792' 5981'-5993', 6608'-7339', 8756'-8854', 9075'-9296'.
~ASCII -----------------------------------------------------
# ...
 2150.00000    -999.25    8.47000  126.17130  126.10340    7.93000    4.98510   51.84500    7.93000    -999.25   12.17560    6.66380    8.47000    -999.25    9.22740   10.71840 -104.24790  -85.21030  -22.75770   10.71840
 2200.00000    -999.25   12.42010  267.15900  252.11780    3.96640    6.31310   65.65620    3.96640    -999.25    5.42900    7.09040   12.42010    -999.25    4.61120    4.37570  -91.88690  -66.94910   -4.59280    4.37570
 2250.00000    -999.25    9.39430  151.03180  149.61770    6.68370    5.18150   53.88760    6.68370    -999.25    6.32070    8.40290    9.39430    -999.25    7.58480    7.58140  -97.61320  -71.89040   -9.63030    7.58140
 2300.00000    -999.25   10.81640  279.76470  279.50140    3.57780    4.96760   51.66300    3.57780    -999.25    5.14290    5.74280   10.81640    -999.25    4.13190    4.40790  -90.77040  -65.63700   -3.47310    4.40790
 2350.00000    -999.25    8.53100   59.53040   57.32530   17.44430    2.95010   30.68100   17.44430    -999.25   11.72210   26.83680    8.53100    -999.25   18.90730   21.81860 -100.40540  -81.54570  -19.47800   21.81860
 2400.00000    -999.25    8.34250  141.79180  141.63500    7.06040    4.91310   51.09620    7.06040    -999.25   10.23720   10.79670    8.34250    -999.25    8.56780    9.31180 -100.50090  -84.41310  -22.44160    9.31180
 2450.00000    -999.25   11.42080  317.02370  299.61650    3.33760    4.93550   51.32920    3.33760    -999.25    5.43830    5.08950   11.42080    -999.25    4.11100    4.06540  -89.77460  -64.78170   -2.90640    4.06540
 2500.00000    -999.25   10.23730  267.02650  267.37970    3.74000    6.16350   64.10040    3.74000    -999.25    4.74870    5.66970   10.23730    -999.25    4.26990    4.38990  -89.83400  -65.40470   -3.62570    4.38990
 2550.00000    -999.25   10.24030  255.92660  257.52620    3.88310    6.25570   65.05930    3.88310    -999.25    5.04630    7.56100   10.24030    -999.25    4.62220    4.43890  -89.83720  -65.18260   -3.49980    4.43890
 2600.00000    -999.25   10.01150  288.80370  288.23430    3.46940    5.43680   56.54270    3.46940    -999.25    4.80840    8.85730   10.01150    -999.25    4.52920    4.05760  -89.31010  -64.68150   -3.09490    4.05760
 2650.00000    -999.25    9.18470  277.37680  291.28190    3.43310    5.16390   53.70460    3.43310    -999.25    5.20000    5.80560    9.18470    -999.25    4.51250    4.50100  -89.88600  -65.44440   -3.95400    4.50100
 2700.00000    -999.25    8.52040  105.62120  102.38660    9.76690    4.26690   44.37580    9.76690    -999.25   11.12390    2.17660    8.52040    -999.25   11.61970   12.19080 -103.72760  -85.12030  -23.72610   12.19080
 2750.00000    -999.25    8.79910  153.28060  155.01710    6.45090    4.44230   46.19990    6.45090    -999.25    5.88210   10.47470    8.79910    -999.25    7.03300    8.41670  -93.51770  -70.76490   -9.46690    8.41670
 2800.00000    -999.25   12.17540  296.84410  277.57730    3.60260    5.27420   54.85170    3.60260    -999.25    7.16190    4.68620   12.17540    -999.25    5.09500    4.82120  -90.40460  -65.66050   -4.45880    4.82120
 2850.00000    -999.25   10.28640  289.93660  292.39770    3.42000    4.72640   49.15460    3.42000    -999.25    5.03660    5.27290   10.28640    -999.25    4.14310    4.13770  -90.66370  -65.04340   -3.93790    4.13770
 2900.00000    -999.25   13.79600  326.23670  300.22820    3.33080    6.02510   62.66100    3.33080    -999.25    4.64420    9.90910   13.79600    -999.25    4.68050    4.14830  -90.64980  -64.47650   -3.46720    4.14830
 2950.00000    -999.25    9.35240  301.54790  303.61910    3.29360    5.75820   59.88530    3.29360    -999.25    5.75720    7.05000    9.35240    -999.25    4.44250    4.24620  -91.88390  -65.63710   -4.72400    4.24620
 3000.00000    -999.25    8.70940  203.30990  195.09150    5.12580    5.30400   55.16160    5.12580    -999.25    6.67010    5.85280    8.70940    -999.25    5.84120    5.84740  -92.05550  -67.31270   -6.49580    5.84740
 3050.00000    -999.25    9.66930  334.30550  334.36990    2.99070    6.39410   66.49860    2.99070    -999.25    4.28160    4.51050    9.66930    -999.25    3.68930    3.67490  -90.79080  -65.14940   -4.42870    3.67490
 3100.00000    -999.25    9.92650  265.65850  265.75250    3.76290    6.59140   68.55060    3.76290    -999.25    5.10670    9.04550    9.92650    -999.25    4.75250    4.69060  -91.37680  -65.10870   -4.48430    4.69060
 3150.00000    -999.25    9.61060  221.05890  217.14580    4.60520    7.92480   82.41790    4.60520    -999.25    7.63150    5.71520    9.61060    -999.25    6.01140    6.43160  -94.45690  -66.90490   -6.37670    6.43160
 3200.00000    -999.25   12.80360  175.79360  171.41780    5.83370    7.11780   74.02510    5.83370    -999.25    8.13000    8.28520   12.80360    -999.25    6.66710    7.07980  -94.45990  -65.85330   -5.42130    7.07980
 3250.00000    -999.25   12.90140  216.37520  207.27970    4.82440    8.53400   88.75360    4.82440    -999.25    6.61110    8.60510   12.90140    -999.25    5.70010    6.08970  -95.01980  -67.24760   -6.91180    6.08970
 3300.00000    -999.25   11.94630  232.00080  218.56010    4.57540    8.44220   87.79890    4.57540    -999.25    6.55710    7.68670   11.94630    -999.25    5.49400    6.07310  -94.59130  -68.97980   -8.74020    6.07310
 3350.00000    -999.25    9.94950  140.75800  136.93750    7.30260    9.69370  100.81450    7.30260    -999.25    9.92280   10.83370    9.94950    -999.25    9.39960   10.36770  -93.71700  -67.43790   -7.29450   10.36770
 3400.00000    -999.25   12.00090  187.54570  176.15870    5.67670    9.39010   97.65700    5.67670    -999.25    7.87210    8.90670   12.00090    -999.25    7.06820    7.31750  -92.92520  -61.75220   -1.70430    7.31750
 3450.00000    -999.25   12.05130  181.80760  168.79060    5.92450    8.10010   84.24100    5.92450    -999.25    7.64550    9.39250   12.05130    -999.25    6.92930    7.03760  -94.72810  -63.71620   -3.68840    7.03760
 3500.00000    -999.25   14.29290  208.53840  201.93860    4.95200    7.54000   78.41600    4.95200    -999.25    7.02300    9.50180   14.29290    -999.25    6.07670    6.34280  -95.70840  -65.15130   -5.14360    6.34280
 3550.00000    -999.25   13.54040  216.74560  209.12630    4.78180    8.41980   87.56590    4.78180    -999.25    6.59370    7.79280   13.54040    -999.25    6.32570    6.04010  -95.09960  -65.22250   -5.23490    6.04010
 3600.00000    -999.25   14.10620  176.72170  169.68710    5.89320    8.34680   86.80670    5.89320    -999.25    7.64580    9.69930   14.10620    -999.25    7.26310    7.18970  -96.20200  -64.01280   -4.04520    7.18970
 3650.00000    -999.25   14.89690  211.03200  211.07290    4.73770    7.85870   81.73050    4.73770    -999.25    6.76430    8.36940   14.89690    -999.25    5.97110    6.33930  -97.69240  -65.85080   -5.90330    6.33930
 3700.00000    -999.25   14.19350  161.47800  161.55090    6.19000    7.75800   80.68320    6.19000    -999.25    7.73900    8.40050   14.19350    -999.25    7.04990    7.42150  -97.22540  -65.59860   -5.67120    7.42150
 3750.00000    -999.25   14.40200  176.72630  176.66910    5.66030    8.48780   88.27310    5.66030    -999.25    7.38160    9.01660   14.40200    -999.25    6.41770    7.04850  -96.93700  -65.09140   -5.18410    7.04850
 3800.00000    -999.25   14.46530  233.10520  232.41220    4.30270    7.74290   80.52620    4.30270    -999.25    7.16880    6.96620   14.46530    -999.25    5.51540    5.70020  -96.58290  -65.26600   -5.37880    5.70020
 3850.00000    -999.25   13.95570  161.38980  161.91450    6.17610    7.82040   81.33220    6.17610    -999.25    8.50130   11.05570   13.95570    -999.25    7.20260    7.69830  -95.73580  -66.37290   -6.50580    7.69830
 3900.00000    -999.25   13.38210  178.91050  169.98130    5.88300    8.74070   90.90330    5.88300    -999.25    7.88970    9.49660   13.38210    -999.25    6.76810    7.39720  -95.25120  -65.85970   -6.01260    7.39720
 3950.00000    -999.25   12.36120  164.88200  163.22270    6.12660    8.59250   89.36200    6.12660    -999.25    8.09000    8.49090   12.36120    -999.25    7.29730    7.55960  -92.91720  -69.07700   -9.25000    7.55960
