~Version ---------------------------------------------------
VERS. 2.0 : CWLS log ASCII Standard -VERSION 2.0
WRAP. YES : MULTIPLE LINES PER DEPTH STEP
~Well ------------------------------------------------------
STRT.M                                      3000.0 : START DEPTH
STOP.M                                      4800.0 : STOP DEPTH
STEP.M                                    50.00000 : STEP LENGTH
NULL.                                      -999.25 : NULL VALUE
COMP.             AMOCO CANADA PETROLEUM CO., LTD. : COMPANY
WELL.        AMOCO ET AL BLACKSTONE A11-22-44-16W5 : WELL
FLD .                                              : FIELD
LOC .                                              : LOCATION
CTRY.                                       CANADA : COUNTRY
SRVC. ATLAS WIRELINE SERVICES / WESTERN ATLAS INTL : SERVICE COMPANY
DATE.                                  06-Oct-1987 : LOGDATE
PROV.                                      Alberta : PROVINCE
UWI .                             102112204416W500 : UNIQUE WELL ID
SLAT.WGS84                                52.81052 : SURFACE LATITUDE
SLON.WGS84                               -116.2431 : SURFACE LONGITUDE
~Curve Information -----------------------------------------
DEPT   .M                 : 
GR_1   .GAPI 35 310 01 00 : GAMMA RAY
CAL    .MM                : CALIPER FROM CALIPER LOG
CALX   .MM   60 280 01 00 : CALIPER X FROM SONIC
CALY   .MM   00 000 00 01 : CALIPER
GR     .GAPI              : GAMMA RAY FROM SPECTRAL GAMMA RAY LOG
SPR    .MV                : SPONTANEOUS POTENTIAL FROM RESISTIVITY
RD     .OHMM 10 220 10 00 : DEEP RESISTIVITY, MEMORY
RS     .OHMM 10 220 09 00 : RESISTIVITY SHALLOW
TENR   .LB   07 635 01 00 : TENSION FROM RESISTIVITY LOG
GRS    .GAPI              : GAMMA RAY FROM SONIC LOG
AC     .US/M              : ACOUSTIC
CALS   .MM                : CALIPER FROM SONIC LOG
TENS   .LB   15 635 01 00 : TENSION FROM GAMMA RAY-NEUTRON LOG
GRD    .GAPI              : GAMMA RAY FROM DENSITY LOG
CNC_SS .DEC  42 890 03 00 : NEUTRON POROSITY SANDSTONE
CALYD  .MM                : CALIPER FROM X AXIS OF X-Y CALIPER[S]
CALXD  .MM                : CALIPER X FROM DENSITY LOG
PE     .B/E  45 358 01 00 : PHOTOELECTRIC FACTOR
PORZ_LS.DEC               : POROSITY LIMESTONE
CNC_LS .DEC               : COMPENSATED NEUTRON POROSITY
ZDEN   .G/C3 45 350 01 00 : BULK DENSITY
C13    .MM   00 000 00 01 : CALIPER 13
C24    .MM                : CALIPER 24
RILM   .OHMM              : INDUCTION MEDIUM RESISTIVITY
RFOC   .OHMM              : SHALLOW FOCUSED LOG RESISTIVITY
RILD   .OHMM 05 120 00 00 : INDUCTION LOG RES.
PORZ_SS.DEC               : POROSITY SANDSTONE
TEND   .LB                : TENSION FROM DENSITY LOG
ZCOR   .G/C3              : DENSITY CORRECTION
SPR_R  .MV   00 000 00 01 : SELF POTENTIAL
RD_R   .OHMM 00 000 00 01 : DEEP RESISTIVITY, MEMORY
RS_R   .OHMM 00 000 00 01 : RESISTIVITY SHALLOW
TENR_R .LB   00 000 00 01 : TENSION
AC_R   .US/M 00 000 00 01 : ACOUSTIC
TENS_R .KG   00 000 00 01 : TENSION
~Params ----------------------------------------------------
PD  .                         GL : PERMANENT DATUM
EPD .M                    1169.7 : ELEVATION PERMANENT DATUM
LMF .                         KB : LOG MEASURED FROM
DAPD.M                      7.63 : FEET ABOVE PERMANENT DATUM
DMF .                         KB : DRILLING MEASURED FROM
EKB .M                    1177.4 : KELLY BUSHING
EGL .M                   1169.77 : GROUND LEVEL
DATE.                   10/06/87 : RUN DATE
RUN .                          2 : RUN NUMBER
DD  .M                      4820 : DEPTH DRILLER
DL  .M                    4819.6 : DEPTH LOGGER
BLI .M                      4809 : BOTTOM LOG INTERVAL
TLI .M                      4695 : TOP LOG INTERVAL
CS  .MM                    177.8 : CASING SIZE
CBD .M                      4697 : CASING BOTTOM DRILLER
CBL .M                      4695 : CASING BOTTOM LOGGER
BS  .MM                      149 : BIT SIZE
BSD .M                      4820 : BIT SIZE AT DEPTH
DFT .                   GEL CHEM : DRILLING FLUID TYPE
DFD .                       1035 : DRILLING FLUID DENSITY
DFV .                         48 : DRILLING FLUID VISCOSITY
DFPH.                       11.2 : DRILLING FLUID PH
DFL .                        9.4 : DRILLING FLUID LOSS
MSS .                   FLOWLINE : MUD SAMPLE SOURCE
RMS .OHMM                    2.1 : RESISTIVITY MUD SAMPLE
MST .DEGC                     18 : MUD SAMPLE TEMPERATURE
RMF .OHMM                   2.35 : RESISTIVITY MUD FILTRATE SAMPLE
MFST.DEGC                     18 : MUD FILTRATE SAMPLE TEMPERATURE
RMC .OHMM                    2.0 : RESISTIVITY MUD CAKE
MCST.DEGC                     18 : MUD CAKE SAMPLE TEMPERATURE
MFSS.                    MEASURE : MUD FILTRATE SAMPLE SOURCE
MCSS.                    MEASURE : MUD CAKE SAMPLE SOURCE
RMB .OHMM                   0.53 : RESISTIVITY MUD AT BHT
TCS .HRS                     9.5 : TIME CIRCULATED STOPPED
LUN .                    HL 6438 : LOGGING UNIT NUMBER
LUL .                   RED DEER : LOGGING UNIT LOCATION
ENGI.                   FRENETTE : RECORDING ENGINEER
WITN.                    EASTMAN : WITNESSED BY
CLNT.                    A2DTECH : CLIENT CODE
ORIG. 6.5"/100M 16.5"/100M PRINT : ORIGIN OF DATA
UWI .           102112204416W500 : UNIQUE WELL ID
DICO.     A2D Technologies, Inc. : DIGITIZING COMPANY
~Other -----------------------------------------------------
~ASCII -----------------------------------------------------
# ...
 4050.00000   10.65880  282.52010  120.30550  161.42430   17.69140  222.87340    -999.25    -999.25 -110.23210   14.17280  161.67500  246.27350 -108.74650   19.47040    -999.25  333.98180  233.12310    5.79580   -0.00880    0.00300    2.73100    -999.25    -999.25    -999.25    -999.25    -999.25    -999.25 -111.69250    0.00530    -999.25    -999.25    -999.25    -999.25    -999.25    -999.25
 4100.00000    8.59740  286.06290  121.00140  168.21330   15.86240  125.17780    -999.25    -999.25 -110.54690   13.44290  178.39440  261.24130 -109.42380   15.80270    -999.25  322.06050  235.08470    5.37800   -0.03430    0.03850    2.76410    -999.25    -999.25   65.53500  527.95960  133.98460    -999.25  -95.09520    0.00140    -999.25    -999.25    -999.25    -999.25    -999.25    -999.25
 4150.00000    7.23220  298.17510  121.18080  171.69110   12.82820  249.63570    -999.25    -999.25 -114.72810   11.45570  162.78630  285.02910 -116.56000   13.73710    -999.25  353.03370  235.36340    8.03500   -0.00090    0.01400    2.71900    -999.25    -999.25  493.27110    -999.25 1960.50490    -999.25 -133.43110    0.00410    -999.25    -999.25    -999.25    -999.25    -999.25    -999.25
 4200.00000    5.53890  259.43990  124.31820  137.41930   12.30330  218.98920    -999.25    -999.25 -113.40650    9.73160  160.91750  255.31820 -113.91210   12.60270    -999.25  278.86130  242.10400    7.50940    0.00410    0.00100    2.71270    -999.25    -999.25    -999.25 1102.17580  776.43010    -999.25 -116.43850    0.02980    -999.25    -999.25    -999.25    -999.25    -999.25    -999.25
 4250.00000    6.66970  266.40190  125.95720  142.16270   19.80420  158.30080    -999.25    -999.25 -122.15900   16.35630  156.79080  255.32800 -121.39250   20.14610    -999.25  287.22940  245.31320    8.66030   -0.05760    0.01690    2.83260    -999.25    -999.25 2005.85600    -999.25 2009.41700    -999.25 -112.29190    0.04410    -999.25    -999.25    -999.25    -999.25    -999.25    -999.25
 4300.00000   11.44590  338.01500  136.18110  211.39160   23.81360  195.97820    -999.25    -999.25 -120.52760   20.64160  171.44630  305.96520 -116.63900   24.82750    -999.25  401.79100  265.01550    7.60910   -0.01120    0.04880    2.73280    -999.25    -999.25  177.04260  234.53450 1437.87000    -999.25 -107.09980    0.02690    -999.25    -999.25    -999.25    -999.25    -999.25    -999.25
 4350.00000   41.77160  285.70780  125.67100  143.90720   75.08800  217.33320    -999.25    -999.25 -111.86940   65.89870  198.90030  249.84720 -110.25680   75.82360    -999.25  299.56410  244.56590    5.64350   -0.02500    0.10670    2.74560    -999.25    -999.25   63.38290   72.38510   43.46640    -999.25  -44.69600   -0.00240    -999.25    -999.25    -999.25    -999.25    -999.25    -999.25
 4400.00000   16.54930  286.10110  131.71570  171.03190   27.69330  188.83810    -999.25    -999.25 -111.30650   23.70250  171.47280  266.42410 -110.05260   23.16280    -999.25  301.14730  256.17620    6.57510    0.00270    0.00680    2.70750    -999.25    -999.25   87.79920  107.33930   68.73000    -999.25 -157.95750    0.00940    -999.25    -999.25    -999.25    -999.25    -999.25    -999.25
 4450.00000   53.25170  316.82330  149.63970  168.11860   69.29620  211.43250    -999.25    -999.25 -100.29340   65.39320  229.23570  330.79180 -100.95600   70.41960    -999.25  341.69960  293.26380    5.96260    0.00020    0.18080    2.71770    -999.25    -999.25    4.63890    6.21800    4.65760    -999.25 -130.01870    0.03350    -999.25    -999.25    -999.25    -999.25    -999.25    -999.25
 4500.00000   56.08800  301.98030  145.04250  158.00250   73.97160  195.27790    -999.25    -999.25 -112.79540   69.72980  233.30040  309.02030 -111.28870   75.21770    -999.25  320.97080  284.88390    5.21990   -0.00600    0.17890    2.72030    -999.25    -999.25    4.90020    5.87670    4.56500    -999.25 -121.87100    0.01040    -999.25    -999.25    -999.25    -999.25    -999.25    -999.25
 4550.00000   37.86600  291.95460  141.63820  152.95920   59.59790  249.60140    -999.25    -999.25 -110.13510   56.26220  219.24030  294.26540 -108.55630   60.18280    -999.25  309.55070  277.19870    5.62400    0.00260    0.14540    2.71090    -999.25    -999.25    7.26590    8.47030    7.15680    -999.25  -65.28790   -0.00450    -999.25    -999.25    -999.25    -999.25    -999.25    -999.25
 4600.00000   42.50630  273.72810  137.59250  138.38100   62.08870  249.77930    -999.25    -999.25 -111.00340   62.17350  220.21950  274.18280 -111.38450   63.75650    -999.25  280.28810  268.17020    5.91540   -0.00160    0.13430    2.70850    -999.25    -999.25    5.92820    7.35570    5.55870    -999.25 -134.94100   -0.00020    -999.25    -999.25    -999.25    -999.25    -999.25    -999.25
 4650.00000    -999.25  274.11130  126.78580  149.62900   72.25740  205.68000    -999.25    -999.25 -133.03980   71.18780  248.14190  285.18530 -133.60590   76.84510    -999.25  304.60510  246.96280    6.16140    0.03370    0.15160    2.65420    -999.25    -999.25    6.48400    9.66230    6.71900    -999.25  -86.52290    0.00730    -999.25    -999.25    -999.25    -999.25    -999.25    -999.25
 4700.00000    -999.25  156.58360   82.31060   74.23550   57.97720   17.34920   22.46390   77.52960 -123.87970   61.03670  181.66390  157.67350 -118.54240   58.50090    -999.25    -999.25    -999.25    -999.25    -999.25    0.05840    -999.25  160.12050  152.18060    -999.25    -999.25    -999.25    -999.25  -56.04590    -999.25    -999.25    -999.25    -999.25    -999.25    -999.25    -999.25
 4750.00000    -999.25  166.84700   98.41880   71.87670   13.06270  -84.62170 9534.25780 6363.99410 -121.32110   10.02280  157.28680  170.61350 -118.80410   11.78430    -999.25    -999.25    -999.25    -999.25    -999.25    0.04070    -999.25  190.46020  146.54430    -999.25    -999.25    -999.25    -999.25 -122.91730    -999.25 -141.65180 7432.70950 4113.31790 -121.75010  160.91040 -120.90350
 4800.00000    -999.25  182.72100   78.50790  102.19590   17.01710    -999.25 1660.05260  792.88540 -151.71820   17.02660  146.88290  169.21930 -147.92940   19.83610    -999.25    -999.25    -999.25    -999.25    -999.25    0.03050    -999.25  153.23030  182.80550    -999.25    -999.25    -999.25    -999.25 -112.11580    -999.25    -999.25 1549.32030  706.13680 -104.42830  147.40370  -96.00110
