~Version ---------------------------------------------------
VERS.      2.0 : CWLS log ASCII Standard -VERSION 2.0
WRAP.       NO : One line per depth step
CREA. 08/01/17 : LAS Creation Date
~Well ------------------------------------------------------
STRT.FT                           1050.0 : START DEPTH
STOP.FT                           9900.0 : STOP DEPTH
STEP.FT                         50.00000 : STEP LENGTH
NULL.                            -999.25 : NULL VALUE
COMP.                 SKELLY OIL COMPANY : COMPANY
WELL. SKELLY BERTA J1 KAYBOB 12-18-64-17 : WELL
FLD .                                    : FIELD
LOC .                                    : LOCATION
CTRY.                             CANADA : COUNTRY
SRVC.                       Schlumberger : SERVICE COMPANY
DATE.                        11-Feb-1962 : LOGDATE
PROV.                            Alberta : PROVINCE
UWI .                   100121806417W500 : UNIQUE WELL ID
SLAT.WGS84                      54.53987 : SURFACE LATITUDE
SLON.WGS84                     -116.5677 : SURFACE LONGITUDE
~Curve Information -----------------------------------------
DEPT  .FT    : Depth Curve
CALWS .IN    : CALIPER [MCALED]
CILDED.MMHO  : CONDUCTIVITY FROM IEL LOG
CONDWS.MMHO  : CONDUCTIVITY [CILDED]
DRESWS.OHMM  : DEEP RESISTIVITY [1000/CONDWS, IF ILDED <=4 THEN ILDED]
DTED  .US/F  : DELTA-T FROM BCS-GR LOG [ADJ.TO ILDED]
DTWS  .US/F  : COMPRESSIONAL SONIC [DTED]
GRSED .GAPI  : GAMMA RAY FROM BCS-GR LOG [ADJ.TO ILDED]
GRWS  .GAPI  : GAMMA RAY [GRSED]
ILDED .OHMM  : DEEP INDUCTION FROM IEL LOG
MCALED.IN    : MICROLOG CALIPER FROM MICRO-CAL LOG
SNED  .OHMM  : SHORT NORMAL FROM IEL LOG
SPRED .MV    : SPONTANEOUS POTENTIAL FROM IEL LOG
SPWS  .MV    : SPONTANEOUS POTENTIAL [BASELINE 0 MV, SPRED]
SRESWS.OHMM  : SHALLOW RESISTIVITY [SNED]
~Params ----------------------------------------------------
PD  .                     GL : PERMANENT DATUM
EPD .FT                 2627 : ELEVATION PERMANENT DATUM
LMF .                     KB : LOG MEASURED FROM
DAPD.FT                   15 : FEET ABOVE PERMANENT DATUM
EKB .FT                 2643 : KELLY BUSHING
EGL .FT                 2627 : GROUND LEVEL
DATE.               02/11/62 : RUN DATE
RUN .                      1 : RUN NUMBER
DD  .FT                 9931 : DEPTH DRILLER
DL  .FT                 9911 : DEPTH LOGGER
BLI .FT                 9910 : BOTTOM LOG INTERVAL
TLI .FT                 1017 : TOP LOG INTERVAL
CBD .FT                 1018 : CASING BOTTOM DRILLER
CBL .FT                 1017 : CASING BOTTOM LOGGER
BS  .IN                 8.75 : BIT SIZE
BSD .FT                 9931 : BIT SIZE AT DEPTH
DFT .          GEL OIL EMULS : DRILLING FLUID TYPE
DFD .                     10 : DRILLING FLUID DENSITY
DFV .                     92 : DRILLING FLUID VISCOSITY
DFPH.                      9 : DRILLING FLUID PH
DFL .                    5.8 : DRILLING FLUID LOSS
MSS .                   CIRC : MUD SAMPLE SOURCE
RMS .OHMM               2.58 : RESISTIVITY MUD SAMPLE
MST .DEGF                 64 : MUD SAMPLE TEMPERATURE
RMF .OHMM               1.42 : RESISTIVITY MUD FILTRATE SAMPLE
MFST.DEGF                 58 : MUD FILTRATE SAMPLE TEMPERATURE
RMC .OHMM                2.7 : RESISTIVITY MUD CAKE
MCST.DEGF                 55 : MUD CAKE SAMPLE TEMPERATURE
RMB .OHMM                0.9 : RESISTIVITY MUD AT BHT
TCS .HRS                   5 : TIME CIRCULATED STOPPED
LUN .                   1534 : LOGGING UNIT NUMBER
LUL .                    WCT : LOGGING UNIT LOCATION
ENGI.               HATLELID : RECORDING ENGINEER
WITN.                  PIPER : WITNESSED BY
CLNT.                A2DTECH : CLIENT CODE
ORIG.          1" 2.5" PRINT : ORIGIN OF DATA
UWI .       100121806417W500 : UNIQUE WELL ID
DICO. A2D Technologies, Inc. : DIGITIZING COMPANY
~Other -----------------------------------------------------
~ASCII -----------------------------------------------------
# ...
 5950.00000    9.10510  115.51570  115.51570    8.86880   54.32440   54.32440   28.96160   28.96160    8.86880    9.10510   31.51980 -173.14990  -67.12370   31.51980
 6000.00000    8.32460   96.85820   96.85820   11.39900   55.13350   55.13350   31.87690   31.87690   11.39900    8.32460   43.30080 -196.27170  -91.26670   43.30080
 6050.00000    8.90700   70.82520   70.82520   14.82960   53.07950   53.07950   43.60060   43.60060   14.82960    8.90700   39.37660 -160.87370  -56.89000   39.37660
 6100.00000    9.35380   19.60590   19.60590   69.61060   52.61020   52.61020   42.65430   42.65430   69.61060    9.35380   64.55130 -120.12850  -17.17280   64.55130
 6150.00000    9.43520   83.33220   83.33220   13.04820   58.30400   58.30400   73.94800   73.94800   13.04820    9.43520   29.23900 -159.39330  -57.45880   29.23900
 6200.00000    9.62380   10.34630   10.34630  143.24880   51.00640   51.00640   25.30090   25.30090  143.24880    9.62380  118.86500 -133.57860  -32.67210  118.86500
 6250.00000    9.85650   88.21600   88.21600   23.12710   52.60480   52.60480   53.45690   53.45690   23.12710    9.85650   30.33620 -158.46840  -58.58320   30.33620
 6300.00000    9.76730   25.00690   25.00690   48.57390   50.13010   50.13010   21.15160   21.15160   48.57390    9.76730  121.23170 -210.56920 -111.70530  121.23170
 6350.00000    9.64970   32.56160   32.56160   34.63010   49.01600   49.01600   20.52550   20.52550   34.63010    9.64970   92.40130 -226.07170 -128.23580   92.40130
 6400.00000   10.02010   26.23160   26.23160   41.24460   51.03800   51.03800   23.77960   23.77960   41.24460   10.02010   87.78940 -210.66590 -113.85120   87.78940
 6450.00000    9.75220  133.30500  133.30500    7.37390   64.59810   64.59810   84.43830   84.43830    7.37390    9.75220   17.42420 -129.79530  -34.00860   17.42420
 6500.00000    9.86990  148.90980  148.90980    7.29080   61.11930   61.11930   81.54700   81.54700    7.29080    9.86990   11.99000 -126.23830  -31.47290   11.99000
 6550.00000   10.24670  243.28730  243.28730    4.28340   59.94640   59.94640   49.42200   49.42200    4.28340   10.24670    8.79350 -133.92270  -40.17850    8.79350
 6600.00000   10.25780   83.61510   83.61510   11.05610   65.21770   65.21770   69.49390   69.49390   11.05610   10.25780   27.27370 -101.40290   -8.68670   27.27370
 6650.00000   11.39330   10.82520   10.82520  189.10940   49.24290   49.24290   23.11950   23.11950  189.10940   11.39330   75.92480 -119.46330  -27.76840   75.92480
 6700.00000    9.86480   18.78540   18.78540   70.01070   52.62810   52.62810   24.59930   24.59930   70.01070    9.86480   74.57880 -125.60050  -34.93360   74.57880
 6750.00000    9.21220   10.09070   10.09070  180.63870   52.48860   52.48860   32.78570   32.78570  180.63870    9.21220  152.69290 -124.21240  -34.56670  152.69290
 6800.00000    8.97660   20.72360   20.72360   60.03500   56.71160   56.71160   57.11060   57.11060   60.03500    8.97660   62.51110  -94.19660   -5.57220   62.51110
 6850.00000    9.20830   25.66340   25.66340   44.16550   56.25440   56.25440   50.18640   50.18640   44.16550    9.20830   64.59190  -95.08130   -7.32420   64.59190
 6900.00000    9.70880   10.99990   10.99990  125.31560   54.29800   54.29800   37.55900   37.55900  125.31560    9.70880  109.10470 -111.91560  -24.84960  109.10470
 6950.00000    9.06890    9.37510    9.37510  179.45610   58.69280   58.69280   57.78820   57.78820  179.45610    9.06890  123.51000 -103.68690  -17.31650  123.51000
 7000.00000    9.38480   15.25850   15.25850   83.04230   56.46460   56.46460   50.87230   50.87230   83.04230    9.38480   74.07570  -98.24540  -12.56610   74.07570
 7050.00000   10.78500   11.43370   11.43370  123.07310   54.56260   54.56260   30.46400   30.46400  123.07310   10.78500   91.15280 -125.27940  -40.29120   91.15280
 7100.00000   10.51180    9.19120    9.19120  187.25260   53.47230   53.47230   36.96950   36.96950  187.25260   10.51180  136.63290 -122.68660  -38.39410  136.63290
 7150.00000    9.74040    9.03110    9.03110  165.56200   49.67340   49.67340   19.72580   19.72580  165.56200    9.74040  123.98470 -170.48230  -86.88090  123.98470
 7200.00000   10.87910    9.00950    9.00950  232.93330   48.25610   48.25610   24.05340   24.05340  232.93330   10.87910  125.58860 -162.82500  -79.91920  125.58860
 7250.00000   10.18040    9.58740    9.58740  220.59670   49.47530   49.47530   22.59420   22.59420  220.59670   10.18040  121.48120 -179.51820  -97.30350  121.48120
 7300.00000   10.63130    9.70030    9.70030  205.26270   52.18820   52.18820   20.51690   20.51690  205.26270   10.63130  108.53660 -182.03450 -100.51090  108.53660
 7350.00000    9.47600   15.88500   15.88500   79.30970   52.95350   52.95350   20.54320   20.54320   79.30970    9.47600  103.21330 -191.39220 -110.56420  103.21330
 7400.00000   11.49610    9.41030    9.41030  243.13760   53.95270   53.95270   19.58630   19.58630  243.13760   11.49610  106.60140 -194.11040 -113.97350  106.60140
 7450.00000   10.00620   17.84360   17.84360   65.17330   52.83770   52.83770   18.08390   18.08390   65.17330   10.00620   84.41780 -198.65400 -119.21280   84.41780
 7500.00000   10.03050   11.91730   11.91730  105.20390   50.19960   50.19960   19.99980   19.99980  105.20390   10.03050   94.58770 -195.67880 -116.92870   94.58770
 7550.00000   10.61690   16.44640   16.44640   70.92960   52.41980   52.41980   21.41550   21.41550   70.92960   10.61690   81.81950 -193.92030 -115.86130   81.81950
 7600.00000   10.73970    9.65220    9.65220  143.98500   51.08580   51.08580   20.07490   20.07490  143.98500   10.73970  118.05660 -190.15360 -112.79020  118.05660
 7650.00000   10.42640    9.25480    9.25480  249.90260   51.15280   51.15280   22.51340   22.51340  249.90260   10.42640  135.39850 -186.63960 -109.96730  135.39850
 7700.00000   10.52450   12.97720   12.97720  110.04190   52.82650   52.82650   18.32820   18.32820  110.04190   10.52450  101.05590 -201.95110 -125.97450  101.05590
 7750.00000    8.52530   44.50940   44.50940   23.54140   54.08470   54.08470   23.43310   23.43310   23.54140    8.52530   93.93950 -243.94200 -168.65650   93.93950
 7800.00000    8.63000   34.91850   34.91850   31.83200   52.15950   52.15950   18.44220   18.44220   31.83200    8.63000   88.88420 -246.51160 -171.91720   88.88420
 7850.00000    8.41490   22.21710   22.21710   50.20000   51.08730   51.08730   24.13960   24.13960   50.20000    8.41490  122.49250 -209.83550 -135.93670  122.49250
 7900.00000    9.62560   53.49990   53.49990   20.31430   54.96590   54.96590   43.17940   43.17940   20.31430    9.62560   66.85260 -191.29270 -118.08500   66.85260
 7950.00000   10.88550   18.12830   18.12830   72.86310   49.35400   49.35400   34.94890   34.94890   72.86310   10.88550   57.56790 -171.36070  -98.84870   57.56790
 8000.00000   10.52900   54.43650   54.43650   18.51290   50.16040   50.16040   36.30430   36.30430   18.51290   10.52900   31.48610 -156.50960  -84.68870   31.48610
 8050.00000    9.30370   12.18490   12.18490  115.94000   52.16650   52.16650   22.65350   22.65350  115.94000    9.30370  102.00150 -194.47350 -123.34370  102.00150
 8100.00000    9.98210   39.87150   39.87150   27.90470   60.18590   60.18590   70.63070   70.63070   27.90470    9.98210   37.93640  -91.41250  -20.97830   37.93640
 8150.00000   10.51240    8.97290    8.97290  203.28770   51.92300   51.92300   26.07540   26.07540  203.28770   10.51240   88.85750 -116.18780  -46.44470   88.85750
 8200.00000   10.31550   39.56820   39.56820   27.86100   52.81790   52.81790   32.46140   32.46140   27.86100   10.31550   33.73000 -111.34880  -42.30140   33.73000
 8250.00000   10.50040   54.41950   54.41950   19.90360   61.93320   61.93320   64.80400   64.80400   19.90360   10.50040   27.07750  -81.44190  -13.08560   27.07750
 8300.00000    9.41210   50.85040   50.85040   21.14570   64.00470   64.00470   70.86840   70.86840   21.14570    9.41210   31.05300  -81.86190  -14.19670   31.05300
 8350.00000    9.21620   32.84630   32.84630   34.34220   58.28880   58.28880   46.36140   46.36140   34.34220    9.21620   40.46550  -90.05250  -23.08290   40.46550
