~Version ---------------------------------------------------
VERS.      2.0 : CWLS log ASCII Standard -VERSION 2.0
WRAP.       NO : One line per depth step
CREA. 12/13/17 : LAS Creation Date
~Well ------------------------------------------------------
STRT.FT                         1100.0 : START DEPTH
STOP.FT                        16100.0 : STOP DEPTH
STEP.FT                       50.00000 : STEP LENGTH
NULL.                          -999.25 : NULL VALUE
COMP. AQUITAINE COMPANY OF CANADA LTD. : COMPANY
WELL. AQUIT ET AL OWL RIVER 1-24-45-16 : WELL
FLD .                                  : FIELD
LOC .                                  : LOCATION
CTRY.                           CANADA : COUNTRY
SRVC.                     Schlumberger : SERVICE COMPANY
DATE.                      22-May-1976 : LOGDATE
PROV.                          Alberta : PROVINCE
UWI .                 100012404516W502 : UNIQUE WELL ID
SLAT.WGS84                    52.88968 : SURFACE LATITUDE
SLON.WGS84                    -116.182 : SURFACE LONGITUDE
~Curve Information -----------------------------------------
DEPT    .FT    : Depth Curve
CALDED  .IN    : CALIPER FROM DENSITY LOG [ADJ. TO DLL LOG]
CALSED  .IN    : CALIPER FROM SONIC LOG
CALWS   .IN    : CALIPER [CALSED]
CONDWS  .MMHO  : CONDUCTIVITY [1000/DRESWS]
DCORWS  .G/C3  : DENSITY CORRECTION [DRHOED]
DENWS   .G/C3  : FORMATION BULK DENSITY [CALC. FROM DPOLSWS, M=2.71, F=1.00 ASSUMED]
DPHILSED.V/V   : DENSITY POROSITY LIMESTONE [M=2.71, F=1.00 ASSUMED] FROM DENSITY LOG
DPOLSWS .V/V   : DENSITY POROSITY LIMESTONE [DPHILSED]
DRESWS  .OHMM  : DEEP RESISTIVITY [ILDED SPL. TO LLDED @ 13065']
DRHOED  .G/C3  : DENSITY CORRECTION FROM DENSITY LOG [ADJ. TO DPHILSED/ DLL LOG]
DTED    .US/F  : DELTA TIME FROM SONIC LOG
DTWS    .US/F  : COMPRESSIONAL SONIC [DTED]
GRDED   .GAPI  : GAMMA RAY FROM DENSITY LOG [ADJ. TO DLL LOG]
GRSED   .GAPI  : GAMMA RAY FROM SONIC LOG
GRWS    .GAPI  : GAMMA RAY [GRSED]
ILDED   .OHMM  : DEEP INDUCTION RESISTIVITY FROM DIL LOG
ILMED   .OHMM  : DEEP RESISTIVITY [ILDED SPL. TO LLDED @ 13065']
LL8ED   .OHMM  : LATEROLOG 8  RESISTIVITY FROM DIL LOG
LLDED   .OHMM  : DEEP LATEROLOG RESISTIVITY  FROM DLL LOG
LLSED   .OHMM  : SHALLOW  LATEROLOG RESISTIVITY FROM DLL LOG
MRESWS  .OHMM  : MEDIUM RESISTIVITY [ILMED]
NPHILSED.V/V   : NEUTRON POROSITY LIMESTONE FROM DENSITY LOG [ADJ. TO DLL LOG]
NPOLSWS .V/V   : NEUTRON POROSITY LIMESTONE [NPHILSED]
RHOBED  .G/C3  : BULK DENSITY FROM DENSITY LOG [ADJ. TO DPHILSED/DLL LOG]
SPED    .MV    : SPONTANEOUS POTENTIAL [SPR1ED SPL. TO SPRED @ 12893']
SPR1ED  .MV    : SPONTANEOUS POTENTIAL FROM DIL LOG
SPRED   .MV    : SPONTANEOUS POTENTIAL FROM DLL LOG
SPWS    .MV    : SPONTANEOUS POTENTIAL [BASELINE 0 MV, SPED]
SRESWS  .OHMM  : SHALLOW RESISTIVITY [LL8ED SPL. TO LLSED @ 12900']
~Params ----------------------------------------------------
PD  .                     GL : PERMANENT DATUM
EPD .FT                 4186 : ELEVATION PERMANENT DATUM
LMF .                     KB : LOG MEASURED FROM
DAPD.FT                   20 : FEET ABOVE PERMANENT DATUM
EKB .FT                 4206 : KELLY BUSHING
EGL .FT                 4186 : GROUND LEVEL
DATE.               22/05/76 : RUN DATE
RUN .                      4 : RUN NUMBER
DD  .FT                16151 : DEPTH DRILLER
DL  .FT                16146 : DEPTH LOGGER
BLI .FT                16144 : BOTTOM LOG INTERVAL
TLI .FT                15300 : TOP LOG INTERVAL
CBD .FT                12900 : CASING BOTTOM DRILLER
CBL .FT                12900 : CASING BOTTOM LOGGER
BS  .IN                    6 : BIT SIZE
BSD .FT                16151 : BIT SIZE AT DEPTH
DFT .                    KCL : DRILLING FLUID TYPE
DFD .                      9 : DRILLING FLUID DENSITY
DFV .                    114 : DRILLING FLUID VISCOSITY
DFPH.                     11 : DRILLING FLUID PH
DFL .                     15 : DRILLING FLUID LOSS
TCS .HRS                11.5 : TIME CIRCULATED STOPPED
LUN .              OSU C 264 : LOGGING UNIT NUMBER
LUL .                     RD : LOGGING UNIT LOCATION
ENGI.               FIGGURES : RECORDING ENGINEER
WITN.        LABADI CZERNIAK : WITNESSED BY
CLNT.                A2DTECH : CLIENT CODE
ORIG.            2" 5" PRINT : ORIGIN OF DATA
UWI .       100012404516W502 : UNIQUE WELL ID
DICO. A2D Technologies, Inc. : DIGITIZING COMPANY
~Other -----------------------------------------------------
DIL-DLL-FDC-CNL-LCS LOG RUN
RHOB & DRHO CURVES VERIFIED FROM 2" SCALE SECTION.
LCS- RUN4: PULLED TIGHT @ 12910' & 15140'
~ASCII -----------------------------------------------------
# ...
 9850.00000    -999.25   13.94350   13.94350   25.74630    -999.25    -999.25    -999.25    -999.25   38.84050    -999.25   96.09410   96.09410    -999.25   88.62530   88.62530   38.84050  356.47540   34.68180    -999.25    -999.25  356.47540    -999.25    -999.25    -999.25  -91.78470 -121.78470    -999.25  -30.84530   34.68180
 9900.00000    -999.25   13.66010   13.66010   98.10250    -999.25    -999.25    -999.25    -999.25   10.20030    -999.25   39.95500   39.95500    -999.25   52.28390   52.28390   10.20030    4.52500    5.25460    -999.25    -999.25    4.52500    -999.25    -999.25    -999.25  -63.09690  -93.09690    -999.25  -12.47540    5.25460
 9950.00000    -999.25    9.38970    9.38970  139.39810    -999.25    -999.25    -999.25    -999.25    7.17370    -999.25  132.30770  132.30770    -999.25   94.96460   94.96460    7.17370    7.14530    6.83010    -999.25    -999.25    7.14530    -999.25    -999.25    -999.25  -45.61810  -75.61810    -999.25   -5.41820    6.83010
 10000.00000    -999.25   10.01160   10.01160  153.53670    -999.25    -999.25    -999.25    -999.25    6.51310    -999.25   86.30630   86.30630    -999.25  107.38270  107.38270    6.51310    4.36190    5.70350    -999.25    -999.25    4.36190    -999.25    -999.25    -999.25  -37.04330  -67.04330    -999.25   -7.21310    5.70350
 10050.00000    -999.25   10.28540   10.28540  185.23630    -999.25    -999.25    -999.25    -999.25    5.39870    -999.25   85.00240   85.00240    -999.25   83.08150   83.08150    5.39870    4.60720    5.56340    -999.25    -999.25    4.60720    -999.25    -999.25    -999.25  -31.90190  -61.90190    -999.25   -8.16000    5.56340
 10100.00000    -999.25    9.38860    9.38860  144.49820    -999.25    -999.25    -999.25    -999.25    6.92050    -999.25   96.50790   96.50790    -999.25  108.90870  108.90870    6.92050    6.61610    7.41460    -999.25    -999.25    6.61610    -999.25    -999.25    -999.25  -29.24760  -59.24760    -999.25   -8.66100    7.41460
 10150.00000    -999.25    9.34010    9.34010  142.54970    -999.25    -999.25    -999.25    -999.25    7.01560    -999.25   93.71220   93.71220    -999.25   99.85260   99.85260    7.01560    7.21070    7.93300    -999.25    -999.25    7.21070    -999.25    -999.25    -999.25  -22.66980  -52.66980    -999.25   -5.20710    7.93300
 10200.00000    -999.25    8.91680    8.91680  266.47480    -999.25    -999.25    -999.25    -999.25    3.75270    -999.25   90.20050   90.20050    -999.25   91.64630   91.64630    3.75270    3.12750    4.29290    -999.25    -999.25    3.12750    -999.25    -999.25    -999.25  -17.37600  -47.37600    -999.25   -3.06860    4.29290
 10250.00000    -999.25    9.54190    9.54190  219.47150    -999.25    -999.25    -999.25    -999.25    4.55640    -999.25   94.84760   94.84760    -999.25  105.21560  105.21560    4.55640    4.65260    6.00810    -999.25    -999.25    4.65260    -999.25    -999.25    -999.25  -17.10610  -47.10610    -999.25   -5.93830    6.00810
 10300.00000    -999.25    9.43810    9.43810  224.64100    -999.25    -999.25    -999.25    -999.25    4.45270    -999.25   97.04430   97.04430    -999.25  136.38880  136.38880    4.45270    4.97780    5.84800    -999.25    -999.25    4.97780    -999.25    -999.25    -999.25  -15.90460  -45.90460    -999.25   -7.44710    5.84800
 10350.00000    -999.25    8.95330    8.95330  133.56310    -999.25    -999.25    -999.25    -999.25    7.48710    -999.25   76.43710   76.43710    -999.25  119.00090  119.00090    7.48710    8.32380   10.50750    -999.25    -999.25    8.32380    -999.25    -999.25    -999.25  -14.49130  -44.49130    -999.25   -6.67010   10.50750
 10400.00000    -999.25    9.17460    9.17460  291.03970    -999.25    -999.25    -999.25    -999.25    3.43660    -999.25   87.01880   87.01880    -999.25   90.32680   90.32680    3.43660    3.98370    4.66350    -999.25    -999.25    3.98370    -999.25    -999.25    -999.25  -13.72280  -43.72280    -999.25   -6.53140    4.66350
 10450.00000    -999.25    8.86450    8.86450  236.93310    -999.25    -999.25    -999.25    -999.25    4.22060    -999.25   84.54990   84.54990    -999.25   93.15480   93.15480    4.22060    4.77900    5.66780    -999.25    -999.25    4.77900    -999.25    -999.25    -999.25  -16.68700  -46.68700    -999.25  -10.13190    5.66780
 10500.00000    -999.25    9.34500    9.34500  225.02250    -999.25    -999.25    -999.25    -999.25    4.44400    -999.25   81.88980   81.88980    -999.25   71.47050   71.47050    4.44400    6.11490    6.99910    -999.25    -999.25    6.11490    -999.25    -999.25    -999.25  -11.89710  -41.89710    -999.25   -5.97510    6.99910
 10550.00000    -999.25    8.95900    8.95900  160.03730    -999.25    -999.25    -999.25    -999.25    6.25440    -999.25   76.02710   76.02710    -999.25   75.21560   75.21560    6.25440    6.64500    7.64860    -999.25    -999.25    6.64500    -999.25    -999.25    -999.25  -13.50360  -43.50360    -999.25   -7.91300    7.64860
 10600.00000    -999.25    8.82270    8.82270  111.49640    -999.25    -999.25    -999.25    -999.25    8.96890    -999.25   74.49900   74.49900    -999.25   70.95860   70.95860    8.96890    9.93440   10.23650    -999.25    -999.25    9.93440    -999.25    -999.25    -999.25  -11.93820  -41.93820    -999.25   -6.54580   10.23650
 10650.00000    -999.25    9.26510    9.26510   86.09250    -999.25    -999.25    -999.25    -999.25   11.61750    -999.25  114.27490  114.27490    -999.25   67.10380   67.10380   11.61750   12.29630   13.18970    -999.25    -999.25   12.29630    -999.25    -999.25    -999.25  -12.00550  -42.00550    -999.25   -6.80940   13.18970
 10700.00000    -999.25    8.86930    8.86930   73.52450    -999.25    -999.25    -999.25    -999.25   13.60090    -999.25   67.72320   67.72320    -999.25   45.80630   45.80630   13.60090   14.12650   16.57340    -999.25    -999.25   14.12650    -999.25    -999.25    -999.25  -13.79890  -43.79890    -999.25   -8.80110   16.57340
 10750.00000    -999.25    8.84980    8.84980  119.85090    -999.25    -999.25    -999.25    -999.25    8.34370    -999.25   70.93900   70.93900    -999.25   72.70230   72.70230    8.34370   10.30480   15.07120    -999.25    -999.25   10.30480    -999.25    -999.25    -999.25  -12.85340  -42.85340    -999.25   -8.05290   15.07120
 10800.00000    -999.25    8.72800    8.72800   58.01390    -999.25    -999.25    -999.25    -999.25   17.23770    -999.25   64.58210   64.58210    -999.25   44.63150   44.63150   17.23770   19.33430   20.07610    -999.25    -999.25   19.33430    -999.25    -999.25    -999.25  -15.21280  -45.21280    -999.25  -10.60860   20.07610
 10850.00000    -999.25    9.21110    9.21110   61.73180    -999.25    -999.25    -999.25    -999.25   16.19910    -999.25   79.52630   79.52630    -999.25   76.65840   76.65840   16.19910   18.26850   16.77620    -999.25    -999.25   18.26850    -999.25    -999.25    -999.25  -13.60500  -43.60500    -999.25   -9.19910   16.77620
 10900.00000    -999.25    8.59270    8.59270  113.52650    -999.25    -999.25    -999.25    -999.25    8.80860    -999.25   70.85440   70.85440    -999.25   73.86310   73.86310    8.80860   10.90420   12.67740    -999.25    -999.25   10.90420    -999.25    -999.25    -999.25  -16.59660  -46.59660    -999.25  -12.38700   12.67740
 10950.00000    -999.25    8.74860    8.74860   90.98930    -999.25    -999.25    -999.25    -999.25   10.99030    -999.25   74.71090   74.71090    -999.25   75.94880   75.94880   10.99030   11.98800   15.35440    -999.25    -999.25   11.98800    -999.25    -999.25    -999.25  -18.92880  -48.92880    -999.25  -14.91750   15.35440
 11000.00000    -999.25    8.64270    8.64270   49.39000    -999.25    -999.25    -999.25    -999.25   20.24700    -999.25   70.43960   70.43960    -999.25   26.05870   26.05870   20.24700   38.76040   41.68180    -999.25    -999.25   38.76040    -999.25    -999.25    -999.25  -22.00550  -52.00550    -999.25  -18.19150   41.68180
 11050.00000    -999.25    8.58890    8.58890  111.34200    -999.25    -999.25    -999.25    -999.25    8.98900    -999.25   84.84550   84.84550    -999.25   65.44440   65.44440    8.98900    7.71420   10.89940    -999.25    -999.25    7.71420    -999.25    -999.25    -999.25  -22.56630  -52.56630    -999.25  -18.94860   10.89940
