~Version ---------------------------------------------------
VERS.      2.0 : CWLS log ASCII Standard -VERSION 2.0
WRAP.       NO : One line per depth step
CREA. 11/03/17 : LAS Creation Date
~Well ------------------------------------------------------
STRT.FT                         1550.0 : START DEPTH
STOP.FT                        12000.0 : STOP DEPTH
STEP.FT                       50.00000 : STEP LENGTH
NULL.                          -999.25 : NULL VALUE
COMP. AMOCO CANADA PETROLEUM CO., LTD. : COMPANY
WELL.  AMOCO C-2 WASKAHIGAN 7-22-63-24 : WELL
FLD .                       WASKAHIGAN : FIELD
LOC .                                  : LOCATION
CTRY.                           CANADA : COUNTRY
SRVC.                          Unknown : SERVICE COMPANY
DATE.                      14-Dec-1976 : LOGDATE
PROV.                          Alberta : PROVINCE
UWI .                 100072206324W500 : UNIQUE WELL ID
SLAT.WGS84                    54.46349 : SURFACE LATITUDE
SLON.WGS84                   -117.5411 : SURFACE LONGITUDE
~Curve Information -----------------------------------------
DEPT    .FT    : Depth Curve
CALDED  .IN    : CALIPER FROM DENSITY LOG [ADJ. TO RESISTIVITY LOG]
CALSED  .IN    : CALIPER FROM SONIC LOG [ADJ. TO RESISTIVITY LOG]
CALWS   .IN    : CALIPER [CALDED]
CONDWS  .MMHO  : CONDUCTIVITY [1000/DRESWS]
DCORED  .G/C3  : DENSITY CORRECTION FROM DENSITY LOG [ADJ. TO RESISTIVITY LOG]
DCORWS  .G/C3  : DENSITY CORRECTION [DCORED]
DENWS   .G/C3  : FORMATION BULK DENSITY [RHOBED]
DPHILSED.V/V   : DENSITY POROSITY LIMESTONE [M=2.71, F=1.00 ASSUMED] FROM DENSITY LOG [ADJ. TO RESISTIVITY LOG]
DPHISSED.V/V   : DENSITY POROSITY SANDSTONE [M=2.65, F=1.00 ASSUMED] FROM DENSITY LOG [ADJ. TO RESISTIVITY LOG]
DPOLSWS .V/V   : DENSITY POROSITY LIMESTONE [CALC FROM DENWS, M=2710,F=1000 ASSUMED]
DRESWS  .OHMM  : DEEP RESISTIVITY [ILDED]
DTED    .US/F  : DELTA TIME FROM SONIC LOG [ADJ. TO RESISTIVITY LOG]
DTWS    .US/F  : COMPRESSIONAL SONIC [DTED]
GRDED   .GAPI  : GAMMA RAY FROM DENSITY LOG [ADJ. TO RESISTIVITY LOG]
GRSED   .GAPI  : GAMMA RAY FROM SONIC LOG [ADJ. TO RESISTIVITY LOG]
GRSRED  .GAPI  : GAMMA RAY (REPEAT SECTION) FROM SONIC LOG [ADJ. TO RESISTIVITY LOG]
GRWS    .GAPI  : GAMMA RAY [GRDED SPL. TO GRSRED @ 11982']
ILDED   .OHMM  : DEEP INDUCTION LOG RESISTIVITY FROM RESISTIVITY LOG
ILMED   .OHMM  : MEDIUM INDUCTION LOG RESISTIVITY FROM RESISTIVITY LOG
LL8ED   .OHMM  : 8 INCH LATEROLOG RESISTIVITY FROM RESISTIVITY LOG
MRESWS  .OHMM  : MEDIUM RESISTIVITY [ILMED]
NPHILSED.V/V   : NEUTRON POROSITY LIMESTONE FROM DENSITY LOG [ADJ. TO RESISTIVITY LOG]
NPHISSED.V/V   : NEUTRON POROSITY SANDSTONE FROM DENSITY LOG [ADJ. TO RESISTIVITY LOG]
NPOLSWS .V/V   : NEUTRON POROSITY LIMESTONE [SCHL. NPHISSED MATRIX CONVERSION FOR LIMESTONE, SPL. TO NPHILSED @ 7464']
RHOBED  .G/C3  : BULK DENSITY FROM DENSITY LOG [ADJ. TO RESISTIVITY LOG]
SPRED   .MV    : SPONTANEOUS POTENTIAL FROM RESISTIVITY LOG
SPWS    .MV    : SPONTANEOUS POTENTIAL [BASELINE 0 MV, SPRED]
SRESWS  .OHMM  : SHALLOW RESISTIVITY [LL8ED]
~Params ----------------------------------------------------
PD  .                     GL : PERMANENT DATUM
EPD .FT               2789.5 : ELEVATION PERMANENT DATUM
LMF .                     KB : LOG MEASURED FROM
DAPD.FT                 20.5 : FEET ABOVE PERMANENT DATUM
EKB .FT               2810.0 : KELLY BUSHING
EGL .FT               2789.5 : GROUND LEVEL
DATE.               12/14/76 : RUN DATE
RUN .                      1 : RUN NUMBER
DD  .FT                12005 : DEPTH DRILLER
DL  .FT                12008 : DEPTH LOGGER
BLI .FT                12002 : BOTTOM LOG INTERVAL
TLI .FT                 1519 : TOP LOG INTERVAL
CBD .FT                 1519 : CASING BOTTOM DRILLER
CBL .FT                 1519 : CASING BOTTOM LOGGER
BS  .IN                  8.5 : BIT SIZE
BSD .FT                12005 : BIT SIZE AT DEPTH
DFT .                    GEL : DRILLING FLUID TYPE
DFD .                    9.0 : DRILLING FLUID DENSITY
DFV .                     75 : DRILLING FLUID VISCOSITY
DFPH.                    9.5 : DRILLING FLUID PH
DFL .                   12.2 : DRILLING FLUID LOSS
MSS .               FLOWLINE : MUD SAMPLE SOURCE
RMS .OHMM               2.89 : RESISTIVITY MUD SAMPLE
MST .DEGF                 44 : MUD SAMPLE TEMPERATURE
RMF .OHMM               2.32 : RESISTIVITY MUD FILTRATE SAMPLE
MFST.DEGF                 62 : MUD FILTRATE SAMPLE TEMPERATURE
TCS .HRS                   4 : TIME CIRCULATED STOPPED
LUN .                   7635 : LOGGING UNIT NUMBER
LUL .                    EDM : LOGGING UNIT LOCATION
ENGI.                 PAQUIN : RECORDING ENGINEER
WITN.       MACDONALD FARLEY : WITNESSED BY
CLNT.                A2DTECH : CLIENT CODE
ORIG.            2" 5" PRINT : ORIGIN OF DATA
UWI .       100072206324W500 : UNIQUE WELL ID
DICO. A2D Technologies, Inc. : DIGITIZING COMPANY
~Other -----------------------------------------------------
DIL-CNFD-BCS TOOL RUN
GAPS IN DT AS PER IMAGE SPLICED
~ASCII -----------------------------------------------------
# ...
 10300.00000    8.81120    8.82340    8.81120    5.51300    0.08950    0.08950    2.67130    0.02710    -999.25    0.02260  181.38980   49.26520   49.26520   18.89400   19.40120    -999.25   18.89400  181.38980  165.26800  309.53880  165.26800    0.12280    -999.25    0.12280    2.67130 -172.52000 -131.63880  309.53880
 10350.00000    8.33230    8.06100    8.33230   51.12160    0.17120    0.17120    2.64820    0.03690    -999.25    0.03610   19.56120   53.00080   53.00080   19.32780   20.07040    -999.25   19.32780   19.56120   12.41460  147.90100   12.41460    0.18850    -999.25    0.18850    2.64820 -195.44770 -154.08050  147.90100
 10400.00000   12.44600    9.65090   12.44600    5.46210    0.24220    0.24220    2.61970    0.05140    -999.25    0.05280  183.07960   47.81400   47.81400   25.15980   23.23960    -999.25   25.15980  183.07960  493.98520  439.36680  493.98520    0.13590    -999.25    0.13590    2.61970 -144.84300 -102.98980  439.36680
 10450.00000   11.86010    9.41680   11.86010   11.87030    0.24960    0.24960    2.63080    0.03790    -999.25    0.04630   84.24360   50.74600   50.74600   32.97120   36.16730    -999.25   32.97120   84.24360   72.50350  137.44060   72.50350    0.08940    -999.25    0.08940    2.63080 -158.41010 -116.07080  137.44060
 10500.00000    8.90810    9.13850    8.90810    0.59760    0.05790    0.05790    2.66630    0.00970    -999.25    0.02560 1673.25920   48.84430   48.84430   26.18520   24.45400    -999.25   26.18520 1673.25920 1378.17210 1541.21970 1378.17210    0.03030    -999.25    0.03030    2.66630  -88.63960  -45.81430 1541.21970
 10550.00000    8.83950    8.79380    8.83950   21.49360   -0.00270   -0.00270    2.69140    0.01000    -999.25    0.01090   46.52540   55.40140   55.40140   63.56550   66.89130    -999.25   63.56550   46.52540   48.78510   60.74680   48.78510    0.08700    -999.25    0.08700    2.69140  -85.08250  -41.77110   60.74680
 10600.00000    9.04600    8.78140    9.04600    8.69380    0.08690    0.08690    2.69810    0.00980    -999.25    0.00700  115.02470   53.24390   53.24390   48.91890   51.59920    -999.25   48.91890  115.02470   94.07370  139.06220   94.07370    0.07500    -999.25    0.07500    2.69810  -83.97580  -40.17840  139.06220
 10650.00000   12.84520    9.67390   12.84520    0.61510    0.25130    0.25130    2.51820    0.11000    -999.25    0.11220 1625.69410   50.17560   50.17560   28.70240   29.24900    -999.25   28.70240 1625.69410  935.36710 1528.83540  935.36710    0.02640    -999.25    0.02640    2.51820  -90.06010  -45.77670 1528.83540
 10700.00000    9.01030    8.83450    9.01030    5.44330   -0.00100   -0.00100    2.68050    0.02090    -999.25    0.01730  183.71360   53.03010   53.03010   44.28690   46.11600    -999.25   44.28690  183.71360  155.49370  212.40380  155.49370    0.08370    -999.25    0.08370    2.68050  -65.67870  -20.90920  212.40380
 10750.00000    9.45710    9.18360    9.45710    4.40100    0.02320    0.02320    2.65270    0.02640    -999.25    0.03350  227.22040   52.87360   52.87360   42.93770   46.54210    -999.25   42.93770  227.22040  261.65770  268.35030  261.65770    0.07480    -999.25    0.07480    2.65270  -78.67940  -33.42390  268.35030
 10800.00000    9.04760    8.98590    9.04760    2.87370   -0.01150   -0.01150    2.67030    0.02460    -999.25    0.02320  347.98760   52.46460   52.46460   41.05830   39.83300    -999.25   41.05830  347.98760  455.69950  617.21980  455.69950    0.04880    -999.25    0.04880    2.67030  -97.57660  -51.83510  617.21980
 10850.00000    9.21990    9.09590    9.21990    7.67730    0.00420    0.00420    2.71250   -0.00790    -999.25   -0.00150  130.25360   53.52410   53.52410   45.04400   45.56570    -999.25   45.04400  130.25360  139.03740  164.11970  139.03740    0.05900    -999.25    0.05900    2.71250  -55.09330   -8.86570  164.11970
 10900.00000    9.26060    8.96110    9.26060    7.15820    0.00030    0.00030    2.68790    0.01240    -999.25    0.01290  139.70020   53.86120   53.86120   38.27970   41.06130    -999.25   38.27970  139.70020  146.45280  236.13950  146.45280    0.08840    -999.25    0.08840    2.68790  -91.95090  -45.23730  236.13950
 10950.00000    9.96580    9.62160    9.96580   26.25120    0.00180    0.00180    2.59050    0.06790    -999.25    0.06990   38.09350   69.62680   69.62680  103.33110  123.13420    -999.25  103.33110   38.09350   44.03210   73.98100   44.03210    0.29190    -999.25    0.29190    2.59050  -58.47270  -11.59890   73.98100
 11000.00000   12.68610   11.02720   12.68610  162.84520    0.19580    0.19580    1.98610    0.38850    -999.25    0.42330    6.14080   73.58800   73.58800   98.57750  109.22110    -999.25   98.57750    6.14080    6.45210    7.21710    6.45210    0.37370    -999.25    0.37370    1.98610 -106.06350  -61.03120    7.21710
 11050.00000   14.60680   12.26450   14.60680  159.03310    0.15500    0.15500    2.25250    0.26330    -999.25    0.26750    6.28800   73.37420   73.37420  103.32560  111.01350    -999.25  103.32560    6.28800    6.62020    9.48010    6.62020    0.39390    -999.25    0.39390    2.25250  -91.24560  -48.05480    9.48010
 11100.00000   14.16310   12.19470   14.16310  181.00860    0.10930    0.10930    2.30670    0.23240    -999.25    0.23580    5.52460   80.98860   80.98860  130.14120  137.05550    -999.25  130.14120    5.52460    5.67070    7.75260    5.67070    0.41010    -999.25    0.41010    2.30670  -89.12590  -47.77660    7.75260
 11150.00000    9.12270    9.09210    9.12270   45.01020    0.02120    0.02120    2.68580    0.01380    -999.25    0.01420   22.21720   58.66140   58.66140   66.40500   67.17770    -999.25   66.40500   22.21720   26.17000   45.85260   26.17000    0.11350    -999.25    0.11350    2.68580  -82.54500  -43.03720   45.85260
 11200.00000    9.08540    9.03280    9.08540   84.12620   -0.02610   -0.02610    2.65970    0.02950    -999.25    0.02940   11.88690   64.54130   64.54130  113.81470  114.02610    -999.25  113.81470   11.88690   12.93220   17.05930   12.93220    0.19560    -999.25    0.19560    2.65970  -51.16070  -13.49440   17.05930
 11250.00000    9.13440    9.03140    9.13440   88.59750   -0.00700   -0.00700    2.65640    0.03270    -999.25    0.03130   11.28700   66.38780   66.38780  113.71190  123.61350    -999.25  113.71190   11.28700   11.94200   15.58070   11.94200    0.22080    -999.25    0.22080    2.65640  -70.94880  -35.12400   15.58070
 11300.00000    9.18140    9.16660    9.18140   90.19000    0.00530    0.00530    2.63950    0.04260    -999.25    0.04120   11.08770   64.84230   64.84230   98.88990  103.77250    -999.25   98.88990   11.08770   11.66760   15.69660   11.66760    0.16960    -999.25    0.16960    2.63950  -65.54690  -31.56360   15.69660
 11350.00000    9.82840    9.30910    9.82840  161.35540    0.13780    0.13780    2.59740    0.07100    -999.25    0.06580    6.19750   74.71920   74.71920  138.31810  143.62760    -999.25  138.31810    6.19750    6.45120    8.47090    6.45120    0.30060    -999.25    0.30060    2.59740  -82.59530  -50.45350    8.47090
 11400.00000    9.41750    8.99070    9.41750  108.97880    0.09770    0.09770    2.65540    0.03490    -999.25    0.03190    9.17610   72.56340   72.56340  159.38520  166.16210    -999.25  159.38520    9.17610    9.68130   13.57230    9.68130    0.27260    -999.25    0.27260    2.65540  -73.88040  -43.58010   13.57230
 11450.00000    9.44990    9.01020    9.44990  109.44510    0.06680    0.06680    2.58840    0.07210    -999.25    0.07110    9.13700   76.04880   76.04880  156.93150  158.17810    -999.25  156.93150    9.13700    9.62380   13.01580    9.62380    0.30070    -999.25    0.30070    2.58840  -83.40670  -54.94790   13.01580
 11500.00000    8.48010    8.48010    8.48010    8.75220   -0.00890   -0.00890    2.51960    0.11210    -999.25    0.11130  114.25690   73.92300   73.92300  180.36890  180.06610    -999.25  180.36890  114.25690  129.11040  282.88310  129.11040    0.23270    -999.25    0.23270    2.51960  -45.14820  -18.53090  282.88310
