~Version ---------------------------------------------------
VERS.      2.0 : CWLS log ASCII Standard -VERSION 2.0
WRAP.       NO : One line per depth step
CREA. 01/05/18 : LAS Creation Date
~Well ------------------------------------------------------
STRT.FT                   300.0 : START DEPTH
STOP.FT                 11550.0 : STOP DEPTH
STEP.FT                50.00000 : STEP LENGTH
NULL.                   -999.25 : NULL VALUE
COMP.      MOBIL OIL CANADA LTD : COMPANY
WELL. MOBIL PINEDALE 6-29-54-16 : WELL
FLD .                           : FIELD
LOC .                           : LOCATION
CTRY.                    CANADA : COUNTRY
SRVC.    Schlumberger of Canada : SERVICE COMPANY
DATE.               02-Oct-1968 : LOGDATE
PROV.                   Alberta : PROVINCE
UWI .          100062905416W500 : UNIQUE WELL ID
SLAT.WGS84             53.69074 : SURFACE LATITUDE
SLON.WGS84            -116.3264 : SURFACE LONGITUDE
~Curve Information -----------------------------------------
DEPT    .FT    : Depth Curve
CALDED  .IN    : CALIPER FROM DENSITY LOG [ADJ. TO RESISTIVITY LOG]
CALNED  .IN    : CALIPER FROM NEUTRON LOG [ADJ. TO RESISTIVITY LOG]
CALSED  .IN    : CALIPER FROM SONIC LOG [ADJ. TO RESISTIVITY LOG]
CALWS   .IN    : CALIPER [CALSED]
CILDED  .MMHO  : DEEP INDUCTION CONDUCTIVITY FROM RESISTIVITY LOG
CONDWS  .MMHO  : CONDUCTIVITY [1000/DRESWS]
DCORED  .G/C3  : DENSITY CORRECTION FROM DENSITY LOG [ADJ. TO RESISTIVITY LOG]
DCORWS  .G/C3  : DENSITY CORRECTION [DCORED]
DENWS   .G/C3  : FORMATION BULK DENSITY [RHOBED]
DPHILSED.V/V   : DENSITY POROSITY LIMESTONE [M=2.71,F=1.0] FROM DENSITY LOG [ADJ. TO RESISTIVITY LOG]
DPOLSWS .V/V   : DENSITY POROSITY LIMESTONE [CALC. FROM DENWS M=2.71,F=1.0]
DRESWS  .OHMM  : DEEP RESISTIVITY [1000/CILDED IF ILDED <5, ILDED]
DTED    .US/F  : DELTA-T FROM SONIC LOG [ADJ. TO RESISTIVITY LOG]
DTWS    .US/F  : COMPRESSIONAL SONIC [DTED]
GRDED   .GAPI  : GAMMA RAY FROM DENSITY LOG [ADJ. TO RESISTIVITY LOG]
GRNED   .GAPI  : GAMMA RAY FROM NEUTRON LOG [ADJ. TO RESISTIVITY LOG]
GRSED   .GAPI  : GAMMA RAY FROM SONIC LOG [ADJ. TO RESISTIVITY LOG]
GRWS    .GAPI  : GAMMA RAY [GRSED SPL. TO GRDED @ 11555']
ILDED   .OHMM  : DEEP INDUCTION FROM RESISTIVITY LOG
NPOLSWS .V/V   : NEUTRON POROSITY LIMESTONE [SNPLSED]
RHOBED  .G/C3  : BULK DENSITY FROM DENSITY LOG [ADJ. TO RESISTIVITY LOG]
SNED    .OHMM  : SHORT NORMAL FROM RESISTIVITY LOG
SNPLSED .V/V   : SIDEWALL NEUTRON POROSITY LIMESTONE FROM NEUTRON LOG [ADJ. TO RESISTIVITY LOG]
SPRED   .MV    : SPONTANEOUS POTENTIAL FROM RESISTIVITY LOG
SPWS    .MV    : SPONTANEOUS POTENTIAL [BASELINE 0 MV, SPRED]
SRESWS  .OHMM  : SHALLOW RESISTIVITY [SNED]
~Params ----------------------------------------------------
DATE.               10/02/68 : RUN DATE
RUN .                      1 : RUN NUMBER
CLNT.                A2DTECH : CLIENT CODE
ORIG.               5" PRINT : ORIGIN OF DATA
UWI .       100062905416W500 : UNIQUE WELL ID
DICO. A2D Technologies, Inc. : DIGITIZING COMPANY
~Other -----------------------------------------------------
IEL & SNP & FDC & BHC SONIC LOG RAN
SPRED,SNED,ILDED & CILDED VERIFY FROM SMALL SECTION FROM TOP - 6470'
~ASCII -----------------------------------------------------
# ...
 7050.00000    -999.25    -999.25   13.20590   13.20590   83.64890   77.81370    -999.25    -999.25    -999.25    -999.25    -999.25   12.85120   92.46330   92.46330    -999.25    -999.25   73.06730   73.06730   12.85120    -999.25    -999.25   14.07240    -999.25  -94.73630   -5.90370   14.07240
 7100.00000    -999.25    -999.25    9.81100    9.81100   56.21920   48.63320    -999.25    -999.25    -999.25    -999.25    -999.25   20.56210   65.07250   65.07250    -999.25    -999.25   46.35170   46.35170   20.56210    -999.25    -999.25   20.85710    -999.25 -101.24270  -12.78250   20.85710
 7150.00000    -999.25    -999.25   14.96490   14.96490   59.27690   52.49590    -999.25    -999.25    -999.25    -999.25    -999.25   19.04910  106.73390  106.73390    -999.25    -999.25   72.56910   72.56910   19.04910    -999.25    -999.25   18.95000    -999.25  -97.34820   -9.25800   18.95000
 7200.00000    -999.25    -999.25   10.64310   10.64310   47.43370   42.91400    -999.25    -999.25    -999.25    -999.25    -999.25   23.30430  102.39930  102.39930    -999.25    -999.25   85.33880   85.33880   23.30430    -999.25    -999.25   21.30250    -999.25  -97.52250   -9.80470   21.30250
 7250.00000    -999.25    -999.25   11.33650   11.33650   63.47910   55.72370    -999.25    -999.25    -999.25    -999.25    -999.25   17.94570   80.40690   80.40690    -999.25    -999.25   82.91820   82.91820   17.94570    -999.25    -999.25   18.83640    -999.25  -99.14670  -11.79880   18.83640
 7300.00000    -999.25    -999.25   10.34740   10.34740   75.89400   67.12220    -999.25    -999.25    -999.25    -999.25    -999.25   14.89820   70.51730   70.51730    -999.25    -999.25   64.85870   64.85870   14.89820    -999.25    -999.25   15.23790    -999.25 -102.07070  -15.09280   15.23790
 7350.00000    -999.25    -999.25   12.47460   12.47460   49.02080   43.61330    -999.25    -999.25    -999.25    -999.25    -999.25   22.92880  119.53120  119.53120    -999.25    -999.25   39.12610   39.12610   22.92880    -999.25    -999.25   42.95270    -999.25  -96.26290   -9.65740   42.95270
 7400.00000    -999.25    -999.25    9.69470    9.69470   45.45020   41.08950    -999.25    -999.25    -999.25    -999.25    -999.25   24.33710   67.13520   67.13520    -999.25    -999.25   44.64130   44.64130   24.33710    -999.25    -999.25   26.29200    -999.25 -103.65800  -17.51450   26.29200
 7450.00000    -999.25    -999.25    9.80300    9.80300   34.56720   29.11720    -999.25    -999.25    -999.25    -999.25    -999.25   34.42190   61.91480   61.91480    -999.25    -999.25   65.59940   65.59940   34.42190    -999.25    -999.25   28.78690    -999.25  -91.04030   -5.73900   28.78690
 7500.00000    -999.25    -999.25   10.20800   10.20800   46.65440   41.83120    -999.25    -999.25    -999.25    -999.25    -999.25   23.90560   70.74930   70.74930    -999.25    -999.25   77.15820   77.15820   23.90560    -999.25    -999.25   21.95170    -999.25  -94.32080   -9.85620   21.95170
 7550.00000    -999.25    -999.25    9.70510    9.70510   25.08330   21.78820    -999.25    -999.25    -999.25    -999.25    -999.25   45.89650   64.05830   64.05830    -999.25    -999.25   53.79360   53.79360   45.89650    -999.25    -999.25   28.70530    -999.25  -97.07030  -13.44240   28.70530
 7600.00000    -999.25    -999.25    9.54550    9.54550   18.20950   14.75420    -999.25    -999.25    -999.25    -999.25    -999.25   67.77730   63.50180   63.50180    -999.25    -999.25   60.29120   60.29120   67.77730    -999.25    -999.25   58.63280    -999.25  -93.42090  -10.63520   58.63280
 7650.00000    -999.25    -999.25   10.30290   10.30290   23.86150   21.22480    -999.25    -999.25    -999.25    -999.25    -999.25   47.11460   73.88250   73.88250    -999.25    -999.25   66.66110   66.66110   47.11460    -999.25    -999.25   39.11920    -999.25  -91.97850  -10.02940   39.11920
 7700.00000    -999.25    -999.25   10.44840   10.44840   23.65340   21.38300    -999.25    -999.25    -999.25    -999.25    -999.25   46.81880   71.40670   71.40670    -999.25    -999.25   35.55310   35.55310   46.81880    -999.25    -999.25   30.17690    -999.25  -90.72660   -9.61970   30.17690
 7750.00000    -999.25    -999.25   10.27360   10.27360   70.75570   63.51670    -999.25    -999.25    -999.25    -999.25    -999.25   15.74390   76.85380   76.85380    -999.25    -999.25   96.51950   96.51950   15.74390    -999.25    -999.25   17.38030    -999.25  -87.23980   -5.87250   17.38030
 7800.00000    -999.25    -999.25   10.15130   10.15130   30.30150   27.11070    -999.25    -999.25    -999.25    -999.25    -999.25   36.88580   65.16460   65.16460    -999.25    -999.25   45.68440   45.68440   36.88580    -999.25    -999.25   35.01490    -999.25  -95.33770  -11.25890   35.01490
 7850.00000    -999.25    -999.25    9.95740    9.95740   32.92150   25.32410    -999.25    -999.25    -999.25    -999.25    -999.25   39.48800   80.10480   80.10480    -999.25    -999.25   59.55010   59.55010   39.48800    -999.25    -999.25   39.08270    -999.25  -99.07510  -12.84170   39.08270
 7900.00000    -999.25    -999.25    8.96830    8.96830    5.20830    2.32200    -999.25    -999.25    -999.25    -999.25    -999.25  430.65410   73.11590   73.11590    -999.25    -999.25   19.74230   19.74230  430.65410    -999.25    -999.25  197.20560    -999.25 -144.30780  -58.48260  197.20560
 7950.00000    -999.25    -999.25    8.84500    8.84500    4.32400    1.79300    -999.25    -999.25    -999.25    -999.25    -999.25  557.72420   48.04500   48.04500    -999.25    -999.25   13.75490   13.75490  557.72420    -999.25    -999.25  302.44150    -999.25 -125.14320  -39.72890  302.44150
 8000.00000    -999.25    -999.25    9.03220    9.03220    6.36120    3.72910    -999.25    -999.25    -999.25    -999.25    -999.25  268.15950   55.17210   55.17210    -999.25    -999.25   25.57920   25.57920  268.15950    -999.25    -999.25  164.39790    -999.25  -90.01020   -5.00420  164.39790
 8050.00000    -999.25    -999.25    8.70530    8.70530   85.87090   76.72710    -999.25    -999.25    -999.25    -999.25    -999.25   13.03320   59.77810   59.77810    -999.25    -999.25   25.73230   25.73230   13.03320    -999.25    -999.25   41.76150    -999.25 -162.80490  -77.66130   41.76150
 8100.00000    -999.25    -999.25    9.18230    9.18230   47.91150   43.23220    -999.25    -999.25    -999.25    -999.25    -999.25   23.13090   53.37560   53.37560    -999.25    -999.25   50.38850   50.38850   23.13090    -999.25    -999.25   32.50140    -999.25 -147.04280  -61.46650   32.50140
 8150.00000    -999.25    -999.25    9.39870    9.39870   16.49850   13.43320    -999.25    -999.25    -999.25    -999.25    -999.25   74.44240   52.55960   52.55960    -999.25    -999.25   38.43590   38.43590   74.44240    -999.25    -999.25   74.98140    -999.25  -93.20790   -7.20190   74.98140
 8200.00000    -999.25    -999.25    9.94270    9.94270    6.25320    3.36930    -999.25    -999.25    -999.25    -999.25    -999.25  296.93760   50.73290   50.73290    -999.25    -999.25   23.55020   23.55020  296.93760    -999.25    -999.25  185.53940    -999.25 -103.53620  -18.42160  185.53940
 8250.00000    -999.25    -999.25    9.58330    9.58330    4.64240    1.82040    -999.25    -999.25    -999.25    -999.25    -999.25  549.32510   50.09590   50.09590    -999.25    -999.25   15.80020   15.80020  549.32510    -999.25    -999.25  170.24900    -999.25 -139.13470  -57.96550  170.24900
 8300.00000    -999.25    -999.25    9.20530    9.20530   14.37830   11.33670    -999.25    -999.25    -999.25    -999.25    -999.25   88.20890   48.81110   48.81110    -999.25    -999.25   13.20500   13.20500   88.20890    -999.25    -999.25   98.60320    -999.25 -153.84140  -76.61760   98.60320
 8350.00000    -999.25    -999.25    9.27490    9.27490   58.54490   52.25590    -999.25    -999.25    -999.25    -999.25    -999.25   19.13660   57.52310   57.52310    -999.25    -999.25   71.36570   71.36570   19.13660    -999.25    -999.25   20.96570    -999.25  -76.51670   -3.26660   20.96570
