~Version ---------------------------------------------------
VERS.      2.0 : CWLS log ASCII Standard -VERSION 2.0
WRAP.       NO : One line per depth step
CREA. 11/16/17 : LAS Creation Date
~Well ------------------------------------------------------
STRT.FT                    300.0 : START DEPTH
STOP.FT                   7750.0 : STOP DEPTH
STEP.FT                 50.00000 : STEP LENGTH
NULL.                    -999.25 : NULL VALUE
COMP.        GULF CANADA LIMITED : COMPANY
WELL. B.A. CPR HUXLEY 2-33-33-22 : WELL
FLD .                            : FIELD
LOC .                            : LOCATION
CTRY.                     CANADA : COUNTRY
SRVC.     Schlumberger of Canada : SERVICE COMPANY
DATE.                09-May-1959 : LOGDATE
PROV.                    Alberta : PROVINCE
UWI .           100023303322W400 : UNIQUE WELL ID
SLAT.WGS84              51.86894 : SURFACE LATITUDE
SLON.WGS84             -113.0601 : SURFACE LONGITUDE
~Curve Information -----------------------------------------
DEPT  .FT         : Depth Curve
CALMED.IN         : CALIPER FROM MICROLATERO LOG
CALWS .IN         : CALIPER [MCALED SPL. TO CALMED @ 5410']
CILDED.MMHO       : INDUCTION DEEP CONDUCTIVITY FROM RESISTIVITY LOG
CONDWS.MMHO       : CONDUCTIVITY [1000/DRESWS]
DRESWS.OHMM       : DEEP RESISTIVITY [1000/CILDED IF ILDED <=5, ILDED]
GRNED .UgRa-Eq/T  : GAMMA RAY FROM NEUTRON LOG  [ADJ. TO RESISTIVITY LOG]
GRWS  .GAPI       : GAMMA RAY [GRNED*16.5]
ILDED .OHMM       : INDUCTION DEEP RESISTIVITY FROM RESISTIVITY LOG
MCALED.IN         : MLT FROM MICRO LOG
MLLED .OHMM       : MICRO FOCUSED LATEROLOG RESISTIVITY FROM MICROLATERO LOG
NEUTED.CPS        : NEUTRON FROM NEUTRON LOG [ADJ. TO RESISTIVITY LOG]
NEUTWS.CPS        : NEUTRON [NEUTED]
SNED  .OHMM       : SHORT NORMAL RESISTIVITY FROM RESISTIVITY LOG
SPRED .MV         : SPONTANEOUS POTENTIAL FROM RESISTIVITY LOG
SPWS  .MV         : SPONTANEOUS POTENTIAL [BASELINE 0 MV, SPRED]
SRESWS.OHMM       : SHALLOW RESISTIVITY [SNED]
~Params ----------------------------------------------------
LMF .                     KB : LOG MEASURED FROM
DMF .                     KB : DRILLING MEASURED FROM
EKB .FT                 2780 : KELLY BUSHING
DATE.               05/09/59 : RUN DATE
RUN .                      2 : RUN NUMBER
DD  .FT                 7791 : DEPTH DRILLER
DL  .FT                 7795 : DEPTH LOGGER
BLI .FT                 7790 : BOTTOM LOG INTERVAL
TLI .FT                 5209 : TOP LOG INTERVAL
CBD .FT                  612 : CASING BOTTOM DRILLER
CBL .FT                  615 : CASING BOTTOM LOGGER
BS  .IN                    9 : BIT SIZE
BSD .FT                 7791 : BIT SIZE AT DEPTH
DFT .               GYP BASE : DRILLING FLUID TYPE
DFD .                   10.4 : DRILLING FLUID DENSITY
DFV .                     72 : DRILLING FLUID VISCOSITY
DFPH.                      7 : DRILLING FLUID PH
DFL .                    7.8 : DRILLING FLUID LOSS
RMS .OHMM                0.7 : RESISTIVITY MUD SAMPLE
MST .DEGF                 65 : MUD SAMPLE TEMPERATURE
RMF .OHMM               0.43 : RESISTIVITY MUD FILTRATE SAMPLE
MFST.DEGF                 78 : MUD FILTRATE SAMPLE TEMPERATURE
RMC .OHMM               0.84 : RESISTIVITY MUD CAKE
MCST.DEGF                 78 : MUD CAKE SAMPLE TEMPERATURE
RMB .OHMM               0.32 : RESISTIVITY MUD AT BHT
TCS .HRS                   2 : TIME CIRCULATED STOPPED
LUN .                  27410 : LOGGING UNIT NUMBER
ENGI.                MCKEOWN : RECORDING ENGINEER
WITN.                DOMANKO : WITNESSED BY
CLNT.                A2DTECH : CLIENT CODE
ORIG.            2" 5" PRINT : ORIGIN OF DATA
UWI .       100023303322W400 : UNIQUE WELL ID
DICO. A2D Technologies, Inc. : DIGITIZING COMPANY
~Other -----------------------------------------------------
~ASCII -----------------------------------------------------
# ...
 4600.00000    -999.25   10.16090   73.76090   68.01330   14.70300    4.52850   74.02560   14.70300   10.16090    -999.25  199.18990  199.18990   20.50180  -37.89600  -17.44720   20.50180
 4650.00000    -999.25    9.80440   99.00340   96.28720   10.38560    3.36960   55.59840   10.38560    9.80440    -999.25  220.13050  220.13050   13.35770  -30.41620  -11.86580   13.35770
 4700.00000    -999.25   10.81550  134.60390  130.79760    7.64540    3.95060   65.99170    7.64540   10.81550    -999.25  218.76450  218.76450    9.56350  -28.93490  -12.29540    9.56350
 4750.00000    -999.25   10.45090  112.75420  108.43630    9.22200    4.94630   81.61400    9.22200   10.45090    -999.25  193.09650  193.09650   12.90270  -20.26410   -5.52310   12.90270
 4800.00000    -999.25   11.06870  129.26340  123.16030    8.11950    5.08090   82.65760    8.11950   11.06870    -999.25  188.78550  188.78550   11.15900  -20.37160   -7.63840   11.15900
 4850.00000    -999.25   10.62570  118.15740  113.68290    8.79640    5.62280   93.63090    8.79640   10.62570    -999.25  177.99980  177.99980   11.56850  -20.58880  -10.10120   11.56850
 4900.00000    -999.25    9.37880   14.00050   12.29740   81.31830    1.92510   33.08000   81.31830    9.37880    -999.25  357.16350  357.16350   94.64630  -29.17470  -20.91800   94.64630
 4950.00000    -999.25    9.54670   14.86150   14.15840   70.62950    2.86110   48.15030   70.62950    9.54670    -999.25  327.40900  327.40900   68.20670  -29.66860  -23.65750   68.20670
 5000.00000    -999.25    9.46590   41.95330   32.49920   30.77000    3.42550   55.86070   30.77000    9.46590    -999.25  276.21870  276.21870   36.36530  -16.53850  -12.75830   36.36530
 5050.00000    -999.25    9.47400   47.05590   39.07560   25.59140    3.61850   61.79580   25.59140    9.47400    -999.25  282.41320  282.41320   29.32300  -21.80000  -20.25070   29.32300
 5100.00000    -999.25    9.63290  103.41460   92.57120   10.80250    4.44660   71.09690   10.80250    9.63290    -999.25  248.06070  248.06070   14.89820  -24.81750  -25.51380   14.89820
 5150.00000    -999.25    9.43820   97.80820   93.57600   10.68650    4.46780   71.01100   10.68650    9.43820    -999.25  247.80770  247.80770   14.92800  -20.84630  -23.77350   14.92800
 5200.00000    -999.25    9.44310   92.86750   87.97550   11.36680    4.42840   71.86250   11.36680    9.44310    -999.25  251.06140  251.06140   16.65100  -23.16380  -28.33660   16.65100
 5250.00000   11.95730    9.43730  102.07870   96.17700   10.39750    4.53500   71.16780   10.39750    9.43730   14.04450  246.87790  246.87790   17.22840  -18.19350  -25.59720   17.22840
 5300.00000   12.45030    9.35810  123.37120  118.22150    8.45870    4.51770   75.64920    8.45870    9.35810   11.92470  229.55170  229.55170   13.51750  -17.74360  -27.37830   13.51750
 5350.00000   12.58580    9.25880  123.44860  115.06550    8.69070    4.59160   75.30600    8.69070    9.25880   16.60090  223.04560  223.04560   13.55580  -13.17980  -25.06000   13.55580
 5400.00000    9.65590    8.88120   18.20470   14.72410   67.91590    4.58460  168.42290   67.91590    8.88120  296.35970  309.12110  309.12110   50.61550   -9.41200  -23.52320   50.61550
 5450.00000    9.48400    9.48400   17.39670   15.46050   64.68100    0.75250   12.62750   64.68100    -999.25   88.83150  325.53870  325.53870   39.16330  -21.28220  -37.63900   39.16330
 5500.00000   10.23920   10.23920   13.28380   10.08660   99.14120    0.79060   11.71670   99.14120    -999.25 1003.90680  361.01450  361.01450   53.85430   -1.48860  -20.07630   53.85430
 5550.00000   10.88660   10.88660   29.90760   27.78010   35.99700    1.83210   26.06420   35.99700    -999.25  470.72670  320.46740  320.46740   33.19740    0.58930  -20.22930   33.19740
 5600.00000    9.44990    9.44990   16.37440   13.50080   74.06970    1.26500   20.92030   74.06970    -999.25  799.28690  314.55300  314.55300   53.73820  -16.52340  -39.58760   53.73820
 5650.00000    9.81190    9.81190   11.50260    9.33750  107.09540    0.81100   11.93360  107.09540    -999.25  518.27530  339.02630  339.02630   68.48100   -1.55290  -26.84800   68.48100
 5700.00000    9.57880    9.57880   31.62160   30.56210   32.72030    1.05640   15.89450   32.72030    -999.25  139.45300  313.59630  313.59630   33.83580   19.19850   -8.34220   33.83580
 5750.00000    9.45040    9.45040   11.56060   10.11250   98.88730    0.87010   16.57420   98.88730    -999.25  489.30360  328.97140  328.97140   70.96820   14.01270  -13.88030   70.96820
 5800.00000   10.74850   10.74850   43.64530   33.26100   30.06520    1.27870   18.91480   30.06520    -999.25   54.67530  314.87510  314.87510   78.89590    9.69810  -18.19490   78.89590
 5850.00000    9.30330    9.30330   11.97240   10.28030   97.27300    0.72220   12.13410   97.27300    -999.25  832.75420  332.97120  332.97120   72.16560  -25.23890  -53.13190   72.16560
 5900.00000    9.66110    9.66110   24.73550   11.25700   88.83340    0.90560   15.38300   88.83340    -999.25  654.18650  380.32870  380.32870   68.75810  -69.25050  -97.14350   68.75810
 5950.00000    9.35010    9.35010    7.53740    6.67510  149.81030    0.95870   15.81860  149.81030    -999.25  396.09880  371.79680  371.79680   71.91810  -90.34760 -118.24060   71.91810
 6000.00000    9.17040    9.17040   31.62610   29.91930   33.42320    1.90250   32.95880   33.42320    -999.25  156.29190  341.90160  341.90160   42.95480 -124.06980 -151.96280   42.95480
 6050.00000    9.16770    9.16770    5.68860    2.62790  380.53370    1.22410   23.05050  380.53370    -999.25  747.82500  332.08830  332.08830   78.00160 -147.18680 -175.07980   78.00160
 6100.00000    9.09840    9.09840   24.05120   22.43410   44.57500    0.94400   15.84330   44.57500    -999.25  239.93100  279.73130  279.73130   53.59300 -170.24030 -198.13330   53.59300
 6150.00000    9.17280    9.17280   24.85390   23.77860   42.05460    0.85680   15.74430   42.05460    -999.25  257.51440  298.67680  298.67680   43.49740 -157.04230 -184.93530   43.49740
 6200.00000    9.13890    9.13890   26.65780   25.73430   38.85870    4.01010   63.09430   38.85870    -999.25   55.38410  252.64140  252.64140   29.80100 -111.70230 -139.59530   29.80100
 6250.00000    9.19530    9.19530   15.61150   10.76080   92.92970    3.03840   46.83850   92.92970    -999.25  152.30680  324.25000  324.25000   54.36140 -103.65130 -131.54430   54.36140
 6300.00000    9.19830    9.19830    9.29250    7.18010  139.27440    3.32780   52.27860  139.27440    -999.25  182.64940  283.59990  283.59990   58.71460  -72.34730 -100.24030   58.71460
 6350.00000    9.29920    9.29920   24.16900   23.24940   43.01180    4.92160   79.50030   43.01180    -999.25   76.45120  247.27830  247.27830   35.35310  -48.01880  -75.91180   35.35310
 6400.00000    9.30050    9.30050   45.48710   43.81870   22.82130    6.53270  105.10500   22.82130    -999.25   36.15940  240.38310  240.38310   23.96160  -47.13740  -75.03040   23.96160
 6450.00000    9.35250    9.35250   43.27540   41.64240   24.01400    6.12000   99.73260   24.01400    -999.25   41.49300  248.00140  248.00140   24.78590  -45.34750  -73.24050   24.78590
 6500.00000    9.27080    9.27080   49.42880   46.78670   21.37360    6.34750  106.90020   21.37360    -999.25   38.54180  234.43140  234.43140   22.78860  -40.15080  -68.04380   22.78860
 6550.00000    9.53190    9.53190   53.68380   53.33450   18.74960    6.48390  106.26410   18.74960    -999.25   37.47470  217.61100  217.61100   22.32320  -35.74990  -63.64290   22.32320
 6600.00000    9.30750    9.30750    7.42060    6.45620  154.89080    4.31090   79.01770  154.89080    -999.25  548.61650  307.85290  307.85290  110.82910  -23.32630  -51.21930  110.82910
 6650.00000    9.27640    9.27640    3.54770    2.05510  486.60310    4.84240   93.67380  486.60310    -999.25  992.52950  264.70450  264.70450   67.50480  -18.89110  -46.78410   67.50480
 6700.00000    9.34500    9.34500    9.68830    5.64950  177.00750    5.36710   76.13840  177.00750    -999.25  595.32510  231.45280  231.45280   94.59650   -3.11320  -31.00620   94.59650
