~Version ---------------------------------------------------
VERS.      2.0 : CWLS log ASCII Standard -VERSION 2.0
WRAP.       NO : One line per depth step
CREA. 01/05/18 : LAS Creation Date
~Well ------------------------------------------------------
STRT.FT                   300.0 : START DEPTH
STOP.FT                 11550.0 : STOP DEPTH
STEP.FT                50.00000 : STEP LENGTH
NULL.                   -999.25 : NULL VALUE
COMP.      MOBIL OIL CANADA LTD : COMPANY
WELL. MOBIL PINEDALE 6-29-54-16 : WELL
FLD .                           : FIELD
LOC .                           : LOCATION
CTRY.                    CANADA : COUNTRY
SRVC.    Schlumberger of Canada : SERVICE COMPANY
DATE.               02-Oct-1968 : LOGDATE
PROV.                   Alberta : PROVINCE
UWI .          100062905416W500 : UNIQUE WELL ID
SLAT.WGS84             53.69074 : SURFACE LATITUDE
SLON.WGS84            -116.3264 : SURFACE LONGITUDE
~Curve Information -----------------------------------------
DEPT    .FT    : Depth Curve
CALDED  .IN    : CALIPER FROM DENSITY LOG [ADJ. TO RESISTIVITY LOG]
CALNED  .IN    : CALIPER FROM NEUTRON LOG [ADJ. TO RESISTIVITY LOG]
CALSED  .IN    : CALIPER FROM SONIC LOG [ADJ. TO RESISTIVITY LOG]
CALWS   .IN    : CALIPER [CALSED]
CILDED  .MMHO  : DEEP INDUCTION CONDUCTIVITY FROM RESISTIVITY LOG
CONDWS  .MMHO  : CONDUCTIVITY [1000/DRESWS]
DCORED  .G/C3  : DENSITY CORRECTION FROM DENSITY LOG [ADJ. TO RESISTIVITY LOG]
DCORWS  .G/C3  : DENSITY CORRECTION [DCORED]
DENWS   .G/C3  : FORMATION BULK DENSITY [RHOBED]
DPHILSED.V/V   : DENSITY POROSITY LIMESTONE [M=2.71,F=1.0] FROM DENSITY LOG [ADJ. TO RESISTIVITY LOG]
DPOLSWS .V/V   : DENSITY POROSITY LIMESTONE [CALC. FROM DENWS M=2.71,F=1.0]
DRESWS  .OHMM  : DEEP RESISTIVITY [1000/CILDED IF ILDED <5, ILDED]
DTED    .US/F  : DELTA-T FROM SONIC LOG [ADJ. TO RESISTIVITY LOG]
DTWS    .US/F  : COMPRESSIONAL SONIC [DTED]
GRDED   .GAPI  : GAMMA RAY FROM DENSITY LOG [ADJ. TO RESISTIVITY LOG]
GRNED   .GAPI  : GAMMA RAY FROM NEUTRON LOG [ADJ. TO RESISTIVITY LOG]
GRSED   .GAPI  : GAMMA RAY FROM SONIC LOG [ADJ. TO RESISTIVITY LOG]
GRWS    .GAPI  : GAMMA RAY [GRSED SPL. TO GRDED @ 11555']
ILDED   .OHMM  : DEEP INDUCTION FROM RESISTIVITY LOG
NPOLSWS .V/V   : NEUTRON POROSITY LIMESTONE [SNPLSED]
RHOBED  .G/C3  : BULK DENSITY FROM DENSITY LOG [ADJ. TO RESISTIVITY LOG]
SNED    .OHMM  : SHORT NORMAL FROM RESISTIVITY LOG
SNPLSED .V/V   : SIDEWALL NEUTRON POROSITY LIMESTONE FROM NEUTRON LOG [ADJ. TO RESISTIVITY LOG]
SPRED   .MV    : SPONTANEOUS POTENTIAL FROM RESISTIVITY LOG
SPWS    .MV    : SPONTANEOUS POTENTIAL [BASELINE 0 MV, SPRED]
SRESWS  .OHMM  : SHALLOW RESISTIVITY [SNED]
~Params ----------------------------------------------------
DATE.               10/02/68 : RUN DATE
RUN .                      1 : RUN NUMBER
CLNT.                A2DTECH : CLIENT CODE
ORIG.               5" PRINT : ORIGIN OF DATA
UWI .       100062905416W500 : UNIQUE WELL ID
DICO. A2D Technologies, Inc. : DIGITIZING COMPANY
~Other -----------------------------------------------------
IEL & SNP & FDC & BHC SONIC LOG RAN
SPRED,SNED,ILDED & CILDED VERIFY FROM SMALL SECTION FROM TOP - 6470'
~ASCII -----------------------------------------------------
# ...
 5700.00000    -999.25    -999.25   11.33000   11.33000   73.32940   65.59430    -999.25    -999.25    -999.25    -999.25    -999.25   15.24570   77.15440   77.15440    -999.25    -999.25   79.62710   79.62710   15.24570    -999.25    -999.25   13.02650    -999.25  -99.07430   -4.87460   13.02650
 5750.00000    -999.25    -999.25   11.22830   11.22830   62.63640   55.21230    -999.25    -999.25    -999.25    -999.25    -999.25   18.11190   73.90180   73.90180    -999.25    -999.25   77.63630   77.63630   18.11190    -999.25    -999.25   15.13060    -999.25  -98.78970   -5.00510   15.13060
 5800.00000    -999.25    -999.25   10.81230   10.81230   76.65300   68.79520    -999.25    -999.25    -999.25    -999.25    -999.25   14.53590   75.94710   75.94710    -999.25    -999.25   79.93090   79.93090   14.53590    -999.25    -999.25   12.27430    -999.25  -97.78600   -4.41660   12.27430
 5850.00000    -999.25    -999.25   11.27170   11.27170   75.51450   67.48230    -999.25    -999.25    -999.25    -999.25    -999.25   14.81870   78.53660   78.53660    -999.25    -999.25   79.70080   79.70080   14.81870    -999.25    -999.25   13.11850    -999.25  -96.50370   -3.55220   13.11850
 5900.00000    -999.25    -999.25   11.03060   11.03060   90.29040   82.62820    -999.25    -999.25    -999.25    -999.25    -999.25   12.10240   82.95730   82.95730    -999.25    -999.25   88.43190   88.43190   12.10240    -999.25    -999.25   11.94870    -999.25  -94.99650   -2.46020   11.94870
 5950.00000    -999.25    -999.25   11.18350   11.18350  101.25640   89.76920    -999.25    -999.25    -999.25    -999.25    -999.25   11.14010   90.25610   90.25610    -999.25    -999.25   84.36880   84.36880   11.14010    -999.25    -999.25   11.05330    -999.25  -94.66290   -2.54450   11.05330
 6000.00000    -999.25    -999.25    9.92680    9.92680   60.08890   52.80970    -999.25    -999.25    -999.25    -999.25    -999.25   18.93590   83.68790   83.68790    -999.25    -999.25   94.03660   94.03660   18.93590    -999.25    -999.25   18.53760    -999.25  -94.33950   -2.63630   18.53760
 6050.00000    -999.25    -999.25   10.41670   10.41670   72.81640   61.77530    -999.25    -999.25    -999.25    -999.25    -999.25   16.18770   84.35380   84.35380    -999.25    -999.25  107.82500  107.82500   16.18770    -999.25    -999.25   15.90730    -999.25  -94.76300   -3.47500   15.90730
 6100.00000    -999.25    -999.25   10.37490   10.37490   69.00010   61.14710    -999.25    -999.25    -999.25    -999.25    -999.25   16.35400   86.74700   86.74700    -999.25    -999.25  102.83760  102.83760   16.35400    -999.25    -999.25   17.22870    -999.25  -94.57500   -3.70490   17.22870
 6150.00000    -999.25    -999.25   10.02430   10.02430   56.83260   50.22250    -999.25    -999.25    -999.25    -999.25    -999.25   19.91140   81.33410   81.33410    -999.25    -999.25  106.82600  106.82600   19.91140    -999.25    -999.25   20.14450    -999.25  -94.08240   -3.62740   20.14450
 6200.00000    -999.25    -999.25   10.11260   10.11260   56.62960   49.68640    -999.25    -999.25    -999.25    -999.25    -999.25   20.12800   87.61420   87.61420    -999.25    -999.25  117.91830  117.91830   20.12800    -999.25    -999.25   20.25350    -999.25  -93.80900   -3.77200   20.25350
 6250.00000    -999.25    -999.25   10.48650   10.48650   75.36130   67.89830    -999.25    -999.25    -999.25    -999.25    -999.25   14.72790   87.21740   87.21740    -999.25    -999.25  107.31970  107.31970   14.72790    -999.25    -999.25   15.93750    -999.25  -93.18710   -3.56520   15.93750
 6300.00000    -999.25    -999.25   10.46880   10.46880   71.93870   61.59610    -999.25    -999.25    -999.25    -999.25    -999.25   16.23480   85.02720   85.02720    -999.25    -999.25   89.68700   89.68700   16.23480    -999.25    -999.25   16.50080    -999.25  -93.10430   -3.89760   16.50080
 6350.00000    -999.25    -999.25   10.33650   10.33650   53.43970   46.27340    -999.25    -999.25    -999.25    -999.25    -999.25   21.61070   80.16920   80.16920    -999.25    -999.25  148.41460  148.41460   21.61070    -999.25    -999.25   20.07160    -999.25  -93.94940   -4.48820   20.07160
 6400.00000    -999.25    -999.25   11.09750   11.09750   94.26310   86.95950    -999.25    -999.25    -999.25    -999.25    -999.25   11.49960   78.36860   78.36860    -999.25    -999.25   81.72590   81.72590   11.49960    -999.25    -999.25   10.90390    -999.25  -93.95440   -4.22700   10.90390
 6450.00000    -999.25    -999.25   10.60730   10.60730  131.39000  116.35150    -999.25    -999.25    -999.25    -999.25    -999.25    8.59490   79.90660   79.90660    -999.25    -999.25   93.70320   93.70320    8.59490    -999.25    -999.25    8.94430    -999.25  -93.10530   -3.10990    8.94430
 6500.00000    -999.25    -999.25   12.08460   12.08460  139.47090  123.56820    -999.25    -999.25    -999.25    -999.25    -999.25    8.09270   88.74880   88.74880    -999.25    -999.25   92.16190   92.16190    8.09270    -999.25    -999.25    8.43820    -999.25  -94.75380   -4.49220    8.43820
 6550.00000    -999.25    -999.25   11.24450   11.24450  110.68870   98.84060    -999.25    -999.25    -999.25    -999.25    -999.25   10.11730   81.50150   81.50150    -999.25    -999.25   91.38270   91.38270   10.11730    -999.25    -999.25   10.32120    -999.25  -95.90260   -5.37480   10.32120
 6600.00000    -999.25    -999.25   10.90890   10.90890  114.35710  102.42860    -999.25    -999.25    -999.25    -999.25    -999.25    9.76290  101.53160  101.53160    -999.25    -999.25   95.60850   95.60850    9.76290    -999.25    -999.25    9.86960    -999.25  -95.85160   -5.20820    9.86960
 6650.00000    -999.25    -999.25   11.90870   11.90870  127.53890  113.37480    -999.25    -999.25    -999.25    -999.25    -999.25    8.82030   86.20780   86.20780    -999.25    -999.25   96.49020   96.49020    8.82030    -999.25    -999.25    8.98910    -999.25  -94.95900   -4.31560    8.98910
 6700.00000    -999.25    -999.25   12.89540   12.89540  254.14190  254.14190    -999.25    -999.25    -999.25    -999.25    -999.25    3.93480   92.79860   92.79860    -999.25    -999.25   86.28620   86.28620    4.50260    -999.25    -999.25    5.23640    -999.25  -93.41810   -2.77470    5.23640
 6750.00000    -999.25    -999.25   11.58790   11.58790  216.41740  190.00210    -999.25    -999.25    -999.25    -999.25    -999.25    5.26310   88.62020   88.62020    -999.25    -999.25   96.44580   96.44580    5.26310    -999.25    -999.25    5.48300    -999.25  -95.51460   -4.87120    5.48300
 6800.00000    -999.25    -999.25   10.83960   10.83960  145.26710  130.81640    -999.25    -999.25    -999.25    -999.25    -999.25    7.64430   83.60200   83.60200    -999.25    -999.25   94.21200   94.21200    7.64430    -999.25    -999.25    7.96560    -999.25  -94.70000   -4.05660    7.96560
 6850.00000    -999.25    -999.25    9.96450    9.96450   43.10130   39.16180    -999.25    -999.25    -999.25    -999.25    -999.25   25.53510   69.41720   69.41720    -999.25    -999.25   79.28610   79.28610   25.53510    -999.25    -999.25   23.75240    -999.25  -95.97120   -5.65640   23.75240
 6900.00000    -999.25    -999.25    9.72000    9.72000  411.25430  411.25430    -999.25    -999.25    -999.25    -999.25    -999.25    2.43160  154.12630  154.12630    -999.25    -999.25   79.58660   79.58660    3.07930    -999.25    -999.25    3.43650    -999.25  -95.96710   -6.02220    3.43650
 6950.00000    -999.25    -999.25    9.86620    9.86620   59.87160   52.21620    -999.25    -999.25    -999.25    -999.25    -999.25   19.17710   69.64830   69.64830    -999.25    -999.25   58.80320   58.80320   19.17710    -999.25    -999.25   18.41170    -999.25 -107.00590  -17.43340   18.41170
 7000.00000    -999.25    -999.25   10.62220   10.62220   63.71390   56.26200    -999.25    -999.25    -999.25    -999.25    -999.25   17.77400   81.57780   81.57780    -999.25    -999.25   78.62030   78.62030   17.77400    -999.25    -999.25   12.85590    -999.25  -94.78530   -5.58280   12.85590
