~Version ---------------------------------------------------
VERS.      2.0 : CWLS log ASCII Standard -VERSION 2.0
WRAP.       NO : One line per depth step
CREA. 01/03/18 : LAS Creation Date
~Well ------------------------------------------------------
STRT.FT                      800.0 : START DEPTH
STOP.FT                     8150.0 : STOP DEPTH
STEP.FT                   50.00000 : STEP LENGTH
NULL.                      -999.25 : NULL VALUE
COMP.          TOTAL PETROLEUM LTD : COMPANY
WELL. TOTAL PCP KINAKIN 16-27-63-9 : WELL
FLD .                              : FIELD
LOC .                              : LOCATION
CTRY.                       CANADA : COUNTRY
SRVC.                 Schlumberger : SERVICE COMPANY
DATE.                  08-Mar-1974 : LOGDATE
PROV.                      Alberta : PROVINCE
UWI .             100162706309W500 : UNIQUE WELL ID
SLAT.WGS84                54.48436 : SURFACE LATITUDE
SLON.WGS84               -115.2648 : SURFACE LONGITUDE
~Curve Information -----------------------------------------
DEPT    .FT    : Depth Curve
CALDED  .IN    : CALIPER CNFD (ADJ TO RES.)
CALSED  .IN    : CALIPER SONIC (ADJ TO RES.)
CALWS   .IN    : CALIPER [CALSED]
CONDWS  .MMHO  : CONDUCTIVITY (1000/DRESWS)
DCORWS  .G/C3  : DENSITY CORRECTION (DRHOED)
DENWS   .G/C3  : BULK DENSITY  (RHOBED)
DPHILSED.V/V   : DENSITY POROSITY LIMESTONE (ADJ TO RES.)
DPHISSED.V/V   : DENSITY POROSITY SANDSTONE (ADJ TO RES.)
DPOLSWS .V/V   : DENSITY POROSITY (M=2.71 F=1.00 FROM DENWS)
DRESWS  .OHMM  : DEEP RESISTIVITY (ILDED)
DRHOED  .G/C3  : DENSITY CORRECTION
DTED    .US/F  : DELTA TIME
DTWS    .US/F  : DELTA TIME (DTED)
GRDED   .GAPI  : GAMMA RAY CNFD (ADJ TO RES.)
GRSED   .GAPI  : GAMMA RAY SONIC (ADJ TO RES.)
GRWS    .GAPI  : GAMMA RAY (GRSED)
ILDED   .OHMM  : DEEP INDUCTION RESISTIVITY
ILMED   .OHMM  : MEDIUM INDUCTION RESISTIVITY
LL8ED   .OHMM  : LATEROLOG-8 RESISTIVITY
MRESWS  .OHMM  : MEDIUM RESISTIVITY (ILMED)
NPHILSED.V/V   : NEUTRON POROSITY LIMESTONE (ADJ TO RES.)
NPHISSED.V/V   : NEUTRON POROSITY SANDSTONE (ADJ TO RES.)
NPOLSWS .V/V   : NEUTRON POROSITY LIMESTONE (NPHISSED CONVERTED TO LS/NPHILSED @ 4396')
RHOBED  .G/C3  : BULK DENSITY
SPRED   .MV    : Spontaneous Potential  DIL
SPWS    .MV    : SPONTANEOUS POTENTIAL BASELINE 0 MV (SPRED)
SRESWS  .OHMM  : SHALLOW RESISTIVITY (LL8ED)
~Params ----------------------------------------------------
PD  .                     GL : PERMANENT DATUM
EPD .FT               2924.5 : ELEVATION PERMANENT DATUM
LMF .                     KB : LOG MEASURED FROM
DAPD.FT                 13.5 : FEET ABOVE PERMANENT DATUM
EKB .FT                 2938 : KELLY BUSHING
EGL .FT               2924.5 : GROUND LEVEL
DATE.               03/08/74 : RUN DATE
RUN .                      1 : RUN NUMBER
DD  .FT                 8170 : DEPTH DRILLER
DL  .FT                 8169 : DEPTH LOGGER
BLI .FT                 8163 : BOTTOM LOG INTERVAL
TLI .FT                  836 : TOP LOG INTERVAL
CBD .FT                  835 : CASING BOTTOM DRILLER
BS  .IN                 8.75 : BIT SIZE
BSD .FT                 8170 : BIT SIZE AT DEPTH
DFT .               GEL CHEM : DRILLING FLUID TYPE
DFD .                    9.0 : DRILLING FLUID DENSITY
DFV .                     78 : DRILLING FLUID VISCOSITY
DFPH.                     10 : DRILLING FLUID PH
DFL .                    7.8 : DRILLING FLUID LOSS
MSS .             CALCULATED : MUD SAMPLE SOURCE
RMF .OHMM               1.34 : RESISTIVITY MUD FILTRATE SAMPLE
MFST.DEGF                 62 : MUD FILTRATE SAMPLE TEMPERATURE
RMB .OHMM               0.64 : RESISTIVITY MUD AT BHT
TCS .HRS                   3 : TIME CIRCULATED STOPPED
LUN .                   7692 : LOGGING UNIT NUMBER
LUL .                    EDM : LOGGING UNIT LOCATION
ENGI.                   WOON : RECORDING ENGINEER
WITN.              MACKENZIE : WITNESSED BY
CLNT.                A2DTECH : CLIENT CODE
ORIG.            2" 5" PRINT : ORIGIN OF DATA
UWI .       100162706309W500 : UNIQUE WELL ID
DICO. A2D Technologies, Inc. : DIGITIZING COMPANY
~Other -----------------------------------------------------
~ASCII -----------------------------------------------------
# ...
 2100.00000    -999.25   10.78080   10.78080  215.65670    -999.25    -999.25    -999.25    -999.25    -999.25    4.63700    -999.25  103.03820  103.03820    -999.25   61.41420   61.41420    4.63700    4.79230    4.63590    4.79230    -999.25    -999.25    -999.25    -999.25  -70.71630   -1.66250    4.63590
 2150.00000    -999.25    8.87770    8.87770   74.66480    -999.25    -999.25    -999.25    -999.25    -999.25   13.39320    -999.25   71.91270   71.91270    -999.25   40.86780   40.86780   13.39320   22.81870   28.81350   22.81870    -999.25    -999.25    -999.25    -999.25  -88.73940  -19.97820   28.81350
 2200.00000    -999.25   11.17980   11.17980  270.13850    -999.25    -999.25    -999.25    -999.25    -999.25    3.70260    -999.25  114.18520  114.18520    -999.25   66.31100   66.31100    3.70260    3.67880    3.67170    3.67880    -999.25    -999.25    -999.25    -999.25  -72.54570   -4.07850    3.67170
 2250.00000    -999.25    8.94880    8.94880  204.83830    -999.25    -999.25    -999.25    -999.25    -999.25    4.88190    -999.25   94.85720   94.85720    -999.25   61.08580   61.08580    4.88190    5.17150    6.32210    5.17150    -999.25    -999.25    -999.25    -999.25  -70.96930   -2.79320    6.32210
 2300.00000    -999.25    9.84040    9.84040  262.08200    -999.25    -999.25    -999.25    -999.25    -999.25    3.81560    -999.25  113.48290  113.48290    -999.25   72.04760   72.04760    3.81560    3.91510    4.16580    3.91510    -999.25    -999.25    -999.25    -999.25  -70.78290   -2.89940    4.16580
 2350.00000    -999.25   10.91510   10.91510  219.62090    -999.25    -999.25    -999.25    -999.25    -999.25    4.55330    -999.25  106.01010  106.01010    -999.25   68.20730   68.20730    4.55330    4.69560    4.87730    4.69560    -999.25    -999.25    -999.25    -999.25  -70.14320   -2.55230    4.87730
 2400.00000    -999.25   10.79860   10.79860  172.20890    -999.25    -999.25    -999.25    -999.25    -999.25    5.80690    -999.25  105.52650  105.52650    -999.25   90.49190   90.49190    5.80690    5.53630    6.00970    5.53630    -999.25    -999.25    -999.25    -999.25  -72.62360   -5.34940    6.00970
 2450.00000    -999.25   11.67220   11.67220  161.92370    -999.25    -999.25    -999.25    -999.25    -999.25    6.17570    -999.25  106.10800  106.10800    -999.25   95.89630   95.89630    6.17570    5.41920    5.93540    5.41920    -999.25    -999.25    -999.25    -999.25  -75.80040   -8.98180    5.93540
 2500.00000    -999.25   12.35930   12.35930  187.18180    -999.25    -999.25    -999.25    -999.25    -999.25    5.34240    -999.25  109.32670  109.32670    -999.25  106.93380  106.93380    5.34240    4.92160    5.56810    4.92160    -999.25    -999.25    -999.25    -999.25  -76.10220   -9.73460    5.56810
 2550.00000    -999.25   11.05380   11.05380  203.37600    -999.25    -999.25    -999.25    -999.25    -999.25    4.91700    -999.25  114.65380  114.65380    -999.25  121.32190  121.32190    4.91700    4.51100    5.38860    4.51100    -999.25    -999.25    -999.25    -999.25  -71.88110   -5.96690    5.38860
 2600.00000    -999.25   11.19270   11.19270  145.40380    -999.25    -999.25    -999.25    -999.25    -999.25    6.87740    -999.25  107.59780  107.59780    -999.25  120.43850  120.43850    6.87740    6.39920    7.58910    6.39920    -999.25    -999.25    -999.25    -999.25  -74.31680   -8.85590    7.58910
 2650.00000    -999.25   11.53790   11.53790  159.32950    -999.25    -999.25    -999.25    -999.25    -999.25    6.27630    -999.25   99.28680   99.28680    -999.25  108.71280  108.71280    6.27630    5.86230    6.47670    5.86230    -999.25    -999.25    -999.25    -999.25  -74.87950   -9.87190    6.47670
 2700.00000    -999.25   10.96600   10.96600  163.74920    -999.25    -999.25    -999.25    -999.25    -999.25    6.10690    -999.25  100.33360  100.33360    -999.25   93.70290   93.70290    6.10690    5.24570    5.50110    5.24570    -999.25    -999.25    -999.25    -999.25  -75.11950  -10.56750    5.50110
 2750.00000    -999.25   10.04030   10.04030  180.32310    -999.25    -999.25    -999.25    -999.25    -999.25    5.54560    -999.25  111.89090  111.89090    -999.25  100.48410  100.48410    5.54560    4.88180    5.37550    4.88180    -999.25    -999.25    -999.25    -999.25  -75.42280  -11.32190    5.37550
 2800.00000    -999.25   10.23540   10.23540  121.65300    -999.25    -999.25    -999.25    -999.25    -999.25    8.22010    -999.25  100.46830  100.46830    -999.25  110.19920  110.19920    8.22010    7.41780    7.98080    7.41780    -999.25    -999.25    -999.25    -999.25  -71.25200   -7.60440    7.98080
 2850.00000    -999.25   11.47430   11.47430  125.74820    -999.25    -999.25    -999.25    -999.25    -999.25    7.95240    -999.25   91.78640   91.78640    -999.25   92.41910   92.41910    7.95240    7.26510    6.81800    7.26510    -999.25    -999.25    -999.25    -999.25  -75.71630  -12.52200    6.81800
 2900.00000    -999.25   10.62160   10.62160  142.87140    -999.25    -999.25    -999.25    -999.25    -999.25    6.99930    -999.25  101.68860  101.68860    -999.25  105.67380  105.67380    6.99930    6.56110    6.37330    6.56110    -999.25    -999.25    -999.25    -999.25  -73.22630  -10.48530    6.37330
 2950.00000    -999.25   10.81190   10.81190  172.41590    -999.25    -999.25    -999.25    -999.25    -999.25    5.80040    -999.25  102.30970  102.30970    -999.25  101.96000  101.96000    5.80040    5.23620    5.19540    5.23620    -999.25    -999.25    -999.25    -999.25  -72.65130  -10.36600    5.19540
 3000.00000    -999.25   10.18970   10.18970  143.24390    -999.25    -999.25    -999.25    -999.25    -999.25    6.98110    -999.25  114.56130  114.56130    -999.25   98.03800   98.03800    6.98110    5.80610    6.33670    5.80610    -999.25    -999.25    -999.25    -999.25  -72.87220  -11.03790    6.33670
 3050.00000    -999.25   11.45870   11.45870  158.91180    -999.25    -999.25    -999.25    -999.25    -999.25    6.29280    -999.25   99.33290   99.33290    -999.25  113.54460  113.54460    6.29280    5.36990    5.62340    5.36990    -999.25    -999.25    -999.25    -999.25  -72.08040  -10.69940    5.62340
 3100.00000    -999.25   10.50390   10.50390  169.60360    -999.25    -999.25    -999.25    -999.25    -999.25    5.89610    -999.25   96.73280   96.73280    -999.25  112.26680  112.26680    5.89610    5.06500    5.72910    5.06500    -999.25    -999.25    -999.25    -999.25  -70.72500   -9.79730    5.72910
 3150.00000    -999.25   10.77250   10.77250  189.27210    -999.25    -999.25    -999.25    -999.25    -999.25    5.28340    -999.25  107.51820  107.51820    -999.25  114.40710  114.40710    5.28340    4.69180    5.53180    4.69180    -999.25    -999.25    -999.25    -999.25  -66.84720   -6.37290    5.53180
 3200.00000    -999.25    9.71710    9.71710  151.75900    -999.25    -999.25    -999.25    -999.25    -999.25    6.58940    -999.25  105.36740  105.36740    -999.25  115.38400  115.38400    6.58940    6.08430    7.31610    6.08430    -999.25    -999.25    -999.25    -999.25  -66.18940   -6.17070    7.31610
 3250.00000    -999.25    9.58320    9.58320  149.22700    -999.25    -999.25    -999.25    -999.25    -999.25    6.70120    -999.25  108.12350  108.12350    -999.25  123.56040  123.56040    6.70120    6.34730    7.66790    6.34730    -999.25    -999.25    -999.25    -999.25  -65.74370   -6.17600    7.66790
 3300.00000    -999.25    9.93820    9.93820  168.25100    -999.25    -999.25    -999.25    -999.25    -999.25    5.94350    -999.25  105.58790  105.58790    -999.25  129.51320  129.51320    5.94350    5.52480    6.61750    5.52480    -999.25    -999.25    -999.25    -999.25  -63.82560   -4.71120    6.61750
 3350.00000    -999.25    9.35020    9.35020   98.95800    -999.25    -999.25    -999.25    -999.25    -999.25   10.10530    -999.25   95.74950   95.74950    -999.25  283.51960  283.51960   10.10530    9.75670   13.53100    9.75670    -999.25    -999.25    -999.25    -999.25  -64.92360   -6.26260   13.53100
