~Version ---------------------------------------------------
VERS.      2.0 : CWLS log ASCII Standard -VERSION 2.0
WRAP.       NO : One line per depth step
CREA. 01/05/18 : LAS Creation Date
~Well ------------------------------------------------------
STRT.FT                      950.0 : START DEPTH
STOP.FT                    10300.0 : STOP DEPTH
STEP.FT                   50.00000 : STEP LENGTH
NULL.                      -999.25 : NULL VALUE
COMP.         PETROFINA CANADA LTD : COMPANY
WELL. FINA ET AL KAYBOB 10-7-60-17 : WELL
FLD .                              : FIELD
LOC .                              : LOCATION
CTRY.                       CANADA : COUNTRY
SRVC.                 Schlumberger : SERVICE COMPANY
DATE.                  18-Jan-1976 : LOGDATE
PROV.                      Alberta : PROVINCE
UWI .             100100706017W500 : UNIQUE WELL ID
SLAT.WGS84                54.17689 : SURFACE LATITUDE
SLON.WGS84               -116.5329 : SURFACE LONGITUDE
~Curve Information -----------------------------------------
DEPT    .FT    : Depth Curve
CALDED  .IN    : CALIPER FROM DENSITY LOG [ADJ. TO RESISTIVITY LOG]
CALSED  .IN    : CALIPER FROM SONIC LOG
CALWS   .IN    : CALIPER [CALDED SPL. TO CALSED @ 1046']
CILDED  .MMHO  : CONDUCTIVITY FROM RESISTIVITY LOG
CONDWS  .MMHO  : CONDUCTIVITY [1000/DRESWS]
DCORED  .G/C3  : DENSITY CORRECTION FROM DENSITY LOG [ADJ. TO RESISTIVITY LOG]
DCORWS  .G/C3  : DENSITY CORRECTION [DCORED]
DENWS   .G/C3  : FORMATION BULK DENSITY [CALC. FROM DPOLSWS, M=M=2.71 F=1.00]
DPHILSED.V/V   : DENSITY POROSITY LIMESTONE [M=M=2.71 F=1.00] FROM DENSITY LOG [ADJ. TO RESISTIVITY LOG]
DPHISSED.V/V   : DENSITY POROSITY SANDSTONE [M=2.65 F=1.00] FROM DENSITY LOG [ADJ. TO RESISTIVITY LOG]
DPOLSWS .V/V   : DENSITY POROSITY LIMESTONE [DPHISSED CONVERTED TO LIMESTONE (M=2.71 F=1.00), SPL. TO DPHILSED @ 6847']
DRESWS  .OHMM  : DEEP RESISTIVITY [1000/CILDED, IF ILDED < 2, ILDED & SPL. TO ILDED @ 1043'-3980']
DTED    .US/F  : DELTA TIME FROM SONIC LOG
DTWS    .US/F  : COMPRESSIONAL SONIC [DTED]
GRDED   .GAPI  : GAMMA RAY FROM DENSITY LOG [ADJ. TO RESISTIVITY LOG]
GRSED   .GAPI  : GAMMA RAY FROM SONIC LOG
GRWS    .GAPI  : GAMMA RAY [GRSED]
ILDED   .OHMM  : DEEP  INDUCTION LOG RESISTIVITY FROM RESISTIVITY LOG
ILMED   .OHMM  : MEDIUM INDUCTION LOG RESISTIVITY FROM RESISTIVITY LOG
LL8ED   .OHMM  : 8 INCH LATEROLOG RESISTIVITY FROM RESISTIVITY LOG
MRESWS  .OHMM  : MEDIUM RESISTIVITY [ILMED]
NPHILSED.V/V   : NEUTRON POROSITY LIMESTONE FROM DENSITY LOG [ADJ. TO RESISTIVITY LOG]
NPHISSED.V/V   : NEUTRON POROSITY SANDSTONE FROM DENSITY LOG [ADJ. TO RESISTIVITY LOG]
NPOLSWS .V/V   : NEUTRON POROSITY LIMESTONE [NPHISSED MATRIX CONVERSION FOR LIMESTONE, SPL. TO NPHILSED @ 6847']
RHOBED  .G/C3  : BULK DENSITY FROM DENSITY LOG [ADJ. TO RESISTIVITY LOG]
SPRED   .MV    : SPONTANEOUS POTENTIAL FROM RESISTIVITY LOG
SPWS    .MV    : SPONTANEOUS POTENTIAL [BASELINE 0 MV, SPRED]
SRESWS  .OHMM  : SHALLOW RESISTIVITY [LL8ED]
~Params ----------------------------------------------------
PD  .                     GL : PERMANENT DATUM
EPD .FT              2627.65 : ELEVATION PERMANENT DATUM
LMF .                     KB : LOG MEASURED FROM
DAPD.FT                 14.2 : FEET ABOVE PERMANENT DATUM
EKB .FT              2641.85 : KELLY BUSHING
EGL .FT              2627.65 : GROUND LEVEL
DATE.               01/18/76 : RUN DATE
RUN .                      1 : RUN NUMBER
DD  .FT                10330 : DEPTH DRILLER
DL  .FT                10336 : DEPTH LOGGER
BLI .FT                10330 : BOTTOM LOG INTERVAL
TLI .FT                 1038 : TOP LOG INTERVAL
CBD .FT                 1039 : CASING BOTTOM DRILLER
CBL .FT                 1038 : CASING BOTTOM LOGGER
BS  .IN                 8.75 : BIT SIZE
BSD .FT                10330 : BIT SIZE AT DEPTH
DFT .            GEL CAUSTIC : DRILLING FLUID TYPE
DFD .                    9.1 : DRILLING FLUID DENSITY
DFV .                    220 : DRILLING FLUID VISCOSITY
DFPH.                   10.5 : DRILLING FLUID PH
DFL .                    9.5 : DRILLING FLUID LOSS
MSS .             CIRCULATED : MUD SAMPLE SOURCE
RMS .OHMM               2.67 : RESISTIVITY MUD SAMPLE
MST .DEGF                 52 : MUD SAMPLE TEMPERATURE
RMF .OHMM               2.43 : RESISTIVITY MUD FILTRATE SAMPLE
MFST.DEGF                 73 : MUD FILTRATE SAMPLE TEMPERATURE
RMB .OHMM               0.88 : RESISTIVITY MUD AT BHT
TCS .HRS                   4 : TIME CIRCULATED STOPPED
LUN .                   7667 : LOGGING UNIT NUMBER
LUL .                    EDM : LOGGING UNIT LOCATION
ENGI.                 DENNIS : RECORDING ENGINEER
WITN.                JOHNSON : WITNESSED BY
CLNT.                A2DTECH : CLIENT CODE
ORIG.            2" 5" PRINT : ORIGIN OF DATA
UWI .       100100706017W500 : UNIQUE WELL ID
DICO. A2D Technologies, Inc. : DIGITIZING COMPANY
~Other -----------------------------------------------------
~ASCII -----------------------------------------------------
# ...
 4700.00000   10.75490    9.83080    9.83080    -999.25   91.08380    0.24990    0.24990    2.28370    -999.25    0.22200    0.24930   10.97890   92.03870   92.03870  146.25940  136.40610  136.40610   10.97890   11.40170   14.06410   11.40170    -999.25    0.37250    0.32910    2.28160  -47.52140   -2.95230   14.06410
 4750.00000   10.92930   11.84580   11.84580    -999.25   86.23220    0.25000    0.25000    2.26260    -999.25    0.23480    0.26160   11.59660   93.46070   93.46070  123.37980  116.50670  116.50670   11.59660   12.38870   14.82290   12.38870    -999.25    0.43380    0.39170    2.27440  -48.17590   -3.77680   14.82290
 4800.00000    9.49150    9.34280    9.34280    -999.25   65.91740    0.13370    0.13370    2.46490    -999.25    0.11220    0.14340   15.18470   90.98280   90.98280  116.52110  137.26380  137.26380   15.18470   16.54830   20.02830   16.54830    -999.25    0.38580    0.34270    2.47050  -47.56120   -3.33130   20.02830
 4850.00000    9.69720    9.47350    9.47350    -999.25  111.48400    0.04740    0.04740    2.43290    -999.25    0.13160    0.16210    8.96990   88.23090   88.23090  122.00240  121.59530  121.59530    8.96990   10.53610   11.30130   10.53610    -999.25    0.39440    0.35150    2.45730  -47.34490   -3.28580   11.30130
 4900.00000   10.90210   10.12340   10.12340    -999.25  113.25540    0.25000    0.25000    2.14080    -999.25    0.30860    0.33290    8.82960   82.09030   82.09030  105.34240  101.11320  101.11320    8.82960    9.50680   10.97840    9.50680    -999.25    0.30950    0.26560    2.13200  -50.70680   -6.05700   10.97840
 4950.00000   11.12340   10.49830   10.49830    -999.25  148.88490    0.23090    0.23090    2.12960    -999.25    0.31540    0.33940    6.71660   83.21660   83.21660  104.92720   98.01620   98.01620    6.71660    7.13040    7.34550    7.13040    -999.25    0.35380    0.31020    2.14040  -52.01620   -6.26860    7.34550
 5000.00000   10.56300   10.24740   10.24740    -999.25  120.72050    0.17840    0.17840    2.21750    -999.25    0.26210    0.28800    8.28360   79.86820   79.86820  107.13120  105.67540  105.67540    8.28360    9.11120   10.36800    9.11120    -999.25    0.32210    0.27820    2.20950  -49.25150   -2.40610   10.36800
 5050.00000   11.40550    9.92970    9.92970    -999.25  126.55590    0.22560    0.22560    2.15500    -999.25    0.30000    0.32460    7.90190   81.71780   81.71780  107.62170  102.11150  102.11150    7.90190    8.40670    9.31800    8.40670    -999.25    0.30580    0.26190    2.15970  -59.20470  -12.67880    9.31800
 5100.00000    9.43330    9.35330    9.35330    -999.25   63.68010    0.17660    0.17660    2.50300    -999.25    0.08910    0.12110   15.70350   76.29210   76.29210  101.13090  101.15690  101.15690   15.70350   17.05120   18.45440   17.05120    -999.25    0.29020    0.24620    2.50880  -58.88310  -12.70920   18.45440
 5150.00000   10.13760    9.70160    9.70160    -999.25  120.33260    0.25000    0.25000    2.25600    -999.25    0.23880    0.26550    8.31030   76.87850   76.87850  113.82060  106.45730  106.45730    8.31030    8.85590    9.87640    8.85590    -999.25    0.30610    0.26210    2.25430  -58.66420  -12.84050    9.87640
 5200.00000   10.34790   11.42610   11.42610    -999.25  176.60040    0.18130    0.18130    2.47660    -999.25    0.10510    0.13650    5.66250   87.26100   87.26100  104.27360  101.04690  101.04690    5.66250    5.89470    7.18260    5.89470    -999.25    0.40860    0.36590    2.50230  -59.46110  -13.98770    7.18260
 5250.00000   10.93460   11.10640   11.10640    -999.25  150.77730    0.05740    0.05740    2.55170    -999.25    0.05960    0.09260    6.63230   84.84380   84.84380  127.56830  124.96080  124.96080    6.63230    7.27430    9.47140    7.27430    -999.25    0.34750    0.30380    2.56110  -57.19900  -12.07580    9.47140
 5300.00000   12.76290   12.11710   12.11710    -999.25  344.24000    0.11920    0.11920    2.49700    -999.25    0.09270    0.12450    2.90490   95.01420   95.01420  102.18990  100.69530  100.69530    2.90490    3.12860    4.22640    3.12860    -999.25    0.38190    0.33870    2.50130  -57.54950  -12.77480    4.22640
 5350.00000   11.46840   12.56570   12.56570    -999.25  259.12780    0.17890    0.17890    2.08220    -999.25    0.34410    0.36710    3.85910   86.36870   86.36870   94.82340   95.11150   95.11150    3.85910    4.16260    5.53730    4.16260    -999.25    0.40050    0.35760    2.07100  -57.22180  -12.79910    5.53730
 5400.00000   11.09850   10.49030   10.49030    -999.25  180.67830    0.25000    0.25000    2.14550    -999.25    0.30570    0.33010    5.53470   83.44200   83.44200  103.58540   98.99950   98.99950    5.53470    6.05210    6.99470    6.05210    -999.25    0.32980    0.28600    2.14430  -55.75360  -11.68110    6.99470
 5450.00000    8.92040    8.96720    8.96720    -999.25   56.66330    0.25010    0.25010    2.55360    -999.25    0.05840    0.09140   17.64810   69.40670   69.40670   56.12590   56.33740   56.33740   17.64810   20.95300   24.14360   20.95300    -999.25    0.15310    0.11050    2.56420  -64.37690  -20.65460   24.14360
 5500.00000   10.08750    9.87690    9.87690    -999.25   78.92160    0.25000    0.25000    2.40250    -999.25    0.15000    0.17980   12.67080   73.98980   73.98980   81.40800   82.88370   82.88370   12.67080   14.31460   14.33270   14.31460    -999.25    0.21710    0.17350    2.41910  -55.38430  -12.01220   14.33270
 5550.00000   11.09880   10.51940   10.51940    -999.25  255.06160    0.13320    0.13320    2.29650    -999.25    0.21420    0.24180    3.92340   93.54280   93.54280   92.42390   87.18700   87.18700    3.92340    3.51140    5.09820    3.51140    -999.25    0.43970    0.39770    2.28810  -52.77420   -9.75060    5.09820
 5600.00000   12.98290   10.75800   10.75800    -999.25  138.72130    0.25020    0.25020    1.88870    -999.25    0.46140    0.48030    7.20870  106.26900  106.26900   91.04530   83.30030   83.30030    7.20870    7.73950    7.82250    7.73950    -999.25    0.53830    0.50050    1.97120  -54.37400  -11.70240    7.82250
 5650.00000    9.25400    9.36770    9.36770    -999.25   86.61160    0.03090    0.03090    2.61010    -999.25    0.02420    0.05840   11.54580   72.39080   72.39080   80.59400   81.82800   81.82800   11.54580   12.67590   17.55660   12.67590    -999.25    0.26740    0.22340    2.62140  -54.60190  -12.28050   17.55660
 5700.00000    9.39840    9.42700    9.42700    -999.25   82.17130    0.03370    0.03370    2.53220    -999.25    0.07140    0.10400   12.16970   76.72440   76.72440   77.66130   80.24390   80.24390   12.16970   11.06540   17.48040   11.06540    -999.25    0.35850    0.31500    2.53740  -56.23580  -14.26470   17.48040
 5750.00000    9.33100    9.44110    9.44110    -999.25   77.56270    0.02640    0.02640    2.61750    -999.25    0.01970    0.05410   12.89280   70.26080   70.26080   75.92190   78.55590   78.55590   12.89280   14.05220   18.85480   14.05220    -999.25    0.26920    0.22520    2.61250  -54.05840  -12.43750   18.85480
 5800.00000   10.21520    9.85760    9.85760    -999.25   72.00160    0.06790    0.06790    2.60460    -999.25    0.02750    0.06160   13.88860   69.53290   69.53290   78.86540   78.98810   78.98810   13.88860   15.09660   15.50560   15.09660    -999.25    0.23150    0.18780    2.60680  -55.30180  -14.02940   15.50560
 5850.00000   10.36660   10.51690   10.51690    -999.25   80.50430    0.06250    0.06250    2.62360    -999.25    0.01600    0.05050   12.42170   74.51660   74.51660  100.34510  100.15610  100.15610   12.42170   13.25580   13.89630   13.25580    -999.25    0.29410    0.25010    2.62580  -52.78770  -11.86730   13.89630
 5900.00000    9.92260    9.88460    9.88460    -999.25   70.26620    0.07460    0.07460    2.60680    -999.25    0.02620    0.06040   14.23160   78.85140   78.85140   93.90400   94.22320   94.22320   14.23160   15.74650   17.93770   15.74650    -999.25    0.33490    0.29110    2.59840  -53.43570  -12.86550   17.93770
