~Version ---------------------------------------------------
VERS.      2.0 : CWLS log ASCII Standard -VERSION 2.0
WRAP.       NO : One line per depth step
CREA. 06/29/13 : LAS Creation Date
~Well ------------------------------------------------------
STRT.M                         300.0 : START DEPTH
STOP.M                        2350.0 : STOP DEPTH
STEP.M                      50.00000 : STEP LENGTH
NULL.                        -999.25 : NULL VALUE
COMP.   HUSKY OIL OPERATIONS LIMITED : COMPANY
WELL. CANTERRA GHOST PINE 8-33-31-22 : WELL
FLD .                                : FIELD
LOC .                                : LOCATION
CTRY.                         CANADA : COUNTRY
SRVC.                   Schlumberger : SERVICE COMPANY
DATE.                    02-Sep-1989 : LOGDATE
PROV.                        Alberta : PROVINCE
UWI .               100083303122W400 : UNIQUE WELL ID
SLAT.WGS84                  51.69754 : SURFACE LATITUDE
SLON.WGS84                 -113.0561 : SURFACE LONGITUDE
~Curve Information -----------------------------------------
DEPT    .M      : DEPTH METER
C1ED    .MM     : CALIPER 1 FROM DENSITY LOG [ADJ. TO RESISTIVITY LOG]
C2ED    .MM     : CALIPER 2 FROM DENSITY LOG [ADJ. TO RESISTIVITY LOG]
CALWS   .MM     : CALIPER [C1ED]
CONDWS  .MMHO   : CONDUCTIVITY [1000/DRESWS]
DCORWS  .KG/M3  : DENSITY CORRECTION [DRHOED]
DENWS   .KG/M3  : FORMATION BULK DENSITY [RHOBED]
DPHILSED.V/V    : DENSITY POROSITY LIMESTONE FROM DENSITY LOG [M=2710, F=1000, [ADJ. TO RESISTIVITY LOG]
DPOLSWS .V/V    : DENSITY POROSITY LIMESTONE [DPHILSED]
DRESWS  .OHMM   : DEEP RESISTIVITY [IDPHED]
DRHOED  .KG/M3  : BULK DENSITY CORRECTION FROM DENSITY LOG [ADJ. TO RESISTIVITY LOG]
DTED    .US/M   : ACOUSTIC TRANSIT TIME  DELTA T FROM SONIC LOG
DTWS    .US/M   : COMPRESSIONAL SONIC [DTED]
GRDED   .GAPI   : GAMMA RAY FROM DENSITY LOG [ADJ. TO RESISTIVITY LOG]
GRRED   .GAPI   : GAMMA RAY FROM RESISTIVITY LOG
GRSED   .GAPI   : GAMMA RAY FROM SONIC LOG
GRWS    .GAPI   : GAMMA RAY [GRSED]
HDED    .MM     : HORIZONTAL HOLE DIAMETER FROM SONIC LOG
IDPHED  .OHMM   : INDUCTION DEEP PHASOR RESISTIVITY FROM RESISTIVITY LOG
IMPHED  .OHMM   : INDUCTION MEDIUM PHASOR RESISTIVITY FROM RESISTIVITY LOG
MRESWS  .OHMM   : MEDIUM RESISTIVITY [IMPHED]
NPHILSED.V/V    : NEUTRON POROSITY LIMESTONE FROM DENSITY LOG  [M=2710, F=1000, [ADJ. TO RESISTIVITY LOG]
NPOLSWS .V/V    : NEUTRON POROSITY LIMESTONE [NPHILSED]
PEFED   .B/E    : PHOTOELECTRIC FACTOR FROM DENSITY LOG [ADJ. TO RESISTIVITY LOG]
PEFWS   .B/E    : PHOTOELECTRIC FACTOR [PEFED]
RHOBED  .KG/M3  : BULK DENSITY FROM DENSITY LOG [ADJ. TO RESISTIVITY LOG]
SFLUED  .OHMM   : SHALLOW FOCUS RESISTIVITY FROM RESISTIVITY LOG
SPRED   .MV     : SPONTANEOUS POTENTIAL FROM RESISTIVITY LOG
SPWS    .MV     : SPONTANEOUS POTENTIAL [BASELINE 0 MV, SPRED]
SRESWS  .OHMM   : SHALLOW RESISTIVITY [SFLUED]
TENDED  .N      : TENSION FROM DENSITY LOG [ADJ. TO RESISTIVITY LOG]
TENRED  .N      : TOTAL TENSION FROM RESISTIVITY LOG
TENSED  .N      : TENSION FROM SONIC LOG
~Params ----------------------------------------------------
PD  .                         GL : PERMANENT DATUM
EPD .M                     834.8 : ELEVATION PERMANENT DATUM
LMF .                         KB : LOG MEASURED FROM
DAPD.M                       5.4 : FEET ABOVE PERMANENT DATUM
DMF .                         KB : DRILLING MEASURED FROM
EKB .M                      84.2 : KELLY BUSHING
EDF .M                     839.9 : DRILLING FLOOR
EGL .M                     834.8 : GROUND LEVEL
DATE.                   09/02/89 : RUN DATE
RUN .                          2 : RUN NUMBER
DD  .M                      2398 : DEPTH DRILLER
DL  .M                    2397.5 : DEPTH LOGGER
BLI .M                    2394.5 : BOTTOM LOG INTERVAL
TLI .M                      2270 : TOP LOG INTERVAL
CS  .MM                      244 : CASING SIZE
CBD .M                       387 : CASING BOTTOM DRILLER
CBL .M                       387 : CASING BOTTOM LOGGER
BSD .M                      2398 : BIT SIZE AT DEPTH
DFT .                   GEL CHEM : DRILLING FLUID TYPE
DFD .                       1070 : DRILLING FLUID DENSITY
DFV .                         58 : DRILLING FLUID VISCOSITY
DFPH.                         10 : DRILLING FLUID PH
DFL .                         15 : DRILLING FLUID LOSS
MSS .                   FLOWLINE : MUD SAMPLE SOURCE
RMS .OHMM                  0.838 : RESISTIVITY MUD SAMPLE
MST .DEGC                   21.1 : MUD SAMPLE TEMPERATURE
RMF .OHMM                  0.838 : RESISTIVITY MUD FILTRATE SAMPLE
MFST.DEGC                   21.1 : MUD FILTRATE SAMPLE TEMPERATURE
RMC .OHMM                  0.353 : RESISTIVITY MUD CAKE
MCST.DEGC                   61.7 : MUD CAKE SAMPLE TEMPERATURE
MFSS.                       MEAS : MUD FILTRATE SAMPLE SOURCE
MCSS.                       CALC : MUD CAKE SAMPLE SOURCE
RMB .OHMM                   0.43 : RESISTIVITY MUD AT BHT
TCS .HRS                    2400 : TIME CIRCULATED STOPPED
TLAB.HRS                     430 : TIME LOGGER AT BOTTOM
LUN .                       8398 : LOGGING UNIT NUMBER
LUL .                       BRKS : LOGGING UNIT LOCATION
ENGI.                   REA KUHN : RECORDING ENGINEER
WITN.                    MCGRATH : WITNESSED BY
CLNT.                    A2DTECH : CLIENT CODE
ORIG. 6.5"/100M 16.5"/100M PRINT : ORIGIN OF DATA
UWI .           100083303122W400 : UNIQUE WELL ID
DICO.     A2D Technologies, Inc. : DIGITIZING COMPANY
~Other -----------------------------------------------------
PIL-CNL-LDT-BHC--MICROLOG-SONIC LOG RAN
SPR NOT RELIABLE FOR BOTTOM PORTION
DENSITY DATA AFFECTED BY HOLE SIZE
~ASCII -----------------------------------------------------
# ...
 1400.00000  266.25560  260.83770  266.25560   50.68480    -999.25    -999.25    -999.25    -999.25   19.72980    -999.25  207.25970  207.25970    -999.25    -999.25   44.14750   44.14750  271.33400   19.72980   24.18010   24.18010    -999.25    -999.25    -999.25    -999.25    -999.25   62.83300 -112.78520   15.47220   62.83300    -999.25 7625.68950 8841.49260
 1450.00000  271.21980  305.07910  271.21980   86.25370    -999.25    -999.25    -999.25    -999.25   11.59370    -999.25  237.36840  237.36840    -999.25    -999.25   63.47230   63.47230  291.08900   11.59370   10.87340   10.87340    -999.25    -999.25    -999.25    -999.25    -999.25   11.87040  -97.31660   45.90670   11.87040    -999.25 7754.93480 8987.60640
 1500.00000  279.32100  335.60940  279.32100   74.35110    3.95180 2703.44750   -0.00030   -0.00030   13.44970    3.95180  218.23700  218.23700   54.21050    -999.25   52.88720   52.88720  310.31430   13.44970   13.96400   13.96400    0.22110    0.22110    3.68100    3.68100 2703.44750   14.69200  -86.02530   72.16390   14.69200 12640.13640 8181.76750 9078.11840
 1550.00000  265.60810  267.36260  265.60810   13.04180    5.35830 2685.64550    0.01550    0.01550   76.67630    5.35830  179.63420  179.63420   93.94420    -999.25   77.66020   77.66020  268.40450   76.67630   58.57610   58.57610    0.02600    0.02600    5.02400    5.02400 2685.64550   93.39200  -87.38340   85.77160   93.39200 13009.38770 8337.89430 9580.39510
 1600.00000  256.84620  256.82640  256.84620   74.95580    1.98760 2674.27730    0.02080    0.02080   13.34120    1.98760  221.43230  221.43230   55.98100    -999.25   58.58620   58.58620  262.41720   13.34120   13.17590   13.17590    0.10770    0.10770    4.34250    4.34250 2674.27730   16.04340  -99.66640   88.45450   16.04340 12954.28230 8419.76290 9812.09500
 1650.00000  262.43710  260.06880  262.43710   97.28760    8.12730 2665.05740    0.02630    0.02630   10.27880    8.12730  236.33640  236.33640   70.14900    -999.25   73.36790   73.36790  271.17060   10.27880   10.66410   10.66410    0.13870    0.13870    3.99170    3.99170 2665.05740   12.71430  -95.97040  134.08260   12.71430 13106.35140 8640.93380 9795.18060
 1700.00000  234.05200  232.66220  234.05200   12.22440    7.68230 2907.45920   -0.11590   -0.11590   81.80360    7.68230  174.96830  174.96830    7.33690    -999.25   10.14800   10.14800  236.77710   81.80360   85.68100   85.68100    0.01050    0.01050    4.97000    4.97000 2907.45920  180.24940  -59.80020  222.46480  180.24940 13411.07100 8843.92490 10005.41250
 1750.00000  229.83110  228.67650  229.83110   29.68940    7.16180 2941.15310   -0.13400   -0.13400   33.68200    7.16180  171.42410  171.42410    4.52490    -999.25    5.90060    5.90060  236.44390   33.68200   42.14430   42.14430    0.01190    0.01190    4.85150    4.85150 2941.15310   90.96910  -18.53220  315.94480   90.96910 13456.63950 9076.30530 10162.99160
 1800.00000  249.45830  241.88820  249.45830    6.58680    3.18420 2885.44340   -0.10180   -0.10180  151.81850    3.18420  176.16850  176.16850   14.46280    -999.25   13.60650   13.60650  248.88800  151.81850  104.58430  104.58430    0.01330    0.01330    4.91620    4.91620 2885.44340  171.42390  324.24950  710.93860  171.42390 13725.48510 9125.72860 10393.78360
 1850.00000  232.05530  236.99270  232.05530    0.52520    1.50570 2897.53960   -0.11110   -0.11110 1904.21200    1.50570  160.13090  160.13090   19.26270    -999.25   21.52980   21.52980  245.69150 1904.21200 2000.00000 2000.00000    0.00670    0.00670    4.24240    4.24240 2897.53960 1018.45470  452.86440  891.76550 1018.45470 13966.18860 9393.30290 10759.04930
 1900.00000  233.51070  235.51110  233.51070   23.78290    5.90100 2795.91280   -0.05060   -0.05060   42.04710    5.90100  177.25270  177.25270   57.73790    -999.25   56.88740   56.88740  248.15280   42.04710   44.72880   44.72880    0.10900    0.10900    3.05870    3.05870 2795.91280   45.40380 -173.39970  317.71340   45.40380 14120.26920 9509.34990 10832.05260
 1950.00000  231.32880  235.03680  231.32880   25.02330    6.04320 2692.84840    0.00940    0.00940   39.96280    6.04320  191.39100  191.39100   77.60570    -999.25   85.42590   85.42590  246.07850   39.96280   43.85560   43.85560    0.07240    0.07240    3.63300    3.63300 2692.84840   44.57310 -120.12360  321.57970   44.57310 14396.75820 9781.74030 11084.22540
 2000.00000  225.73930  232.15860  225.73930   28.78000   -0.62510 2713.16330   -0.00210   -0.00210   34.74640   -0.62510  199.07010  199.07010   86.06730    -999.25   85.61980   85.61980  240.96280   34.74640   38.96190   38.96190    0.12300    0.12300    3.70840    3.70840 2713.16330   45.10240 1005.18770 1314.73750   45.10240 14498.65590 10010.36420 11203.40970
 2050.00000  226.10640  243.04440  226.10640    8.83780   -1.83900 2706.87350    0.00430    0.00430  113.14980   -1.83900  175.19250  175.19250   32.28470    -999.25   30.46960   30.46960  241.12880  113.14980  156.60090  156.60090    0.03000    0.03000    4.91270    4.91270 2706.87350  123.57160 1456.32680 1633.72300  123.57160 15032.54030 10042.49550 11542.14360
 2100.00000  220.36250  367.13750  220.36250    5.55080   64.18760 2599.39940    0.05690    0.05690  180.15290   64.18760  170.38580  170.38580   11.53710    -999.25    9.02450    9.02450  256.82770  180.15290 1354.96910 1354.96910    0.03480    0.03480    3.57570    3.57570 2599.39940 2008.76400 1456.39670 1501.63930 2008.76400 15047.24660 10141.10460 11823.29390
 2150.00000  227.00770  230.30360  227.00770    4.83920    7.76130 2731.38110   -0.01270   -0.01270  206.64770    7.76130  172.82150  172.82150   36.96740    -999.25   41.16120   41.16120  242.84000  206.64770  275.13560  275.13560    0.05800    0.05800    4.91210    4.91210 2731.38110  204.62910  193.58970  106.67880  204.62910 15580.10040 10582.39310 12361.55900
 2200.00000  222.41490  239.80200  222.41490    0.52440   -8.68300 2690.18330    0.01070    0.01070 1907.09000   -8.68300  165.99740  165.99740   33.58000    -999.25   33.29400   33.29400  241.60250 1907.09000 1895.17750 1895.17750    0.01250    0.01250    4.36120    4.36120 2690.18330  864.17680 -639.34420 -798.67530  864.17680 15689.95810 10933.92400 12347.99050
 2250.00000  221.07100  220.97330  221.07100  163.38270   20.24270 2582.95800    0.07300    0.07300    6.12060   20.24270  179.82200  179.82200    4.71840    -999.25    5.65230    5.65230  228.47920    6.12060    7.42850    7.42850    0.07470    0.07470    4.96960    4.96960 2582.95800   20.82970 -624.74920 -784.08030   20.82970 15420.86470 11037.69300 12155.53470
 2300.00000  220.39020  228.71960  220.39020    1.11520    4.53700 2728.97850   -0.00980   -0.00980  896.69510    4.53700  168.15470  168.15470   21.79240   17.42210   20.67280   20.67280  236.26830  896.69510 1049.02490 1049.02490    0.03400    0.03400    4.64830    4.64830 2728.97850  796.15110 -780.26440 -939.59550  796.15110 16030.31110 11232.87250 12558.44080
 2350.00000    -999.25    -999.25    -999.25   47.02300    -999.25    -999.25    -999.25    -999.25   21.26620    -999.25  184.84990  184.84990    -999.25  137.37270  139.23540  139.23540  225.73580   21.26620   27.88660   27.88660    -999.25    -999.25    -999.25    -999.25    -999.25   42.22380 -679.56670 -838.89780   42.22380    -999.25 13851.01620 13829.75230
