~Version ---------------------------------------------------
VERS.      2.0 : CWLS log ASCII Standard -VERSION 2.0
WRAP.       NO : One line per depth step
CREA. 08/31/17 : LAS Creation Date
~Well ------------------------------------------------------
STRT.FT                         1000.0 : START DEPTH
STOP.FT                        10100.0 : STOP DEPTH
STEP.FT                       50.00000 : STEP LENGTH
NULL.                          -999.25 : NULL VALUE
COMP.             PETROFINA CANADA LTD : COMPANY
WELL. FINA AMOCO HB PASS CK 6-33-62-17 : WELL
FLD .                                  : FIELD
LOC .                                  : LOCATION
CTRY.                           CANADA : COUNTRY
SRVC.                     Schlumberger : SERVICE COMPANY
DATE.                      14-Feb-1977 : LOGDATE
PROV.                          Alberta : PROVINCE
UWI .                 100063306217W500 : UNIQUE WELL ID
SLAT.WGS84                    54.40414 : SURFACE LATITUDE
SLON.WGS84                   -116.4922 : SURFACE LONGITUDE
~Curve Information -----------------------------------------
DEPT    .FT    : Depth Curve
CALDED  .IN    : CALIPER FROM CNFD LOG
CALSED  .IN    : CALIPER FROM BCS LOG [ADJ.TO GRDED]
CALWS   .IN    : CALIPER [CALSED]
CILDED  .MMHO  : CONDUCTIVITY FROM DIL-LAT LOG
CONDWS  .MMHO  : CONDUCTIVITY [CILDED SPL.TO 1000/ILDED @ 1035.5' TO 1151.5' & 4943' TO 10143']
DCORED  .G/C3  : DENSITY CORRECTION FROM CNFD LOG
DCORWS  .G/C3  : DENSITY CORRECTION [DCORED]
DENWS   .G/C3  : FORMATION BULK DENSITY [RHOBED]
DPHILSED.V/V   : DENSITY POROSITY LIMESTONE [M=2.71, F=1.0] FROM CNFD LOG [ADJ.TO RHOBED]
DPHISSED.V/V   : DENSITY POROSITY SANDSTONE [M=2.65, F=1.0] FROM CNFD LOG [ADJ.TO RHOBED]
DPOLSWS .V/V   : DENSITY POROSITY LIMESTONE [CALCULATED FROM DENWS, M=2.71, F=1.0]
DRESWS  .OHMM  : DEEP RESISTIVITY [1000/CONDWS, IF ILDED <=4 THEN ILDED]
DTED    .US/F  : DELTA-T FROM BCS LOG [ADJ.TO GRDED]
DTWS    .US/F  : COMPRESSIONAL SONIC [DTED]
GRDED   .GAPI  : GAMMA RAY FROM CNFD LOG
GRSED   .GAPI  : GAMMA RAY FROM SONIC LOG [ADJ.TO GRDED]
GRWS    .GAPI  : GAMMA RAY [GRSED]
ILDED   .OHMM  : DEEP INDUCTION FROM DIL-LAT LOG
ILMED   .OHMM  : MEDIUM INDUCTION FROM DIL-LAT LOG
LL8ED   .OHMM  : LATEROLOG 8 FROM DIL-LAT LOG
MRESWS  .OHMM  : MEDIUM RESISTIVITY [ILMED]
NPHILSED.V/V   : NEUTRON POROSITY LIMESTONE FROM CNFD LOG [ADJ.TO RHOBED]
NPHISSED.V/V   : NEUTRON POROSITY SANDSTONE FROM CNFD LOG [ADJ.TO RHOBED]
NPOLSWS .V/V   : NEUTRON POROSITY LIMESTONE [NPHISSED CONVERTED TO LIMESTONE MATRIX & SPL.TO NPHILSED @ 6299.5']
RHOBED  .G/C3  : FORMATION BULK DENSITY FROM CNFD LOG
SPHIED  .V/V   : SONIC POROSITY [DTM=55.6, DTF=189 & DTM=45.5 @ 6250 TO TD] FROM BCS LOG [ADJ.TO GRDED]
SPOWS   .V/V   : SONIC POROSITY [SPHIED]
SPRED   .MV    : SPONTANEOUS POTENTIAL FROM DIL-LAT LOG
SPWS    .MV    : SPONTANEOUS POTENTIAL [BASELINE 0 MV, SPRED]
SRESWS  .OHMM  : SHALLOW RESISTIVITY [LL8ED]
~Params ----------------------------------------------------
PD  .                     GL : PERMANENT DATUM
EPD .FT                 2942 : ELEVATION PERMANENT DATUM
LMF .                     KB : LOG MEASURED FROM
DAPD.FT                13.15 : FEET ABOVE PERMANENT DATUM
DMF .                     KB : DRILLING MEASURED FROM
EKB .FT              2955.15 : KELLY BUSHING
EGL .FT               2942.0 : GROUND LEVEL
DATE.               02/14/77 : RUN DATE
RUN .                      1 : RUN NUMBER
DD  .FT                10160 : DEPTH DRILLER
DL  .FT                10155 : DEPTH LOGGER
BLI .FT                10149 : BOTTOM LOG INTERVAL
TLI .FT                 1027 : TOP LOG INTERVAL
CBD .FT                 1028 : CASING BOTTOM DRILLER
CBL .FT                 1027 : CASING BOTTOM LOGGER
BS  .IN                 8.75 : BIT SIZE
BSD .FT                10160 : BIT SIZE AT DEPTH
DFT .               GEL CHEM : DRILLING FLUID TYPE
DFD .                    9.0 : DRILLING FLUID DENSITY
DFV .                     93 : DRILLING FLUID VISCOSITY
DFPH.                   11.0 : DRILLING FLUID PH
DFL .                    5.6 : DRILLING FLUID LOSS
RMF .OHMM               2.08 : RESISTIVITY MUD FILTRATE SAMPLE
MFST.DEGF                 70 : MUD FILTRATE SAMPLE TEMPERATURE
RMC .OHMM               0.94 : RESISTIVITY MUD CAKE
MCST.DEGF                 70 : MUD CAKE SAMPLE TEMPERATURE
RMB .OHMM               0.85 : RESISTIVITY MUD AT BHT
TCS .HRS                 3.5 : TIME CIRCULATED STOPPED
LUN .                   7803 : LOGGING UNIT NUMBER
LUL .                     DC : LOGGING UNIT LOCATION
ENGI.                   WATT : RECORDING ENGINEER
WITN.                 NELSON : WITNESSED BY
CLNT.                A2DTECH : CLIENT CODE
ORIG.            2" 5" PRINT : ORIGIN OF DATA
UWI .       100063306217W500 : UNIQUE WELL ID
DICO. A2D Technologies, Inc. : DIGITIZING COMPANY
~Other -----------------------------------------------------
~ASCII -----------------------------------------------------
# ...
 8200.00000   12.10060    9.81760    9.81760    -999.25    5.86030    0.22760    0.22760    2.57410    0.09140    -999.25    0.07950  170.64720   49.66410   49.66410   23.07760   22.49930   22.49930  170.64720  130.91410  429.43590  130.91410    0.00640    -999.25    0.00640    2.57410    0.02990    0.02990 -120.41510 -101.05260  429.43590
 8250.00000    9.19700    9.16100    9.16100    -999.25   52.21030    0.02650    0.02650    2.70300   -0.00590    -999.25    0.00410   19.15330   52.97200   52.97200   31.85650   34.79070   34.79070   19.15330   22.67680   55.53080   22.67680    0.03880    -999.25    0.03880    2.70300    0.05130    0.05130  -80.07810  -61.67600   55.53080
 8300.00000    8.96000    8.80780    8.80780    -999.25   36.61540    0.16160    0.16160    2.74540   -0.02880    -999.25   -0.02070   27.31090   49.98480   49.98480   22.62040   23.44810   23.44810   27.31090   40.17080  262.79760   40.17080    0.08190    -999.25    0.08190    2.74540    0.03120    0.03120 -125.71150 -108.27460  262.79760
 8350.00000    9.37090    9.22160    9.22160    -999.25    3.71420    0.09040    0.09040    2.83300   -0.06590    -999.25   -0.07190  269.23600   47.65870   47.65870   34.08120   36.64320   36.64320  269.23600  429.14580  369.74140  429.14580    0.03910    -999.25    0.03910    2.83300    0.01580    0.01580 -121.32600 -104.85430  369.74140
 8400.00000   11.85730    9.37750    9.37750    -999.25   60.20360    0.28190    0.28190    2.60930    0.07370    -999.25    0.05890   16.61030   49.28910   49.28910   29.97360   35.80860   35.80860   16.61030   19.44330   43.16330   19.44330    0.05670    -999.25    0.05670    2.60930    0.02720    0.02720 -102.50940  -87.00300   43.16330
 8450.00000    9.45810    9.19860    9.19860    -999.25   14.06850    0.00930    0.00930    2.70260    0.00910    -999.25    0.00430   71.09000   52.62040   52.62040   45.27160   46.64840   46.64840   71.09000   72.62450   97.41610   72.62450    0.02300    -999.25    0.02300    2.70260    0.05150    0.05150  -17.20030   -2.66390   97.41610
 8500.00000    9.61710    9.27480    9.27480    -999.25    4.91050    0.03860    0.03860    2.70480   -0.01820    -999.25    0.00300  203.64690   50.77290   50.77290   44.27650   42.86280   42.86280  203.64690  137.56840  201.55140  137.56840    0.01210    -999.25    0.01210    2.70480    0.03750    0.03750  -31.55160  -24.84230  201.55140
 8550.00000    9.47290    9.22450    9.22450    -999.25    9.13280    0.01650    0.01650    2.68700    0.01280    -999.25    0.01350  109.49540   53.52050   53.52050   42.09050   41.22240   41.22240  109.49540   96.90450  136.97710   96.90450    0.01870    -999.25    0.01870    2.68700    0.05280    0.05280   -8.05380   -9.31170  136.97710
 8600.00000    9.36960    9.16770    9.16770    -999.25   16.40330    0.01480    0.01480    2.66830    0.02410    -999.25    0.02440   60.96350   54.65460   54.65460   73.82320   67.38010   67.38010   60.96350   64.69950   90.57380   64.69950    0.01550    -999.25    0.01550    2.66830    0.06480    0.06480   -4.75040  -13.97550   90.57380
 8650.00000    9.47700    9.25000    9.25000    -999.25   43.49490    0.01220    0.01220    2.65820    0.02640    -999.25    0.03030   22.99120   57.35630   57.35630   81.28920   83.48470   83.48470   22.99120   23.77190   32.54440   23.77190    0.03540    -999.25    0.03540    2.65820    0.08380    0.08380   14.51170   -2.68060   32.54440
 8700.00000    9.40890    9.18330    9.18330    -999.25   32.83970    0.00720    0.00720    2.68900    0.01090    -999.25    0.01230   30.45100   56.13860   56.13860   68.06470   56.26580   56.26580   30.45100   31.90120   40.50450   31.90120    0.03990    -999.25    0.03990    2.68900    0.07520    0.07520   13.77010   -9.26460   40.50450
 8750.00000    9.42650    9.20520    9.20520    -999.25   39.14540    0.00610    0.00610    2.70600   -0.00050    -999.25    0.00230   25.54580   55.87900   55.87900   67.17360   56.66760   56.66760   25.54580   26.22830   39.61910   26.22830    0.05300    -999.25    0.05300    2.70600    0.07370    0.07370   22.05140   -6.47690   39.61910
 8800.00000    9.45490    9.13270    9.13270    -999.25   59.01170    0.01380    0.01380    2.68450    0.00990    -999.25    0.01490   16.94580   58.90480   58.90480   74.74110   65.84440   65.84440   16.94580   17.91540   28.15280   17.91540    0.05530    -999.25    0.05530    2.68450    0.09480    0.09480   30.18180   -3.86770   28.15280
 8850.00000    9.35740    9.17720    9.17720    -999.25   46.33600    0.03050    0.03050    2.70440   -0.00770    -999.25    0.00330   21.58150   57.30780   57.30780   59.69580   61.04530   61.04530   21.58150   23.77620   32.59930   23.77620    0.05170    -999.25    0.05170    2.70440    0.08380    0.08380   30.18070   -7.16560   32.59930
 8900.00000    9.68510    9.38980    9.38980    -999.25   77.87620   -0.00990   -0.00990    2.67590    0.01740    -999.25    0.01990   12.84090   62.35830   62.35830   87.41890   78.35300   78.35300   12.84090   14.47480   18.87520   14.47480    0.09100    -999.25    0.09100    2.67590    0.11930    0.11930   30.97620   -5.87930   18.87520
 8950.00000    9.57970    9.28790    9.28790    -999.25   86.80870    0.00860    0.00860    2.66970    0.02270    -999.25    0.02360   11.52320   69.97420   69.97420  127.53910  122.66730  122.66730   11.52320   12.21630   16.84750   12.21630    0.18390    -999.25    0.18390    2.66970    0.17220    0.17220   30.34990   -6.01240   16.84750
 9000.00000   11.61640    9.99610    9.99610    -999.25  177.33640    0.26820    0.26820    2.28940    0.24200    -999.25    0.24600    5.63900   74.35770   74.35770  115.99330  101.74570  101.74570    5.63900    5.85850    7.82490    5.85850    0.22300    -999.25    0.22300    2.28940    0.20200    0.20200   16.78280  -19.30980    7.82490
 9050.00000    -999.25   11.12100   11.12100    -999.25  226.73680    0.25910    0.25910    2.23610    0.28150    -999.25    0.27710    4.41040   81.69720   81.69720  129.31710  115.05260  115.05260    4.41040    4.62320    6.40660    4.62320    0.28230    -999.25    0.28230    2.23610    0.25420    0.25420    5.44410  -30.28930    6.40660
 9100.00000   13.59630   10.60550   10.60550    -999.25  141.06960    0.25840    0.25840    2.37710    0.20520    -999.25    0.19470    7.08870   75.23130   75.23130  112.70850  103.84520  103.84520    7.08870    6.94750   11.25740    6.94750    0.24670    -999.25    0.24670    2.37710    0.20920    0.20920   22.95380  -13.32860   11.25740
 9150.00000    9.61220    9.31090    9.31090    -999.25   70.87220    0.05000    0.05000    2.75420   -0.03000    -999.25   -0.02580   14.10990   59.43400   59.43400   93.02920   86.63770   86.63770   14.10990   14.06590   22.18910   14.06590    0.08590    -999.25    0.08590    2.75420    0.09790    0.09790   22.44460  -16.97220   22.18910
 9200.00000    9.60710    9.40350    9.40350    -999.25   87.94700    0.00410    0.00410    2.67060    0.02450    -999.25    0.02310   11.37130   64.94070   64.94070  129.48050  118.54690  118.54690   11.37130   11.98080   16.75680   11.98080    0.14190    -999.25    0.14190    2.67060    0.13760    0.13760   25.83310  -16.73370   16.75680
 9250.00000    9.59270    9.35070    9.35070    -999.25   94.25250    0.02150    0.02150    2.75120   -0.03300    -999.25   -0.02410   10.60980   65.89150   65.89150  125.88100  115.06020  115.06020   10.60980   11.33530   16.19730   11.33530    0.15830    -999.25    0.15830    2.75120    0.14470    0.14470   39.46330   -6.11210   16.19730
 9300.00000    9.86680    9.34780    9.34780    -999.25  113.92900    0.01170    0.01170    2.67410    0.01910    -999.25    0.02100    8.77740   65.17710   65.17710  118.21940  115.18650  115.18650    8.77740    9.64660   12.18770    9.64660    0.13910    -999.25    0.13910    2.67410    0.13650    0.13650   40.38060   -5.08720   12.18770
 9350.00000   11.62060    9.72000    9.72000    -999.25  171.61490    0.19520    0.19520    2.61810    0.05320    -999.25    0.05370    5.82700   77.50460   77.50460  165.10410  145.04800  145.04800    5.82700    6.32530    9.25320    6.32530    0.22810    -999.25    0.22810    2.61810    0.22370    0.22370   26.64650  -15.25250    9.25320
