~Version ---------------------------------------------------
VERS.      2.0 : CWLS log ASCII Standard -VERSION 2.0
WRAP.       NO : One line per depth step
CREA. 10/27/17 : LAS Creation Date
~Well ------------------------------------------------------
STRT.FT                           1200.0 : START DEPTH
STOP.FT                          14850.0 : STOP DEPTH
STEP.FT                         50.00000 : STEP LENGTH
NULL.                            -999.25 : NULL VALUE
COMP.   SOCONY MOBIL OIL OF CANADA, LTD. : COMPANY
WELL. MOBIL SCURRY PEM RIVER A6-15-47-16 : WELL
FLD .                                    : FIELD
LOC .                                    : LOCATION
CTRY.                             CANADA : COUNTRY
SRVC.             Schlumberger of Canada : SERVICE COMPANY
DATE.                        26-Jul-1962 : LOGDATE
PROV.                            Alberta : PROVINCE
UWI .                   102061504716W500 : UNIQUE WELL ID
SLAT.WGS84                      53.05247 : SURFACE LATITUDE
SLON.WGS84                     -116.2582 : SURFACE LONGITUDE
~Curve Information -----------------------------------------
DEPT  .FT    : Depth Curve
CALWS .IN    : CALIPER [MCALED]
CILDED.MMHO  : DEEP INDUCTION CONDUCTIVITY FROM RESISTIVITY LOG [ADJ. TO ILDED]
CONDWS.MMHO  : CONDUCTIVITY [1000/DRESWS]
DRESWS.OHMM  : DEEP RESISTIVITY [1000/CILDED,IF ILDED<5,ILDED]
DT1ED .US/F  : DELTA TIME (3' SPACING- 1' PICKUP SPAN) FROM SONIC LOG
DTED  .US/F  : DELTA TIME (3' SPACING- 3' PICKUP SPAN) FROM SONIC LOG
DTWS  .US/F  : COMPRESSIONAL SONIC [DTED]
GRNED .GAPI  : GAMMA RAY GRN LOG
GRSED .GAPI  : GAMMA RAY FROM SONIC LOG
GRWS  .GAPI  : GAMMA RAY [SPLICED GRSED/GRNED FROM 11818' TO 12795']
ILDED .OHMM  : DEEP INDUCTION RESISTIVITY FROM RESISTIVITY LOG
MCALED.IN    : CALIPER FROM MICRO LOG
NEUTED.NAPI  : NEUTRON FROM GRN LOG
NEUTWS.NAPI  : NEUTRON [NEUTED]
SNED  .OHMM  : 16 INCH  SHORT NORMAL FROM RESISTIVITY LOG
SPRED .MV    : SPONTANEOUS POTENTIAL FROM RESISTIVITY LOG
SPWS  .MV    : SPONTANEOUS POTENTIAL [BASELINE 0 MV,SPRED]
SRESWS.OHMM  : SHALLOW RESISTIVITY [SNED]
~Params ----------------------------------------------------
PD  .                     GL : PERMANENT DATUM
LMF .                     KB : LOG MEASURED FROM
EKB .FT                 4176 : KELLY BUSHING
DATE.               07/26/62 : RUN DATE
RUN .                      3 : RUN NUMBER
DD  .FT                14885 : DEPTH DRILLER
DL  .FT                14889 : DEPTH LOGGER
BLI .FT                14888 : BOTTOM LOG INTERVAL
TLI .FT                12790 : TOP LOG INTERVAL
CBD .FT                12971 : CASING BOTTOM DRILLER
CBL .FT                12790 : CASING BOTTOM LOGGER
BS  .IN                    9 : BIT SIZE
BSD .FT                14885 : BIT SIZE AT DEPTH
DFT .              LIME BASE : DRILLING FLUID TYPE
DFD .                   14.7 : DRILLING FLUID DENSITY
DFV .                     50 : DRILLING FLUID VISCOSITY
DFPH.                     14 : DRILLING FLUID PH
DFL .                      4 : DRILLING FLUID LOSS
RMS .OHMM               0.44 : RESISTIVITY MUD SAMPLE
MST .DEGF                 71 : MUD SAMPLE TEMPERATURE
RMF .OHMM               0.24 : RESISTIVITY MUD FILTRATE SAMPLE
MFST.DEGF                 76 : MUD FILTRATE SAMPLE TEMPERATURE
RMC .OHMM                1.1 : RESISTIVITY MUD CAKE
MCST.DEGF                 77 : MUD CAKE SAMPLE TEMPERATURE
RMB .OHMM               0.12 : RESISTIVITY MUD AT BHT
TCS .HRS                   3 : TIME CIRCULATED STOPPED
LUN .                   1576 : LOGGING UNIT NUMBER
LUL .                     DV : LOGGING UNIT LOCATION
ENGI.               HATLELID : RECORDING ENGINEER
WITN.                 CARSON : WITNESSED BY
CLNT.                A2DTECH : CLIENT CODE
ORIG.            2" 5" PRINT : ORIGIN OF DATA
UWI .       102061504716W500 : UNIQUE WELL ID
DICO. A2D Technologies, Inc. : DIGITIZING COMPANY
~Other -----------------------------------------------------
GRN-IEL-ML-SONIC USED
NO SP RECORDED DUE TO EXCESSIVE TELLURIC CURRENTS, SP BELOW 3610M IS NOT LOOK VALID
~ASCII -----------------------------------------------------
 1200.00000   12.86220   70.89090   52.61340   21.60630    -999.25   74.79380   74.79380    -999.25   66.91920   66.91920   21.60630   12.86220    -999.25    -999.25   11.11810 -104.74550   -2.78310   11.11810
 1250.00000   12.98310   51.92670   50.39460   19.84340    -999.25   79.61000   79.61000    -999.25   64.75900   64.75900   19.84340   12.98310    -999.25    -999.25    8.19190 -120.17990  -19.88450    8.19190
 1300.00000   12.83820   58.32720   56.96030   17.55610    -999.25   78.23180   78.23180    -999.25   65.16570   65.16570   17.55610   12.83820    -999.25    -999.25    7.85500 -121.94970  -23.32950    7.85500
 1350.00000   12.46450   59.37370   60.55290   16.54290    -999.25   75.87310   75.87310    -999.25   66.72860   66.72860   16.54290   12.46450    -999.25    -999.25    8.08950 -119.25920  -22.32270    8.08950
 1400.00000   13.41510   40.32810   38.11110   26.23910    -999.25   70.45780   70.45780    -999.25   57.58970   57.58970   26.23910   13.41510    -999.25    -999.25   11.69560 -121.74380  -26.47420   11.69560
 1450.00000   13.33330   36.46350   34.31610   29.14090    -999.25   73.75560   73.75560    -999.25   58.76790   58.76790   29.14090   13.33330    -999.25    -999.25   12.34820 -120.32050  -26.73460   12.34820
 1500.00000   13.26280   39.29810   37.67530   26.54260    -999.25   81.91660   81.91660    -999.25   52.83390   52.83390   26.54260   13.26280    -999.25    -999.25   11.34670 -119.41750  -27.49850   11.34670
 1550.00000   12.67650   42.93070   39.54880   25.28520    -999.25   73.94430   73.94430    -999.25   70.42690   70.42690   25.28520   12.67650    -999.25    -999.25   10.25120 -116.76320  -26.51950   10.25120
 1600.00000   15.13260   69.55330   68.14570   14.67570    -999.25   96.55630   96.55630    -999.25   75.41530   75.41530   14.67570   15.13260    -999.25    -999.25    4.54230  -96.96280   -8.40280    4.54230
 1650.00000   11.80780   47.90800   45.97490   21.75100    -999.25   83.06020   83.06020    -999.25   88.55460   88.55460   21.75100   11.80780    -999.25    -999.25    6.37750 -109.22890  -22.24440    6.37750
 1700.00000   13.75610   70.70900   69.15620   14.46130    -999.25   76.82410   76.82410    -999.25   74.51490   74.51490   14.46130   13.75610    -999.25    -999.25    5.76070 -111.37490  -25.92610    5.76070
 1750.00000   14.42530   81.84290   84.55230   11.82700    -999.25  108.66200  108.66200    -999.25   73.29730   73.29730   11.82700   14.42530    -999.25    -999.25    3.60480  -96.84800  -12.91950    3.60480
 1800.00000   15.13240   94.75900   93.89140   10.65060    -999.25   96.21500   96.21500    -999.25   83.08560   83.08560   10.65060   15.13240    -999.25    -999.25    4.33340 -107.43400  -23.79490    4.33340
 1850.00000   14.89000  100.49900  107.98100    9.36900    -999.25   85.51710   85.51710    -999.25   87.06030   87.06030    9.36900   14.89000    -999.25    -999.25    3.52740  -97.22380  -12.85720    3.52740
 1900.00000   13.83150   94.81770   98.58630   10.14340    -999.25   80.75420   80.75420    -999.25   94.13760   94.13760   10.14340   13.83150    -999.25    -999.25    4.43910 -104.21390  -17.27370    4.43910
 1950.00000   13.55990   75.91500   74.78960   13.37090    -999.25   84.22300   84.22300    -999.25   84.78070   84.78070   13.37090   13.55990    -999.25    -999.25    6.57520 -112.38510  -22.71460    6.57520
 2000.00000   13.48950   42.34240   39.96200   25.02380    -999.25   78.41570   78.41570    -999.25   63.08900   63.08900   25.02380   13.48950    -999.25    -999.25   11.33620 -114.46460  -22.09100   11.33620
 2050.00000   13.50740   41.03480   39.63240   25.23190    -999.25   80.92890   80.92890    -999.25   63.30680   63.30680   25.23190   13.50740    -999.25    -999.25   11.30140 -116.26080  -21.17060   11.30140
 2100.00000   15.14490  367.07470  361.20250    2.76890    -999.25  122.39760  122.39760    -999.25   97.71820   97.71820    2.76890   15.14490    -999.25    -999.25    1.54000 -108.48250  -10.66190    1.54000
 2150.00000   12.89050   37.49650   36.24340   27.59120    -999.25   79.97110   79.97110    -999.25   73.77200   73.77200   27.59120   12.89050    -999.25    -999.25   10.48420 -106.83990   -8.72970   10.48420
 2200.00000   13.93000   33.89740   32.39100   30.87660    -999.25   80.39540   80.39540    -999.25   60.83560   60.83560   30.87660   13.93000    -999.25    -999.25   11.21090 -113.57060  -15.96400   11.21090
 2250.00000   13.48120   56.89140   51.97340   19.24060    -999.25   83.10910   83.10910    -999.25   63.52510   63.52510   19.24060   13.48120    -999.25    -999.25    9.51410 -112.56810  -15.46020    9.51410
 2300.00000   13.27310   52.80890   49.54270   20.18460    -999.25   86.31210   86.31210    -999.25   72.60720   72.60720   20.18460   13.27310    -999.25    -999.25    9.62320 -115.53100  -18.92420    9.62320
 2350.00000   14.77040   84.24770   82.54180   12.11530    -999.25   93.49970   93.49970    -999.25   84.04630   84.04630   12.11530   14.77040    -999.25    -999.25    5.96840 -108.78780  -12.68460    5.96840
 2400.00000   12.31890   63.49990   65.07280   15.36740    -999.25   82.20780   82.20780    -999.25   87.80390   87.80390   15.36740   12.31890    -999.25    -999.25    9.76810 -109.83180  -14.22730    9.76810
 2450.00000   13.70470   69.27790   62.60690   16.02630    -999.25   81.59420   81.59420    -999.25   94.49560   94.49560   16.02630   13.70470    -999.25    -999.25    9.36790 -107.46200  -12.36110    9.36790
 2500.00000   11.92690   81.38090   80.94810   12.35360    -999.25   86.66870   86.66870    -999.25   60.60260   60.60260   12.35360   11.92690    -999.25    -999.25    8.56230 -118.42450  -23.80270    8.56230
 2550.00000   11.92060   55.14920   56.19270   17.79590    -999.25   76.34960   76.34960    -999.25   66.90090   66.90090   17.79590   11.92060    -999.25    -999.25    9.90410 -122.36080  -28.21330    9.90410
 2600.00000   12.03360  166.48480  161.36030    6.19940    -999.25  108.11460  108.11460    -999.25  115.18310  115.18310    6.19940   12.03360    -999.25    -999.25    5.84130 -105.20640  -11.53560    5.84130
 2650.00000   12.02040   87.64610   90.37670   11.06480    -999.25   81.43010   81.43010    -999.25   79.43610   79.43610   11.06480   12.02040    -999.25    -999.25    6.46940 -112.42610  -19.22720    6.46940
 2700.00000   11.80410   92.62820   93.52050   10.69400    -999.25   93.98730   93.98730    -999.25   73.55390   73.55390   10.69400   11.80410    -999.25    -999.25    7.86510 -105.53100  -12.80870    7.86510
 2750.00000   11.08500   64.51140   60.08280   16.64370    -999.25   78.86620   78.86620    -999.25   82.68740   82.68740   16.64370   11.08500    -999.25    -999.25    8.04870 -111.60000  -19.34970    8.04870
 2800.00000    9.95540   69.41590   66.14190   15.11900    -999.25   79.50570   79.50570    -999.25   73.78960   73.78960   15.11900    9.95540    -999.25    -999.25    9.58760 -115.34560  -23.56960    9.58760
 2850.00000   13.58540  117.41760  117.37590    8.52040    -999.25   80.47640   80.47640    -999.25  101.15480  101.15480    8.52040   13.58540    -999.25    -999.25    4.53000 -104.67630  -13.37690    4.53000
 2900.00000   14.09280  328.40070  340.49510    2.93690    -999.25  108.94290  108.94290    -999.25   97.55670   97.55670    2.93690   14.09280    -999.25    -999.25    1.98470 -100.84710  -10.01970    1.98470
 2950.00000   13.49560  103.80570  104.29920    9.58780    -999.25   81.36940   81.36940    -999.25   86.35540   86.35540    9.58780   13.49560    -999.25    -999.25    5.95190 -102.92260  -12.57180    5.95190
 3000.00000   14.93520   47.51900   45.14790   22.14940    -999.25   63.48870   63.48870    -999.25   82.96870   82.96870   22.14940   14.93520    -999.25    -999.25    9.38720 -101.63580  -11.58050    9.38720
 3050.00000   10.20580  164.24130  169.01880    5.91650    -999.25  113.88810  113.88810    -999.25  160.16080  160.16080    5.91650   10.20580    -999.25    -999.25    3.42370  -98.38760   -8.59640    3.42370
 3100.00000   11.86570   57.18590   54.96370   18.19460    -999.25   93.53970   93.53970    -999.25  105.74020  105.74020   18.19460   11.86570    -999.25    -999.25    7.20880  -94.17820   -4.65240    7.20880
