~Version ---------------------------------------------------
VERS.      2.0 : CWLS log ASCII Standard -VERSION 2.0
WRAP.       NO : One line per depth step
CREA. 12/19/14 : LAS Creation Date
~Well ------------------------------------------------------
STRT.FT                     300.0 : START DEPTH
STOP.FT                    9550.0 : STOP DEPTH
STEP.FT                  50.00000 : STEP LENGTH
NULL.                     -999.25 : NULL VALUE
COMP. BRITISH AMERICAN OIL CO LTD : COMPANY
WELL.  B.A. GOOSE RIVER 4-3-67-18 : WELL
FLD .                             : FIELD
LOC .                             : LOCATION
CTRY.                      CANADA : COUNTRY
SRVC.      Schlumberger of Canada : SERVICE COMPANY
DATE.                 18-Oct-1963 : LOGDATE
PROV.                     Alberta : PROVINCE
UWI .            100040306718W500 : UNIQUE WELL ID
SLAT.WGS84               54.76505 : SURFACE LATITUDE
SLON.WGS84               -116.666 : SURFACE LONGITUDE
~Curve Information -----------------------------------------
DEPT.FT    : DEPTH FEET
CALS.IN    : CALIPER FROM SONIC LOG
DT  .US/F  : DELTA-T FROM SONIC LOG
GR  .GAPI  : GAMMA RAY FROM GR LOG
GRS .GAPI  : GAMMA RAY FROM SONIC LOG
MCAL.IN    : MLT CALIPER FROM MLL LOG
MINV.OHMM  : MICROLOG INVERSE FROM MLL LOG
MNOR.OHMM  : MICROLOG NORMAL FROM MLL LOG
~Params ----------------------------------------------------
PD  .                     GL : PERMANENT DATUM
EPD .FT                   26 : ELEVATION PERMANENT DATUM
LMF .                     KB : LOG MEASURED FROM
EKB .FT               2665.5 : KELLY BUSHING
EGL .FT                 2652 : GROUND LEVEL
DATE.               10/18/63 : RUN DATE
RUN .                      1 : RUN NUMBER
DD  .FT                 9550 : DEPTH DRILLER
DL  .FT                 8557 : DEPTH LOGGER
BLI .FT                 9554 : BOTTOM LOG INTERVAL
TLI .FT                  979 : TOP LOG INTERVAL
CBD .FT                  978 : CASING BOTTOM DRILLER
CBL .FT                  979 : CASING BOTTOM LOGGER
BS  .IN                7.875 : BIT SIZE
BSD .FT                 9550 : BIT SIZE AT DEPTH
DFT .               GEL CHEM : DRILLING FLUID TYPE
DFD .                    9.8 : DRILLING FLUID DENSITY
DFV .                    112 : DRILLING FLUID VISCOSITY
DFPH.                      9 : DRILLING FLUID PH
DFL .                    6.8 : DRILLING FLUID LOSS
RMS .OHMM               3.01 : RESISTIVITY MUD SAMPLE
MST .DEGF                 61 : MUD SAMPLE TEMPERATURE
RMF .OHMM               1.85 : RESISTIVITY MUD FILTRATE SAMPLE
MFST.DEGF                 70 : MUD FILTRATE SAMPLE TEMPERATURE
RMC .OHMM               3.02 : RESISTIVITY MUD CAKE
MCST.DEGF                 70 : MUD CAKE SAMPLE TEMPERATURE
RMB .OHMM               0.93 : RESISTIVITY MUD AT BHT
TCS .HRS                   6 : TIME CIRCULATED STOPPED
LUN .                   3704 : LOGGING UNIT NUMBER
LUL .                     VV : LOGGING UNIT LOCATION
ENGI.                  MILLS : RECORDING ENGINEER
WITN.              MCDERMOTT : WITNESSED BY
CLNT.                A2DTECH : CLIENT CODE
ORIG.        2" 5" 25" PRINT : ORIGIN OF DATA
UWI .       100040306718W500 : UNIQUE WELL ID
DICO. A2D Technologies, Inc. : DIGITIZING COMPANY
~Other -----------------------------------------------------
~ASCII -----------------------------------------------------
  300.00000    -999.25    -999.25   78.25960    -999.25    -999.25    -999.25    -999.25
  350.00000    -999.25    -999.25   89.72710    -999.25    -999.25    -999.25    -999.25
  400.00000    -999.25    -999.25  101.92890    -999.25    -999.25    -999.25    -999.25
  450.00000    -999.25    -999.25   80.21840    -999.25    -999.25    -999.25    -999.25
  500.00000    -999.25    -999.25  104.26130    -999.25    -999.25    -999.25    -999.25
  550.00000    -999.25    -999.25   93.95480    -999.25    -999.25    -999.25    -999.25
  600.00000    -999.25    -999.25   52.20740    -999.25    -999.25    -999.25    -999.25
  650.00000    -999.25    -999.25   88.59170    -999.25    -999.25    -999.25    -999.25
  700.00000    -999.25    -999.25   86.28560    -999.25    -999.25    -999.25    -999.25
  750.00000    -999.25    -999.25  109.50880   54.54330    -999.25    -999.25    -999.25
  800.00000    -999.25    -999.25   81.36820   41.37290    -999.25    -999.25    -999.25
  850.00000    -999.25    -999.25   76.77590   41.20950    -999.25    -999.25    -999.25
  900.00000    -999.25    -999.25   82.72850   39.92560    -999.25    -999.25    -999.25
  950.00000    -999.25    -999.25   89.31260   39.46560    -999.25    -999.25    -999.25
 1000.00000   12.24020  125.80240  109.11450   70.55130   17.15930    2.23100    2.08890
 1050.00000   11.42980  129.48510  131.42630   65.58760   11.57090    2.31910    2.11220
 1100.00000   15.38860  128.12790  114.52050   53.03390   19.83520    2.14850    2.03010
 1150.00000   15.56230  131.88890  122.90380   53.52840   16.79910    1.74900    1.61970
 1200.00000   14.64570  133.48520  140.57700   65.76820   19.51670    2.09600    2.02310
 1250.00000   13.26600  131.62520  103.58780   59.86950   12.20040    1.64180    1.98230
 1300.00000   13.43130  137.33070  128.33330   52.50860   16.74480    1.98810    2.14600
 1350.00000   11.38190  122.84840  112.46220   64.02330   17.84750    2.27890    2.47160
 1400.00000    9.00100  106.58690   84.64560   44.63030    9.02280    2.98190    3.91240
 1450.00000    9.16920  115.30910   83.63050   46.78640    9.56780    2.77200    3.63340
 1500.00000    9.34220  112.20320   98.45800   41.04060   10.44640    2.59280    3.38380
 1550.00000    9.67980  100.60620   94.43960   45.08900   10.43980    2.81250    3.23020
 1600.00000    9.01510  110.00880   78.26950   49.88060    9.09800    3.04540    3.99640
 1650.00000   14.04220  148.80560   96.89230   44.39670   14.36610    1.84710    2.12550
 1700.00000   14.12450  128.21970    -999.25   43.58600   12.43160    1.74660    2.01620
 1750.00000   10.16070  107.22290    -999.25   45.60290   15.69320    2.04800    2.18950
 1800.00000    8.73240  106.18190    -999.25   42.89450    8.32980    2.68760    3.59570
 1850.00000   10.47810  118.95670    -999.25   54.99500   13.25280    2.14160    2.33050
 1900.00000   10.82860  121.46370    -999.25   50.62280   13.42500    1.83680    2.18950
 1950.00000   11.83030  116.44590    -999.25   61.30320   15.91200    1.83720    2.13280
 2000.00000   10.68760  127.38660    -999.25   48.23670   13.51450    1.95930    2.25190
 2050.00000   12.26220  136.99810    -999.25   50.01570   13.79400    2.02460    2.23470
 2100.00000   10.96270  138.70570    -999.25    0.42060   13.59320    2.04890    2.14480
 2150.00000    8.84390  114.44230    -999.25   37.21360    9.30820    2.53010    3.65330
 2200.00000    9.17250  121.11730    -999.25   46.21800    9.34440    4.12640    2.99420
 2250.00000    9.34940  102.06230    -999.25   38.07280   11.09840    2.61330    2.19790
 2300.00000   11.59430  112.49280    -999.25   58.57010   13.36520    2.28600    2.11930
 2350.00000   10.80960  104.52390    -999.25   61.21970   14.08880    2.52350    2.29760
 2400.00000   13.29660  122.19840    -999.25   66.24920   14.86130    2.89670    2.85340
 2450.00000   11.51620   88.29980    -999.25   86.55640   14.61230    5.48900    3.60550
 2500.00000    9.00810  113.46810    -999.25   83.19150   14.59810    2.98910    2.82130
 2550.00000    8.63180  116.46250    -999.25  106.25040   14.21070    3.67160    3.47330
 2600.00000    8.44100  101.16840    -999.25   91.57470   15.44930    3.27290    3.46890
 2650.00000    8.63950  110.98770    -999.25   93.91140   15.13830    3.05210    2.69920
 2700.00000    8.75560   90.27110    -999.25   84.01270   15.13890    3.45900    3.27260
 2750.00000    8.31590  103.78190    -999.25   89.52770   15.14270    3.75980    3.01120
 2800.00000    9.45650  105.66350    -999.25   72.28710   15.33160    4.17250    4.48170
 2850.00000    8.82650  104.92820    -999.25   87.68010   15.31520    3.43250    2.83740
 2900.00000    9.05560  102.91980    -999.25   77.89360   15.50850    3.72940    3.33700
 2950.00000   11.55210  105.92490    -999.25   82.13520   15.19770    3.45000    3.07610
 3000.00000   13.75810  114.18940    -999.25   66.31890   15.23750    3.36870    3.28670
 3050.00000    9.29400   86.72900    -999.25   80.92210   14.79520    3.97990    3.54580
 3100.00000    9.68410  100.79620    -999.25   92.85520   14.37510    3.25830    3.04790
 3150.00000   13.32250   87.89610    -999.25   79.20910   14.55230    3.01690    3.01090
 3200.00000    9.97320  102.28820    -999.25   94.42660   14.59720    3.34170    2.92900
 3250.00000   15.46310  113.03320    -999.25   97.95780   14.82740    3.81160    3.27220
 3300.00000   13.80020  103.48880    -999.25   93.33160   13.55020    3.26750    3.07800
 3350.00000   13.78730  108.49720    -999.25   86.31410   12.68640    3.55400    3.06740
 3400.00000   10.19620   93.88520    -999.25   90.37070    9.77350    2.08150    2.82730
 3450.00000    9.23320  110.79330    -999.25  105.48080    9.86290    4.78330    4.43060
 3500.00000    8.86340  104.01410    -999.25  128.04080    9.16890    3.67780    5.23560
 3550.00000   10.75720  101.89430    -999.25   74.13740   12.76210    1.78080    2.23630
 3600.00000   11.11770   97.95400    -999.25   81.65080   10.10680    2.25030    2.01240
 3650.00000    9.98740   93.01670    -999.25   93.65880   11.83570    1.90810    2.54260
 3700.00000   10.55060  103.60160    -999.25   80.23140   12.30960    1.72700    2.21570
 3750.00000   10.33550   96.45680    -999.25   84.81860   11.21080    1.79830    2.28070
 3800.00000   10.65320   91.04310    -999.25   74.73550   12.43860    1.69440    1.92820
 3850.00000    9.88780   93.62440    -999.25   88.25220   13.86340    1.76450    2.18280
 3900.00000   11.04780  103.21510    -999.25   86.08880   15.32080    1.68180    1.94000
 3950.00000   11.46090  114.46220    -999.25  101.15590   15.29560    1.66420    1.88130
 4000.00000   11.37360  104.75880    -999.25   87.85070   15.53110    1.71060    1.86680
 4050.00000   11.08330   99.85790    -999.25   71.97740   14.65200    1.69880    2.12870
 4100.00000   10.46010   93.82970    -999.25   78.35750   13.35540    1.73500    2.12150
 4150.00000    9.65860   82.24740    -999.25   81.57230   10.29940    3.67100    5.78000
 4200.00000   10.91640   92.38300    -999.25   64.42000   12.02470    1.71280    2.33210
 4250.00000   10.18230   88.10010    -999.25   70.59460   10.05650    1.90520    2.83940
 4300.00000    8.44740   91.67120    -999.25   50.96590    8.07420    2.07830    3.39270
 4350.00000    9.29950   76.73730    -999.25   48.83500    9.35450    8.02020    6.88940
 4400.00000    9.54460   78.11490    -999.25   60.33020    9.92340    5.37250    6.74780
 4450.00000    8.87970   76.30930    -999.25   40.42810    8.90630    1.92020    2.87690
 4500.00000   11.19980   85.31150    -999.25   62.26300   10.43990    2.14230    3.67780
 4550.00000   10.46640   86.74450    -999.25   72.76970   11.27970    5.25620    4.62500
 4600.00000   10.47150   88.55470    -999.25   68.27030   10.82340    1.77490    2.80650
 4650.00000   12.85360  105.21820    -999.25   60.18150   13.70200    1.65380    1.96300
 4700.00000   11.00480   85.31460    -999.25   61.90020    9.77950    3.62750    5.60920
 4750.00000    9.38500   82.71070    -999.25   56.22800   10.33510    6.69840    6.73580
