~Version ---------------------------------------------------
VERS.      2.0 : CWLS log ASCII Standard -VERSION 2.0
WRAP.       NO : One line per depth step
CREA. 11/13/17 : LAS Creation Date
~Well ------------------------------------------------------
STRT.FT                       1150.0 : START DEPTH
STOP.FT                      10450.0 : STOP DEPTH
STEP.FT                     50.00000 : STEP LENGTH
NULL.                        -999.25 : NULL VALUE
COMP.            GULF OIL CANADA LTD : COMPANY
WELL. NUMAC ET AL KAYBOBS 6-13-60-18 : WELL
FLD .                             WC : FIELD
LOC .                                : LOCATION
CTRY.                         CANADA : COUNTRY
SRVC.                   Schlumberger : SERVICE COMPANY
DATE.                    01-Mar-1977 : LOGDATE
PROV.                        Alberta : PROVINCE
UWI .               100061306018W500 : UNIQUE WELL ID
SLAT.WGS84                  54.18721 : SURFACE LATITUDE
SLON.WGS84                 -116.5675 : SURFACE LONGITUDE
~Curve Information -----------------------------------------
DEPT    .FT    : Depth Curve
CALDED  .IN    : CALIPER FROM CNFD LOG
CALSED  .IN    : CALIPER FROM BCS LOG [ADJ.TO GRDED]
CALWS   .IN    : CALIPER [CALSED SPL. TO CALDED @ 10498']
CONDWS  .MMHO  : CONDUCTIVITY [1000/DRESWS]
DCORED  .G/C3  : DENSITY CORRECTION FROM CNFD LOG
DCORWS  .G/C3  : DENSITY CORRECTION [DCORED]
DENWS   .G/C3  : FORMATION BULK DENSITY [RHOBED]
DPHILSED.V/V   : DENSITY POROSITY LIMESTONE [M=2.71, F=1.0] FROM CNFD LOG [ADJ.TO RHOBED]
DPHISSED.V/V   : DENSITY POROSITY SANDSTONE [M=2.65, F=1.0] FROM CNFD LOG [ADJ.TO RHOBED]
DPOWS   .V/V   : DENSITY POROSITY LIMESTONE [CALCULATED FROM DENWS, M=2.71, F=1.0]
DRESWS  .OHMM  : DEEP RESISTIVITY [ILDED]
DTED    .US/F  : DELTA-T FROM BCS LOG [ADJ.TO GRDED]
DTWS    .US/F  : COMPRESSIONAL SONIC [DTED]
GRDED   .GAPI  : GAMMA RAY FROM CNFD LOG
GRSED   .GAPI  : GAMMA RAY FROM BCS LOG [ADJ.TO GRDED]
GRWS    .GAPI  : GAMMA RAY [GRSED]
ILDED   .OHMM  : DEEP INDUCTION FROM DIL-LAT LOG
ILMED   .OHMM  : MEDIUM INDUCTION FROM DIL-LAT LOG
LL8ED   .OHMM  : LATEROLOG 8 FROM DIL-LAT LOG
MRESWS  .OHMM  : MEDIUM RESISTIVITY [ILMED]
NPHILSED.V/V   : NEUTRON POROSITY LIMESTONE FROM CNFD LOG [ADJ.TO RHOBED]
NPHISSED.V/V   : NEUTRON POROSITY SANDSTONE FROM CNFD LOG [ADJ.TO RHOBED]
NPOWS   .V/V   : NEUTRON POROSITY LIMESTONE [NPHISSED CONVERTED TO LIMESTONE MATRIX & SPL. TO NPHILSED @ 6970']
RHOBED  .G/C3  : FORMATION BULK DENSITY FROM CNFD LOG
SPRED   .MV    : SPONTANEOUS POTENTIAL FROM DIL-LAT LOG
SPWS    .MV    : SPONTANEOUS POTENTIAL [BASELINE 0 MV, SPRED]
SRESWS  .OHMM  : SHALLOW RESISTIVITY [LL8ED]
~Params ----------------------------------------------------
PD  .                     GL : PERMANENT DATUM
EPD .FT               2750.3 : ELEVATION PERMANENT DATUM
LMF .                     KB : LOG MEASURED FROM
DAPD.FT                 15.7 : FEET ABOVE PERMANENT DATUM
EKB .FT                 2766 : KELLY BUSHING
EGL .FT               2750.3 : GROUND LEVEL
DATE.               03/01/77 : RUN DATE
RUN .                      1 : RUN NUMBER
DD  .FT                10500 : DEPTH DRILLER
DL  .FT                10488 : DEPTH LOGGER
BLI .FT                10494 : BOTTOM LOG INTERVAL
TLI .FT                 1099 : TOP LOG INTERVAL
CBD .FT                 1099 : CASING BOTTOM DRILLER
CBL .FT                 1100 : CASING BOTTOM LOGGER
BS  .IN                 8.75 : BIT SIZE
BSD .FT                10500 : BIT SIZE AT DEPTH
DFT .                    GEL : DRILLING FLUID TYPE
DFD .                    9.1 : DRILLING FLUID DENSITY
DFV .                    115 : DRILLING FLUID VISCOSITY
DFPH.                   10.5 : DRILLING FLUID PH
DFL .                    8.8 : DRILLING FLUID LOSS
MSS .               FLOWLINE : MUD SAMPLE SOURCE
RMS .OHMM                2.6 : RESISTIVITY MUD SAMPLE
MST .DEGF                 60 : MUD SAMPLE TEMPERATURE
RMF .OHMM               2.46 : RESISTIVITY MUD FILTRATE SAMPLE
MFST.DEGF                 59 : MUD FILTRATE SAMPLE TEMPERATURE
RMB .OHMM               0.86 : RESISTIVITY MUD AT BHT
TCS .HRS                   4 : TIME CIRCULATED STOPPED
LUN .                   7669 : LOGGING UNIT NUMBER
LUL .                    EDM : LOGGING UNIT LOCATION
ENGI.                LANGTON : RECORDING ENGINEER
WITN.      ROCKNEY CHOQUETTE : WITNESSED BY
CLNT.                A2DTECH : CLIENT CODE
ORIG.            2" 5" PRINT : ORIGIN OF DATA
UWI .       100061306018W500 : UNIQUE WELL ID
DICO. A2D Technologies, Inc. : DIGITIZING COMPANY
~Other -----------------------------------------------------
~ASCII -----------------------------------------------------
# ...
 8950.00000    8.78270    8.87970    8.87970    7.66630    0.02150    0.02150    2.74920   -0.03080    -999.25   -0.02290  130.44060   52.10630   52.10630   31.53770   35.57770   35.57770  130.44060  157.71040  291.94740  157.71040    0.03450    -999.25    0.03450    2.74920  -50.06630  -23.17610  291.94740
 9000.00000    8.62490    9.03410    9.03410    5.98040    0.00880    0.00880    2.72650   -0.01880    -999.25   -0.00960  167.21190   51.52210   51.52210   26.79510   29.03930   29.03930  167.21190  215.39700  247.28590  215.39700    0.03060    -999.25    0.03060    2.72650  -49.85920  -24.53880  247.28590
 9050.00000    8.63100    9.00360    9.00360   10.33130    0.00390    0.00390    2.69990   -0.00740    -999.25    0.00590   96.79280   52.51180   52.51180   30.24550   32.86630   32.86630   96.79280  202.36460  136.38660  202.36460    0.03900    -999.25    0.03900    2.69990  -41.61710  -17.86650  136.38660
 9100.00000    8.71600    8.97450    8.97450   20.96770    0.01690    0.01690    2.70950   -0.00400    -999.25    0.00030   47.69230   55.22260   55.22260   37.95080   34.57080   34.57080   47.69230   73.23200   64.91660   73.23200    0.05850    -999.25    0.05850    2.70950  -30.73490   -8.56440   64.91660
 9150.00000    9.09600    9.06860    9.06860   96.87290    0.21470    0.21470    2.68880    0.00290    -999.25    0.01240   10.32280   65.54220   65.54220   72.81140   73.14710   73.14710   10.32280   12.18890   15.31310   12.18890    0.13820    -999.25    0.13820    2.68880  -24.73640   -4.13580   15.31310
 9200.00000    9.04350    8.99210    8.99210  110.31440    0.06360    0.06360    2.70560   -0.00450    -999.25    0.00260    9.06500   67.49300   67.49300   81.42680   81.43270   81.43270    9.06500   10.48960   14.04010   10.48960    0.14940    -999.25    0.14940    2.70560  -21.29230   -1.63420   14.04010
 9250.00000    8.81810    8.94440    8.94440   42.74380    0.01760    0.01760    2.69170   -0.00320    -999.25    0.01070   23.39520   59.58220   59.58220   51.54220   54.39760   54.39760   23.39520   31.79160   37.43060   31.79160    0.09100    -999.25    0.09100    2.69170  -23.03830   -3.95080   37.43060
 9300.00000    8.88400    8.93120    8.93120   58.92790    0.01840    0.01840    2.71050   -0.00670    -999.25   -0.00030   16.96990   64.53490   64.53490   57.30360   64.50370   64.50370   16.96990   21.27940   25.30100   21.27940    0.12750    -999.25    0.12750    2.71050  -24.82960   -6.31280   25.30100
 9350.00000    8.94630    8.96030    8.96030   36.18140    0.00120    0.00120    2.66480    0.02320    -999.25    0.02640   27.63850   66.05990   66.05990   86.64050   84.37450   84.37450   27.63850   40.67590   49.94980   40.67590    0.17740    -999.25    0.17740    2.66480  -27.09320   -9.15080   49.94980
 9400.00000    9.64800    9.23910    9.23910   87.10350    0.15460    0.15460    2.63860    0.04040    -999.25    0.04180   11.48060   67.07950   67.07950   69.52950   67.21240   67.21240   11.48060   14.10420   16.99750   14.10420    0.16200    -999.25    0.16200    2.63860  -26.05640   -8.68460   16.99750
 9450.00000    9.93050    9.49990    9.49990  131.71760    0.23870    0.23870    2.44590    0.14850    -999.25    0.15440    7.59200   73.97360   73.97360   87.13550   81.99910   81.99910    7.59200    8.65900   11.16250    8.65900    0.22950    -999.25    0.22950    2.44590  -30.48600  -13.68860   11.16250
 9500.00000    8.89410    8.88500    8.88500   31.58400    0.01170    0.01170    2.69200    0.00330    -999.25    0.01050   31.66160   56.13460   56.13460   62.03860   64.20860   64.20860   31.66160   41.58440   60.70520   41.58440    0.09120    -999.25    0.09120    2.69200  -21.16370   -4.93700   60.70520
 9550.00000    8.93720    9.06780    9.06780   48.92730    0.00970    0.00970    2.74090   -0.03020    -999.25   -0.01810   20.43850   61.12230   61.12230   81.80490   72.82730   72.82730   20.43850   24.99430   27.09170   24.99430    0.13500    -999.25    0.13500    2.74090  -21.72610   -6.07000   27.09170
 9600.00000    9.00990    9.70940    9.70940   71.64350    0.01450    0.01450    2.71710   -0.01160    -999.25   -0.00420   13.95800   65.64930   65.64930   98.85970   97.36580   97.36580   13.95800   17.07230   20.36370   17.07230    0.17450    -999.25    0.17450    2.71710  -20.91040   -5.82870   20.36370
 9650.00000    8.80430    9.63440    9.63440   82.79520    0.03930    0.03930    2.74590   -0.03320    -999.25   -0.02100   12.07800   66.71390   66.71390  101.33320  102.75020  102.75020   12.07800   15.43460   18.95180   15.43460    0.18250    -999.25    0.18250    2.74590  -20.19250   -5.68150   18.95180
 9700.00000    9.00890    9.47380    9.47380   83.41810    0.18460    0.18460    2.75440   -0.01310    -999.25   -0.02600   11.98780   66.51740   66.51740   85.35310   77.43990   77.43990   11.98780   14.99830   18.66340   14.99830    0.16170    -999.25    0.16170    2.75440  -20.40590   -6.46930   18.66340
 9750.00000    9.97440    9.59630    9.59630   87.96540    0.18100    0.18100    2.71210   -0.01250    -999.25   -0.00120   11.36810   73.97690   73.97690  110.30220  109.63190  109.63190   11.36810   13.04720   19.40100   13.04720    0.19640    -999.25    0.19640    2.71210  -19.68260   -6.31660   19.40100
 9800.00000    9.65250    9.73450    9.73450   98.04500    0.18850    0.18850    2.71360   -0.00810    -999.25   -0.00210   10.19940   69.23820   69.23820   98.67190   93.12180   93.12180   10.19940   12.08020   15.89290   12.08020    0.20050    -999.25    0.20050    2.71360  -18.02080   -5.22550   15.89290
 9850.00000    8.63320    9.35280    9.35280    0.79650    0.01560    0.01560    2.65540    0.03950    -999.25    0.03190 1255.42320   61.75710   61.75710   87.24530   87.35730   87.35730 1255.42320 1702.45920 1465.52980 1702.45920    0.12140    -999.25    0.12140    2.65540  -39.12470  -25.31340 1465.52980
 9900.00000    8.60900    9.35400    9.35400    0.81190    0.01350    0.01350    2.52220    0.10860    -999.25    0.10980 1231.70650   75.81050   75.81050  177.31950  179.73700  179.73700 1231.70650 1681.58840 1460.14040 1681.58840    0.19120    -999.25    0.19120    2.52220  -95.18420  -75.03680 1460.14040
 9950.00000    8.60600    9.49380    9.49380    0.76600   -0.00140   -0.00140    2.57060    0.08330    -999.25    0.08150 1305.54480   64.68440   64.68440  112.51770  113.47520  113.47520 1305.54480 1814.99380 1489.71630 1814.99380    0.11470    -999.25    0.11470    2.57060  -89.85020  -63.32510 1489.71630
 10000.00000    9.64350   10.09010   10.09010   32.90640    0.25950    0.25950    2.40780    0.17180    -999.25    0.17670   30.38920   75.34950   75.34950  127.23940  131.07200  131.07200   30.38920   44.23680   78.17980   44.23680    0.19020    -999.25    0.19020    2.40780  -36.72130   -3.86010   78.17980
 10050.00000    8.77890    9.51900    9.51900    2.93480    0.09440    0.09440    2.80010   -0.11240    -999.25   -0.05270  340.73370   48.86560   48.86560    8.11170    9.05710    9.05710  340.73370 1690.46850 1124.77820 1690.46850    0.01250    -999.25    0.01250    2.80010 -140.17860 -108.71980 1124.77820
 10100.00000    9.54760    9.69760    9.69760    0.80770    0.15360    0.15360    2.59640    0.07230    -999.25    0.06640 1238.01050   49.34100   49.34100   12.41810   11.98400   11.98400 1238.01050 1798.10030 1453.49440 1798.10030    0.06130    -999.25    0.06130    2.59640 -158.21350 -128.95660 1453.49440
 10150.00000    8.52690    9.60520    9.60520    1.39880    0.01070    0.01070    2.82100   -0.07770    -999.25   -0.06490  714.88290   45.78900   45.78900   11.60060   13.79560   13.79560  714.88290 1588.45420 1114.42410 1588.45420    0.07400    -999.25    0.07400    2.82100 -123.57270  -96.50340 1114.42410
 10200.00000    8.28480    8.75470    8.75470   49.85740    0.14290    0.14290    2.67740    0.00660    -999.25    0.01910   20.05720   52.60210   52.60210    9.00980   10.06100   10.06100   20.05720   34.81320   69.12310   34.81320    0.15520    -999.25    0.15520    2.67740 -139.80930 -114.94190   69.12310
