~Version ---------------------------------------------------
VERS.      2.0 : CWLS log ASCII Standard -VERSION 2.0
WRAP.       NO : One line per depth step
CREA. 12/07/17 : LAS Creation Date
~Well ------------------------------------------------------
STRT.FT                      750.0 : START DEPTH
STOP.FT                     6700.0 : STOP DEPTH
STEP.FT                   50.00000 : STEP LENGTH
NULL.                      -999.25 : NULL VALUE
COMP.     CHEVRON STANDARD LIMITED : COMPANY
WELL. CHEVRON WESTLOCK 10-16-60-27 : WELL
FLD .                              : FIELD
LOC .                              : LOCATION
CTRY.                       CANADA : COUNTRY
SRVC.                 Schlumberger : SERVICE COMPANY
DATE.                  11-Nov-1965 : LOGDATE
PROV.                      Alberta : PROVINCE
UWI .             100101606027W400 : UNIQUE WELL ID
SLAT.WGS84                 54.1904 : SURFACE LATITUDE
SLON.WGS84                -113.984 : SURFACE LONGITUDE
~Curve Information -----------------------------------------
DEPT  .FT    : Depth Curve
CALWS .IN    : CALIPER [MCALED]
CILDED.MMHO  : DEEP CONDUCTIVITY FROM RESISTIVITY LOG
CONDWS.MMHO  : CONDUCTIVITY [1000/DRESWS]
DRESWS.MMHO  : DEEP RESISTIVITY [1000/CILDED IF ILDED<5, ILDED]
DTED  .US/F  : DELTA TIME FROM SONIC LOG [ADJ. TO RESISTIVITY LOG]
DTWS  .US/F  : COMPRESSIONAL SONIC [DTED]
GRSED .GAPI  : GAMMA RAY FROM SONIC LOG [ADJ. TO RESISTIVITY LOG]
GRWS  .GAPI  : GAMMA RAY [GRSED]
ILDED .OHMM  : DEEP INDUCTION RESISTIVITY FROM RESISTIVITY LOG
MCALED.IN    : MLT CALIPER FROM MICRO LOG
SNED  .OHMM  : SHORT NORMAL RESISTIVITY16" FROM RESISTIVITY LOG
SPRED .MV    : SPONTANEOUS POTENTIAL FROM RESISTIVITY LOG
SPWS  .MV    : SPONTANEOUS POTENTIAL [BASELINE 0 MV. SPRED]
SRESWS.OHMM  : SHALLOW RESISTIVITY [SNED]
~Params ----------------------------------------------------
PD  .                     GL : PERMANENT DATUM
EPD .FT               2067.4 : ELEVATION PERMANENT DATUM
LMF .                     KB : LOG MEASURED FROM
DAPD.FT                 12.6 : FEET ABOVE PERMANENT DATUM
EKB .FT                 2080 : KELLY BUSHING
EGL .FT               2067.4 : GROUND LEVEL
DATE.               11/11/65 : RUN DATE
RUN .                      2 : RUN NUMBER
DD  .FT                 6730 : DEPTH DRILLER
DL  .FT                 6730 : DEPTH LOGGER
BLI .FT                 6729 : BOTTOM LOG INTERVAL
TLI .FT                 6300 : TOP LOG INTERVAL
CBD .FT                  712 : CASING BOTTOM DRILLER
CBL .FT                  711 : CASING BOTTOM LOGGER
BS  .IN                 8.75 : BIT SIZE
BSD .FT                 6730 : BIT SIZE AT DEPTH
DFT .               GEL CHEM : DRILLING FLUID TYPE
DFD .                   10.1 : DRILLING FLUID DENSITY
DFV .                    135 : DRILLING FLUID VISCOSITY
DFPH.                   10.5 : DRILLING FLUID PH
DFL .                   12.8 : DRILLING FLUID LOSS
RMS .OHMM              0.644 : RESISTIVITY MUD SAMPLE
MST .DEGF                 60 : MUD SAMPLE TEMPERATURE
RMF .OHMM              0.418 : RESISTIVITY MUD FILTRATE SAMPLE
MFST.DEGF                 66 : MUD FILTRATE SAMPLE TEMPERATURE
RMC .OHMM                0.7 : RESISTIVITY MUD CAKE
MCST.DEGF                 65 : MUD CAKE SAMPLE TEMPERATURE
RMB .OHMM              0.302 : RESISTIVITY MUD AT BHT
TCS .HRS                 1.5 : TIME CIRCULATED STOPPED
LUN .                   3523 : LOGGING UNIT NUMBER
LUL .                    EDM : LOGGING UNIT LOCATION
ENGI.              SWINARTON : RECORDING ENGINEER
WITN.                  LINKE : WITNESSED BY
CLNT.                A2DTECH : CLIENT CODE
ORIG.            2" 5" PRINT : ORIGIN OF DATA
UWI .       100101606027W400 : UNIQUE WELL ID
DICO. A2D Technologies, Inc. : DIGITIZING COMPANY
~Other -----------------------------------------------------
IEL-BHC-MICROLOG RUN
~ASCII -----------------------------------------------------
  750.00000   15.14610  246.23040  246.06300    4.06400    -999.25    -999.25    -999.25    -999.25    4.06400   15.14610    4.58510  -55.18100   -4.11170    4.58510
  800.00000   10.87420  197.71620  197.77700    5.05620    -999.25    -999.25    -999.25    -999.25    5.05620   10.87420    5.58960  -58.94770   -7.48970    5.58960
  850.00000   10.33680  226.66550  226.40310    4.41690    -999.25    -999.25    -999.25    -999.25    4.41690   10.33680    4.72590  -59.74750   -7.89830    4.72590
  900.00000    9.96740  186.18720  186.41760    5.36430    -999.25    -999.25    -999.25    -999.25    5.36430    9.96740    5.97430  -62.06520   -9.82740    5.97430
  950.00000    8.04200  195.06780  195.64180    5.11160    -999.25    -999.25    -999.25    -999.25    5.11160    8.04200    5.65340  -59.07600   -6.44700    5.65340
 1000.00000    9.92230  227.72910  227.54160    4.39480    -999.25    -999.25    -999.25    -999.25    4.39480    9.92230    5.04360  -58.29300   -5.27540    5.04360
 1050.00000   14.08790  268.66230  269.81810    3.70620    -999.25    -999.25    -999.25    -999.25    3.70620   14.08790    4.21610  -56.14340   -2.73710    4.21610
 1100.00000   12.99550  189.41370  189.32940    5.28180    -999.25    -999.25    -999.25    -999.25    5.28180   12.99550    5.76750  -56.86040   -3.06290    5.76750
 1150.00000   17.63200  133.85180  128.73000    7.76820    -999.25    -999.25    -999.25    -999.25    7.76820   17.63200    6.71830  -55.83790   -1.65180    6.71830
 1200.00000   13.65760  202.63590  202.45520    4.93940    -999.25    -999.25    -999.25    -999.25    4.93940   13.65760    5.27020  -56.56140   -1.73640    5.27020
 1250.00000   15.19340  178.48420  175.98200    5.68240    -999.25    -999.25    -999.25    -999.25    5.68240   15.19340    5.28700  -58.40220   -2.92150    5.28700
 1300.00000   16.59770  178.27740  178.39300    5.60560    -999.25    -999.25    -999.25    -999.25    5.60560   16.59770    5.91220  -60.33140   -4.19500    5.91220
 1350.00000   15.37420  174.30040  171.08640    5.84500    -999.25    -999.25    -999.25    -999.25    5.84500   15.37420    5.69840  -61.47070   -5.46640    5.69840
 1400.00000   16.54170  188.39620  185.14060    5.40130    -999.25    -999.25    -999.25    -999.25    5.40130   16.54170    5.98710  -60.80340   -5.10650    5.98710
 1450.00000   11.09150  154.49050  153.01370    6.53580    -999.25    -999.25    -999.25    -999.25    6.53580   11.09150    7.48100  -61.98620   -6.59880    7.48100
 1500.00000   15.98990  213.61170  213.52010    4.68340    -999.25    -999.25    -999.25    -999.25    4.68340   15.98990    5.55310  -63.99830   -8.91840    5.55310
 1550.00000    9.90030  133.62860  133.64520    7.48250    -999.25    -999.25    -999.25    -999.25    7.48250    9.90030    7.81930  -67.76310  -12.99070    7.81930
 1600.00000   13.20350  116.95240  111.30650    8.98420    -999.25    -999.25    -999.25    -999.25    8.98420   13.20350    8.51160  -66.40490  -11.94200    8.51160
 1650.00000   13.43920  150.51550  142.42580    7.02120    -999.25    -999.25    -999.25    -999.25    7.02120   13.43920    6.51590  -67.92860  -13.77310    6.51590
 1700.00000   14.78390  151.90970  144.86460    6.90300    -999.25    -999.25    -999.25    -999.25    6.90300   14.78390    6.39300  -68.09620  -14.25020    6.39300
 1750.00000   17.71950  129.17710  123.57430    8.09230    -999.25    -999.25    -999.25    -999.25    8.09230   17.71950    6.33020  -69.10790  -15.56940    6.33020
 1800.00000   17.75040  147.13890  145.57310    6.86940    -999.25    -999.25    -999.25    -999.25    6.86940   17.75040    5.55400  -68.10910  -14.87810    5.55400
 1850.00000   17.71640  125.82070  121.91550    8.20240    -999.25    -999.25    -999.25    -999.25    8.20240   17.71640    6.55780  -70.27540  -17.35390    6.55780
 1900.00000   14.26320  179.12120  184.76090    5.41240    -999.25    -999.25    -999.25    -999.25    5.41240   14.26320    5.94620  -64.57990  -11.96580    5.94620
 1950.00000    8.20900   89.17400   85.65860   11.68310    -999.25    -999.25    -999.25    -999.25   11.68310    8.20900   13.18260  -61.73250   -9.42790   13.18260
 2000.00000    9.23900  140.03360  137.74860    7.25960  106.50970  106.50970   77.68750   77.68750    7.25960    9.23900    9.14220  -61.35370   -9.35660    9.14220
 2050.00000   10.09310  164.27170  161.85680    6.17830  115.65250  115.65250  106.05950  106.05950    6.17830   10.09310    8.78510  -57.33900   -5.64940    8.78510
 2100.00000   13.48290  171.94480  170.67180    5.85920  108.06870  108.06870   65.41160   65.41160    5.85920   13.48290    6.62750  -60.69460   -9.31450    6.62750
 2150.00000   11.25360  191.22940  195.33540    5.11940  223.59200  223.59200   66.63250   66.63250    5.11940   11.25360    6.58020  -58.94670   -7.87400    6.58020
 2200.00000   12.10490  176.79030  176.12390    5.67790  100.36930  100.36930   78.17010   78.17010    5.67790   12.10490    7.33860  -57.19220   -6.42900    7.33860
 2250.00000   11.47170  188.72980  190.65780    5.24500  105.07740  105.07740   83.83510   83.83510    5.24500   11.47170    6.78370  -56.78010   -6.32440    6.78370
 2300.00000   10.31710  328.47060  318.81660    3.13660  117.51120  117.51120  148.17000  148.17000    3.13660   10.31710    4.18180  -50.88300   -0.73480    4.18180
 2350.00000   12.91430  400.56080  398.91500    2.50680  114.33300  114.33300   67.80500   67.80500    2.50680   12.91430    3.17460  -56.28330   -6.40690    3.17460
 2400.00000   11.34700  262.65410  266.93720    3.74620  101.77830  101.77830   74.73300   74.73300    3.74620   11.34700    4.67230  -54.55620   -4.94830    4.67230
 2450.00000    9.12270  175.42640  176.23790    5.67420  127.77960  127.77960   83.51440   83.51440    5.67420    9.12270    8.07390  -64.09100  -14.75340    8.07390
 2500.00000    8.01370  220.55630  216.75050    4.61360  103.31390  103.31390   43.26430   43.26430    4.61360    8.01370    6.68620  -54.47240   -5.40330    6.68620
 2550.00000   17.62360  467.57580  466.87520    2.14190  165.04330  165.04330   43.85530   43.85530    2.14190   17.62360    2.88990  -51.49210   -2.69160    2.88990
 2600.00000    8.88960  249.29690  249.36410    4.01020   95.15780   95.15780   32.21280   32.21280    4.01020    8.88960    8.77500  -80.99230  -31.33130    8.77500
 2650.00000    9.67240  283.69600  284.05060    3.52050   95.42020   95.42020   58.49550   58.49550    3.52050    9.67240    4.48610  -58.26420   -7.63520    4.48610
 2700.00000    9.61400  215.35540  215.36900    4.64320   91.80110   91.80110   57.74560   57.74560    4.64320    9.61400    5.93870  -59.70620   -8.10290    5.93870
 2750.00000    9.87280  322.68740  321.86420    3.10690   95.47740   95.47740   46.17950   46.17950    3.10690    9.87280    5.88350  -80.25840  -27.68710    5.88350
 2800.00000   10.38930  370.92810  370.50760    2.69900   95.75340   95.75340   41.40520   41.40520    2.69900   10.38930    8.54910 -104.74460  -51.20540    8.54910
 2850.00000   10.20770  276.95690  276.86260    3.61190   89.61930   89.61930   54.95700   54.95700    3.61190   10.20770    4.80740  -66.35030  -11.83670    4.80740
 2900.00000    9.43510  215.68410  215.95010    4.63070   87.63190   87.63190   62.25920   62.25920    4.63070    9.43510    6.18260  -60.77860   -5.29710    6.18260
 2950.00000    9.94430  184.25460  184.16090    5.43000   89.30260   89.30260   60.89630   60.89630    5.43000    9.94430    6.98600  -64.71540   -8.25950    6.98600
 3000.00000    9.98950  205.93350  205.54980    4.86500   80.46500   80.46500   42.00020   42.00020    4.86500    9.98950   15.97690 -118.48120  -61.05730   15.97690
 3050.00000   11.65490  242.51640  242.88940    4.11710   92.89460   92.89460   52.83870   52.83870    4.11710   11.65490    5.13610  -61.85650   -3.46470    5.13610
 3100.00000    9.25480  179.53770  179.45270    5.57250   81.33210   81.33210   49.58270   49.58270    5.57250    9.25480   12.45400  -90.49420  -30.56550   12.45400
 3150.00000   10.95180  186.20480  185.94270    5.37800   89.91080   89.91080   57.82740   57.82740    5.37800   10.95180    8.23140  -59.71270    2.58580    8.23140
