~Version ---------------------------------------------------
VERS.      2.0 : CWLS log ASCII Standard -VERSION 2.0
WRAP.       NO : One line per depth step
CREA. 08/16/13 : LAS Creation Date
~Well ------------------------------------------------------
STRT.M                         300.0 : START DEPTH
STOP.M                        2750.0 : STOP DEPTH
STEP.M                      50.00000 : STEP LENGTH
NULL.                        -999.25 : NULL VALUE
COMP.         FOREST OIL CORPORATION : COMPANY
WELL. FOREST ET AL JUDY CREEK 6-25-6 : WELL
FLD .                                : FIELD
LOC .                                : LOCATION
CTRY.                         CANADA : COUNTRY
SRVC.                        Unknown : SERVICE COMPANY
DATE.                    11-Dec-1982 : LOGDATE
PROV.                        Alberta : PROVINCE
UWI .               100062506412W500 : UNIQUE WELL ID
SLAT.WGS84                  54.56351 : SURFACE LATITUDE
SLON.WGS84                 -115.6804 : SURFACE LONGITUDE
~Curve Information -----------------------------------------
DEPT    .M      : DEPTH METER
CALDED  .MM     : CALIPER FROM DENSITY LOG [ADJ.TO RESISTIVITY LOG]
CALSED  .MM     : CALIPER FROM SONIC LOG
CALWS   .MM     : CALIPER [CALDED]
CONDWS  .MMHO   : CONDUCTIVITY [1000/DRESWS]
DCORWS  .KG/M3  : DENSITY CORRECTION [DRHOED]
DENWS   .KG/M3  : FORMATION BULK DENSITY [CALC FROM DPOLSWS, M=2710, F=1000]
DPHILSED.V/V    : DENSITY POROSITY LIMESTONE [M=2710, F=1000] FROM DENSITY LOG [ADJ.TO RESISTIVITY LOG]
DPHISSED.V/V    : DENSITY POROSITY SANDSTONE [M=2650, F=1000] FROM DENSITY LOG [ADJ.TO RESISTIVITY LOG]
DPOLSWS .V/V    : DENSITY POROSITY LIMESTONE [DPHISSED CONVERTED TO LIMESTONE MATRIX, M=2710 F=1000 SPL.TO DPHILSED @ 1623.6M]
DRESWS  .OHMM   : DEEP RESISTIVITY [ILDED]
DRHOED  .KG/M3  : DENSITY CORRECTION FROM DENSITY LOG [ADJ.TO RESISTIVITY LOG]
DTED    .US/M   : DELTA TIME FROM SONIC LOG
DTWS    .US/M   : COMPRESSIONAL SONIC [DTED]
GRDED   .GAPI   : GAMMA RAY FROM DENSITY LOG [ADJ.TO RESISTIVITY LOG]
GRSED   .GAPI   : GAMMA RAY FROM SONIC LOG
GRWS    .GAPI   : GAMMA RAY [GRSED SPL.TO GRDED @ 2735M]
ILDED   .OHMM   : DEEP INDUCTION FROM RESISTIVITY LOG
ILMED   .OHMM   : MEDIUM INDUCTION FROM RESISTIVITY LOG
MRESWS  .OHMM   : MEDIUM RESISTIVITY [ILMED]
NPHILSED.V/V    : NEUTRON POROSITY LIMESTONE FROM DENSITY LOG [ADJ.TO RESISTIVITY LOG]
NPHISSED.V/V    : NEUTRON POROSITY SANDSTONE FROM DENSITY LOG [ADJ.TO RESISTIVITY LOG]
NPOLSWS .V/V    : NEUTRON POROSITY LIMESTONE [NPHISSED MATRIX (SLB) CONVERSION FOR LIMESTONE, SPL.TO NPHILSED @ 1623.6M]
RHOBED  .KG/M3  : BULK DENSITY FROM DENSITY LOG [ADJ.TO RESISTIVITY LOG]
SFLUED  .OHMM   : SHALLOW FOCUSED FROM RESISTIVITY LOG
SPRED   .MV     : SPONTANEOUS POTENTIAL FROM RESISTIVITY LOG
SPWS    .MV     : SPONTANEOUS POTENTIAL [BASELINE 0 MV, SPRED]
SRESWS  .OHMM   : SHALLOW RESISTIVITY [SFLUED]
~Params ----------------------------------------------------
PD  .                         GL : PERMANENT DATUM
EPD .M                    1024.2 : ELEVATION PERMANENT DATUM
LMF .                         KB : LOG MEASURED FROM
DAPD.M                       5.2 : FEET ABOVE PERMANENT DATUM
DMF .                         KB : DRILLING MEASURED FROM
EKB .M                    1029.4 : KELLY BUSHING
EGL .M                    1024.2 : GROUND LEVEL
DATE.                   12/11/82 : RUN DATE
RUN .                          1 : RUN NUMBER
DD  .M                      2765 : DEPTH DRILLER
DL  .M                      2758 : DEPTH LOGGER
BLI .M                      2757 : BOTTOM LOG INTERVAL
TLI .M                       186 : TOP LOG INTERVAL
CS  .MM                      244 : CASING SIZE
CBD .M                       186 : CASING BOTTOM DRILLER
CBL .M                       186 : CASING BOTTOM LOGGER
BS  .MM                      200 : BIT SIZE
BSD .M                      2765 : BIT SIZE AT DEPTH
DFT .                   GEL CHEM : DRILLING FLUID TYPE
DFD .                       1085 : DRILLING FLUID DENSITY
DFV .                         65 : DRILLING FLUID VISCOSITY
DFPH.                         10 : DRILLING FLUID PH
DFL .                        9.4 : DRILLING FLUID LOSS
MSS .                   FLOWLINE : MUD SAMPLE SOURCE
RMS .OHMM                   2.47 : RESISTIVITY MUD SAMPLE
MST .DEGC                   25.5 : MUD SAMPLE TEMPERATURE
RMF .OHMM                   2.75 : RESISTIVITY MUD FILTRATE SAMPLE
MFST.DEGC                   15.5 : MUD FILTRATE SAMPLE TEMPERATURE
MFSS.                      PRESS : MUD FILTRATE SAMPLE SOURCE
TCS .HRS                    2200 : TIME CIRCULATED STOPPED
TLAB.HRS                     830 : TIME LOGGER AT BOTTOM
LUN .                       8037 : LOGGING UNIT NUMBER
LUL .                        EDM : LOGGING UNIT LOCATION
ENGI.                     CSIKOS : RECORDING ENGINEER
WITN.                    WORONUK : WITNESSED BY
CLNT.                    A2DTECH : CLIENT CODE
ORIG. 6.5"/100M 16.5"/100M PRINT : ORIGIN OF DATA
UWI .           100062506412W500 : UNIQUE WELL ID
DICO.     A2D Technologies, Inc. : DIGITIZING COMPANY
~Other -----------------------------------------------------
DI-SFL-BHC LOG RUN IN COMBO & FDC-CNL LOG RUN
RHOBED DIG IN SMALL SCALE LOG
~ASCII -----------------------------------------------------
  300.00000  231.47580  226.87520  231.47580  110.85740   27.54080 2184.04000    -999.25    0.28240    0.30760    9.02060   27.54080  359.68330  359.68330   66.44810   64.17550   64.17550    9.02060    8.27280    8.27280    -999.25    0.39470    0.35170 2183.02050    7.94710 -211.23440  -18.45280    7.94710
  350.00000  227.99110  236.78120  227.99110  294.84610  136.41260 2072.33500    -999.25    0.35010    0.37290    3.39160  136.41260  424.85340  424.85340   80.46720   82.31490   82.31490    3.39160    3.17690    3.17690    -999.25    0.51510    0.47600 2084.29910    2.52530 -193.79500   -2.87300    2.52530
  400.00000  239.15590  239.04180  239.15590  265.24500  124.46470 2141.80000    -999.25    0.30800    0.33230    3.77010  124.46470  388.97310  388.97310   73.79400   66.24130   66.24130    3.77010    3.45270    3.45270    -999.25    0.51260    0.47340 2145.67210    3.08320 -193.26960   -4.17100    3.08320
  450.00000  231.78570  235.76930  231.78570  210.42000  172.11580 1954.85500    -999.25    0.42130    0.44160    4.75240  172.11580  335.02710  335.02710   74.09910   79.00100   79.00100    4.75240    4.55910    4.55910    -999.25    0.44880    0.40710 1963.00680    4.33850 -193.05740   -5.49790    4.33850
  500.00000  250.27580  220.93430  250.27580  272.70250  128.74810 2159.95000    -999.25    0.29700    0.32170    3.66700  128.74810  369.58190  369.58190   94.12360   77.86400   77.86400    3.66700    3.29600    3.29600    -999.25    0.43640    0.39440 2163.93070    3.18360 -193.02740   -6.90770    3.18360
  550.00000  198.50920  190.78850  198.50920  131.16300   47.73910 2178.43000    -999.25    0.28580    0.31090    7.62410   47.73910  344.89390  344.89390   71.25420   58.27580   58.27580    7.62410    7.39670    7.39670    -999.25    0.38480    0.34160 2179.51980    7.11170 -199.67360  -14.99380    7.11170
  600.00000  278.33370  276.58430  278.33370  372.71710   54.56290 1560.34000    -999.25    0.66040    0.67230    2.68300   54.56290  508.46070  508.46070   58.73630   49.51760   49.51760    2.68300    2.47540    2.47540    -999.25    0.57560    0.54000 1546.64920    2.52650 -186.94800   -3.70800    2.52650
  650.00000  232.90140  217.10830  232.90140  151.26300  104.46570 2169.85000    -999.25    0.29100    0.31590    6.61100  104.46570  338.65810  338.65810   54.47490   50.46040   50.46040    6.61100    6.32460    6.32460    -999.25    0.38550    0.34240 2169.85000    7.20630 -189.49470   -7.90530    7.20630
  700.00000  227.93420  226.08770  227.93420  256.58790  156.14350 2106.32500    -999.25    0.32950    0.35300    3.89730  156.14350  333.89090  333.89090   68.01880   53.28640   53.28640    3.89730    3.69590    3.69590    -999.25    0.47030    0.42930 2086.33330    3.60220 -181.45320   -1.67390    3.60220
  750.00000  234.50700  223.07030  234.50700  312.27560   68.05450 2259.77500    -999.25    0.23650    0.26330    3.20230   68.05450  363.43820  363.43820   69.53370   64.14450   64.14450    3.20230    3.10780    3.10780    -999.25    0.46750    0.42640 2254.97660    3.39170 -180.14060   -2.17140    3.39170
  800.00000  210.19470  203.74200  210.19470  151.99190   60.01810 2221.00000    -999.25    0.26000    0.28600    6.57930   60.01810  301.46400  301.46400   45.99430   34.46650   34.46650    6.57930    6.01500    6.01500    -999.25    0.36890    0.32550 2221.95970    9.64020 -193.64920  -17.49010    9.64020
  850.00000  223.72600  202.25650  223.72600  331.29040  198.83260 2056.33000    -999.25    0.35980    0.38230    3.01850  198.83260  362.29060  362.29060   69.70180   50.13030   50.13030    3.01850    2.97610    2.97610    -999.25    0.46250    0.42120 2058.09030    3.14570 -178.72970   -3.70580    3.14570
  900.00000  266.59830  302.25530  266.59830  167.77960  128.99230 1962.77500    -999.25    0.41650    0.43700    5.96020  128.99230  336.50020  336.50020   75.99610   68.76230   68.76230    5.96020    5.17590    5.17590    -999.25    0.52350    0.48490 1963.60420    5.05940 -184.21750   -9.33650    5.05940
  950.00000  283.30660  239.78410  283.30660  128.71670  136.63540 2297.06500    -999.25    0.21390    0.24150    7.76900  136.63540  314.21280  314.21280  108.70130  102.11640  102.11640    7.76900    7.45620    7.45620    -999.25    0.41790    0.37540 2284.87870    9.27910 -178.82880   -4.10820    9.27910
 1000.00000  369.93730  289.80090  369.93730  168.27930   49.59220 1515.79000    -999.25    0.68740    0.69840    5.94250   49.59220  333.43260  333.43260   85.25960   81.09840   81.09840    5.94250    5.10290    5.10290    -999.25    0.51300    0.47380 1506.84620    5.23650 -181.79170   -8.36750    5.23650
 1050.00000  347.73880  275.51080  347.73880  158.55400   88.06600 1761.64000    -999.25    0.53840    0.55460    6.30700   88.06600  310.93540  310.93540   82.13060   71.30450   71.30450    6.30700    5.91080    5.91080    -999.25    0.48670    0.44630 1727.10690    5.48440 -181.56810   -9.44030    5.48440
 1100.00000  354.92870  300.32870  354.92870  155.28670   90.71000 1662.97000    -999.25    0.59820    0.61230    6.43970   90.71000  296.11910  296.11910   84.15220   64.66400   64.66400    6.43970    5.57620    5.57620    -999.25    0.51800    0.47910 1655.02540    5.76550 -180.57430   -9.74300    5.76550
 1150.00000  223.81850  209.50040  223.81850  157.09690  130.08830 2355.80500    -999.25    0.17830    0.20710    6.36550  130.08830  335.41340  335.41340  116.96710   96.66990   96.66990    6.36550    6.14240    6.14240    -999.25    0.42790    0.38560 2355.02150    7.07560 -171.77810   -2.24320    7.07560
 1200.00000  224.92690  227.43750  224.92690  175.21110  163.33290 2500.51000    -999.25    0.09060    0.12250    5.70740  163.33290  279.29710  279.29710  101.27730   84.87750   84.87750    5.70740    5.91560    5.91560    -999.25    0.35090    0.30730 2499.70170    7.80980 -172.22850   -5.88540    7.80980
 1250.00000  290.22320  239.02150  290.22320  223.74870  197.63750 2270.83000    -999.25    0.22980    0.25680    4.46930  197.63750  308.16400  308.16400  102.62180   95.38200   95.38200    4.46930    4.32160    4.32160    -999.25    0.39850    0.35560 2273.95340    4.90180 -167.64690   -4.57380    4.90180
 1300.00000  305.42570  254.82990  305.42570  201.94680  221.81280 2336.33500    -999.25    0.19010    0.21850    4.95180  221.81280  311.44190  311.44190  115.83580  109.53060  109.53060    4.95180    4.78160    4.78160    -999.25    0.38790    0.34480 2316.44410    6.07590 -164.80200   -4.99890    6.07590
 1350.00000  292.61210  266.07360  292.61210  326.85080  170.52260 2062.93000    -999.25    0.35580    0.37840    3.05950  170.52260  314.96800  314.96800   97.13790   94.46580   94.46580    3.05950    3.21030    3.21030    -999.25    0.41800    0.37550 2005.27050    3.59830 -161.57920   -4.40010    3.59830
 1400.00000  250.66830  245.39160  250.66830  103.33890   78.18910 2317.52500    -999.25    0.20150    0.22950    9.67690   78.18910  274.11580  274.11580   44.89040   41.18810   41.18810    9.67690   11.69300   11.69300    -999.25    0.26400    0.22000 2315.22310   16.40300 -197.53270  -38.72480   16.40300
 1450.00000  258.61010  261.20360  258.61010  129.27250   54.66590 2434.18000    -999.25    0.13080    0.16130    7.73560   54.66590  255.29490  255.29490   54.54620   51.52890   51.52890    7.73560   10.34750   10.34750    -999.25    0.34210    0.29840 2475.80810   16.38880 -215.82160  -58.33260   16.38880
 1500.00000  275.73170  287.97370  275.73170  231.71750   34.19140 2370.32500    -999.25    0.16950    0.19860    4.31560   34.19140  263.16820  263.16820   67.21080   62.73420   62.73420    4.31560    4.68350    4.68350    -999.25    0.37390    0.33060 2372.32640    4.67790 -170.08610  -17.19450    4.67790
 1550.00000  238.37710  236.28380  238.37710  117.38050   30.29150 2659.24000    -999.25   -0.00560    0.02970    8.51930   30.29150  203.76300  203.76300   65.87680   58.73180   58.73180    8.51930   11.21740   11.21740    -999.25    0.21040    0.16680 2648.90600   21.00590 -153.70320   -7.40070   21.00590
