~Version ---------------------------------------------------
VERS.      2.0 : CWLS log ASCII Standard -VERSION 2.0
WRAP.       NO : One line per depth step
CREA. 10/15/14 : LAS Creation Date
~Well ------------------------------------------------------
STRT.M                       300.0 : START DEPTH
STOP.M                      3850.0 : STOP DEPTH
STEP.M                    50.00000 : STEP LENGTH
NULL.                      -999.25 : NULL VALUE
COMP.                   SUNCOR INC : COMPANY
WELL. SUNCOR PINE CREEK 10-1-56-19 : WELL
FLD .                              : FIELD
LOC .                              : LOCATION
CTRY.                       CANADA : COUNTRY
SRVC.                 Schlumberger : SERVICE COMPANY
DATE.                  11-Sep-1992 : LOGDATE
PROV.                      Alberta : PROVINCE
UWI .             100100105619W500 : UNIQUE WELL ID
SLAT.WGS84                53.81139 : SURFACE LATITUDE
SLON.WGS84               -116.6829 : SURFACE LONGITUDE
~Curve Information -----------------------------------------
DEPT    .M      : Depth Curve
CAL2DED .MM     : CALIPER FROM DENSITY LOG
CALD1ED .MM     : CALIPER FROM DENSITY LOG
CALD2ED .MM     : CALIPER FROM DENSITY LOG
CALDED  .MM     : CALIPER FROM DENSITY LOG
CALWS   .MM     : CALIPER [CALD1ED SPL. TO CAL2DED @ 3631 M]
CONDWS  .MMHO   : CONDUCTIVITY [1000/DRESWS]
DCORWS  .KG/M3  : DENSITY CORRECTION [DRHOED]
DENWS   .KG/M3  : FORMATION BULK DENSITY [CALC. FROM DPOLSWS, M=2710, F=1000]
DPHILSED.V/V    : DENSITY POROSITY [M=2710, F=1000] FROM DENSITY LOG
DPHISSED.V/V    : DENSITY POROSITY [M=2650, F=1000] FROM DENSITY LOG
DPOLSWS .V/V    : DENSITY POROSITY [DPHISSED CONVERT TO LIMESTONE, M=2710, F=1000 & SPL. TO DPHILSED @ 2614M]
DRESWS  .OHMM   : DEEP RESISTIVITY [IDPHED]
DRHOED  .KG/M3  : DENSITY CORRECTION FROM DENSITY LOG
DTED    .US/M   : DELTA TIME FROM SONIC LOG [ADJ. TO RESISTIVITY LOG]
DTWS    .US/M   : COMPRESSIONAL SONIC [DTED]
ENPHLSED.V/V    : EPITHERMAL NEUTRON POROSITY LIMESTONE FROM DENSITY LOG
ENPHSSED.V/V    : EPITHERMAL NEUTRON POROSITY SANDSTONE FROM DENSITY LOG
GRDED   .GAPI   : GAMMA RAY FROM DENSITY LOG
GRED    .GAPI   : GAMMA RAY FROM CBL LOG [ADJ. TO RESISTIVITY LOG]
GRNED   .GAPI   : GAMMA RAY FROM CNL LOG [ADJ. TO RESISTIVITY LOG]
GRRED   .GAPI   : GAMMA RAY FROM RESISTIVITY LOG
GRSED   .GAPI   : GAMMA RAY FROM SONIC LOG [ADJ. TO RESISTIVITY LOG]
GRWS    .GAPI   : GAMMA RAY [GRED SPL. TO GRSED @ 84 M]
HDED    .MM     : HORIZONTAL HOLE DIAMETER FROM SONIC LOG
IDPHED  .OHMM   : DEEP INDUCTION PHASOR RESISTIVITY FROM RESISTIVITY LOG
IMPHED  .OHMM   : MEDIUM INDUCTION PHASOR RESISTIVITY FROM RESISTIVITY LOG
MRESWS  .OHMM   : MEDIUM RESISTIVITY [IMPHED]
NPHILSED.V/V    : NEUTRON POROSITY  SANDSTONE FROM CNL LOG [ADJ. TO RESISTIVITY LOG]
NPOLSWS .V/V    : NEUTRON POROSITY LIMESTONE [NPORSSED CONVERT TO LIMESTONE & SPL. TO NPORLSED @ 2614 M & NPHILSED BELOOW 3612 M]
NPORLSED.V/V    : NEUTRON POROSITY LIMESTONE FROM DENSITY LOG
NPORSSED.V/V    : NEUTRON POROSITY SANDSTONE FROM DENSITY LOG
PEFED   .B/E    : PHOTOELECTRIC FACTOR FROM DENSITY LOG
PEFWS   .B/E    : PHOTOELECTRIC FACTOR [PEFED]
RHOBED  .KG/M3  : BULK DENSITY FROM DENSITY LOG
SFLUED  .OHMM   : SHALLOW FOCUS RESISTIVITY FROM RESISTIVITY LOG
SPRED   .MV     : SPONTANEOUS POTENTIAL FROM RESISTIVITY LOG
SPWS    .MV     : SPONTANEOUS POTENTIAL [BASELINE TO 0 MV, SPRED]
SRESWS  .OHMM   : SHALLOW RESISTIVITY [SFLUED]
TENDED  .N      : TENSION FROM DENSITY LOG
TENRED  .N      : TENSION FROM RESISTIVITY LOG
TENSED  .N      : TENSION FROM SONIC LOG [ADJ. TO RESISTIVITY LOG]
~Params ----------------------------------------------------
PD  .                         GL : PERMANENT DATUM
EPD .M                    1104.6 : ELEVATION PERMANENT DATUM
LMF .                         KB : LOG MEASURED FROM
DAPD.M                       6.4 : FEET ABOVE PERMANENT DATUM
DMF .                         KB : DRILLING MEASURED FROM
EKB .M                      1111 : KELLY BUSHING
EDF .M                    1110.6 : DRILLING FLOOR
EGL .M                    1104.6 : GROUND LEVEL
DATE.                   09/11/92 : RUN DATE
RUN .                          2 : RUN NUMBER
DD  .M                      3670 : DEPTH DRILLER
DL  .M                      3871 : DEPTH LOGGER
BLI .M                    3868.1 : BOTTOM LOG INTERVAL
TLI .M                    3837.5 : TOP LOG INTERVAL
CS  .MM                    177.8 : CASING SIZE
CBD .M                      3639 : CASING BOTTOM DRILLER
CBL .M                    3637.5 : CASING BOTTOM LOGGER
BS  .MM                      152 : BIT SIZE
BSD .M                      3670 : BIT SIZE AT DEPTH
DFT .                   GEL CHEM : DRILLING FLUID TYPE
DFD .                       1045 : DRILLING FLUID DENSITY
DFV .                         47 : DRILLING FLUID VISCOSITY
DFPH.                         16 : DRILLING FLUID PH
DFL .                       10.5 : DRILLING FLUID LOSS
MSS .                   FLOWLINE : MUD SAMPLE SOURCE
RMS .OHMM                   1.41 : RESISTIVITY MUD SAMPLE
MST .DEGC                     16 : MUD SAMPLE TEMPERATURE
RMF .OHMM                   1.32 : RESISTIVITY MUD FILTRATE SAMPLE
MFST.DEGC                     12 : MUD FILTRATE SAMPLE TEMPERATURE
RMC .OHMM                   1.37 : RESISTIVITY MUD CAKE
MCST.DEGC                     14 : MUD CAKE SAMPLE TEMPERATURE
MFSS.                   MEASURED : MUD FILTRATE SAMPLE SOURCE
MCSS.                   MEASURED : MUD CAKE SAMPLE SOURCE
RMB .OHMM                  0.402 : RESISTIVITY MUD AT BHT
TCS .HRS                     500 : TIME CIRCULATED STOPPED
TLAB.HRS                    1440 : TIME LOGGER AT BOTTOM
LUN .                       2012 : LOGGING UNIT NUMBER
LUL .                   EDMONTON : LOGGING UNIT LOCATION
ENGI.                       HOLT : RECORDING ENGINEER
WITN.                     HESTER : WITNESSED BY
CLNT.                    A2DTECH : CLIENT CODE
ORIG. 6.5"/100M 16.5"/100M PRINT : ORIGIN OF DATA
UWI .           100100105619W500 : UNIQUE WELL ID
DICO.     A2D Technologies, Inc. : DIGITIZING COMPANY
~Other -----------------------------------------------------
~ASCII -----------------------------------------------------
# ...
 2100.00000    -999.25  264.15020  277.68300    -999.25  264.15020   80.58020    2.43640 2562.88000    -999.25    0.05280    0.08600   12.41000    2.43640  282.90870  282.90870    -999.25    0.27630   98.82040   83.40860    -999.25   99.03910  100.14520  100.14520  274.33070   12.41000   12.52150   12.52150    -999.25    0.28170    -999.25    0.32560    4.27570    4.27570 2560.43990   14.33050  -50.41760  -12.25420   14.33050 17924.84960 18116.82030 14882.18750
 2150.00000    -999.25  259.77490  474.93630    -999.25  259.77490  116.64940  142.63610 2414.21500    -999.25    0.14290    0.17300    8.57270  142.63610  279.51610  279.51610    -999.25    0.37170   74.68500   75.79170    -999.25   74.63220   78.42920   78.42920  304.16620    8.57270    8.08450    8.08450    -999.25    0.33370    -999.25    0.37700    6.82620    6.82620 2411.17290    9.23660  -48.98140  -13.40540    9.23660 17578.77540 17421.73240 15174.66410
 2200.00000    -999.25  252.16080  361.82540    -999.25  252.16080  155.57180   62.65080 2538.46000    -999.25    0.06760    0.10030    6.42790   62.65080  265.14820  265.14820    -999.25    0.31810   85.62500   59.41080    -999.25   86.51200   81.13730   81.13730  279.52180    6.42790    6.85000    6.85000    -999.25    0.28110    -999.25    0.32500    6.71820    6.71820 2535.69090    7.03940  -45.36750  -14.21140    7.03940 18823.77150 18673.21880 15395.90040
 2250.00000    -999.25  243.21260  319.76390    -999.25  243.21260  100.38450   92.66330 2597.03500    -999.25    0.03210    0.06610    9.96170   92.66330  249.14350  249.14350    -999.25    0.20570   88.27720   58.27030    -999.25   88.13310   77.98660   77.98660  265.37730    9.96170   10.33050   10.33050    -999.25    0.26970    -999.25    0.31360    4.74920    4.74920 2600.58860   10.85860  -42.12210  -15.38590   10.85860 18688.23050 18620.07810 15567.61230
 2300.00000    -999.25  287.44910  357.26090    -999.25  287.44910  378.00040  132.69520 2369.66500    -999.25    0.16990    0.19900    2.64550  132.69520  291.35280  291.35280    -999.25    0.42950   74.85920   54.13930    -999.25   75.69550   77.07680   77.07680  329.60250    2.64550    2.24310    2.24310    -999.25    0.37440    -999.25    0.41690    4.88940    4.88940 2372.01270    3.01940  -37.20190  -14.88560    3.01940 19239.22070 19091.70700 15877.98340
 2350.00000    -999.25  262.03240  322.88670    -999.25  262.03240   63.43770   25.52780 2616.67000    -999.25    0.02020    0.05460   15.76350   25.52780  239.53000  239.53000    -999.25    0.16940   83.20370   61.61590    -999.25   83.27870   69.69980   69.69980  317.04270   15.76350   15.00170   15.00170    -999.25    0.18190    -999.25    0.22560    3.26930    3.26930 2620.07030   16.47820  -33.62970  -15.73320   16.47820 19213.69530 19104.83980 16342.08400
 2400.00000    -999.25  293.07820  284.54320    -999.25  293.07820   80.23560   32.95100 2606.27500    -999.25    0.02650    0.06070   12.46330   32.95100  197.96550  197.96550    -999.25    0.22720   60.16450   40.07910    -999.25   59.68530   63.71830   63.71830  314.17600   12.46330   12.81130   12.81130    -999.25    0.14040    -999.25    0.18360    2.55360    2.55360 2612.89280   18.33780  -18.73970   -5.26310   18.33780 19589.94340 19257.55270 16588.67970
 2450.00000    -999.25  260.59000  278.76830    -999.25  260.59000   35.86880    5.15270 2536.64500    -999.25    0.06870    0.10140   27.87940    5.15270  227.15300  227.15300    -999.25    0.18750   56.04660    -999.25    -999.25   55.91570   50.99180   50.99180  293.57700   27.87940   33.28140   33.28140    -999.25    0.20260    -999.25    0.24650    2.89630    2.89630 2544.70630   44.20040  -23.68980  -14.51520   44.20040 18837.89450 19012.11720 16785.32420
 2500.00000    -999.25  272.97060  292.37560    -999.25  272.97060   67.16730   10.38690 2618.65000    -999.25    0.01900    0.05340   14.88820   10.38690  223.56030  223.56030    -999.25    0.18310   79.40330    -999.25    -999.25   79.79290   71.60430   71.60430  300.68800   14.88820   14.29080   14.29080    -999.25    0.17280    -999.25    0.21640    2.77360    2.77360 2620.74240   15.97330  -23.15520  -18.27240   15.97330 19553.20310 19497.53130 17241.31450
 2550.00000    -999.25  251.09840  323.21780    -999.25  251.09840   74.78150   39.26710 2602.31500    -999.25    0.02890    0.06300   13.37230   39.26710  236.35950  236.35950    -999.25    0.22180   73.19620    -999.25    -999.25   72.86400   64.82660   64.82660  268.19900   13.37230   12.73570   12.73570    -999.25    0.25910    -999.25    0.30310    3.23890    3.23890 2630.53880   15.07690  -19.39140  -18.80030   15.07690 20053.99410 20121.43160 17572.52930
 2600.00000    -999.25  246.39370  263.29780    -999.25  246.39370   32.33020    7.98590 2642.41000    -999.25    0.00460    0.03950   30.93080    7.98590  211.58260  211.58260    -999.25    0.17680   70.73530    -999.25    -999.25   70.11620   71.00680   71.00680  265.24510   30.93080   32.87610   32.87610    -999.25    0.16820    -999.25    0.21180    3.09720    3.09720 2642.21510   25.66050  -13.08560  -16.78620   25.66050 20689.21090 20582.20120 17708.02340
 2650.00000    -999.25  234.49930  235.18420    -999.25  234.49930   95.40260  119.84910 2241.28900    0.27410    0.23960    0.27410   10.48190  119.84910  270.18980  270.18980    0.33680    0.32940  101.64050    -999.25    -999.25  101.81060  103.25620  103.25620  263.38250   10.48190    7.59580    7.59580    -999.25    0.32110    0.32110    0.36530    3.22580    3.22580 2215.62890    9.27710   -5.44220  -13.43460    9.27710 20469.59770 20393.77930 18196.05270
 2700.00000    -999.25  222.25920  225.31730    -999.25  222.25920    1.07660   40.99490 2625.01300    0.04970    0.01370    0.04970  928.83370   40.99490  174.32130  174.32130    0.05230    0.05200   15.84980    -999.25    -999.25   15.33100   17.15310   17.15310  226.56700  928.83370  383.94740  383.94740    -999.25    0.01970    0.01970    0.05070    3.29590    3.29590 2629.89230 1020.43760  -31.93610  -41.63590 1020.43760 20735.63870 20651.07030 18179.59960
 2750.00000    -999.25  227.13830  231.98010    -999.25  227.13830   88.01730   -0.64470 2684.69200    0.01480   -0.01920    0.01480   11.36140   -0.64470  197.90070  197.90070    0.08360    0.08430   91.76020    -999.25    -999.25   91.98560   91.72640   91.72640  236.80020   11.36140   11.07030   11.07030    -999.25    0.07710    0.07710    0.11980    3.26240    3.26240 2682.30440   16.88360  -10.47420  -21.48840   16.88360 20178.08400 20300.16600 18456.85350
 2800.00000    -999.25  280.56780  219.75630    -999.25  280.56780   67.95090  250.34440 2542.24900    0.09810    0.06620    0.09810   14.71650  250.34440  180.48560  180.48560    0.13950    0.14240   46.27600    -999.25    -999.25   47.04740   46.29930   46.29930  236.28380   14.71650   11.76050   11.76050    -999.25    0.09290    0.09290    0.14540    3.96660    3.96660 2533.96410   19.67400  -67.24270  -79.57140   19.67400 21275.63090 21165.50000 18851.56250
 2850.00000    -999.25  224.32410  220.99000    -999.25  224.32410   70.88330   64.04850 2853.12700   -0.08370   -0.12220   -0.08370   14.10770   64.04850  167.91840  167.91840    0.09170    0.09780   18.42060    -999.25    -999.25   18.70450   17.53210   17.53210  214.38800   14.10770   30.92480   30.92480    -999.25    0.04100    0.04100    0.07970    7.08770    7.08770 2817.01860  215.73030 -126.40230 -140.04540  215.73030 20930.42770 20819.62890 18878.67580
 2900.00000    -999.25  233.58910  229.10200    -999.25  233.58910   45.15470   -0.87260 2720.60200   -0.00620   -0.04250   -0.00620   22.14610   -0.87260  185.94170  185.94170    0.12340    0.12420   71.18570    -999.25    -999.25   71.32040   67.59820   67.59820  238.20880   22.14610   21.47600   21.47600    -999.25    0.12370    0.12370    0.17960    3.53620    3.53620 2720.09200   28.01950  -51.99800  -66.95550   28.01950 21366.80080 21235.72660 19200.65040
 2950.00000    -999.25  235.23010  228.65180    -999.25  235.23010   12.68110    0.83830 2671.18300    0.02270   -0.01380    0.02270   78.85730    0.83830  182.97930  182.97930    0.08130    0.08220   44.51510    -999.25    -999.25   44.00450   43.82550   43.82550  234.54100   78.85730   72.58760   72.58760    -999.25    0.06000    0.06000    0.10000    4.68910    4.68910 2671.94530   98.02090  -32.19670  -48.46860   98.02090 21172.37700 20962.97850 19451.82420
