~Version ---------------------------------------------------
VERS.      2.0 : CWLS log ASCII Standard -VERSION 2.0
WRAP.       NO : One line per depth step
CREA. 09/26/17 : LAS Creation Date
~Well ------------------------------------------------------
STRT.FT                            1050.0 : START DEPTH
STOP.FT                           10300.0 : STOP DEPTH
STEP.FT                          50.00000 : STEP LENGTH
NULL.                             -999.25 : NULL VALUE
COMP.        CANADIAN HOMESTEAD OILS LTD. : COMPANY
WELL. HOMESTEAD S. SNIPE LAKE 10-14-68-19 : WELL
FLD .                                     : FIELD
LOC .                                     : LOCATION
CTRY.                              CANADA : COUNTRY
SRVC.              Schlumberger of Canada : SERVICE COMPANY
DATE.                         04-Mar-1963 : LOGDATE
PROV.                             Alberta : PROVINCE
UWI .                    100101406819W500 : UNIQUE WELL ID
SLAT.WGS84                       54.88835 : SURFACE LATITUDE
SLON.WGS84                      -116.7806 : SURFACE LONGITUDE
~Curve Information -----------------------------------------
DEPT  .FT    : Depth Curve
CALSED.IN    : CALIPER FROM SONIC LOG [ADJ. TO RESISTIVITY LOG]
CALWS .IN    : CALIPER [CALSED]
CILDED.MMHO  : CONDUCTIVITY FROM RESISTIVITY LOG
CONDWS.MMHO  : CONDUCTIVITY [1000/DRESWS]
DRESWS.OHMM  : DEEP RESISTIVITY [1000/CILDED, IF ILDED<1, ILDED]
DTED  .US/F  : DELTA TIME FROM SONIC LOG [ADJ. TO RESISTIVITY LOG]
DTWS  .US/F  : COMPRESSIONAL SONIC [DTED]
GRSED .GAPI  : GAMMA RAY FROM SONIC LOG [ADJ. TO RESISTIVITY LOG]
GRWS  .GAPI  : GAMMA RAY [GRSED]
ILDED .OHMM  : DEEP INDUCTION RESISTIVITY FROM RESISTIVITY LOG
SNED  .OHMM  : SHORT NORMAL 16"  FROM RESISTIVITY LOG
SPRED .MV    : SPONTANEOUS POTENTIAL FROM RESISTIVITY LOG
SPWS  .MV    : SPONTANEOUS POTENTIAL [BASELINE 0 MV, SPRED]
SRESWS.OHMM  : SHALLOW RESISTIVITY [SNED]
~Params ----------------------------------------------------
PD  .                     GL : PERMANENT DATUM
EPD .FT               2807.4 : ELEVATION PERMANENT DATUM
LMF .                     KB : LOG MEASURED FROM
DAPD.FT                 13.6 : FEET ABOVE PERMANENT DATUM
EKB .FT                 2821 : KELLY BUSHING
EDF .FT               2807.4 : DRILLING FLOOR
DATE.               03/04/63 : RUN DATE
RUN .                      1 : RUN NUMBER
DD  .FT                10320 : DEPTH DRILLER
DL  .FT                10325 : DEPTH LOGGER
BLI .FT                10324 : BOTTOM LOG INTERVAL
TLI .FT                 1073 : TOP LOG INTERVAL
CBD .FT                 1075 : CASING BOTTOM DRILLER
CBL .FT                 1073 : CASING BOTTOM LOGGER
BS  .IN                    9 : BIT SIZE
BSD .FT                10320 : BIT SIZE AT DEPTH
DFT .                    GEL : DRILLING FLUID TYPE
DFD .                    9.9 : DRILLING FLUID DENSITY
DFV .                     84 : DRILLING FLUID VISCOSITY
DFPH.                      9 : DRILLING FLUID PH
DFL .                    8.6 : DRILLING FLUID LOSS
RMS .OHMM               3.51 : RESISTIVITY MUD SAMPLE
MST .DEGF                 55 : MUD SAMPLE TEMPERATURE
RMF .OHMM               1.98 : RESISTIVITY MUD FILTRATE SAMPLE
MFST.DEGF                 74 : MUD FILTRATE SAMPLE TEMPERATURE
RMC .OHMM               1.05 : RESISTIVITY MUD CAKE
MCST.DEGF                171 : MUD CAKE SAMPLE TEMPERATURE
RMB .OHMM               1.15 : RESISTIVITY MUD AT BHT
TCS .HRS                 3.5 : TIME CIRCULATED STOPPED
LUN .                   1571 : LOGGING UNIT NUMBER
LUL .                    WCT : LOGGING UNIT LOCATION
ENGI.                 PAVLIN : RECORDING ENGINEER
WITN.                   EARL : WITNESSED BY
CLNT.                A2DTECH : CLIENT CODE
ORIG.            2" 5" PRINT : ORIGIN OF DATA
UWI .       100101406819W500 : UNIQUE WELL ID
DICO. A2D Technologies, Inc. : DIGITIZING COMPANY
~Other -----------------------------------------------------
IEL-BHC SONIC TOOL RUN
RESISTIVITY LOG FROM (TOP TO 3960') HAS TAKEN FROM SMALL SECTION
~ASCII -----------------------------------------------------
 1050.00000    -999.25    -999.25    -999.25    -999.25    -999.25    -999.25    -999.25   48.09910   48.09910    -999.25    -999.25    -999.25    -999.25    -999.25
 1100.00000    9.56800    9.56800  135.79630  135.53620    7.37810  111.47670  111.47670   64.45830   64.45830    7.37810    8.03250  -54.03010  -13.78450    8.03250
 1150.00000   10.97700   10.97700  326.94390  304.88730    3.27990  127.62220  127.62220   65.65420   65.65420    3.27990    4.24300  -43.76050   -3.29900    4.24300
 1200.00000    9.33060    9.33060  307.15920  232.27190    4.30530  132.77890  132.77890   68.59750   68.59750    4.30530    5.16470  -50.68160  -10.00280    5.16470
 1250.00000    9.47750    9.47750  206.57040  205.17450    4.87390  135.12350  135.12350   69.91250   69.91250    4.87390    5.48630  -47.06220   -6.16750    5.48630
 1300.00000   11.00040   11.00040  323.09440  296.29630    3.37500  128.49710  128.49710   71.24370   71.24370    3.37500    4.33490  -43.50240   -2.39190    4.33490
 1350.00000    8.99810    8.99810   98.14360  108.32240    9.23170  110.40350  110.40350   56.93300   56.93300    9.23170    9.73440  -56.49000  -15.89530    9.73440
 1400.00000    9.48140    9.48140  130.31770  137.26840    7.28500  102.10690  102.10690   58.44570   58.44570    7.28500    6.63420  -48.07710   -8.00950    6.63420
 1450.00000    8.62350    8.62350  145.76540  149.32280    6.69690  115.32150  115.32150   68.57610   68.57610    6.69690    7.04990  -56.69290  -17.15580    7.04990
 1500.00000    9.66340    9.66340  154.41210  178.90690    5.58950   99.10190   99.10190   56.65060   56.65060    5.58950    6.02730  -48.52910   -9.51900    6.02730
 1550.00000   12.31380   12.31380  258.88770  243.16700    4.11240  155.75340  155.75340   48.99520   48.99520    4.11240    5.03110  -43.28710   -4.80410    5.03110
 1600.00000   11.90010   11.90010  351.56810  312.20730    3.20300  136.75120  136.75120   61.64740   61.64740    3.20300    4.19390  -40.53540   -2.58290    4.19390
 1650.00000   11.27310   11.27310  295.77530  277.39250    3.60500  146.13880  146.13880   61.91270   61.91270    3.60500    4.60420  -39.22880   -1.80340    4.60420
 1700.00000   11.72720   11.72720  204.19040  213.99070    4.67310  122.08910  122.08910   58.63240   58.63240    4.67310    5.11680  -39.41850   -2.35700    5.11680
 1750.00000    9.39360    9.39360  193.36090  195.60280    5.11240  103.74890  103.74890   64.04560   64.04560    5.11240    5.87660  -38.95520   -2.19260    5.87660
 1800.00000   11.02170   11.02170  227.50540  231.28870    4.32360  108.24470  108.24470   63.03430   63.03430    4.32360    5.30110  -39.06750   -2.60390    5.30110
 1850.00000    9.79030    9.79030  304.40230  286.65620    3.48850  107.42090  107.42090   98.30510   98.30510    3.48850    5.08810  -38.79230   -2.62960    5.08810
 1900.00000   10.42720   10.42720  365.57440  317.21860    3.15240  139.69180  139.69180   57.90520   57.90520    3.15240    4.27050  -39.05530   -3.19150    4.27050
 1950.00000   10.05980   10.05980  179.13640  182.85210    5.46890  109.69430  109.69430   50.39950   50.39950    5.46890    6.46440  -41.43970   -5.87680    6.46440
 2000.00000    9.64690    9.64690  167.46250  170.50010    5.86510   95.06130   95.06130   57.85620   57.85620    5.86510    6.24440  -49.12810  -13.86410    6.24440
 2050.00000   12.22490   12.22490  251.36210  240.09600    4.16500  118.61610  118.61610   61.43620   61.43620    4.16500    4.94960  -35.82530   -0.86030    4.94960
 2100.00000    9.62290    9.62290  201.93620  205.93500    4.85590  119.42460  119.42460   49.69720   49.69720    4.85590    7.10760  -52.12330  -17.45920    7.10760
 2150.00000   10.46800   10.46800  209.75310  208.75520    4.79030  110.92850  110.92850   50.57570   50.57570    4.79030    5.92400  -39.05430   -4.68910    5.92400
 2200.00000   11.70260   11.70260  307.88570  285.55930    3.50190  113.33980  113.33980   57.73830   57.73830    3.50190    4.64700  -36.31950   -2.25520    4.64700
 2250.00000   11.45990   11.45990  337.73050  310.59760    3.21960  117.14540  117.14540   66.91180   66.91180    3.21960    4.34770  -35.60850   -1.84310    4.34770
 2300.00000   11.09780   11.09780  223.66460  223.49860    4.47430  110.20420  110.20420   66.90820   66.90820    4.47430    5.72460  -36.27560   -2.80920    5.72460
 2350.00000   12.81870   12.81870  158.58370  163.42010    6.11920  100.65630  100.65630   80.76720   80.76720    6.11920    7.11200  -39.55600   -5.73390    7.11200
 2400.00000   12.94670   12.94670  184.38970  190.94170    5.23720  118.97500  118.97500   88.73470   88.73470    5.23720    6.48870  -40.58780   -6.36180    6.48870
 2450.00000    9.98300    9.98300  187.50270  190.38550    5.25250  113.94990  113.94990  102.60560  102.60560    5.25250    7.43510  -42.75640   -8.12380    7.43510
 2500.00000   12.16830   12.16830  165.89290  170.14040    5.87750  114.65170  114.65170  120.98000  120.98000    5.87750    8.54550  -40.08020   -5.04370    8.54550
 2550.00000   11.10700   11.10700  206.86070  213.12420    4.69210  108.79210  108.79210   92.22220   92.22220    4.69210    6.85660  -36.63290   -1.19250    6.85660
 2600.00000   12.85320   12.85320  185.38980  189.71370    5.27110  112.64250  112.64250   89.04860   89.04860    5.27110    6.99660  -40.29880   -4.45180    6.99660
 2650.00000   13.24090   13.24090  181.28590  182.37860    5.48310  103.53490  103.53490   82.88940   82.88940    5.48310    7.22140  -42.28560   -6.03470    7.22140
 2700.00000   13.08490   13.08490  151.69040  157.14380    6.36360  113.41660  113.41660   86.56770   86.56770    6.36360    8.40870  -40.58180   -3.92430    8.40870
 2750.00000   10.48000   10.48000  146.31630  151.65300    6.59400  108.19270  108.19270   82.88200   82.88200    6.59400    7.51870  -41.52390   -4.46250    7.51870
 2800.00000   12.38610   12.38610  142.72420  148.43620    6.73690   96.75550   96.75550   79.88820   79.88820    6.73690    8.02230  -41.11650   -3.65120    8.02230
 2850.00000   12.21580   12.21580  169.02840  176.95980    5.65100  111.14360  111.14360   89.18940   89.18940    5.65100    7.20260  -41.46750   -3.59570    7.20260
 2900.00000   13.31320   13.31320  141.00940  145.75130    6.86100  114.25200  114.25200   78.41950   78.41950    6.86100    8.21730  -40.74460   -2.51530    8.21730
 2950.00000   13.36340   13.36340  138.97310  144.77440    6.90730  119.09270  119.09270   78.88140   78.88140    6.90730    8.27110  -40.89440   -2.76570    8.27110
 3000.00000   12.25180   12.25180  154.53010  161.51170    6.19150   92.25960   92.25960   80.40550   80.40550    6.19150    7.69600  -42.18380   -4.15500    7.69600
 3050.00000   12.31900   12.31900  123.17280  134.56230    7.43150   92.54730   92.54730   82.20910   82.20910    7.43150    7.83810  -43.72670   -5.79790    7.83810
 3100.00000   11.39900   11.39900  181.00430  185.25380    5.39800   98.22360   98.22360   90.53550   90.53550    5.39800    6.66740  -44.43080   -6.60260    6.66740
 3150.00000   11.82470   11.82470  200.11370  206.29190    4.84750  106.55080  106.55080   93.15080   93.15080    4.84750    6.53870  -41.81980   -4.09150    6.53870
 3200.00000   12.34370   12.34370  171.65720  179.05420    5.58490  105.22600  105.22600   93.14930   93.14930    5.58490    7.59960  -43.11950   -5.49190    7.59960
 3250.00000   11.84030   11.84030  177.52070  181.33350    5.51470  105.80630  105.80630   94.47360   94.47360    5.51470    7.58770  -42.88100   -5.35330    7.58770
 3300.00000   10.41040   10.41040  103.56270  107.44950    9.30670  102.15020  102.15020  115.35560  115.35560    9.30670   12.26830  -40.69700   -3.26930   12.26830
 3350.00000   10.38600   10.38600  136.76170  135.05120    7.40460  103.79560  103.79560  124.31760  124.31760    7.40460   10.72560  -41.13740   -3.81030   10.72560
 3400.00000   11.61400   11.61400  197.49050  207.90020    4.81000   93.02120   93.02120   89.93690   89.93690    4.81000    6.58800  -46.29000   -8.72100    6.58800
 3450.00000   10.61420   10.61420  134.36170  137.51560    7.27190   78.18500   78.18500   79.10440   79.10440    7.27190    8.55840  -47.24010   -9.11790    8.55840
