~Version ---------------------------------------------------
VERS. 2.0 : CWLS log ASCII Standard -VERSION 2.0
WRAP.  NO : ONE LINE PER DEPTH STEP
~Well ------------------------------------------------------
STRT.F                           1000.0 : START DEPTH
STOP.F                          10450.0 : STOP DEPTH
STEP.F                         50.00000 : STEP LENGTH
NULL.                           -999.25 : NULL VALUE
COMP.     CANADIAN SUPERIOR OIL COMPANY : COMPANY
WELL. CDN-SUP CEGO FOX CR 10-11SH-62-18 : WELL
FLD .                                   : FIELD
LOC .                                   : LOCATION
CTRY.                            CANADA : COUNTRY
SRVC.                      Schlumberger : SERVICE COMPANY
DATE.                       29-Mar-1977 : LOGDATE
PROV.                           Alberta : PROVINCE
UWI .                  102101106218W500 : UNIQUE WELL ID
SLAT.WGS84                     54.35151 : SURFACE LATITUDE
SLON.WGS84                    -116.5828 : SURFACE LONGITUDE
~Curve Information -----------------------------------------
DEPT   .F                 : 
SPR    .MV                : SPONTANEOUS POTENTIAL FROM RESISTIVITY
LL8    .OHMM              : LATEROLOG-8 RESISTIVITY
ILD    .OHMM 06 121 12 00 : INDUCTION LOG DEEP RESISTIVITY
ILM    .OHMM 07 120 44 00 : INDUCTION LOG MEDIUM RESISTIVITY
CILD   .MMHO 07 110 00 00 : CONDUCTIVITY INDUCTION LOG
GRS    .GAPI              : GAMMA RAY FROM SONIC LOG
DT     .US/F 60 520 00 00 : SONIC
CALD   .IN   45 280 60 00 : CALIPER FROM DENSITY LOG
DCOR   .G/C3 45 356 01 00 : DENSITY CORRECTION
RHOB   .G/C3 45 350 01 00 : BULK DENSITY
NPOR_SS.DEC               : NEUTRON POROSITY SANDSTONE
DPOR_SS.DEC               : DENSITY POROSITY
CALS   .IN                : CALIPER FROM SONIC LOG
GRD    .GAPI              : GAMMA RAY FROM DENSITY LOG
NPOR_LS.DEC               : NEUTRON POROSITY LIMESTONE
DPOR_LS.DEC               : DENSITY POROSITY LIMESTONE
~Params ----------------------------------------------------
PD  .                     GL : PERMANENT DATUM
EPD .FT                 2963 : ELEVATION PERMANENT DATUM
LMF .                     KB : LOG MEASURED FROM
DAPD.FT                   13 : FEET ABOVE PERMANENT DATUM
EKB .FT                 2976 : KELLY BUSHING
EGL .FT                 2963 : GROUND LEVEL
DATE.               03/29/77 : RUN DATE
RUN .                      1 : RUN NUMBER
DD  .FT                10475 : DEPTH DRILLER
DL  .FT                10478 : DEPTH LOGGER
BLI .FT                10472 : BOTTOM LOG INTERVAL
TLI .FT                 1071 : TOP LOG INTERVAL
CBD .FT                 1070 : CASING BOTTOM DRILLER
CBL .FT                 1071 : CASING BOTTOM LOGGER
BS  .IN                 8.75 : BIT SIZE
BSD .FT                10475 : BIT SIZE AT DEPTH
DFT .               GEL CHEM : DRILLING FLUID TYPE
DFD .                    9.2 : DRILLING FLUID DENSITY
DFV .                     81 : DRILLING FLUID VISCOSITY
DFPH.                    9.5 : DRILLING FLUID PH
DFL .                      8 : DRILLING FLUID LOSS
MSS .             CIRCULATED : MUD SAMPLE SOURCE
RMS .OHMM                1.1 : RESISTIVITY MUD SAMPLE
MST .DEGF                 62 : MUD SAMPLE TEMPERATURE
RMF .OHMM               0.76 : RESISTIVITY MUD FILTRATE SAMPLE
MFST.DEGF                 62 : MUD FILTRATE SAMPLE TEMPERATURE
TCS .HRS                   4 : TIME CIRCULATED STOPPED
LUN .                   7690 : LOGGING UNIT NUMBER
LUL .                    EDM : LOGGING UNIT LOCATION
ENGI.                WOROWUK : RECORDING ENGINEER
WITN.                  KELLY : WITNESSED BY
CLNT.                A2DTECH : CLIENT CODE
ORIG.            2" 5" PRINT : ORIGIN OF DATA
UWI .       102101106218W500 : UNIQUE WELL ID
DICO. A2D Technologies, Inc. : DIGITIZING COMPANY
~Other -----------------------------------------------------
~ASCII -----------------------------------------------------
# ...
 7450.00000 -114.58670  245.31970  135.74510  151.01010    -999.25   13.91880   52.08400    8.93030    0.02290    2.68570    -999.25    -999.25    8.96260   19.86390    0.01420    0.02340
 7500.00000 -115.06000  172.19360  108.75890  116.73050    -999.25   12.77240   52.90630    8.93260    0.03330    2.70230    -999.25    -999.25    8.92920   20.07880    0.01570   -0.01070
 7550.00000 -120.01400  155.77170  102.73500  102.68110    -999.25   12.80040   52.26380    8.92670    0.02740    2.65970    -999.25    -999.25    8.94320   21.71450    0.01510    0.00740
 7600.00000 -117.09410  277.18530  128.38560  136.45110    -999.25   15.95070   52.79410    8.93050    0.03430    2.71780    -999.25    -999.25    8.90300   26.15840    0.01560   -0.00440
 7650.00000 -133.61850 1401.65380  416.81250  617.55400    -999.25   11.90760   51.15910    8.92510    0.02130    2.69560    -999.25    -999.25    8.81210   18.74250    0.00830    0.00750
 7700.00000  -99.44420  364.05980  120.78870  126.03520    -999.25   35.90100   54.80470    8.97380    0.04760    2.67910    -999.25    -999.25    8.88020   42.84010    0.02800   -0.00070
 7750.00000 -107.81800  155.87800   85.40140   91.11740    -999.25   38.99980   57.19210    9.17070    0.02650    2.69700    -999.25    -999.25    9.05380   57.79110    0.05870    0.01350
 7800.00000 -107.54640 1412.46570  192.62890 1876.35890    -999.25  215.84930   77.57480    8.96840    0.03910    2.43960    -999.25    -999.25    8.95290  196.09430    0.18150    0.18580
 7850.00000 -163.98370 1382.79880  382.99180  406.92670    -999.25    8.43630   49.72080   10.21530    0.14270    2.67860    -999.25    -999.25    9.01180   11.57470    0.00170    0.00620
 7900.00000 -159.23200 1404.16850  510.44380  471.70790    -999.25    8.82610   48.86140   10.38600    0.23500    2.71470    -999.25    -999.25    9.04470   13.22040    0.00150   -0.01450
 7950.00000 -171.78520 1364.89700  398.46350  259.55240    -999.25    9.78840   49.39450   10.97050    -999.25    2.65000    -999.25    -999.25    9.38490   11.37700    0.00080    0.03860
 8000.00000 -174.22320  553.96200  355.22500  177.54170    -999.25    6.00990   50.27410   12.02720    0.23630    2.63230    -999.25    -999.25    8.85780    9.94020    0.00020    0.01950
 8050.00000 -179.35720  760.95230  417.25440  162.73790    -999.25    7.54420   48.96560   12.15400    -999.25    2.58240    -999.25    -999.25    9.37780   10.89730    0.00340    0.06400
 8100.00000 -187.98450  980.49800  403.88830  130.93420    -999.25    5.34540   48.85500   12.57790    0.23520    2.55660    -999.25    -999.25    9.46350    8.71430    0.00020    0.09760
 8150.00000 -175.55580  671.10990  255.88720   93.70840    -999.25    4.66570   48.94220    9.74210    0.17540    2.74700    -999.25    -999.25    9.14420    7.99590   -0.00030   -0.01370
 8200.00000 -172.85250  249.41870  265.87800   94.42560    -999.25    5.74110   48.57290   11.40100    -999.25    2.59240    -999.25    -999.25    9.43220    9.74670   -0.00010    0.07760
 8250.00000 -171.63840  690.62520  717.97940  231.27570    -999.25    7.65980   49.76410   12.10070    -999.25    2.48530    -999.25    -999.25    9.45610   11.91020    0.00520    0.11180
 8300.00000 -170.14350  683.00740  313.05560  147.31900    -999.25    9.50210   50.01220   12.53530    0.22210    2.48710    -999.25    -999.25    9.44830   12.59020    0.00450    0.10400
 8350.00000 -175.00480  414.22070  427.17610  786.57390    -999.25    6.91810   50.40550   12.08210    0.23410    2.50950    -999.25    -999.25    9.43250   10.71570   -0.00010    0.08070
 8400.00000 -178.63810  101.43490   45.80850   47.59940    -999.25    5.15250   50.49510   10.91510    0.23120    2.66550    -999.25    -999.25    9.34530   10.54600    0.00880    0.02700
 8450.00000 -163.79660  132.73710  110.28920   93.80000    -999.25    5.69990   49.02910    9.43850    0.05340    2.67780    -999.25    -999.25    9.15780    9.52120    0.00720    0.03870
 8500.00000 -166.16990  137.33250   56.31680   40.57720    -999.25    4.76700   52.38710    9.55650    0.05930    2.61160    -999.25    -999.25    8.55230   10.63280    0.02240    0.04720
 8550.00000 -125.13420   82.37540   36.04400   36.82810    -999.25   17.78450   51.20040    9.24280    0.03570    2.84310    -999.25    -999.25    9.09240   33.34100    0.01620   -0.12880
 8600.00000 -147.11200  702.48570   88.14660   81.39180    -999.25    8.68120   49.07720    8.87800    0.03230    2.81600    -999.25    -999.25    9.03070   15.52660    0.02890   -0.09260
 8650.00000 -160.64360  177.94550  127.55670   50.85120    -999.25   11.34780   50.67560   13.65050    0.23990    2.46330    -999.25    -999.25   10.19710   16.61020    0.05410    0.14240
 8700.00000 -145.35340   57.00410   30.07840   35.24050    -999.25   12.48390   51.80640   14.01990    0.18250    2.46430    -999.25    -999.25    9.47820   20.79890    0.09840    0.14240
 8750.00000  -96.83120  376.75740  193.53480  174.85100    -999.25   14.75700   50.62400    9.37560    0.14740    2.73070    -999.25    -999.25    9.06960   23.33960    0.01750   -0.00190
 8800.00000  -85.64830  192.78970  116.90500   99.67310    -999.25   18.52880   52.01040    9.19230    0.04940    2.74300    -999.25    -999.25    9.09890   28.75790    0.03260   -0.02590
 8850.00000 -109.43210  301.25500  208.35180  165.57790    -999.25   15.30640   51.45270    9.26690    0.02370    2.67640    -999.25    -999.25    9.11260   26.15620    0.01600   -0.01330
 8900.00000 -110.80790  670.73650  312.39960  267.57170    -999.25   14.84120   50.91660    8.98940    0.02150    2.69430    -999.25    -999.25    9.03140   21.90390    0.00840    0.00170
 8950.00000  -88.74240  181.16280  122.62210  113.86080    -999.25   15.37300   51.37010    9.04340    0.03050    2.72960    -999.25    -999.25    9.10440   18.08970    0.01130   -0.02380
 9000.00000  -59.39950   29.34280   23.67560   24.63630    -999.25   26.24370   57.88660    9.17270    0.04160    2.70490    -999.25    -999.25    9.15870   34.18020    0.06350    0.00790
 9050.00000  -55.20130   14.08010   11.75820   11.19290    -999.25   41.61870   64.35330    9.32190    0.01640    2.68870    -999.25    -999.25    9.34630   56.11650    0.11100    0.02270
 9100.00000  -54.52350   15.62820   12.49610   11.83300    -999.25   35.77320   63.29780    9.29300    0.01730    2.69390    -999.25    -999.25    9.24810   49.97190    0.10360    0.01230
 9150.00000  -53.15560   12.75630   10.39440    9.83640    -999.25   41.15670   66.33030    9.32940    0.02930    2.66440    -999.25    -999.25    9.27130   59.20080    0.12440    0.02410
 9200.00000  -51.85820   18.88800   13.97640   14.71520    -999.25   38.93690   63.94600    9.16610    0.04770    2.71160    -999.25    -999.25    9.07550   57.14140    0.11410   -0.02210
 9250.00000  -54.57530   43.57750   33.10800   29.95350    -999.25   54.49710   67.46010    9.27360    0.03790    2.67300    -999.25    -999.25    9.13690   67.86390    0.16290    0.02570
 9300.00000  -51.51660   14.12750   10.85030   10.48810    -999.25   36.23700   65.58220   10.32100    0.18010    2.66070    -999.25    -999.25    9.54360   60.08870    0.11130    0.01200
 9350.00000  -54.71180    8.79710    9.33970    7.43600    -999.25   48.07640   73.19680   12.90290    0.24960    2.25280    -999.25    -999.25    9.85540   75.83510    0.19710    0.15920
 9400.00000  -54.90020    6.40340    5.82380    5.16010    -999.25   54.22240   80.91520   13.60500    0.22960    2.11690    -999.25    -999.25   12.81670   76.56550    0.31790    0.33910
 9450.00000  -44.46890   19.50660   14.89000   14.50390    -999.25   42.69900   62.30740    9.51820    0.08180    2.71090    -999.25    -999.25    9.20300   67.63350    0.11630    0.00240
 9500.00000  -44.65800   14.46040   12.63320   11.84210    -999.25   56.68740   65.75570    9.41310    0.01300    2.71550    -999.25    -999.25    9.12130   81.37390    0.14980   -0.01900
 9550.00000  -43.93680   16.50420   13.40350   12.55270    -999.25   45.86610   65.76330    9.28120    0.12490    2.71690    -999.25    -999.25    9.13290   66.37030    0.15300    0.02460
