~Version ---------------------------------------------------
VERS.      2.0 : CWLS log ASCII Standard -VERSION 2.0
WRAP.       NO : One line per depth step
CREA. 01/03/18 : LAS Creation Date
~Well ------------------------------------------------------
STRT.FT                           650.0 : START DEPTH
STOP.FT                          9200.0 : STOP DEPTH
STEP.FT                        50.00000 : STEP LENGTH
NULL.                           -999.25 : NULL VALUE
COMP.                DENISON MINES LTD. : COMPANY
WELL. DENISON ET AL VIRGHILLS 2-6-65-12 : WELL
FLD .                                   : FIELD
LOC .                                   : LOCATION
CTRY.                            CANADA : COUNTRY
SRVC.                      Schlumberger : SERVICE COMPANY
DATE.                       14-Mar-1976 : LOGDATE
PROV.                           Alberta : PROVINCE
UWI .                  100020606512W500 : UNIQUE WELL ID
SLAT.WGS84                     54.59091 : SURFACE LATITUDE
SLON.WGS84                    -115.7994 : SURFACE LONGITUDE
~Curve Information -----------------------------------------
DEPT  .FT    : Depth Curve
CALSED.IN    : CALIPER FROM SONIC LOG
CALWS .IN    : CALIPER [CALSED]
CILDED.MMHO  : CONDUCTIVITY FROM RESISTIVITY LOG
CONDWS.MMHO  : CONDUCTIVITY [1000/DRESWS]
DRESWS.OHMM  : DEEP RESISTIVITY [ILDED] FROM TOP TO 3965' IF ILDED<1;1000/CILDED;ELSE ILDED
DTED  .US/F  : DELTA TIME FROM SONIC LOG
DTWS  .US/F  : DELTA TIME [DTED] [DEPTH ADJ TO LL8]
GRSED .GAPI  : GAMMA RAY FROM SONIC LOG
GRWS  .GAPI  : GAMMA RAY [GRSED]
ILDED .OHMM  : INDUCTION LOG DEEP RESISTIVITY
ILMED .OHMM  : INDUCTION LOG MEDIUM RESISTIVITY
LL8ED .OHMM  : 8 INCH LATEROLOG RESISTIVITY
MRESWS.OHMM  : MEDIUM RESISTIVITY [ILMED]
SPRED .MV    : SPONTANEOUS POTENTIAL FROM RESISTIVITY LOG SHIFTED
SPWS  .MV    : SPONTANEOUS POTENTIAL [BASELINE 0 MV] [SPRED]
SRESWS.OHMM  : SHALLOW RESISTIVITY [LL8ED]
~Params ----------------------------------------------------
PD  .                     GL : PERMANENT DATUM
EPD .FT               3411.5 : ELEVATION PERMANENT DATUM
LMF .                     KB : LOG MEASURED FROM
DAPD.FT                 14.2 : FEET ABOVE PERMANENT DATUM
EKB .FT               3425.7 : KELLY BUSHING
EGL .FT               3411.5 : GROUND LEVEL
DATE.               03/14/76 : RUN DATE
RUN .                      1 : RUN NUMBER
DD  .FT                 9226 : DEPTH DRILLER
DL  .FT                 9229 : DEPTH LOGGER
BLI .FT                 9223 : BOTTOM LOG INTERVAL
TLI .FT                  637 : TOP LOG INTERVAL
CBD .FT                  639 : CASING BOTTOM DRILLER
CBL .FT                  637 : CASING BOTTOM LOGGER
BS  .IN                7.875 : BIT SIZE
BSD .FT                 9226 : BIT SIZE AT DEPTH
DFT .               GEL CHEM : DRILLING FLUID TYPE
DFD .                    9.4 : DRILLING FLUID DENSITY
DFV .                    120 : DRILLING FLUID VISCOSITY
DFPH.                    9.5 : DRILLING FLUID PH
DFL .                    7.8 : DRILLING FLUID LOSS
MSS .             CIRCULATED : MUD SAMPLE SOURCE
RMS .OHMM               2.51 : RESISTIVITY MUD SAMPLE
MST .DEGF                 54 : MUD SAMPLE TEMPERATURE
RMF .OHMM               1.99 : RESISTIVITY MUD FILTRATE SAMPLE
MFST.DEGF                 50 : MUD FILTRATE SAMPLE TEMPERATURE
RMC .OHMM               2.94 : RESISTIVITY MUD CAKE
MCST.DEGF                 50 : MUD CAKE SAMPLE TEMPERATURE
RMB .OHMM               0.56 : RESISTIVITY MUD AT BHT
TCS .HRS                 3.5 : TIME CIRCULATED STOPPED
LUN .                   7691 : LOGGING UNIT NUMBER
LUL .                    EDM : LOGGING UNIT LOCATION
ENGI.              CROCKFORD : RECORDING ENGINEER
WITN.             CARRINGTON : WITNESSED BY
CLNT.                A2DTECH : CLIENT CODE
ORIG.            2" 5" PRINT : ORIGIN OF DATA
UWI .       100020606512W500 : UNIQUE WELL ID
DICO. A2D Technologies, Inc. : DIGITIZING COMPANY
~Other -----------------------------------------------------
~ASCII -----------------------------------------------------
# ...
 2800.00000    8.18780    8.18780  221.62690  239.34060    4.17830  117.52160  117.52160   55.89700   55.89700    4.17830    -999.25    4.76880    -999.25  -56.34040   -9.58740    4.76880
 2850.00000    8.42600    8.42600  306.69170  274.10780    3.64820  100.87250  100.87250   63.41730   63.41730    3.64820    -999.25    2.99080    -999.25  -48.26840   -1.79520    2.99080
 2900.00000    8.53330    8.53330  252.45910  274.78000    3.64180   95.93410   95.93410   52.07800   52.07800    3.64180    -999.25    4.47020    -999.25  -49.38300   -3.18680    4.47020
 2950.00000    9.58240    9.58240  230.31280  235.21110    4.25150  102.70670  102.70670   57.08110   57.08110    4.25150    -999.25    4.02910    -999.25  -47.21530   -1.29910    4.02910
 3000.00000    8.95500    8.95500  195.24500  191.83180    5.21290  102.35400  102.35400   74.56490   74.56490    5.21290    -999.25    4.94740    -999.25  -48.36780   -2.73000    4.94740
 3050.00000   11.06140   11.06140  178.95740  180.69860    5.53470  103.41140  103.41140   75.88100   75.88100    5.53470    -999.25    5.10470    -999.25  -52.43600   -7.07520    5.10470
 3100.00000   11.24910   11.24910  146.30530  149.61550    6.68380   96.55480   96.55480   81.51730   81.51730    6.68380    -999.25    6.20450    -999.25  -54.01800   -8.93710    6.20450
 3150.00000   12.26460   12.26460  205.52380  198.56560    5.03610  102.82500  102.82500   92.35120   92.35120    5.03610    -999.25    4.59620    -999.25  -52.91100   -8.10720    4.59620
 3200.00000   11.04640   11.04640  125.35520  127.14880    7.86480   96.52940   96.52940  108.38070  108.38070    7.86480    -999.25    8.56660    -999.25  -50.25010   -5.72620    8.56660
 3250.00000   10.99320   10.99320  167.33830  173.79820    5.75380  100.62460  100.62460  104.27710  104.27710    5.75380    -999.25    6.24660    -999.25  -49.69030   -5.44480    6.24660
 3300.00000   11.43950   11.43950  148.84650  149.20630    6.70220   95.30440   95.30440   95.32590   95.32590    6.70220    -999.25    6.27310    -999.25  -53.37040   -9.40200    6.27310
 3350.00000   12.71710   12.71710  167.07270  166.98670    5.98850   89.86110   89.86110   85.99450   85.99450    5.98850    -999.25    5.68000    -999.25  -54.19280  -10.50430    5.68000
 3400.00000   12.58540   12.58540  163.35020  162.47810    6.15470   98.45340   98.45340   92.38600   92.38600    6.15470    -999.25    5.84420    -999.25  -52.99860   -9.58710    5.84420
 3450.00000   12.46260   12.46260  150.54690  149.76110    6.67730  103.39000  103.39000   96.88840   96.88840    6.67730    -999.25    6.36470    -999.25  -52.31920   -9.18760    6.36470
 3500.00000   13.82430   13.82430  148.58660  151.79110    6.58800  102.57670  102.57670   96.68960   96.68960    6.58800    -999.25    5.80980    -999.25  -54.84500  -11.99190    5.80980
 3550.00000   13.42410   13.42410  144.27590  147.86360    6.76390   94.85030   94.85030   90.57700   90.57700    6.76390    -999.25    6.03420    -999.25  -53.75190  -11.17590    6.03420
 3600.00000   11.82340   11.82340  192.03320  194.07300    5.15270  101.43970  101.43970   89.88030   89.88030    5.15270    -999.25    4.83900    -999.25  -53.49450  -11.19830    4.83900
 3650.00000   13.94380   13.94380  146.44880  149.34150    6.69690   96.62240   96.62240   70.11710   70.11710    6.69690    -999.25    6.00180    -999.25  -53.60620  -11.58700    6.00180
 3700.00000   11.54130   11.54130  142.27750  144.29810    6.93010   82.13670   82.13670   89.85310   89.85310    6.93010    -999.25    6.49710    -999.25  -53.25270  -11.51340    6.49710
 3750.00000   11.13080   11.13080  156.69180  157.89310    6.33340  100.38140  100.38140  103.10400  103.10400    6.33340    -999.25    5.93170    -999.25  -51.82970  -10.36890    5.93170
 3800.00000   11.10520   11.10520  166.82270  161.09540    6.20780   99.48690   99.48690  101.95510  101.95510    6.20780    -999.25    5.75580    -999.25  -50.30140   -9.11770    5.75580
 3850.00000   10.06880   10.06880  182.00570  185.14400    5.40120  105.02600  105.02600  101.15030  101.15030    5.40120    -999.25    6.03850    -999.25  -47.04530   -6.14140    6.03850
 3900.00000    9.56070    9.56070  166.56380  168.08540    5.94950  103.33770  103.33770  120.30230  120.30230    5.94950    -999.25    7.08480    -999.25  -46.85960   -6.23280    7.08480
 3950.00000    8.97510    8.97510  164.51900  168.68240    5.92830  102.37820  102.37820  114.77040  114.77040    5.92830    -999.25    7.08410    -999.25  -45.85710   -5.51010    7.08410
 4000.00000    8.62640    8.62640    -999.25  129.76560    7.70620   99.68970   99.68970  122.45110  122.45110    7.70620    8.34570    9.55620    8.34570  -44.45960   -4.39110    9.55620
 4050.00000    8.38110    8.38110    -999.25  134.65340    7.42670   86.55640   86.55640   77.38830   77.38830    7.42670    7.72730    7.75060    7.72730  -54.54740  -14.75600    7.75060
 4100.00000    9.35970    9.35970    -999.25  198.25140    5.04410   91.54500   91.54500   89.88340   89.88340    5.04410    5.34110    5.63260    5.34110  -45.36320   -5.85160    5.63260
 4150.00000    8.76440    8.76440    -999.25  163.79770    6.10530   90.53320   90.53320  101.97830  101.97830    6.10530    6.48130    6.51370    6.48130  -46.19030   -6.95580    6.51370
 4200.00000    9.29840    9.29840    -999.25  211.71190    4.72340   94.89470   94.89470  103.70890  103.70890    4.72340    5.02430    5.17650    5.02430  -44.50990   -5.55530    5.17650
 4250.00000   10.88630   10.88630    -999.25  256.84490    3.89340  101.24390  101.24390  109.44700  109.44700    3.89340    4.27300    4.51500    4.27300  -44.27590   -5.59970    4.51500
 4300.00000    9.55880    9.55880    -999.25  263.25940    3.79880   96.87200   96.87200  105.85310  105.85310    3.79880    4.08870    4.87870    4.08870  -43.91250   -5.51330    4.87870
 4350.00000   12.03750   12.03750    -999.25  312.63680    3.19860  100.98700  100.98700   98.24000   98.24000    3.19860    3.57880    4.18920    3.57880  -43.05970   -4.94050    4.18920
 4400.00000   11.56960   11.56960    -999.25  527.32970    1.89630  117.55610  117.55610  157.68190  157.68190    1.89630    2.06780    2.71500    2.06780  -38.11890   -0.27670    2.71500
 4450.00000    9.93410    9.93410    -999.25  550.56980    1.81630  104.90670  104.90670  106.92220  106.92220    1.81630    1.98990    2.65210    1.98990  -39.34720   -1.78490    2.65210
 4500.00000   10.12940   10.12940    -999.25  324.14910    3.08500   89.83270   89.83270   90.23290   90.23290    3.08500    3.29130    3.84890    3.29130  -41.04130   -3.75750    3.84890
 4550.00000   10.23240   10.23240    -999.25  291.84570    3.43270   99.20700   99.20700  101.34170  101.34170    3.43270    3.60650    3.65060    3.60650  -41.30990   -4.30310    3.65060
 4600.00000    9.02010    9.02010    -999.25  134.55330    7.43200   81.05980   81.05980   82.21800   82.21800    7.43200    7.88450    8.52390    7.88450  -43.30640   -6.40050    8.52390
 4650.00000   10.05380   10.05380    -999.25  955.87460    1.04630  178.54350  178.54350   62.69660   62.69660    1.04630    1.12380    1.81710    1.12380  -49.41740  -12.54460    1.81710
 4700.00000   10.08230   10.08230    -999.25  479.24850    2.08660  134.30190  134.30190   61.62170   61.62170    2.08660    1.83080    2.68990    1.83080  -53.32920  -16.48990    2.68990
 4750.00000    9.73390    9.73390    -999.25  179.97260    5.55640   85.45660   85.45660   76.11160   76.11160    5.55640    5.94790    5.80870    5.94790  -55.20820  -18.40220    5.80870
 4800.00000   10.73490   10.73490    -999.25  135.59430    7.39450   95.08700   95.08700   61.17530   61.17530    7.39450    7.74360    8.82870    7.74360  -54.64130  -17.86850    8.82870
 4850.00000    9.61000    9.61000    -999.25   81.88400   12.21240  109.23110  109.23110   46.42840   46.42840   12.21240   16.01170   59.23920   16.01170  -56.98040  -20.24110   59.23920
 4900.00000   10.02710   10.02710    -999.25  226.44690    4.41620   81.11080   81.11080   65.53590   65.53590    4.41620    4.56380    5.27710    4.56380  -50.36950  -13.66330    5.27710
