~Version ---------------------------------------------------
VERS.      2.0 : CWLS log ASCII Standard -VERSION 2.0
WRAP.      YES : Multiple lines per depth step
CREA. 09/25/17 : LAS Creation Date
~Well ------------------------------------------------------
STRT.FT                      300.0 : START DEPTH
STOP.FT                    12100.0 : STOP DEPTH
STEP.FT                   50.00000 : STEP LENGTH
NULL.                      -999.25 : NULL VALUE
COMP. TRANS-PRAIRIES PIPELINES LTD : COMPANY
WELL.  TPPL DEEP VALLEY 7-11-64-25 : WELL
FLD .                              : FIELD
LOC .                              : LOCATION
CTRY.                       CANADA : COUNTRY
SRVC.       Schlumberger of Canada : SERVICE COMPANY
DATE.                  16-Mar-1975 : LOGDATE
PROV.                      Alberta : PROVINCE
UWI .             100071106425W500 : UNIQUE WELL ID
SLAT.WGS84                54.52029 : SURFACE LATITUDE
SLON.WGS84               -117.6631 : SURFACE LONGITUDE
~Curve Information -----------------------------------------
DEPT    .FT    : Depth Curve
CALDED  .IN    : CALIPER FROM DENSITY LOG
CALSED  .IN    : CALIPER FROM SONIC LOG
CALWS   .IN    : CALIPER [CALSED]
CILDED  .MMHO  : CONDUCTIVITY FROM RESISTIVITY LOG
CONDWS  .MMHO  : CONDUCTIVITY [1000/DRESWS]
DCORED  .G/C3  : DENSITY CORRECTION FROM DENSITY LOG
DCORWS  .G/C3  : DENSITY CORRECTION [DCORED]
DENWS   .G/C3  : FORMATION BULK DENSITY [RHOBED]
DPHILSED.V/V   : DENSITY POROSITY LIME [M=2.71, F=1.0] FROM DENSITY LOG [ADJ. TO RHOBED]
DPHISSED.V/V   : DENSITY POROSITY SAND [M=2.65, F=1.0] FROM DENSITY LOG [ADJ. TO RHOBED]
DPOLSWS .V/V   : DENSITY POROSITY LIME [CALC. FROM DENWS, M=2.71, F=1.0]
DRESWS  .OHMM  : DEEP RESISTIVITY [1000/CILDED, IF ILDED < 1, ILDED]
DTED    .US/F  : DELTA-T FROM SONIC LOG
DTWS    .US/F  : COMPRESSIONAL SONIC [DTED]
GRDED   .GAPI  : GAMMA RAY FROM DENSITY LOG
GRWS    .GAPI  : GAMMA RAY [GRDED]
ILDED   .OHMM  : DEEP INDUCTION FROM RESISTIVITY LOG
ILMED   .OHMM  : MEDIUM INDUCTION FROM RESISTIVITY LOG
LL8ED   .OHMM  : LATEROLOG FROM RESISTIVITY LOG
MRESWS  .OHMM  : MEDIUM RESISTIVITY [ILMED]
NPHILSED.V/V   : NEUTRON POROSITY LIME FROM DENSITY LOG [ADJ. TO RHOBED]
NPHISSED.V/V   : NEUTRON POROSITY SAND FROM DENSITY LOG [ADJ. TO RHOBED]
NPOLSWS .V/V   : NEUTRON POROSITY LIME [SS MATRIX CONVERTED TO LS & SPL. TO NPHILSED @ 7950']
RHOBED  .G/C3  : BULK DENSITY FROM DENSITY LOG
SPRED   .MV    : SPONTANEOUS POTENTIAL FROM RESISTIVITY LOG
SPWS    .MV    : SPONTANEOUS POTENTIAL [BASELINE 0 MV,SPRED]
SRESWS  .OHMM  : SHALLOW RESISTIVITY [LL8ED]
~Params ----------------------------------------------------
EKB .FT                 2835 : KELLY BUSHING
EGL .FT                 2813 : GROUND LEVEL
DATE.               03/16/75 : RUN DATE
RUN .                      1 : RUN NUMBER
DD  .FT                12140 : DEPTH DRILLER
DL  .FT                12139 : DEPTH LOGGER
BLI .FT                12133 : BOTTOM LOG INTERVAL
TLI .FT                 1603 : TOP LOG INTERVAL
CBD .FT                 1603 : CASING BOTTOM DRILLER
CBL .FT                 1604 : CASING BOTTOM LOGGER
BS  .IN                  8.5 : BIT SIZE
BSD .FT                12140 : BIT SIZE AT DEPTH
DFT .               GEL CHEM : DRILLING FLUID TYPE
DFD .                    9.3 : DRILLING FLUID DENSITY
DFV .                    109 : DRILLING FLUID VISCOSITY
DFPH.                    9.5 : DRILLING FLUID PH
DFL .                    7.8 : DRILLING FLUID LOSS
MSS .               FLOWLINE : MUD SAMPLE SOURCE
RMS .OHMM               1.57 : RESISTIVITY MUD SAMPLE
MST .DEGF                 61 : MUD SAMPLE TEMPERATURE
RMF .OHMM               1.19 : RESISTIVITY MUD FILTRATE SAMPLE
MFST.DEGF                 63 : MUD FILTRATE SAMPLE TEMPERATURE
RMC .OHMM               2.57 : RESISTIVITY MUD CAKE
MCST.DEGF                 60 : MUD CAKE SAMPLE TEMPERATURE
TCS .HRS                   4 : TIME CIRCULATED STOPPED
LUN .                   7691 : LOGGING UNIT NUMBER
LUL .                    EDM : LOGGING UNIT LOCATION
ENGI.                  BORLE : RECORDING ENGINEER
WITN.                 TAYLOR : WITNESSED BY
CLNT.                A2DTECH : CLIENT CODE
ORIG.            2" 5" PRINT : ORIGIN OF DATA
UWI .       100071106425W500 : UNIQUE WELL ID
DICO. A2D Technologies, Inc. : DIGITIZING COMPANY
~Other -----------------------------------------------------
~ASCII -----------------------------------------------------
# ...
 10700.00000    8.91030    8.72910    8.72910    -999.25   15.47200   -0.52540   -0.52540    2.73690   -0.02120    -999.25   -0.01570   64.63270   52.41750   52.41750   35.25450   35.25450   64.63270   68.39610  149.78030   68.39610    0.03670    -999.25    0.03670    2.73690 -141.24080  -48.30840  149.78030
 10750.00000    8.78020    9.12110    9.12110    -999.25    2.82530   -0.51510   -0.51510    2.73760   -0.01740    -999.25   -0.01610  353.94470   50.08690   50.08690   21.90590   21.90590  353.94470  754.80510 1462.64750  754.80510    0.02380    -999.25    0.02380    2.73760 -142.49840  -49.74380 1462.64750
 10800.00000    8.77950    8.89080    8.89080    -999.25   10.17810   -0.52200   -0.52200    2.73340   -0.01320    -999.25   -0.01370   98.24980   51.35030   51.35030   28.66970   28.66970   98.24980  114.33570  204.74430  114.33570    0.02270    -999.25    0.02270    2.73340 -124.96980  -32.39310  204.74430
 10850.00000    8.80590    8.99710    8.99710    -999.25    4.35960   -0.51010   -0.51010    2.72000   -0.00780    -999.25   -0.00580  229.38040   50.01620   50.01620   23.84660   23.84660  229.38040  442.30260 1196.58370  442.30260    0.01340    -999.25    0.01340    2.72000 -131.56570  -39.16680 1196.58370
 10900.00000    8.75790    9.00600    9.00600    -999.25    7.12590   -0.49940   -0.49940    2.69520    0.00700    -999.25    0.00870  140.33280   50.68620   50.68620   24.53120   24.53120  140.33280  229.93300  328.21570  229.93300    0.02610    -999.25    0.02610    2.69520 -128.66400  -36.44300  328.21570
 10950.00000    8.82510    8.67490    8.67490    -999.25   17.44280   -0.50520   -0.50520    2.70280    0.00060    -999.25    0.00420   57.33040   52.98900   52.98900   32.55210   32.55210   57.33040   60.53250   92.73530   60.53250    0.04050    -999.25    0.04050    2.70280  -97.91880   -5.87560   92.73530
 11000.00000    8.78460    8.67720    8.67720    -999.25   28.17720   -0.51660   -0.51660    2.69760    0.00710    -999.25    0.00730   35.48970   55.74400   55.74400   41.11310   41.11310   35.48970   39.43910   50.31740   39.43910    0.06060    -999.25    0.06060    2.69760 -117.07370  -27.28960   50.31740
 11050.00000    8.87880    8.63920    8.63920    -999.25   15.36610   -0.51640   -0.51640    2.67890    0.01480    -999.25    0.01820   65.07850   56.10850   56.10850   35.31500   35.31500   65.07850   84.50600  125.64510   84.50600    0.04380    -999.25    0.04380    2.67890 -112.61380  -25.10970  125.64510
 11100.00000    9.26500    8.82820    8.82820    -999.25  266.70930   -0.67000   -0.67000    2.58540    0.08110    -999.25    0.07290    3.74940   80.96760   80.96760  105.64280  105.64280    3.74940    3.87680    4.93560    3.87680    0.22680    -999.25    0.22680    2.58540 -136.82830  -51.60430    4.93560
 11150.00000    9.07890   10.30270   10.30270    -999.25  148.77190   -0.65790   -0.65790    2.56260    0.07050    -999.25    0.08620    6.72170   79.67260   79.67260   78.51620   78.51620    6.72170    7.29440   10.69090    7.29440    0.21000    -999.25    0.21000    2.56260 -122.11740  -39.17350   10.69090
 11200.00000    9.09520    9.51420    9.51420    -999.25  304.71080   -0.67480   -0.67480    2.60220    0.06810    -999.25    0.06300    3.28180   77.02010   77.02010   90.54380   90.54380    3.28180    3.56750    4.62680    3.56750    0.22860    -999.25    0.22860    2.60220 -149.34260  -68.67880    4.62680
 11250.00000   11.01290   11.03500   11.03500    -999.25  358.33300   -0.63610   -0.63610    2.59420    0.08000    -999.25    0.06770    2.79070   85.18500   85.18500  117.34620  117.34620    2.79070    3.01720    4.32400    3.01720    0.27550    -999.25    0.27550    2.59420 -162.62160  -84.23790    4.32400
 11300.00000    8.75340    8.91250    8.91250    -999.25   73.12940   -0.50550   -0.50550    2.71340   -0.00490    -999.25   -0.00200   13.67440   62.69550   62.69550   48.63470   48.63470   13.67440   17.15700   25.46360   17.15700    0.06270    -999.25    0.06270    2.71340 -152.02820  -75.92460   25.46360
 11350.00000    8.87230    8.90180    8.90180    -999.25  175.85510   -0.51050   -0.51050    2.68860    0.00530    -999.25    0.01250    5.68650   69.17480   69.17480   85.85750   85.85750    5.68650    6.22950    8.63380    6.22950    0.12980    -999.25    0.12980    2.68860 -128.47890  -54.65530    8.63380
 11400.00000    8.87040    9.01880    9.01880    -999.25  187.45900   -0.51230   -0.51230    2.71030   -0.00790    -999.25   -0.00020    5.33450   69.62350   69.62350   92.54910   92.54910    5.33450    5.66130    7.85960    5.66130    0.19180    -999.25    0.19180    2.71030 -122.51280  -50.96930    7.85960
 11450.00000    8.86940    8.80770    8.80770    -999.25  136.46850   -0.50910   -0.50910    2.68170    0.01460    -999.25    0.01650    7.32770   65.96140   65.96140   76.96940   76.96940    7.32770    8.22090   11.43690    8.22090    0.13730    -999.25    0.13730    2.68170 -111.12610  -41.86270   11.43690
 11500.00000    8.86320    8.92090    8.92090    -999.25  154.43540   -0.51010   -0.51010    2.71600    0.00510    -999.25   -0.00350    6.47520   67.43830   67.43830   83.10960   83.10960    6.47520    7.12090    9.50930    7.12090    0.11770    -999.25    0.11770    2.71600  -84.31270  -17.27190    9.50930
 11550.00000    8.81020    8.77700    8.77700    -999.25  242.06630   -0.51560   -0.51560    2.68780    0.01470    -999.25    0.01300    4.13110   72.65480   72.65480   97.07390   97.07390    4.13110    4.77780    6.51380    4.77780    0.20040    -999.25    0.20040    2.68780  -81.40120  -16.30240    6.51380
 11600.00000    8.80360    8.91250    8.91250    -999.25  219.59200   -0.52280   -0.52280    2.66050    0.03290    -999.25    0.02890    4.55390   77.74300   77.74300  116.14940  116.14940    4.55390    5.08580    7.34370    5.08580    0.21600    -999.25    0.21600    2.66050 -136.53400  -71.78480    7.34370
 11650.00000    8.71160    8.81700    8.81700    -999.25    7.31010   -0.50740   -0.50740    2.48980    0.13580    -999.25    0.12880  136.79660   75.96230   75.96230  152.97740  152.97740  136.79660  213.40860  434.36470  213.40860    0.12700    -999.25    0.12700    2.48980 -146.14870  -81.39950  434.36470
 11700.00000    8.71030    8.46780    8.46780    -999.25    4.76650   -0.55110   -0.55110    2.56750    0.11150    -999.25    0.08330  209.79900   77.60990   77.60990  211.83580  211.83580  209.79900  163.25870  472.33110  163.25870    0.18690    -999.25    0.18690    2.56750 -145.33460  -80.58540  472.33110
 11750.00000   10.67790    9.14230    9.14230    -999.25    8.78110   -0.75210   -0.75210    2.59980    0.06840    -999.25    0.06440  113.88140   48.28650   48.28650   12.94060   12.94060  113.88140  159.06800  868.97880  159.06800    0.00070    -999.25    0.00070    2.59980 -166.30600 -101.55680  868.97880
 11800.00000   10.91090    9.24950    9.24950    -999.25    1.33720   -0.71260   -0.71260    2.57080    0.07780    -999.25    0.08140  747.81450   49.25200   49.25200   15.92700   15.92700  747.81450  670.94120 1471.83480  670.94120    0.00620    -999.25    0.00620    2.57080 -231.86040 -167.11120 1471.83480
 11850.00000   10.47590    9.16370    9.16370    -999.25    1.08840   -0.75270   -0.75270    2.59330    0.07060    -999.25    0.06820  918.75730   47.57680   47.57680   15.80190   15.80190  918.75730 1397.76790 1488.41580 1397.76790    0.00380    -999.25    0.00380    2.59330 -219.69370 -154.94450 1488.41580
 11900.00000    9.74160    8.90630    8.90630    -999.25    2.92600   -0.71150   -0.71150    2.58620    0.07480    -999.25    0.07240  341.76150   51.89090   51.89090   23.35880   23.35880  341.76150  385.65720  918.68820  385.65720    0.01180    -999.25    0.01180    2.58620 -244.18830 -179.43910  918.68820
 11950.00000    9.42060    8.63840    8.63840    -999.25    1.34530   -0.74880   -0.74880    2.73450   -0.01950    -999.25   -0.01430  743.35620   48.24310   48.24310   11.54350   11.54350  743.35620  891.27800  935.05490  891.27800    0.00570    -999.25    0.00570    2.73450 -179.83170 -115.08250  935.05490
