~Version ---------------------------------------------------
VERS.      2.0 : CWLS log ASCII Standard -VERSION 2.0
WRAP.       NO : One line per depth step
CREA. 09/12/14 : LAS Creation Date
~Well ------------------------------------------------------
STRT.M                        300.0 : START DEPTH
STOP.M                       3000.0 : STOP DEPTH
STEP.M                     50.00000 : STEP LENGTH
NULL.                       -999.25 : NULL VALUE
COMP.       SUN OIL COMPANY LIMITED : COMPANY
WELL. SUN ET AL STURGEON 6-30-72-23 : WELL
FLD .                               : FIELD
LOC .                               : LOCATION
CTRY.                        CANADA : COUNTRY
SRVC.                       Unknown : SERVICE COMPANY
DATE.                   17-Dec-1978 : LOGDATE
PROV.                       Alberta : PROVINCE
UWI .              100063007223W500 : UNIQUE WELL ID
SLAT.WGS84                 55.26268 : SURFACE LATITUDE
SLON.WGS84                -117.5304 : SURFACE LONGITUDE
~Curve Information -----------------------------------------
DEPT    .M      : DEPTH METER
CALSED  .MM     : CALIPER FROM SONIC LOG [ADJ. TO RESISTIVITY LOG]
CALWS   .MM     : CALIPER [CALSED SPL. TO CALXDED @ 3020M]
CALXDED .MM     : CALIPER X FROM DENSITY LOG  [ADJ. TO RESISTIVITY LOG]
CALYDED .MM     : CALIPER Y FROM DENSITY LOG  [ADJ. TO RESISTIVITY LOG]
CONDWS  .MMHO   : CONDUCTIVITY [1000/DRESWS]
CORRED  .KG/M3  : DENSITY CORRECTION FROM DENSITY LOG  [ADJ. TO RESISTIVITY LOG]
DCORWS  .KG/M3  : DENSITY COREECTION [CORRED]
DENWS   .KG/M3  : FORMATION BULK DESITY [CALC. FROM DPOLSWS]
DPHILSED.V/V    : DENSITY POROSITY LIMESTONE [M=2710, F=1000] FROM DENSITY LOG  [ADJ. TO RESISTIVITY LOG]
DPHISSED.V/V    : DENSITY POROSITY SANDSTONE [M=2650, F=1000] FROM DENSITY LOG  [ADJ. TO RESISTIVITY LOG]
DPOLSWS .V/V    : DENSITY POROSITY LIMESTONE [DPHISSED CONVERTED TO LIMESTONE MATRIX,M=2710,F=1000 SPL. TO DPHILSED @ 1712.1M]
DRESWS  .OHMM   : DEEP RESISTIVITY [ILDED]
DTED    .US/M   : DELTA TIME FROM SONIC LOG  [ADJ. TO RESISTIVITY LOG]
DTWS    .US/M   : COMPRESSIONAL SONIC [DTED]
GRDED   .GAPI   : GAMMA RAY FROM DENSITY LOG  [ADJ. TO RESISTIVITY LOG]
GRRED   .GAPI   : GAMMA RAY FROM RESISTIVITY LOG
GRSED   .GAPI   : GAMMA RAY FROM SONIC LOG  [ADJ. TO RESISTIVITY LOG]
GRWS    .GAPI   : GAMMA RAY [GRSED SPL. TO GRRED @ 311M]
ILDED   .OHMM   : DEEP INDUCTION LOG RESISTIVITY FROM RESISTIVITY LOG
ILMED   .OHMM   : MEDIUM INDUCTION LOG  RESISTIVITY FROM RESISTIVITY LOG
LLED    .OHMM   : LATEROLOG RESISTIVITY FROM RESISTIVITY LOG
MRESWS  .OHMM   : MEDIUM RESISTIVITY [ILMED]
NPHILSED.V/V    : NEUTRON POROSITY LIMESTONE FROM DENSITY LOG  [ADJ. TO RESISTIVITY LOG]
NPHISSED.V/V    : NEUTRON POROSITY SANDSTONE FROM DENSITY LOG  [ADJ. TO RESISTIVITY LOG]
NPOLSWS .V/V    : NEUTRON POROSITY LIMESTONE [NPHISSED MATRIX CONVERSION FOR LIMESTONE, SPL. TO NPHILSED @ 1670 M]
RHOBED  .KG/M3  : BULK DENSITY FROM DENSITY LOG  [ADJ. TO RESISTIVITY LOG]
SPRED   .MV     : SPONTANEOUS POTENTIAL FROM RESISTIVITY LOG
SPWS    .MV     : SPONTANEOUS POTENTIAL [BASELINE 0 MV, SPRED]
SRESWS  .OHMM   : SHALLOW RESISTIVITY [LLED]
~Params ----------------------------------------------------
PD  .                         GL : PERMANENT DATUM
EPD .M                     778.5 : ELEVATION PERMANENT DATUM
LMF .                         KB : LOG MEASURED FROM
DAPD.M                       7.1 : FEET ABOVE PERMANENT DATUM
EKB .M                     785.6 : KELLY BUSHING
EGL .M                     778.5 : GROUND LEVEL
DATE.                   12/27/78 : RUN DATE
RUN .                          1 : RUN NUMBER
DD  .M                      3025 : DEPTH DRILLER
DL  .M                    3026.5 : DEPTH LOGGER
BLI .M                      3026 : BOTTOM LOG INTERVAL
TLI .M                       312 : TOP LOG INTERVAL
CBD .M                       312 : CASING BOTTOM DRILLER
CBL .M                       312 : CASING BOTTOM LOGGER
BS  .MM                      222 : BIT SIZE
BSD .M                      3025 : BIT SIZE AT DEPTH
DFT .                        GEL : DRILLING FLUID TYPE
DFD .                       1142 : DRILLING FLUID DENSITY
DFV .                        125 : DRILLING FLUID VISCOSITY
DFPH.                         10 : DRILLING FLUID PH
DFL .                          7 : DRILLING FLUID LOSS
RMS .OHMM                    3.8 : RESISTIVITY MUD SAMPLE
MST .DEGC                     17 : MUD SAMPLE TEMPERATURE
RMF .OHMM                    2.2 : RESISTIVITY MUD FILTRATE SAMPLE
MFST.DEGC                     16 : MUD FILTRATE SAMPLE TEMPERATURE
RMC .OHMM                    1.4 : RESISTIVITY MUD CAKE
MCST.DEGC                     10 : MUD CAKE SAMPLE TEMPERATURE
RMB .OHMM                    1.3 : RESISTIVITY MUD AT BHT
TCS .HRS                       8 : TIME CIRCULATED STOPPED
LUN .                         53 : LOGGING UNIT NUMBER
LUL .                   EDMONTON : LOGGING UNIT LOCATION
ENGI.        JOHNSON FITZSIMMONS : RECORDING ENGINEER
WITN.       WILLIAMSON GLADSTONE : WITNESSED BY
CLNT.                    A2DTECH : CLIENT CODE
ORIG. 6.5"/100M 16.5"/100M PRINT : ORIGIN OF DATA
UWI .           100063007223W500 : UNIQUE WELL ID
DICO.     A2D Technologies, Inc. : DIGITIZING COMPANY
~Other -----------------------------------------------------
DIL-LL-CDL-SDL-BHC LOG RUN
RHOBED, CORRED VARIFED FROM 2" SCALE SECTION
SP BASELINE QUESTIONALBLE
NEUTRON MATRIX CONVERSION FOR LIMESTONE USING COMPUTALOG (SNL)
GRSED DELETED FROM 2922-2940, 2941-2959, 2992-3003 M DUE TO TIGHT FORMATION AS PER PRINT'S MENTION.
~ASCII -----------------------------------------------------
  300.00000    -999.25    -999.25    -999.25    -999.25    -999.25    -999.25    -999.25    -999.25    -999.25    -999.25    -999.25    -999.25    -999.25    -999.25   24.39670    -999.25   19.75960   19.75960    -999.25    -999.25    -999.25    -999.25    -999.25    0.77320    0.75940    -999.25    -999.25    -999.25    -999.25
  350.00000  283.85210  283.85210  260.70140  241.37760  261.28760  196.74940  196.74940 1704.88000    -999.25    0.57280    0.58780    3.82720  430.79430  430.79430   42.68930   54.44380   39.52480   54.44380    3.82720    3.99890    6.47260    3.99890    -999.25    0.88480    0.87750 1680.12810  -53.01190   -3.29550    6.47260
  400.00000  304.29790  304.29790  280.10360  234.21040  457.10110  167.90400  167.90400 1959.14500    -999.25    0.41870    0.43910    2.18770  443.42360  443.42360   58.22050   73.40020   53.33110   73.40020    2.18770    2.45470    5.88360    2.45470    -999.25    0.65240    0.63230 1955.59990  -56.15240   -2.15850    5.88360
  450.00000  292.95400  292.95400  263.79030  235.37260  236.37310  185.13930  185.13930 1968.22000    -999.25    0.41320    0.43380    4.23060  481.24330  481.24330   93.38240  105.26090  101.19030  105.26090    4.23060    4.35430    6.98040    4.35430    -999.25    0.66510    0.64560 1958.08640  -59.28120   -3.97610    6.98040
  500.00000  276.21230  276.21230  283.44680  290.54020  152.19310  122.07570  122.07570 2250.20500    -999.25    0.24230    0.26890    6.57060  394.15600  394.15600   65.05640   76.82860   65.51640   76.82860    6.57060    6.79080    6.81600    6.79080    -999.25    0.42800    0.40050 2263.38820  -60.54210   -1.35480    6.81600
  550.00000  251.02460  251.02460  296.53550  255.38320  169.96400  143.84630  143.84630 2185.03000    -999.25    0.28180    0.30700    5.88360  429.74130  429.74130   67.10540   87.23840   75.37560   87.23840    5.88360    5.87280    6.87600    5.87280    -999.25    0.45660    0.42950 2180.85890  -63.53050   -3.47990    6.87600
  600.00000  301.65300  301.65300  230.53390  320.62710  162.50910   72.58230   72.58230 2121.50500    -999.25    0.32030    0.34410    6.15350  397.88770  397.88770   74.42700   88.38500   82.33280   88.38500    6.15350    6.35980    6.25480    6.35980    -999.25    0.37430    0.34630 2114.73390  -66.97150   -3.69300    6.25480
  650.00000  311.56130  311.56130  241.45740  317.67920  214.38070  143.73300  143.73300 2230.90000    -999.25    0.25400    0.28020    4.66460  531.07050  531.07050   80.60680  108.70630   99.02200  108.70630    4.66460    4.79680    5.87510    4.79680    -999.25    0.45690    0.42980 2232.12280  -69.87070   -5.43210    5.87510
  700.00000  270.74050  270.74050  231.17480  279.67620  164.33040  142.04950  142.04950 2245.75000    -999.25    0.24500    0.27150    6.08530  377.66710  377.66710   85.27790   99.63530   98.51750   99.63530    6.08530    6.59760    7.14090    6.59760    -999.25    0.40130    0.37350 2239.76420  -70.24810   -3.57720    7.14090
  750.00000  242.10790  242.10790  210.73100  208.93320  193.99770  173.78860  173.78860 2414.05000    -999.25    0.14300    0.17310    5.15470  320.84480  320.84480   68.48080   80.36440   72.44080   80.36440    5.15470    5.99370    6.22830    5.99370    -999.25    0.31000    0.28160 2406.16020  -74.16150   -6.78940    6.22830
  800.00000  233.24310  233.24310  254.01300  238.34400  314.57420  205.60040  205.60040 2089.66000    -999.25    0.33960    0.36280    3.17890  364.80470  364.80470   64.33950   90.85330   89.01240   90.85330    3.17890    3.39670    4.77850    3.39670    -999.25    0.44900    0.42180 2097.86970  -68.48510   -1.75860    4.77850
  850.00000  260.79850  260.79850  254.77450  239.81550  326.14720  195.97120  195.97120 2387.32000    -999.25    0.15920    0.18870    3.06610  357.77720  357.77720   75.53450   87.72570   92.23060   87.72570    3.06610    3.21850    3.32740    3.21850    -999.25    0.42730    0.39980 2387.01640  -67.90390   -1.63780    3.32740
  900.00000  269.70390  269.70390  222.85590  273.61590  467.20240  198.46220  198.46220 2318.68000    -999.25    0.20080    0.22880    2.14040  390.11270  390.11270   88.09780  115.89050  104.11800  115.89050    2.14040    2.34880    3.28390    2.34880    -999.25    0.38150    0.35360 2320.66040  -63.39260    2.41400    3.28390
  950.00000  250.71300  250.71300  259.07560  242.38320  388.48530  206.14810  206.14810 2208.79000    -999.25    0.26740    0.29310    2.57410  322.81010  322.81010   65.12100   80.82450   88.40330   80.82450    2.57410    2.69620    3.44120    2.69620    -999.25    0.57690    0.55340 2189.78880  -69.02940   -4.08950    3.44120
 1000.00000  194.01470  194.01470  212.09720  199.87230  498.10720  121.84560  121.84560 2243.11000    -999.25    0.24660    0.27300    2.00760  310.69510  310.69510   12.10730   18.69210   25.69080   18.69210    2.00760    2.91160    4.45590    2.91160    -999.25    0.30510    0.27670 2238.33080 -118.39830  -58.20570    4.45590
 1050.00000  226.11900  226.11900  225.87790  214.41410  216.93860   56.96140   56.96140 2249.87500    -999.25    0.24250    0.26910    4.60960  421.44470  421.44470   26.08500   37.74090   31.76010   37.74090    4.60960    5.54160    7.59930    5.54160    -999.25    0.39160    0.36370 2152.14280  -72.98600  -18.44030    7.59930
 1100.00000  196.54760  196.54760  209.82220  196.19660  221.09220  213.69020  213.69020 2364.38500    -999.25    0.17310    0.20210    4.52300  274.71320  274.71320   51.84970   62.46000   61.03060   62.46000    4.52300    6.45810    7.13730    6.45810    -999.25    0.35050    0.32230 2366.31540  -96.24580  -39.83330    7.13730
 1150.00000  228.44420  228.44420  230.01580  221.22360  180.95940   80.99290   80.99290 2610.56500    -999.25    0.02390    0.05810    5.52610  235.41180  235.41180   57.07710   60.54620   54.23760   60.54620    5.52610    7.89080    8.62410    7.89080    -999.25    0.14200    0.11340 2616.47710  -63.59600   -8.73680    8.62410
 1200.00000  192.38280  192.38280  211.41380  202.07210  247.10880  158.05580  158.05580 2329.90000    -999.25    0.19400    0.22230    4.04680  280.40040  280.40040   42.57100   57.85450   48.41180   57.85450    4.04680    6.04460    6.90740    6.04460    -999.25    0.34970    0.32150 2350.53370  -77.11090  -26.24470    6.90740
 1250.00000  225.63030  225.63030  228.91150  220.14530  129.22570   65.66770   65.66770 2615.84500    -999.25    0.02070    0.05510    7.73840  211.31700  211.31700   45.08370   54.66030   46.85150   54.66030    7.73840   11.45150   12.00970   11.45150    -999.25    0.11370    0.08630 2635.42070  -58.97890   -8.56190   12.00970
 1300.00000  212.86230  212.86230  260.21450  223.84480  325.63740   86.98600   86.98600 2488.13500    -999.25    0.09810    0.12970    3.07090  314.66450  314.66450   67.02800   78.32140   77.15900   78.32140    3.07090    3.51600    4.98060    3.51600    -999.25    0.43410    0.40670 2483.63350  -48.34840   -1.31630    4.98060
 1350.00000  249.34790  249.34790  238.29890  253.94930  359.84170  183.09390  183.09390 2415.70000    -999.25    0.14200    0.17210    2.77900  313.47020  313.47020   60.56880   91.64430   79.86200   91.64430    2.77900    3.05610    4.79340    3.05610    -999.25    0.36110    0.33300 2427.36890  -49.21180   -5.84040    4.79340
 1400.00000  225.83280  225.83280  234.22480  246.78550  158.48870   89.81510   89.81510 2375.44000    -999.25    0.16640    0.19560    6.30960  284.68870  284.68870   67.14580   89.82340   76.68160   89.82340    6.30960    7.28340    9.67980    7.28340    -999.25    0.27360    0.24520 2379.60250  -62.61700  -19.79550    9.67980
 1450.00000  286.45000  286.45000  251.92070  293.85540  512.55770  199.73730  199.73730 2379.40000    -999.25    0.16400    0.19330    1.95100  347.59310  347.59310   62.92870   86.14620   88.68480   86.14620    1.95100    2.09970    3.46560    2.09970    -999.25    0.56150    0.53740 2374.68920  -46.33880   -3.75170    3.46560
 1500.00000  223.08960  223.08960  225.98540  221.08880   25.08350   27.58490   27.58490 2456.29000    -999.25    0.11740    0.14840   39.86690  280.19050  280.19050  200.03470  263.58110  284.30710  263.58110   39.86690   60.86910  139.71410   60.86910    -999.25    0.22640    0.19790 2459.44680  -92.91580  -48.56890  139.71410
