~Version ---------------------------------------------------
VERS.      2.0 : CWLS log ASCII Standard -VERSION 2.0
WRAP.       NO : One line per depth step
CREA. 08/01/17 : LAS Creation Date
~Well ------------------------------------------------------
STRT.FT                          300.0 : START DEPTH
STOP.FT                        13100.0 : STOP DEPTH
STEP.FT                       50.00000 : STEP LENGTH
NULL.                          -999.25 : NULL VALUE
COMP.      ANADARKO CANADA CORPORATION : COMPANY
WELL.      NORCEN ET AL FERR 9-23-40-9 : WELL
FLD .                               WC : FIELD
LOC .                                  : LOCATION
CTRY.                           CANADA : COUNTRY
SRVC. Schlumberger Well Surveying Corp : SERVICE COMPANY
DATE.                      17-Jun-1956 : LOGDATE
PROV.                          Alberta : PROVINCE
UWI .                 102092304009W500 : UNIQUE WELL ID
SLAT.WGS84                    52.45946 : SURFACE LATITUDE
SLON.WGS84                   -115.1788 : SURFACE LONGITUDE
~Curve Information -----------------------------------------
DEPT  .FT     : Depth Curve
CALWS .IN     : CALIPER [MCALED]
CONDWS.MMHO   : CONDUCTIVITY [1000/DRESWS]
DRESWS.OHMM   : DEEP RESISTIVITY [LNED]
GRNED .UR/HR  : GAMMA RAY FROM NEUTRON LOG
GRWS  .GAPI   : GAMMA RAY [GRNED WAS RESCALED FROM 0-15 UR/HR TO 0-150 PSEUDO API UNIT]
LNED  .OHMM   : 64 INCH LONG NORMAL RESISTIVITY FROM EL
LT18ED.OHMM   : LATERAL 18'8" FROM EL
MCALED.IN     : CALIPER FROM MICRO LOG
MINVED.OHMM   : MICROINVERSE RESISTIVITY FROM MICROLOG
MNORED.OHMM   : MICRONORMAL RESISTIVITY FROM MICROLOG
NEUTED.CU     : NEUTRON FROM GAMMA RAY NEUTRON LOG
NEUTWS.CU     : NEUTRON[NEUTED]
SNED  .OHMM   : 16 INCH SHORT NORMAL RESISTIVITY FROM EL
SPMED .MV     : SPONTANEOUS POTENTIAL FROM MICROLOG
SPRED .MV     : SPONTANEOUS POTENTIAL FROM RESISTIVITY LOG
SPWS  .MV     : SPONTANEOUS POTENTIAL [BASELINE 0 MV] [SPRED]
SRESWS.OHMM   : SHALLOW RESISTIVITY [SNED]
~Params ----------------------------------------------------
LMF .                     KB : LOG MEASURED FROM
DMF .                     KB : DRILLING MEASURED FROM
EGL .FT                 3455 : GROUND LEVEL
DATE.               06/17/56 : RUN DATE
RUN .                      5 : RUN NUMBER
DD  .FT                13102 : DEPTH DRILLER
DL  .FT                13103 : DEPTH LOGGER
BLI .FT                13100 : BOTTOM LOG INTERVAL
TLI .FT                11000 : TOP LOG INTERVAL
BS  .IN                    9 : BIT SIZE
BSD .FT                13102 : BIT SIZE AT DEPTH
DFT .              LIME BASE : DRILLING FLUID TYPE
DFD .                   10.9 : DRILLING FLUID DENSITY
DFV .                     98 : DRILLING FLUID VISCOSITY
DFPH.                     13 : DRILLING FLUID PH
DFL .                    4.4 : DRILLING FLUID LOSS
MSS .            CIRCULATION : MUD SAMPLE SOURCE
RMS .OHMM               0.46 : RESISTIVITY MUD SAMPLE
MST .DEGF                 61 : MUD SAMPLE TEMPERATURE
RMF .OHMM               0.21 : RESISTIVITY MUD FILTRATE SAMPLE
MFST.DEGF                 79 : MUD FILTRATE SAMPLE TEMPERATURE
RMC .OHMM               0.74 : RESISTIVITY MUD CAKE
MCST.DEGF                 68 : MUD CAKE SAMPLE TEMPERATURE
TLAB.HRS                   3 : TIME LOGGER AT BOTTOM
LUN .                   1729 : LOGGING UNIT NUMBER
LUL .                     RD : LOGGING UNIT LOCATION
ENGI.                BOSWELL : RECORDING ENGINEER
WITN.                 DUNCAN : WITNESSED BY
CLNT.                A2DTECH : CLIENT CODE
ORIG.       1" 5" 25" PRINT0 : ORIGIN OF DATA
UWI .       102092304009W500 : UNIQUE WELL ID
DICO. A2D Technologies, Inc. : DIGITIZING COMPANY
~Other -----------------------------------------------------
~ASCII -----------------------------------------------------
# ...
 8500.00000    -999.25  215.30380    4.64460    6.32500   63.25000    4.64460    4.97800    -999.25    3.44960    3.66630   24.31420   24.31420    5.39210  -66.70350  -34.75850   -7.76650    5.39210
 8550.00000    -999.25   79.00330   12.65770    6.59490   65.94900   12.65770   13.79510    -999.25    5.24480    5.24480  258.08460  258.08460   12.65770  -60.45460  -35.55000  -10.65270   12.65770
 8600.00000    -999.25  103.78610    9.63520    5.97670   59.76700    9.63520   14.05200    -999.25    4.60550    4.15340  194.65170  194.65170   10.54000  -66.45460  -25.34210   -2.53960   10.54000
 8650.00000    -999.25   75.72830   13.20510    6.30000   63.00000   13.20510    5.02510    -999.25    2.71830    2.45840  120.32420  120.32420    9.73320  -74.27270  -28.45520   -7.74750    9.73320
 8700.00000    -999.25   38.20990   26.17120    5.80000   58.00000   26.17120   27.34360    -999.25    -999.25    -999.25  260.90340  260.90340   17.79110    -999.25  -28.59370   -9.98080   17.79110
 8750.00000    -999.25   41.18730   24.27930    6.17500   61.75000   24.27930   30.04740    -999.25    -999.25    -999.25  151.49630  151.49630   17.13960    -999.25  -27.99050  -11.47240   17.13960
 8800.00000    -999.25   41.18730   24.27930    6.41250   64.12500   24.27930   16.70340    -999.25    -999.25    -999.25  128.60710  128.60710   19.80980    -999.25  -29.50050  -15.07710   19.80980
 8850.00000    -999.25   45.70720   21.87840    4.86420   48.64200   21.87840   17.28470    -999.25    -999.25    -999.25  282.41890  282.41890   14.81980    -999.25  -34.15660  -21.82800   14.81980
 8900.00000    -999.25   34.74180   28.78380    5.62500   56.25000   28.78380   23.09340    -999.25    -999.25    -999.25  207.00580  207.00580   23.73870    -999.25  -36.48140  -26.24760   23.73870
 8950.00000    -999.25   39.85640   25.09010    5.11250   51.12500   25.09010   16.13610    -999.25   18.76520   13.24790  313.59100  313.59100   20.67570  -69.85230  -43.64460  -35.50560   20.67570
 9000.00000   10.22170   36.21540   27.61260    5.10000   51.00000   27.61260   27.93260   10.22170   13.63590   13.63590  309.33440  309.33440   18.96400  -69.92470  -39.30720  -33.26300   18.96400
 9050.00000   10.44890   46.75610   21.38760    5.61250   56.12500   21.38760   27.67940   10.44890   21.32980   14.75570  194.72150  194.72150   19.41440  -70.45830  -33.01520  -29.06570   19.41440
 9100.00000   10.32520   41.96600   23.82880    4.81480   48.14800   23.82880   34.90900   10.32520   17.22020   21.20560  173.81650  173.81650   14.97340  -70.10630  -38.75930  -36.90460   14.97340
 9150.00000   11.19280   20.20860   49.48390    6.83750   68.37500   49.48390   45.30740   11.19280   40.25760   20.60740  254.36410  254.36410   36.59950  -70.07540  -27.28080  -27.52090   36.59950
 9200.00000    9.96710   14.97830   66.76320    6.01250   60.12500   66.76320   70.53830    9.96710   15.66340   29.56160  387.96420  387.96420   37.97300    -999.25  -27.64560  -29.98050   37.97300
 9250.00000   10.41800   20.12400   49.69190    5.40000   54.00000   49.69190   78.41380   10.41800   19.21310   15.52190  264.96260  264.96260   35.27910    -999.25  -33.43420  -37.86390   35.27910
 9300.00000   11.05820   29.00360   34.47850    6.45000   64.50000   34.47850   31.87120   11.05820    3.00470    7.91330  234.80240  234.80240   19.98020    -999.25  -28.74640  -35.27080   19.98020
 9350.00000   13.07540   21.55770   46.38720    6.02500   60.25000   46.38720   47.25000   13.07540    2.68090    5.36300  197.63090  197.63090   32.10940    -999.25  -31.37800  -39.99720   32.10940
 9400.00000   11.46270   39.78500   25.13510    4.56790   45.67900   25.13510   29.45300   11.46270    1.57460    2.46500  250.00000  250.00000   25.24060    -999.25  -34.50550  -45.21950   25.24060
 9450.00000   10.04500   11.37400   87.92010    3.53170   35.31700   87.92010  164.52730   10.04500   40.06910   22.08550  172.04970  172.04970   60.74110    -999.25  -33.15330  -45.96210   60.74110
 9500.00000   10.81190    1.37210  728.82890    4.30000   43.00000  728.82890  675.36930   10.81190    6.17690   10.76950  154.65840  154.65840  226.38130    -999.25  -32.94070  -47.84430  226.38130
 9550.00000    9.81590    0.88950 1124.17870    4.00000   40.00000 1124.17870 3478.14920    9.81590   35.67900   34.85130  811.78790  811.78790  209.53320    -999.25  -49.36470  -66.36300  209.53320
 9600.00000    9.54020    7.90660  126.47710    3.94940   39.49400  126.47710  377.80780    9.54020   17.61460   15.63540  719.63690  719.63690   72.41300    -999.25  -28.60730  -47.70040   72.41300
 9650.00000    9.61210   10.10220   98.98830    6.77220   67.72200   98.98830  128.77490    9.61210    3.79640    7.86160  610.55900  610.55900   64.19750    -999.25  -37.76640  -58.95430   64.19750
 9700.00000    9.50800    1.80740  553.27040    3.03800   30.38000  553.27040 2075.79050    9.50800   39.81720   39.82240  794.11190  794.11190  155.64280    -999.25  -89.59260 -112.87530  155.64280
 9750.00000    9.56240    2.30750  433.37640    3.20250   32.02500  433.37640  670.50000    9.56240   22.36460   22.15110  759.64230  759.64230  153.68300    -999.25 -122.66600 -148.04340  153.68300
 9800.00000   10.02460    2.57330  388.60290    2.78480   27.84800  388.60290 1231.04050   10.02460    8.54640   10.98540  752.76050  752.76050  118.01800    -999.25  -94.73460 -122.20680  118.01800
 9850.00000    9.54640   12.15770   82.25230    6.79750   67.97500   82.25230   96.03000    9.54640   23.12920   33.68040  549.06830  549.06830   52.74880    -999.25  -53.29530  -82.86230   52.74880
 9900.00000    9.84160    7.77380  128.63670    3.07590   30.75900  128.63670   93.32520    9.84160   13.47360   15.98210  806.95390  806.95390   48.77150    -999.25  -81.57410 -113.23590   48.77150
 9950.00000   10.79380    1.52340  656.41500    4.60000   46.00000  656.41500  822.08940   10.79380    4.28380   10.37420  733.54030  733.54030  191.89190    -999.25  -33.61440  -67.37100  191.89190
 10000.00000    9.54430    5.62750  177.69910    5.27500   52.75000  177.69910  455.04420    9.54430   18.11840   33.73580  520.33980  520.33980   76.33440    -999.25  -23.33330  -59.18460   76.33440
 10050.00000    -999.25    4.53390  220.56190    3.60760   36.07600  220.56190  325.29580    -999.25    -999.25    -999.25  614.08980  614.08980  101.11890    -999.25  -42.65700  -80.60310  101.11890
 10100.00000    -999.25    5.13050  194.91110    5.31250   53.12500  194.91110  473.09410    -999.25    -999.25    -999.25  561.72070  561.72070   91.82880    -999.25  -30.01320  -70.05410   91.82880
 10150.00000    -999.25    -999.25    -999.25    5.62500   56.25000    -999.25  156.66420    -999.25    -999.25    -999.25  444.78090  444.78090   58.09220    -999.25  -30.34730  -72.48300   58.09220
 10200.00000    -999.25    5.67620  176.17380    4.69140   46.91400  176.17380  237.67030    -999.25    -999.25    -999.25  588.27340  588.27340   89.95390    -999.25  -34.14340  -78.37390   89.95390
 10250.00000    -999.25    7.35100  136.03600    6.32500   63.25000  136.03600  197.60030    -999.25    -999.25    -999.25  510.09980  510.09980   68.19820    -999.25  -31.41130  -77.73650   68.19820
 10300.00000    -999.25    5.09020  196.45770    5.56250   55.62500  196.45770  324.25340    -999.25    -999.25    -999.25  475.20290  475.20290   87.07590    -999.25  -32.99150  -81.41150   87.07590
 10350.00000    -999.25    2.79910  357.26170    3.97470   39.74700  357.26170  308.67940    -999.25    -999.25    -999.25  357.85530  357.85530   31.76870    -999.25  -34.44670  -84.96150   31.76870
 10400.00000    -999.25    1.59930  625.28720    4.45680   44.56800  625.28720  747.08450    -999.25    -999.25    -999.25  877.25750  877.25750  121.84120    -999.25  -25.05770  -77.66730  121.84120
 10450.00000    -999.25    1.55510  643.02660   20.09620  200.96200  643.02660 1061.49190    -999.25    -999.25    -999.25  431.07510  431.07510   85.53830    -999.25  -10.54330  -65.24770   85.53830
 10500.00000    -999.25    2.15280  464.50930    3.27850   32.78500  464.50930  772.07660    -999.25    -999.25    -999.25  896.50870  896.50870   65.77760    -999.25  -16.17650  -72.97560   65.77760
