~Version ---------------------------------------------------
VERS.      2.0 : CWLS log ASCII Standard -VERSION 2.0
WRAP.       NO : One line per depth step
CREA. 12/11/17 : LAS Creation Date
~Well ------------------------------------------------------
STRT.FT                1000.0 : START DEPTH
STOP.FT                9350.0 : STOP DEPTH
STEP.FT              50.00000 : STEP LENGTH
NULL.                 -999.25 : NULL VALUE
COMP.   TEXACO CANADA LIMITED : COMPANY
WELL. TEXCAN WABAT 7-29-72-22 : WELL
FLD .                         : FIELD
LOC .                         : LOCATION
CTRY.                  CANADA : COUNTRY
SRVC.            Schlumberger : SERVICE COMPANY
DATE.             20-Nov-1973 : LOGDATE
PROV.                 Alberta : PROVINCE
UWI .        100072907222W500 : UNIQUE WELL ID
SLAT.WGS84           55.26257 : SURFACE LATITUDE
SLON.WGS84          -117.3421 : SURFACE LONGITUDE
~Curve Information -----------------------------------------
DEPT  .FT    : Depth Curve
CALSED.IN    : CALIPER FROM SONIC LOG
CALWS .IN    : CALIPER [CALSED]
CONDWS.MMHO  : CONDUCTIVITY [1000/DRESWS]
DRESWS.OHMM  : DEEP RESISTIVITY [ILDED]
DTED  .US/F  : DELTA- TIME FROM SONIC LOG
DTWS  .US/F  : COMPRESSIONAL SONIC [DTED]
GRED  .GAPI  : GAMMA RAY FROM GR LOG
GRSED .GAPI  : GAMMA RAY FROM SONIC LOG
GRWS  .GAPI  : GAMMA RAY [GRSED]
ILDED .OHMM  : DEEP INDUCTION RESISTIVITY FROM RESISTIVITY LOG
ILMED .OHMM  : MEDIUM INDUCTION RESISTIVITY FROM RESISTIVITY LOG
LL8ED .OHMM  : LATEROLOG 8 RESISTIVITY FROM RESISTIVITY LOG
MCALED.IN    : MICRO CALIPER FROM ML LOG [ADJ. TO RESISTIVITY LOG]
MRESWS.OHMM  : MEDIUM RESISTIVITY [ILMED]
SPRED .MV    : SPONTANEOUS POTENTIAL FROM RESISTIVITY LOG
SPWS  .MV    : SPONTANEOUS POTENTIAL [BASELINE 0 MV, SPRED]
SRESWS.OHMM  : SHALLOW RESISTIVITY [LL8ED]
~Params ----------------------------------------------------
PD  .                     GL : PERMANENT DATUM
EPD .FT               2350.7 : ELEVATION PERMANENT DATUM
LMF .                     KB : LOG MEASURED FROM
DAPD.FT                 18.6 : FEET ABOVE PERMANENT DATUM
EKB .FT               2369.3 : KELLY BUSHING
EGL .FT               2350.7 : GROUND LEVEL
DATE.               11/20/73 : RUN DATE
RUN .                      1 : RUN NUMBER
DD  .FT                 9395 : DEPTH DRILLER
DL  .FT                 9392 : DEPTH LOGGER
BLI .FT                 9386 : BOTTOM LOG INTERVAL
TLI .FT                  990 : TOP LOG INTERVAL
CBD .FT                  991 : CASING BOTTOM DRILLER
CBL .FT                  990 : CASING BOTTOM LOGGER
BS  .IN                 8.75 : BIT SIZE
BSD .FT                 9395 : BIT SIZE AT DEPTH
DFT .                    GEL : DRILLING FLUID TYPE
DFD .                    9.6 : DRILLING FLUID DENSITY
DFV .                    100 : DRILLING FLUID VISCOSITY
DFPH.                    9.5 : DRILLING FLUID PH
DFL .                    9.6 : DRILLING FLUID LOSS
RMS .OHMM                3.1 : RESISTIVITY MUD SAMPLE
MST .DEGF                 65 : MUD SAMPLE TEMPERATURE
RMF .OHMM               3.82 : RESISTIVITY MUD FILTRATE SAMPLE
MFST.DEGF                 71 : MUD FILTRATE SAMPLE TEMPERATURE
RMC .OHMM               3.02 : RESISTIVITY MUD CAKE
MCST.DEGF                 67 : MUD CAKE SAMPLE TEMPERATURE
RMB .OHMM               1.35 : RESISTIVITY MUD AT BHT
TCS .HRS                   4 : TIME CIRCULATED STOPPED
LUN .                   7502 : LOGGING UNIT NUMBER
LUL .                    EDM : LOGGING UNIT LOCATION
ENGI.           EARLEY LEITH : RECORDING ENGINEER
WITN.      WILCOCK PATTERSON : WITNESSED BY
CLNT.                A2DTECH : CLIENT CODE
ORIG.            2" 5" PRINT : ORIGIN OF DATA
UWI .       100072907222W500 : UNIQUE WELL ID
DICO. A2D Technologies, Inc. : DIGITIZING COMPANY
~Other -----------------------------------------------------
~ASCII -----------------------------------------------------
# ...
 5100.00000    9.04170    9.04170 1099.02190    0.90990   68.04720   68.04720    -999.25   31.00510   31.00510    0.90990    1.43820   10.26000    9.21990    1.43820 -173.15100 -135.62230   10.26000
 5150.00000    9.21840    9.21840 1240.54090    0.80610   80.70910   80.70910    -999.25   32.39170   32.39170    0.80610    1.24330   10.15890    9.29130    1.24330 -173.44570 -136.11740   10.15890
 5200.00000    8.98420    8.98420  361.86000    2.76350   54.06150   54.06150    -999.25   18.35310   18.35310    2.76350    6.96020  125.93860    8.85470    6.96020 -159.51820 -122.39160  125.93860
 5250.00000    9.37780    9.37780 1143.77220    0.87430   73.35690   73.35690    -999.25   40.05280   40.05280    0.87430    1.09290    8.11890    9.38820    1.09290 -147.28200 -110.44480    8.11890
 5300.00000    8.62760    8.62760  170.74170    5.85680   62.82830   62.82830    -999.25   20.18310   20.18310    5.85680    8.60290   93.26190    8.59130    8.60290 -163.37870 -126.88740   93.26190
 5350.00000    8.87590    8.87590  305.91330    3.26890   58.75660   58.75660    -999.25   21.23400   21.23400    3.26890    4.53310   47.30010    9.03570    4.53310 -155.97890 -119.83570   47.30010
 5400.00000    8.92540    8.92540  147.74980    6.76820   55.16090   55.16090    -999.25   21.44530   21.44530    6.76820    9.62230  139.92830    8.95800    9.62230 -178.09450 -142.29720  139.92830
 5450.00000    8.66740    8.66740  141.81180    7.05160   61.94910   61.94910    -999.25   20.55170   20.55170    7.05160    9.29550   52.01270    8.58920    9.29550 -149.32640 -113.87720   52.01270
 5500.00000    8.92360    8.92360  327.91190    3.04960   55.49720   55.49720    -999.25   20.28160   20.28160    3.04960    4.69000  929.60090    8.88780    4.69000 -173.83380 -138.73040  929.60090
 5550.00000    9.58700    9.58700  333.90100    2.99490   57.55440   57.55440    -999.25   39.06940   39.06940    2.99490    5.84970   18.28450    9.99330    5.84970 -120.95120  -86.19370   18.28450
 5600.00000    8.47800    8.47800   96.18070   10.39710   58.73420   58.73420    -999.25   20.59160   20.59160   10.39710   18.24560  181.60370    8.89880   18.24560 -177.12280 -142.71340  181.60370
 5650.00000    9.67650    9.67650  155.40020    6.43500   65.56020   65.56020    -999.25   42.62140   42.62140    6.43500    6.20170    8.87710   10.21930    6.20170  -74.62890  -40.56540    8.87710
 5700.00000    9.15150    9.15150   13.52320   73.94680   51.06990   51.06990    -999.25   24.40350   24.40350   73.94680   72.88380  401.36150    9.40660   72.88380 -105.33090  -71.61550  401.36150
 5750.00000    9.48380    9.48380  133.35640    7.49870   57.81780   57.81780    -999.25   34.06910   34.06910    7.49870    4.87020   12.59480    9.91830    4.87020 -114.71500  -81.34550   12.59480
 5800.00000    9.23410    9.23410   80.66010   12.39770   55.47080   55.47080    -999.25   20.45390   20.45390   12.39770   11.94500   51.85950    9.60290   11.94500 -130.56770  -97.54400   51.85950
 5850.00000    9.04890    9.04890   51.69940   19.34260   55.92910   55.92910    -999.25   30.70760   30.70760   19.34260   23.55250  137.15940    9.48860   23.55250  -84.69040  -52.01490  137.15940
 5900.00000    9.63020    9.63020  127.79060    7.82530   65.52430   65.52430    -999.25   65.60460   65.60460    7.82530    7.40370   13.93720   10.01390    7.40370  -41.72370   -9.39400   13.93720
 5950.00000    9.31900    9.31900  176.62230    5.66180   57.36980   57.36980    -999.25   21.81110   21.81110    5.66180    8.05950  147.56890    9.22040    8.05950 -151.93680 -119.94520  147.56890
 6000.00000    9.61370    9.61370  116.32910    8.59630   54.30960   54.30960    -999.25   20.13630   20.13630    8.59630   11.34510   36.69080    9.79810   11.34510 -130.55590  -98.88600   36.69080
 6050.00000    9.43940    9.43940   41.97400   23.82430   52.98580   52.98580    -999.25   18.35910   18.35910   23.82430   26.29750   83.14930    9.79610   26.29750 -129.08740  -97.73930   83.14930
 6100.00000    9.36050    9.36050   20.82410   48.02120   51.34650   51.34650    -999.25   18.41660   18.41660   48.02120   49.63650  120.11620    9.69110   49.63650 -132.68400 -101.65970  120.11620
 6150.00000   13.78240   13.78240  325.88150    3.06860   97.42820   97.42820    -999.25   81.46620   81.46620    3.06860    2.05190    3.56440   14.14180    2.05190  -88.70620  -58.00360    3.56440
 6200.00000    8.51430    8.51430  202.65070    4.93460   67.52660   67.52660    -999.25   42.28550   42.28550    4.93460    7.20690   37.13690    8.39410    7.20690 -134.55550 -104.17670   37.13690
 6250.00000    9.10560    9.10560  285.81230    3.49880   66.18920   66.18920    -999.25   39.69200   39.69200    3.49880    4.94490   19.38990    9.17370    4.94490 -109.89310  -79.83600   19.38990
 6300.00000   10.69380   10.69380  171.25630    5.83920   57.17810   57.17810    -999.25   47.31890   47.31890    5.83920    7.11860   23.96040   10.81760    7.11860  -70.52600  -40.79060   23.96040
 6350.00000    9.63290    9.63290   37.77030   26.47580   52.13680   52.13680    -999.25   21.96420   21.96420   26.47580   26.64290  865.41920   10.04350   26.64290  -35.18500   -5.77350  865.41920
 6400.00000    9.69200    9.69200   74.82400   13.36470   60.59010   60.59010    -999.25   34.57490   34.57490   13.36470   12.38730   18.06720   10.04430   12.38730  -31.95270   -2.86290   18.06720
 6450.00000    9.10540    9.10540   28.28580   35.35340   52.91940   52.91940    -999.25   19.35350   19.35350   35.35340   34.17560   73.38650    9.63610   34.17560  -68.76730  -39.64410   73.38650
 6500.00000    9.90920    9.90920   57.78410   17.30580   59.43890   59.43890    -999.25   40.89570   40.89570   17.30580   15.92540   24.69150   10.24840   15.92540  -39.30990  -10.10030   24.69150
 6550.00000    9.37080    9.37080   43.15630   23.17160   57.39500   57.39500    -999.25   35.15020   35.15020   23.17160   22.08310   36.63650    9.68060   22.08310  -41.92310  -12.62700   36.63650
 6600.00000    9.35820    9.35820   38.43290   26.01940   56.99950   56.99950    -999.25   35.53950   35.53950   26.01940   25.31350   42.76180    9.65400   25.31350  -41.42470  -12.04160   42.76180
 6650.00000    9.06800    9.06800   15.48250   64.58900   52.90280   52.90280    -999.25   23.75610   23.75610   64.58900   62.26480  183.09760    9.42200   62.26480  -52.82200  -23.35240  183.09760
 6700.00000   10.30780   10.30780   79.32350   12.60660   63.34240   63.34240    -999.25   56.23270   56.23270   12.60660   12.27000   22.69520   10.32970   12.27000  -33.02930   -3.47270   22.69520
 6750.00000    9.21710    9.21710   30.55880   32.72380   56.56250   56.56250    -999.25   37.47360   37.47360   32.72380   32.03060   56.56050    9.55240   32.03060  -38.97910   -9.33600   56.56050
 6800.00000   12.09080   12.09080  235.89360    4.23920   76.51350   76.51350    -999.25   82.64640   82.64640    4.23920    4.09320    5.66690   13.19010    4.09320  -44.52090  -14.64500    5.66690
 6850.00000   15.25460   15.25460  273.91260    3.65080   86.57280   86.57280    -999.25   93.20380   93.20380    3.65080    3.37390    5.31460   18.07120    3.37390  -46.67080  -16.51640    5.31460
 6900.00000   10.67140   10.67140  161.18630    6.20400   67.78910   67.78910    -999.25   83.35670   83.35670    6.20400    5.99240    8.70080   11.15640    5.99240  -36.53770   -6.10670    8.70080
 6950.00000   10.02430   10.02430    0.89820 1113.31730   52.16700   52.16700    -999.25   18.71190   18.71190 1113.31730 1192.28610 1577.75150   11.34160 1192.28610  -56.66870  -25.95920 1577.75150
 7000.00000   10.34990   10.34990    0.66710 1499.02190   48.75410   48.75410    -999.25   13.66230   13.66230 1499.02190 1540.90320 1642.51790   11.30260 1540.90320  -59.20600  -28.21990 1642.51790
 7050.00000   10.25170   10.25170    0.69790 1432.91500   48.95460   48.95460    -999.25   12.11940   12.11940 1432.91500 1465.00610 1583.21150   11.66410 1465.00610  -69.19060  -37.92780 1583.21150
 7100.00000    9.88590    9.88590    0.67940 1471.83480   48.68120   48.68120    -999.25   15.35970   15.35970 1471.83480 1516.95700 1639.29030   11.05570 1516.95700  -95.18060  -63.63940 1639.29030
