~Version ---------------------------------------------------
VERS.      2.0 : CWLS log ASCII Standard -VERSION 2.0
WRAP.       NO : One line per depth step
CREA. 08/17/13 : LAS Creation Date
~Well ------------------------------------------------------
STRT.M                 450.0 : START DEPTH
STOP.M                2900.0 : STOP DEPTH
STEP.M              50.00000 : STEP LENGTH
NULL.                -999.25 : NULL VALUE
COMP. DOME PETROLEUM LIMITED : COMPANY
WELL.  DOME ET AL 15-35-44-2 : WELL
FLD .                        : FIELD
LOC .                        : LOCATION
CTRY.                 CANADA : COUNTRY
SRVC.           Schlumberger : SERVICE COMPANY
DATE.            17-Feb-1988 : LOGDATE
PROV.                Alberta : PROVINCE
UWI .       100153504402W500 : UNIQUE WELL ID
SLAT.WGS84          52.84009 : SURFACE LATITUDE
SLON.WGS84         -114.1793 : SURFACE LONGITUDE
~Curve Information -----------------------------------------
DEPT    .M      : DEPTH METER
ACED    .US/M   : DELTA TIME FROM SONIC LOG
C2DED   .MM     : CALIPER 2 FROM DENSITY LOG [ADJ. TO RESISTIVITY LOG]
CALDED  .MM     : CALIPER FROM DENSITY LOG [ADJ. TO RESISTIVITY LOG]
CALSED  .MM     : CALIPER FROM SONIC LOG
CALWS   .MM     : CALIPER [CALDED]
CONDWS  .MMHO   : CONDUCTIVITY [1000/DRESWS]
DCORWS  .KG/M3  : DENSITY CORRECTION [DRHOED]
DENWS   .KG/M3  : FORMATION BULK DENSITY [CALC FROM DPOLSWS, M=2710,F=1000]
DPHILSED.V/V    : DENSITY POROSITY LIMESTONE [M=2710,F=1000] FROM DENSITY LOG [ADJ. TO RESISTIVITY LOG]
DPHISSED.V/V    : DENSITY POROSITY SANDSTONE [M=2650,F=1000] FROM DENSITY LOG [ADJ. TO RESISTIVITY LOG]
DPOLSWS .V/V    : DENSITY POROSITY LIMESTONE [DPHISSED CONVERTED TO LIMESTONE (M=2710,F=1000) & SPL TO DPHILSED @1840M]
DRESWS  .OHMM   : DEEP RESISTIVITY [IDPHED]
DRHOED  .KG/M3  : DENSITY CORRECTION FROM DENSITY LOG [ADJ. TO RESISTIVITY LOG]
DTCOED  .US/M   : DELTA TIME COMPRESSIONAL FROM SONIC LOG
DTED    .US/M   : DELTA TIME FROM SONIC LOG
DTLED   .US/M   : DELTA TIME LONG SPACING FROM SONIC LOG
DTLFED  .US/M   : DELTA TIME LONG SPACING FAR DETECTOR FROM SONIC LOG
DTLNED  .US/M   : DELTA TIME LONG SPACING NEAR DETECTOR FROM SONIC LOG
DTSMED  .US/M   : DELTA TIME SHEAR WAVE FROM SONIC LOG
DTSWS   .US/M   : SHEAR SONIC [DTSMED]
DTWS    .US/M   : COMPRESSIONAL  SONIC [ACED]
GRDED   .GAPI   : GAMMA RAY FROM DENSITY LOG [ADJ. TO RESISTIVITY LOG]
GRRED   .GAPI   : GAMMA RAY FROM RESISTIVITY LOG
GRWS    .GAPI   : GAMMA RAY [GRRED SPL. TO GRDED @2915M]
IDPHED  .OHMM   : DEEP INDUCTION PHASE RESISTIVITY FROM RESISTIVITY LOG
IMPHED  .OHMM   : MEDIUM INDUCTION PHASE RESISTIVITY FROM RESISTIVITY LOG
MRESWS  .OHMM   : MEDIUM RESISTIVITY [IMPHED]
NPHILSED.V/V    : NEUTRON POROSITY LIMESTONE FROM DENSITY LOG [ADJ. TO RESISTIVITY LOG]
NPHISSED.V/V    : NEUTRON POROSITY SANDSTONE FROM DENSITY LOG [ADJ. TO RESISTIVITY LOG]
NPOLSWS .V/V    : NEUTRON POROSITY LIMESTONE [NPHISSED MATRIX CONVERSION FOR LIMESTONE & SPL. TO NPHILSED @1840M]
PEFED   .B/E    : PHOTOELECTRIC FACTOR FROM DENSITY LOG [ADJ. TO RESISTIVITY LOG]
PEFWS   .B/E    : PHOTOLELECTRIC FACTOR [PEFED]
RHOBED  .KG/M3  : BULK DENSITY FROM DENSITY LOG [ADJ. TO RESISTIVITY LOG]
SFLUED  .OHMM   : SPHERICALLY FOCUSED RESISTIVITY FROM RESISTIVITY LOG
SPRED   .MV     : SPONTANEOUS POTENTIAL FROM RESISTIVITY LOG
SPWS    .MV     : SPONTANEOUS POTENTIAL [BASELINE 0 MV, SPRED]
SRESWS  .OHMM   : SHALLOW RESISTIVITY [SFLUED]
TENDED  .N      : TENSION FROM DENSITY LOG
TENRED  .N      : TENSION FROM RESISTIVITY LOG
~Params ----------------------------------------------------
PD  .                         GL : PERMANENT DATUM
EPD .M                     908.4 : ELEVATION PERMANENT DATUM
LMF .                         KB : LOG MEASURED FROM
DAPD.M                       6.2 : FEET ABOVE PERMANENT DATUM
DMF .                         KB : DRILLING MEASURED FROM
EKB .M                     914.6 : KELLY BUSHING
EGL .M                     908.4 : GROUND LEVEL
DATE.                   02/17/88 : RUN DATE
RUN .                          2 : RUN NUMBER
DD  .M                      2938 : DEPTH DRILLER
DL  .M                    2934.5 : DEPTH LOGGER
BLI .M                      2932 : BOTTOM LOG INTERVAL
TLI .M                      2575 : TOP LOG INTERVAL
CS  .MM                      244 : CASING SIZE
CBD .M                       450 : CASING BOTTOM DRILLER
CBL .M                       450 : CASING BOTTOM LOGGER
BS  .MM                      222 : BIT SIZE
BSD .M                      2938 : BIT SIZE AT DEPTH
DFT .                   GEL CHEM : DRILLING FLUID TYPE
DFD .                       1130 : DRILLING FLUID DENSITY
DFV .                        102 : DRILLING FLUID VISCOSITY
DFPH.                         10 : DRILLING FLUID PH
DFL .                        8.2 : DRILLING FLUID LOSS
RMS .OHMM                    1.2 : RESISTIVITY MUD SAMPLE
MST .DEGC                     14 : MUD SAMPLE TEMPERATURE
RMF .OHMM                   1.02 : RESISTIVITY MUD FILTRATE SAMPLE
MFST.DEGC                     13 : MUD FILTRATE SAMPLE TEMPERATURE
RMC .OHMM                  0.362 : RESISTIVITY MUD CAKE
MCST.DEGC                     76 : MUD CAKE SAMPLE TEMPERATURE
MFSS.                      PRESS : MUD FILTRATE SAMPLE SOURCE
RMB .OHMM                  0.438 : RESISTIVITY MUD AT BHT
TCS .HRS                    1500 : TIME CIRCULATED STOPPED
TLAB.HRS                    2320 : TIME LOGGER AT BOTTOM
LUN .                       8123 : LOGGING UNIT NUMBER
LUL .                         RD : LOGGING UNIT LOCATION
ENGI.                     BRKICH : RECORDING ENGINEER
WITN.                   FORTISKI : WITNESSED BY
CLNT.                    A2DTECH : CLIENT CODE
ORIG. 6.5"/100M 16.5"/100M PRINT : ORIGIN OF DATA
UWI .           100153504402W500 : UNIQUE WELL ID
DICO.     A2D Technologies, Inc. : DIGITIZING COMPANY
~Other -----------------------------------------------------
PI-SFL-BCS LOG RAN IN COMBO & CNL-LDT LOG RAN
CURVES RHOB,DRHO HAVE BEEN VERIFIED FROM SMALL SECTION @TOP-2175 & 2350-BOTTOM.
NEUTRON CONVERSION USING SCHLUMBERGER CHART
~ASCII -----------------------------------------------------
  450.00000    -999.25    -999.25    -999.25    -999.25    -999.25    -999.25    -999.25    -999.25    -999.25    -999.25    -999.25    -999.25    -999.25    -999.25    -999.25    -999.25    -999.25    -999.25    -999.25    -999.25    -999.25    -999.25   68.52830   68.52830    -999.25    -999.25    -999.25    -999.25    -999.25    -999.25    -999.25    -999.25    -999.25    -999.25    -999.25    -999.25    -999.25    -999.25 5306.38940
  500.00000  327.60640    -999.25    -999.25  241.23090    -999.25  225.54530    -999.25    -999.25    -999.25    -999.25    -999.25    4.43370    -999.25    -999.25    -999.25    -999.25    -999.25    -999.25    -999.25    -999.25  327.60640    -999.25   73.94570   73.94570    4.43370    4.29550    4.29550    -999.25    -999.25    -999.25    -999.25    -999.25    -999.25    4.79710 -103.22170   -6.23470    4.79710    -999.25 5860.69830
  550.00000  336.51550    -999.25    -999.25  246.67900    -999.25  269.38200    -999.25    -999.25    -999.25    -999.25    -999.25    3.71220    -999.25    -999.25    -999.25    -999.25    -999.25    -999.25    -999.25    -999.25  336.51550    -999.25   75.79590   75.79590    3.71220    3.43490    3.43490    -999.25    -999.25    -999.25    -999.25    -999.25    -999.25    4.41300 -101.57050   -7.12950    4.41300    -999.25 6014.87640
  600.00000  323.84090    -999.25    -999.25  231.04040    -999.25  118.86080    -999.25    -999.25    -999.25    -999.25    -999.25    8.41320    -999.25    -999.25    -999.25    -999.25    -999.25    -999.25    -999.25    -999.25  323.84090    -999.25  104.64970  104.64970    8.41320    7.78580    7.78580    -999.25    -999.25    -999.25    -999.25    -999.25    -999.25    8.84120  -99.42260   -7.52760    8.84120    -999.25 6156.04510
  650.00000  353.59670    -999.25    -999.25  333.64680    -999.25  177.16360    -999.25    -999.25    -999.25    -999.25    -999.25    5.64450    -999.25    -999.25    -999.25    -999.25    -999.25    -999.25    -999.25    -999.25  353.59670    -999.25   82.55720   82.55720    5.64450    4.82690    4.82690    -999.25    -999.25    -999.25    -999.25    -999.25    -999.25    4.43430  -96.62990   -7.28090    4.43430    -999.25 6385.25040
  700.00000  327.80110    -999.25    -999.25  268.38500    -999.25  188.06890    -999.25    -999.25    -999.25    -999.25    -999.25    5.31720    -999.25    -999.25    -999.25    -999.25    -999.25    -999.25    -999.25    -999.25  327.80110    -999.25   81.57050   81.57050    5.31720    4.88370    4.88370    -999.25    -999.25    -999.25    -999.25    -999.25    -999.25    4.63830  -95.00310   -8.20020    4.63830    -999.25 6589.26100
  750.00000  294.41820    -999.25    -999.25  234.20630    -999.25  143.27880    -999.25    -999.25    -999.25    -999.25    -999.25    6.97940    -999.25    -999.25    -999.25    -999.25    -999.25    -999.25    -999.25    -999.25  294.41820    -999.25   80.61980   80.61980    6.97940    6.37830    6.37830    -999.25    -999.25    -999.25    -999.25    -999.25    -999.25    6.26860  -91.97620   -7.32980    6.26860    -999.25 6932.24110
  800.00000  309.69080    -999.25    -999.25  232.61610    -999.25  180.39800    -999.25    -999.25    -999.25    -999.25    -999.25    5.54330    -999.25    -999.25    -999.25    -999.25    -999.25    -999.25    -999.25    -999.25  309.69080    -999.25   88.21030   88.21030    5.54330    4.59930    4.59930    -999.25    -999.25    -999.25    -999.25    -999.25    -999.25    3.65770  -89.00270   -6.35370    3.65770    -999.25 7080.81840
  850.00000  277.39960    -999.25    -999.25  230.92450    -999.25  128.31860    -999.25    -999.25    -999.25    -999.25    -999.25    7.79310    -999.25    -999.25    -999.25    -999.25    -999.25    -999.25    -999.25    -999.25  277.39960    -999.25   66.68770   66.68770    7.79310    7.24150    7.24150    -999.25    -999.25    -999.25    -999.25    -999.25    -999.25    6.06570  -89.05230   -8.40070    6.06570    -999.25 7394.52390
  900.00000  264.54220  235.58330  225.38460  227.19050  225.38460   71.66510   -8.04610 2393.09500    -999.25    0.15570    0.18530   13.95380   -8.04610    -999.25    -999.25    -999.25    -999.25    -999.25    -999.25    -999.25  264.54220   49.46340   54.20650   54.20650   13.95380   13.59750   13.59750    -999.25    0.31890    0.27500    3.00700    3.00700 2393.09500   12.77730  -91.54800  -13.45920   12.77730 8501.20900 7618.23650
  950.00000  297.46940  240.92400  261.60240  239.04970  261.60240  142.46840   29.73790 1652.74000    -999.25    0.60440    0.61830    7.01910   29.73790    -999.25    -999.25    -999.25    -999.25    -999.25    -999.25    -999.25  297.46940   48.74760   49.29130   49.29130    7.01910    6.59810    6.59810    -999.25    0.45630    0.41480    5.91850    5.91850 1652.74000    5.38760  -80.84390   -5.43380    5.38760 9095.14940 7582.63650
 1000.00000  261.85890  224.69620  223.01060  217.12250  223.01060   47.39090   29.89760 2452.49500    -999.25    0.11970    0.15060   21.10110   29.89760    -999.25    -999.25    -999.25    -999.25    -999.25    -999.25    -999.25  261.85890   42.06610   45.69070   45.69070   21.10110   22.48960   22.48960    -999.25    0.28710    0.24310    3.21660    3.21660 2452.49500   20.17340  -92.40150  -19.67010   20.17340 8990.52050 7838.94970
 1050.00000  264.43690  220.64000  220.22160  213.08030  220.22160   66.03800   32.33780 2468.50000    -999.25    0.11000    0.14120   15.14280   32.33780    -999.25    -999.25    -999.25    -999.25    -999.25    -999.25    -999.25  264.43690   42.93940   46.63880   46.63880   15.14280   16.44500   16.44500    -999.25    0.29980    0.25580    3.22490    3.22490 2468.50000   18.01430  -93.81820  -23.76550   18.01430 8812.54880 8167.64440
 1100.00000  290.41570  294.37160  238.86580  259.22170  238.86580  155.71720  163.16940 2387.48500    -999.25    0.15910    0.18860    6.42190  163.16940    -999.25    -999.25    -999.25    -999.25    -999.25    -999.25    -999.25  290.41570   94.81500  100.20600  100.20600    6.42190    5.84050    5.84050    -999.25    0.40780    0.36510    3.17580    3.17580 2387.48500    6.09800  -70.87880   -3.50480    6.09800 9408.60350 8289.01410
 1150.00000  283.31980  271.73960  351.64830  313.68080  351.64830  123.56820   67.78120 1804.54000    -999.25    0.51240    0.52950    8.09270   67.78120    -999.25    -999.25    -999.25    -999.25    -999.25    -999.25    -999.25  283.31980   94.33510   82.87570   82.87570    8.09270    6.68800    6.68800    -999.25    0.46360    0.42230    3.57790    3.57790 1804.54000    6.43050  -70.37620   -5.68090    6.43050 9644.44340 8616.97790
 1200.00000  264.07110  270.96040  224.84000  233.20840  224.84000   90.03980   44.29160 2548.85500    -999.25    0.06130    0.09420   11.10620   44.29160    -999.25    -999.25    -999.25    -999.25    -999.25    -999.25    -999.25  264.07110  121.51700  123.89920  123.89920   11.10620   10.89570   10.89570    -999.25    0.31920    0.27530    3.75820    3.75820 2548.85500   41.63420  -67.33220   -5.31560   41.63420 9593.32030 8638.19950
 1250.00000  272.85390  332.95330  247.40570  265.27180  247.40570  121.05370  120.92980 2347.22500    -999.25    0.18350    0.21210    8.26080  120.92980    -999.25    -999.25    -999.25    -999.25    -999.25    -999.25    -999.25  272.85390   84.08240   86.92960   86.92960    8.26080    7.73010    7.73010    -999.25    0.34360    0.29990    3.10930    3.10930 2347.22500    8.74610  -65.11720   -5.77930    8.74610 10327.13870 9061.80050
 1300.00000  301.13140  276.86860  250.60070  283.14580  250.60070  161.49090   84.02960 2336.66500    -999.25    0.18990    0.21830    6.19230   84.02960    -999.25    -999.25    -999.25    -999.25    -999.25    -999.25    -999.25  301.13140   88.14440   93.20960   93.20960    6.19230    5.42150    5.42150    -999.25    0.43600    0.39390    3.49730    3.49730 2336.66500    6.39420  -62.25310   -6.12940    6.39420 10329.74800 9369.00180
 1350.00000  288.17630  282.43280  254.48940  249.52170  254.48940  144.09430  126.83380 2477.08000    -999.25    0.10480    0.13620    6.93990  126.83380    -999.25    -999.25    -999.25    -999.25    -999.25    -999.25    -999.25  288.17630  106.01500  103.89430  103.89430    6.93990    6.72180    6.72180    -999.25    0.35850    0.31500    3.17880    3.17880 2477.08000    6.42850  -57.65990   -6.44610    6.42850 10496.24610 9536.98720
