~Version ---------------------------------------------------
VERS.      2.0 : CWLS log ASCII Standard -VERSION 2.0
WRAP.       NO : One line per depth step
CREA. 01/05/18 : LAS Creation Date
~Well ------------------------------------------------------
STRT.FT                      650.0 : START DEPTH
STOP.FT                    10650.0 : STOP DEPTH
STEP.FT                   50.00000 : STEP LENGTH
NULL.                      -999.25 : NULL VALUE
COMP.              SUN OIL COMPANY : COMPANY
WELL. SUN SHELL ROSEVEAR 6-6-55-14 : WELL
FLD .                              : FIELD
LOC .                              : LOCATION
CTRY.                       CANADA : COUNTRY
SRVC.       Schlumberger of Canada : SERVICE COMPANY
DATE.                  23-Jun-1971 : LOGDATE
PROV.                      Alberta : PROVINCE
UWI .             100060605514W500 : UNIQUE WELL ID
SLAT.WGS84                53.72017 : SURFACE LATITUDE
SLON.WGS84                -116.074 : SURFACE LONGITUDE
~Curve Information -----------------------------------------
DEPT    .FT    : Depth Curve
CALDED  .IN    : CALIPER FROM DENSITY LOG [ADJ. TO RESISTIVITY LOG]
CALNED  .IN    : CALIPER FROM SNP LOG [ADJ. TO RESISTIVITY LOG]
CALSED  .IN    : CALIPER FROM SONIC LOG [ADJ. TO RESISTIVITY LOG]
CALWS   .IN    : CALIPER [CALSED SPL. TO CALDED @ 10676']
CILDED  .MMHO  : CONDUCTIVITY FROM RESISTIVITY LOG
CONDWS  .MMHO  : CONDUCTIVITY [1000/DRESWS]
CORRED  .G/C3  : DENSITY CORRECTION FROM DENSITY LOG [ADJ. TO RESISTIVITY LOG]
DCORWS  .G/C3  : DENSITY CORRECTION [CORRED]
DENWS   .G/C3  : FORMATION BULK DENSITY  [RHOBED]
DPHILSED.V/V   : DENSITY POROSITY LIMESTONE [M=2.71 F=1.00] FROM DENSITY LOG [ADJ. TO RESISTIVITY LOG]
DPHISSED.V/V   : DENSITY POROSITY SANDSTONE [M=2.65 F=1.00] FROM DENSITY LOG [ADJ. TO RESISTIVITY LOG]
DPOLSWS .V/V   : DENSITY POROSITY LIMESTONE [CALC. FROM DENWS, M=2.71 F=1.00]
DRESWS  .OHMM  : DEEP RESISTIVITY [1000/CILDED IF ILDED<4, ILDED & SPL. TO ILDED @ 664'-3750' & 5083'-6070']
DTED    .US/F  : DELTA TIME FROM SONIC LOG [ADJ. TO RESISTIVITY LOG]
DTWS    .US/F  : COMPRESSIONAL SONIC [DTED]
GRNED   .GAPI  : GAMMA RAY FROM SNP LOG [ADJ. TO RESISTIVITY LOG]
GRSED   .GAPI  : GAMMA RAY FROM SONIC LOG [ADJ. TO RESISTIVITY LOG]
GRWS    .GAPI  : GAMMA RAY [GRSED SPL. TO GRNED @ 10658'] GRWS IN CSG. FROM 5023'-5078' ADDED 40 API
ILDED   .OHMM  : DEEP INDUCTIONRESISTIVITY FROM RESISTIVITY LOG
ILMED   .OHMM  : MEDIUM INDUCTIONRESISTIVITY FROM RESISTIVITY LOG
LL8ED   .OHMM  : 8 INCH LATEROLOG RESISTIVITY FROM RESISTIVITY LOG
MRESWS  .OHMM  : MEDIUM RESISTIVITY [ILMED]
NPOLSWS .V/V   : SIDEWALL NEUTRON POROSITY LIMESTONE [SNPLSED]
RHOBED  .G/C3  : FORMATION BULK DENSITY FROM DENSITY LOG [ADJ. TO RESISTIVITY LOG]
SNP1LSED.V/V   : SIDEWALL NEUTRON POROSITY FROM SNP LOG [ADJ. TO RESISTIVITY LOG]
SNPLSED .V/V   : SIDEWALL NEUTRON POROSITY LIMESTONE FROM SNP LOG [ADJ. TO RESISTIVITY LOG]
SPRED   .MV    : SPONTANEOUS POTENTIAL FROM RESISTIVITY LOG
SPWS    .MV    : SPONTANEOUS POTENTIAL  [BASELINE 0 MV. SPRED]
SRESWS  .OHMM  : SHALLOW RESISTIVITY [LL8ED]
~Params ----------------------------------------------------
PD  .                     GL : PERMANENT DATUM
EPD .FT                 2803 : ELEVATION PERMANENT DATUM
LMF .                     KB : LOG MEASURED FROM
DAPD.FT                   13 : FEET ABOVE PERMANENT DATUM
EKB .FT                 2816 : KELLY BUSHING
EGL .FT                 2803 : GROUND LEVEL
DATE.               07/14/71 : RUN DATE
RUN .                      2 : RUN NUMBER
DD  .FT                10687 : DEPTH DRILLER
DL  .FT                10692 : DEPTH LOGGER
BLI .FT                10686 : BOTTOM LOG INTERVAL
TLI .FT                 5078 : TOP LOG INTERVAL
CBD .FT                 5077 : CASING BOTTOM DRILLER
CBL .FT                 5078 : CASING BOTTOM LOGGER
BS  .IN                 8.75 : BIT SIZE
BSD .FT                10687 : BIT SIZE AT DEPTH
DFT .               GEL CHEM : DRILLING FLUID TYPE
DFD .                    9.8 : DRILLING FLUID DENSITY
DFV .                     80 : DRILLING FLUID VISCOSITY
DFPH.                     10 : DRILLING FLUID PH
DFL .                   10.2 : DRILLING FLUID LOSS
MSS .               FLOWLINE : MUD SAMPLE SOURCE
RMS .OHMM               2.12 : RESISTIVITY MUD SAMPLE
MST .DEGF                 76 : MUD SAMPLE TEMPERATURE
RMF .OHMM               1.66 : RESISTIVITY MUD FILTRATE SAMPLE
MFST.DEGF                 76 : MUD FILTRATE SAMPLE TEMPERATURE
RMB .OHMM               0.62 : RESISTIVITY MUD AT BHT
TCS .HRS                 3.5 : TIME CIRCULATED STOPPED
LUN .                   5628 : LOGGING UNIT NUMBER
LUL .                    EDM : LOGGING UNIT LOCATION
ENGI.                 HUTZAL : RECORDING ENGINEER
WITN.                   HERB : WITNESSED BY
CLNT.                A2DTECH : CLIENT CODE
ORIG.            2" 5" PRINT : ORIGIN OF DATA
UWI .       100060605514W500 : UNIQUE WELL ID
DICO. A2D Technologies, Inc. : DIGITIZING COMPANY
~Other -----------------------------------------------------
~ASCII -----------------------------------------------------
# ...
 6900.00000    9.74130    9.67360    9.54210    9.54210    -999.25   38.94170    0.14190    0.14190    2.71610    -999.25   -0.05120   -0.00360   25.67940   70.09580   70.09580   75.81220   73.45380   73.45380   25.67940   26.92550   36.19020   26.92550    0.15600    2.71610    -999.25    0.15600  -43.35370   -6.36200   36.19020
 6950.00000    9.49580    9.45360    8.96230    8.96230    -999.25   53.29350    0.06990    0.06990    2.61640    -999.25    0.01640    0.05470   18.76400   66.70470   66.70470   32.89870   30.07910   30.07910   18.76400   20.34840   21.80590   20.34840    0.08030    2.61640    -999.25    0.08030  -65.74600  -29.68350   21.80590
 7000.00000   10.37880   10.84430    9.56070    9.56070    -999.25   38.87220    0.19350    0.19350    2.50180    -999.25    0.07980    0.12180   25.72530   74.27790   74.27790   62.93920   67.42370   67.42370   25.72530   29.80750   44.29550   29.80750    0.19500    2.50180    -999.25    0.19500  -43.90270   -9.07780   44.29550
 7050.00000   10.40710   10.42810    9.84790    9.84790    -999.25   62.52030    0.13460    0.13460    2.68650    -999.25   -0.00270    0.01370   15.99480   77.43240   77.43240   91.42970   91.19410   91.19410   15.99480   17.96730   21.82690   17.96730    0.18570    2.68650    -999.25    0.18570  -44.20430  -10.61690   21.82690
 7100.00000   10.64670   10.80250    9.91330    9.91330    -999.25   77.02620    0.20440    0.20440    2.62340    0.02020    -999.25    0.05060   12.98260   71.45780   71.45780   71.39040   79.39650   79.39650   12.98260   13.79050   16.41150   13.79050    0.17780    2.62340    0.06710    0.17780  -47.46620  -15.12460   16.41150
 7150.00000   13.70730   13.76140   11.15250   11.15250    -999.25  122.19710    0.23730    0.23730    2.19420    0.29880    -999.25    0.30160    8.18350   90.94090   90.94090   77.82520   76.26790   76.26790    8.18350    8.86270   11.46230    8.86270    0.30000    2.19420    0.30030    0.30000  -35.72910   -4.62500   11.46230
 7200.00000    8.76790    8.58400    8.35660    8.35660    -999.25   80.40460    0.06550    0.06550    2.45860    0.14010    -999.25    0.14700   12.43710   63.35190   63.35190   26.45630   27.76030   27.76030   12.43710   21.57220   89.56430   21.57220    0.13620    2.45860    0.01960    0.13620 -143.32560 -109.97250   89.56430
 7250.00000    8.84140    8.90060    8.66210    8.66210    -999.25    2.66260    0.06790    0.06790    2.68360    0.01000    -999.25    0.01540  375.56600   55.35900   55.35900   12.54750   14.80510   14.80510  375.56600 1751.08070 1443.69460 1751.08070    0.02800    2.68360   -0.09100    0.02800  -54.44220  -20.48240 1443.69460
 7300.00000    8.94820    9.02200    8.74970    8.74970    -999.25    0.96760    0.08090    0.08090    2.66340    0.02150    -999.25    0.02730 1033.47190   57.28780   57.28780   25.67990   22.99990   22.99990 1033.47190 1701.63790  898.35760 1701.63790    0.04350    2.66340   -0.07400    0.04350  -41.35550  -14.50180  898.35760
 7350.00000    9.46330    9.70740    9.21340    9.21340    -999.25   13.55540    0.02560    0.02560    2.68110    0.00820    -999.25    0.01690   73.77110   50.27530   50.27530  115.65260  115.73350  115.73350   73.77110   79.26550  131.65590   79.26550    0.03110    2.68110   -0.07940    0.03110  -55.14760  -28.70820  131.65590
 7400.00000    9.55320    9.69920    9.06150    9.06150    -999.25   24.47170    0.03620    0.03620    2.77740   -0.03990    -999.25   -0.03940   40.86360   54.97200   54.97200   65.55960   64.25410   64.25410   40.86360   42.36600   66.33950   42.36600    0.03840    2.77740   -0.07920    0.03840  -36.31100   -5.25460   66.33950
 7450.00000   12.34100   12.48120    9.91210    9.91210    -999.25    2.19340    0.23520    0.23520    2.73050   -0.00890    -999.25   -0.01200  455.91580   51.97470   51.97470   14.93810   12.97250   12.97250  455.91580 1426.35330  495.48600 1426.35330    0.02180    2.73050   -0.09790    0.02180 -126.27230  -93.07860  495.48600
 7500.00000    9.05000   10.79680    9.58920    9.58920    -999.25  123.46290    0.05630    0.05630    2.76460   -0.03780    -999.25   -0.03190    8.09960   59.31840   59.31840   48.59450   55.33510   55.33510    8.09960    8.73660   11.70430    8.73660    0.12400    2.76460    0.00790    0.12400  -76.47840  -41.16150   11.70430
 7550.00000    9.02960    9.21420    8.96870    8.96870    -999.25  130.70020    0.06080    0.06080    2.77460   -0.04390    -999.25   -0.03780    7.65110   59.71820   59.71820   61.88220   61.92960   61.92960    7.65110    9.92840   14.75150    9.92840    0.05220    2.77460   -0.06270    0.05220  -67.87910  -30.75770   14.75150
 7600.00000    8.95790    9.13540    8.79800    8.79800    -999.25   42.74290    0.02310    0.02310    2.74040   -0.01410    -999.25   -0.01780   23.39570   54.12850   54.12850   45.20460   48.38450   48.38450   23.39570   31.34980   52.15960   31.34980    0.02890    2.74040   -0.08790    0.02890  -61.82250  -23.64770   52.15960
 7650.00000    9.14710    9.27160    9.06830    9.06830    -999.25  122.30020    0.01770    0.01770    2.75900   -0.02870    -999.25   -0.02870    8.17660   56.38930   56.38930   38.35750   42.92120   42.92120    8.17660   10.87770   22.72780   10.87770    0.05840    2.75900   -0.05510    0.05840  -60.01490  -20.79360   22.72780
 7700.00000    9.13000    9.07690    8.90760    8.90760    -999.25   15.37060    0.05000    0.05000    2.80930   -0.05700    -999.25   -0.05810   65.05940   53.92020   53.92020   31.21140   27.28670   27.28670   65.05940   78.49320  105.79710   78.49320    0.03190    2.80930   -0.08580    0.03190  -63.96700  -25.81380  105.79710
 7750.00000    9.38680    9.24980    9.02930    9.02930    -999.25    2.40860    0.03110    0.03110    2.68350    0.01280    -999.25    0.01550  415.18290   54.53870   54.53870    7.92170   11.46760   11.46760  415.18290 1653.45130 1197.85940 1653.45130    0.04010    2.68350   -0.07990    0.04010 -116.23820  -80.97080 1197.85940
 7800.00000    8.96690    9.01240    8.76760    8.76760    -999.25   41.21280    0.06640    0.06640    2.82120   -0.06330    -999.25   -0.06500   24.26430   55.52880   55.52880   35.97260   36.40310   36.40310   24.26430   33.70880   47.98590   33.70880    0.02830    2.82120   -0.08770    0.02830  -56.98180  -24.60030   47.98590
 7850.00000    9.00990    9.18520    8.86840    8.86840    -999.25   20.57490    0.04700    0.04700    2.75600   -0.02830    -999.25   -0.02690   48.60290   54.81740   54.81740   30.05410   31.42130   31.42130   48.60290   58.52900   67.67200   58.52900    0.02680    2.75600   -0.09100    0.02680  -32.26780   -3.51080   67.67200
 7900.00000    9.04860    9.24460    9.04370    9.04370    -999.25   27.76100    0.04380    0.04380    2.76390   -0.03370    -999.25   -0.03150   36.02180   56.77140   56.77140   35.44600   34.55390   34.55390   36.02180   47.84740   63.04950   47.84740    0.03390    2.76390   -0.08240    0.03390  -28.88910   -4.36850   63.04950
 7950.00000    9.02410    9.19480    9.01320    9.01320    -999.25   32.54740    0.05660    0.05660    2.78030   -0.04180    -999.25   -0.04110   30.72440   56.80460   56.80460   36.95320   38.62820   38.62820   30.72440   34.50930   47.57890   34.50930    0.03800    2.78030   -0.08080    0.03800  -32.20150   -5.43980   47.57890
 8000.00000    9.01410    9.13300    8.81210    8.81210    -999.25    3.11600    0.03180    0.03180    2.74540   -0.02230    -999.25   -0.02070  320.92490   53.66140   53.66140   33.95190   32.09650   32.09650  320.92490 1216.86060  931.55340 1216.86060    0.02060    2.74540   -0.09710    0.02060  -47.51110  -19.79930  931.55340
 8050.00000   11.28080   11.39050    9.51000    9.51000    -999.25    2.20890    0.23070    0.23070    2.60030    0.06560    -999.25    0.06420  452.72070   49.84780   49.84780   11.33190   14.08890   14.08890  452.72070 1692.94530 1435.24300 1692.94530    0.06160    2.60030   -0.05610    0.06160  -65.67210  -38.60680 1435.24300
 8100.00000   10.97350   10.95360    9.76790    9.76790    -999.25    0.65410    0.23690    0.23690    2.65700    0.02920    -999.25    0.03100 1528.78020   49.53760   49.53760   12.91830   13.29380   13.29380 1528.78020 1708.80430 1416.21300 1708.80430    0.04000    2.65700   -0.07830    0.04000 -108.80710  -82.39270 1416.21300
