~Version ---------------------------------------------------
VERS.      2.0 : CWLS log ASCII Standard -VERSION 2.0
WRAP.       NO : One line per depth step
CREA. 10/01/14 : LAS Creation Date
~Well ------------------------------------------------------
STRT.FT                                  935.9 : START DEPTH
STOP.FT                                 9375.9 : STOP DEPTH
STEP.FT                                0.50000 : STEP LENGTH
NULL.                                  -999.25 : NULL VALUE
COMP. THE BRITISH AMERICAN OIL COMPANY LIMITED : COMPANY
WELL.        B.A. EAST GOOSE RIVER 10-22-66-15 : WELL
FLD .                                          : FIELD
LOC .                                          : LOCATION
CTRY.                                   CANADA : COUNTRY
SRVC.                   Schlumberger of Canada : SERVICE COMPANY
DATE.                              16-Mar-1960 : LOGDATE
PROV.                                  Alberta : PROVINCE
UWI .                         100102206615W500 : UNIQUE WELL ID
SLAT.WGS84                            54.72873 : SURFACE LATITUDE
SLON.WGS84                           -116.1771 : SURFACE LONGITUDE
~Curve Information -----------------------------------------
DEPT.FT      : DEPTH FEET
CILD.MMHO    : CONDUCTIVITY FROM RESISTIVITY LOG
DT  .US/F    : DELTA-T FROM SONIC LOG
GRS .MG/TON  : GAMMA RAY FROM SONIC LOG
ILD .OHMM    : DEEP INDUCTION FROM RESISTIVITY LOG
MCAL.IN      : MLT CALIPER FROM MICRO LOG
SN  .OHMM    : SHORT NORMAL FROM RESISTIVITY LOG
SPR .MV      : SPONTANEOUS POTENTIAL FROM RESISTIVITY LOG
~Params ----------------------------------------------------
LMF .                     KB : LOG MEASURED FROM
DMF .                     KB : DRILLING MEASURED FROM
EKB .FT                 3222 : KELLY BUSHING
EGL .FT                 3205 : GROUND LEVEL
DATE.               03/16/60 : RUN DATE
RUN .                      2 : RUN NUMBER
DD  .FT                 9370 : DEPTH DRILLER
DL  .FT                 9378 : DEPTH LOGGER
BLI .FT                 9373 : BOTTOM LOG INTERVAL
TLI .FT                 5000 : TOP LOG INTERVAL
CBD .FT                  975 : CASING BOTTOM DRILLER
BS  .IN                    9 : BIT SIZE
BSD .FT                 9370 : BIT SIZE AT DEPTH
DFT .                    GEL : DRILLING FLUID TYPE
DFD .                     10 : DRILLING FLUID DENSITY
DFV .                    120 : DRILLING FLUID VISCOSITY
DFPH.                     10 : DRILLING FLUID PH
DFL .                    6.2 : DRILLING FLUID LOSS
RMS .OHMM                2.8 : RESISTIVITY MUD SAMPLE
MST .DEGF                 59 : MUD SAMPLE TEMPERATURE
RMF .OHMM               1.41 : RESISTIVITY MUD FILTRATE SAMPLE
MFST.DEGF                 68 : MUD FILTRATE SAMPLE TEMPERATURE
RMC .OHMM               2.56 : RESISTIVITY MUD CAKE
MCST.DEGF                 67 : MUD CAKE SAMPLE TEMPERATURE
RMB .OHMM               0.94 : RESISTIVITY MUD AT BHT
TCS .HRS                 4.5 : TIME CIRCULATED STOPPED
LUN .                  1573C : LOGGING UNIT NUMBER
LUL .                     WC : LOGGING UNIT LOCATION
ENGI.              HAUSEGGER : RECORDING ENGINEER
WITN.                   COTE : WITNESSED BY
CLNT.                A2DTECH : CLIENT CODE
ORIG.            2" 5" PRINT : ORIGIN OF DATA
UWI .       100102206615W500 : UNIQUE WELL ID
DICO. A2D Technologies, Inc. : DIGITIZING COMPANY
~Other -----------------------------------------------------
~ASCII -----------------------------------------------------
# ...
 2645.90000  220.76680  108.94920    3.41800    4.46000   10.03800    4.77340  -42.56100
 2646.40000  221.52940  107.52860    3.49580    4.44020   10.01840    4.76370  -42.54190
 2646.90000  222.94370  108.42850    3.63500    4.38100   10.19000    4.73450  -42.36320
 2647.40000  224.71050  111.59650    3.53080    4.36210   10.23230    4.72380  -42.32880
 2647.90000  225.68270  115.32740    3.38660    4.32160   10.29160    4.66980  -42.22360
 2648.40000  226.08110  114.21090    3.40650    4.31080   10.28310    4.64800  -42.22500
 2648.90000  227.63590  113.91250    3.60680    4.23100   10.19440    4.58290  -42.22910
 2649.40000  228.43920  114.90950    3.70300    4.19580   10.17390    4.54710  -42.23040
 2649.90000  233.03680  117.08670    3.90870    4.10360   10.11870    4.38090  -42.23460
 2650.40000  235.81960  115.06400    3.86320    4.08320   10.11000    4.30980  -42.20790
 2650.90000  244.29230  112.29280    3.63320    4.02210   10.16440    4.08920  -42.02850
 2651.40000  247.06260  112.56540    3.49420    4.00170   10.17910    4.01450  -41.97430
 2651.90000  255.67260  115.47200    3.38510    3.94050   10.15610    3.79030  -41.84050
 2652.40000  259.09660  115.22080    3.42310    3.92000   10.16030    3.71550  -41.63860
 2652.90000  268.94360  114.23810    3.52180    3.85060   10.17410    3.53220  -41.29840
 2653.40000  274.82600  118.48890    3.51500    3.80160   10.24630    3.51570  -41.21070
 2653.90000  279.46880  120.41970    3.50350    3.75270   10.26740    3.49930  -40.92820
 2654.40000  283.09530  121.70770    3.48000    3.70370   10.20980    3.48280  -40.82560
 2654.90000  285.97150  121.29280    3.58950    3.67790   10.20960    3.48140  -40.93560
 2655.40000  288.17320  121.33500    3.66890    3.67790   10.22300    3.48140  -40.95770
 2655.90000  289.49040  122.15840    3.54070    3.68750   10.31160    3.49400  -40.96750
 2656.40000  289.56270  120.42410    3.31070    3.71550   10.35950    3.51980  -40.96750
 2656.90000  287.01950  118.85980    3.33060    3.70800   10.31690    3.55870  -40.96750
 2657.40000  282.53630  116.20360    3.49620    3.68570   10.30090    3.74340  -40.96750
 2657.90000  279.42740  115.20540    3.57830    3.68980   10.34260    3.81630  -41.00570
 2658.40000  269.53740  112.56180    3.55640    3.76140   10.48320    4.08130  -41.06670
 2658.90000  264.91480  112.91600    3.49870    3.88010   10.50820    4.19860  -41.09650
 2659.40000  250.90890  113.90140    3.53810    4.23590   10.55330    4.55040  -41.13960
 2659.90000  245.00790  114.33380    3.62190    4.34800   10.52890    4.66770  -41.17930
 2660.40000  227.03670  117.32870    3.79830    4.66630   10.63460    5.01960  -41.31580
 2660.90000  219.27670  118.30370    3.81190    4.76940   10.63690    5.11990  -41.26810
 2661.40000  201.48740  121.98600    3.76890    5.06720   10.18010    5.39150  -41.15190
 2661.90000  196.79500  120.91180    3.76870    5.16160   10.08400    5.47710  -41.14680
 2662.40000  186.17260  113.42140    3.75350    5.44500    9.93390    5.64010  -41.05630
 2662.90000  184.27910  111.22050    3.74280    5.53940    9.89120    5.69690  -40.99060
 2663.40000  179.46260  107.30900    3.66700    5.61840    9.51180    5.86710  -40.77590
 2663.90000  181.57980  104.36320    3.40750    5.46350    9.37460    5.79370  -40.90130
 2664.40000  185.11690   94.11030    3.21570    5.24920    9.71570    5.56490  -40.89420
 2664.90000  192.77090   95.15020    3.08850    5.01440   10.01200    5.33600  -41.14600
 2665.40000  200.62620  100.61340    3.05720    4.82640   10.52420    5.11990  -41.14400
 2665.90000  208.12060  103.33760    2.94010    4.73520   10.44810    5.02990  -41.14210
 2666.40000  213.27040  104.44100    3.19970    4.65860   11.21520    4.93980  -41.14020
 2666.90000  216.92630  107.69790    3.53730    4.60280   12.56320    4.84970  -41.13820
 2667.40000  218.64560  112.38940    3.63650    4.57490   12.61380    4.80460  -41.12840
 2667.90000  220.09360  119.05130    3.71940    4.48650   11.31490    4.68680  -41.09200
 2668.40000  220.68770  118.49650    3.68140    4.45040   10.99660    4.66480  -41.09650
 2668.90000  223.95440  115.98950    3.53430    4.34210   10.61040    4.59910  -41.02540
 2669.40000  225.80450  115.40980    3.52710    4.30370   11.30970    4.56930  -41.03190
 2669.90000  232.63020  112.04520    3.58170    4.17540   12.67500    4.47900  -41.45940
 2670.40000  235.20600  111.16010    3.53470    4.14480   12.24100    4.44880  -41.33890
 2670.90000  241.39680  110.33200    3.38540    4.09120   11.50880    4.35810  -40.98090
 2671.40000  242.90670  112.10550    3.43560    4.07970   11.28530    4.32790  -40.97760
 2671.90000  247.43640  116.86060    3.63130    4.04530   11.41620    4.26860  -41.02930
 2672.40000  248.89950  117.78640    3.69020    4.03390   11.66360    4.26150  -41.06500
 2672.90000  251.81480  118.40350    3.56830    3.99950   12.13840    4.24030  -41.07820
 2673.40000  252.32500  118.98220    3.52980    3.99360   11.77960    4.23330  -41.00690
 2673.90000  252.44290  118.55690    3.40810    4.00180   10.82240    4.24670  -40.83990
 2674.40000  251.16380  116.66360    3.34420    4.01590   10.97670    4.27010  -40.81110
 2674.90000  250.10420  115.64590    3.45040    4.03010   11.06040    4.29340  -40.94300
 2675.40000  248.64680  116.94580    3.54710    4.04430   11.53830    4.31680  -40.92790
 2675.90000  245.35640  116.74020    3.60900    4.05850   11.60700    4.34010  -40.90040
 2676.40000  244.35460  116.87070    3.62280    4.07400   11.04960    4.36350  -40.93640
 2676.90000  241.76970  116.84600    3.63970    4.09800   11.05610    4.38690  -40.96750
 2677.40000  240.15040  115.35140    3.66570    4.12200   10.91940    4.41020  -40.94150
 2677.90000  239.53900  115.15650    3.64750    4.13410   10.82950    4.42190  -40.89950
 2678.40000  239.50400  112.74480    3.56990    4.17010   11.46090    4.45270  -40.81160
 2678.90000  239.40460  112.43240    3.59160    4.18210   11.32640    4.46190  -40.88830
 2679.40000  239.57160  113.94810    3.59850    4.21810   10.85470    4.48920  -41.13810
 2679.90000  239.15240  114.64990    3.50890    4.23010   11.09980    4.49840  -41.09650
 2680.40000  237.87300  116.78700    3.52030    4.28900   10.63230    4.52570  -40.96750
 2680.90000  237.16010  116.67790    3.65340    4.31410   10.87660    4.53510  -40.96750
 2681.40000  234.99050  117.51750    3.98890    4.38950   10.96630    4.63930  -40.96750
 2681.90000  233.25000  116.88420    4.00600    4.41470   11.06830    4.68660  -41.00950
 2682.40000  227.66190  112.16190    3.93870    4.48780   11.60050    4.82860  -41.12700
 2682.90000  225.42290  112.61050    3.88420    4.51080   11.50970    4.87590  -41.12810
 2683.40000  219.04600  112.28250    3.76320    4.57980   10.88080    4.97090  -40.98360
 2683.90000  217.99840  111.58490    3.69740    4.60280   10.86600    4.97290  -40.87290
 2684.40000  215.51430  112.59300    3.41880    4.67170   10.70760    4.97900  -40.78730
 2684.90000  214.21930  117.49160    3.35060    4.71110   10.63030    4.98300  -40.96750
 2685.40000  212.03080  115.83140    3.30680    4.74870   10.57140    4.98700  -40.96750
 2685.90000  211.02160  112.45710    3.22550    4.72100   10.17750    4.98710  -40.96750
 2686.40000  213.29440  107.13840    3.07740    4.65820    9.99820    4.91760  -40.96390
 2686.90000  218.33730  105.51710    2.98930    4.50360   10.06920    4.76280  -40.95810
 2687.40000  225.75450  106.91250    3.04230    4.34890   10.20090    4.60810  -40.87800
 2687.90000  231.17410  105.50080    3.14990    4.24520   10.42650    4.55070  -40.75320
 2688.40000  234.09580  107.18890    3.26860    4.24520   10.39210    4.55990  -40.78360
 2688.90000  234.93300  112.82140    3.59090    4.24580   10.44770    4.62660  -40.70370
 2689.40000  234.35250  112.86710    3.63000    4.27820   10.47250    4.65270  -40.76440
 2689.90000  231.69220  114.71800    3.88510    4.37550   10.56710    4.72960  -39.91830
 2690.40000  230.91660  114.69050    3.95120    4.40790   10.61890    4.75500  -40.38130
