~Version ---------------------------------------------------
VERS.      2.0 : CWLS log ASCII Standard -VERSION 2.0
WRAP.       NO : One line per depth step
CREA. 11/22/17 : LAS Creation Date
~Well ------------------------------------------------------
STRT.FT                       1150.0 : START DEPTH
STOP.FT                      11000.0 : STOP DEPTH
STEP.FT                     50.00000 : STEP LENGTH
NULL.                        -999.25 : NULL VALUE
COMP.         PACIFIC PETROLEUMS LTD : COMPANY
WELL. PACIFIC PAN AM TONY 10-9-63-21 : WELL
FLD .                                : FIELD
LOC .                                : LOCATION
CTRY.                         CANADA : COUNTRY
SRVC.             LANE-WELLS COMPANY : SERVICE COMPANY
DATE.                    20-Jan-1968 : LOGDATE
PROV.                        Alberta : PROVINCE
UWI .               100100906321W500 : UNIQUE WELL ID
SLAT.WGS84                  54.43786 : SURFACE LATITUDE
SLON.WGS84                 -117.1097 : SURFACE LONGITUDE
~Curve Information -----------------------------------------
DEPT  .FT    : Depth Curve
CALWS .IN    : CALIPER [MCALED]
CILDED.MMHO  : DEEP INDUCTION CONDUCTIVITY FROM RESISTIVITY LOG
CONDWS.MMHO  : CONDUCTIVITY [1000/DRESWS]
DRESWS.OHMM  : DEEP RESISTIVITY [1000/CILDED,IF ILDED<2,ILDED]
DTED  .US/F  : DELTA-T FROM SONIC LOG
DTWS  .US/F  : COMPRESSIONAL SONIC [DTED]
GRSED .GAPI  : GAMMA RAY FROM SONIC LOG
GRWS  .GAPI  : GAMMA RAY [GRSED]
ILDED .OHMM  : DEEP INDUCTION RESISTIVITY FROM RESISTIVITY LOG
MCALED.IN    : MICRO CALIPER  FROM MINI LOG
SNED  .OHMM  : 16 INCH  SHORT NORMAL FROM RESISTIVITY LOG
SPRED .MV    : SPONTANEOUS POTENTIAL FROM RESISTIVITY LOG
SPWS  .MV    : SPONTANEOUS POTENTIAL [BASELINE 0 MV,SPRED]
SRESWS.OHMM  : SHALLOW RESISTIVITY [SNED]
~Params ----------------------------------------------------
PD  .                     GL : PERMANENT DATUM
EPD .FT                 2637 : ELEVATION PERMANENT DATUM
LMF .                     KB : LOG MEASURED FROM
DAPD.FT                   15 : FEET ABOVE PERMANENT DATUM
DMF .                     KB : DRILLING MEASURED FROM
EKB .FT                 2652 : KELLY BUSHING
EGL .FT                 2637 : GROUND LEVEL
DATE.               01/20/68 : RUN DATE
RUN .                      1 : RUN NUMBER
DD  .FT                11040 : DEPTH DRILLER
DL  .FT                11036 : DEPTH LOGGER
BLI .FT                11032 : BOTTOM LOG INTERVAL
TLI .FT                 1126 : TOP LOG INTERVAL
CS  .IN               13.375 : CASING SIZE
CBD .FT                 1125 : CASING BOTTOM DRILLER
CBL .FT                 1126 : CASING BOTTOM LOGGER
BS  .IN                 8.75 : BIT SIZE
BSD .FT                11040 : BIT SIZE AT DEPTH
DFT .                MUD GEL : DRILLING FLUID TYPE
DFD .                    9.3 : DRILLING FLUID DENSITY
DFV .                     95 : DRILLING FLUID VISCOSITY
DFPH.                     10 : DRILLING FLUID PH
DFL .                      8 : DRILLING FLUID LOSS
MSS .                   CIRC : MUD SAMPLE SOURCE
RMS .OHMM                1.5 : RESISTIVITY MUD SAMPLE
MST .DEGF                 62 : MUD SAMPLE TEMPERATURE
RMF .OHMM                1.4 : RESISTIVITY MUD FILTRATE SAMPLE
MFST.DEGF                 62 : MUD FILTRATE SAMPLE TEMPERATURE
RMC .OHMM                1.6 : RESISTIVITY MUD CAKE
MCST.DEGF                 62 : MUD CAKE SAMPLE TEMPERATURE
MFSS.                   MEAS : MUD FILTRATE SAMPLE SOURCE
MCSS.                   MEAS : MUD CAKE SAMPLE SOURCE
RMB .OHMM                0.4 : RESISTIVITY MUD AT BHT
TCS .HRS                   4 : TIME CIRCULATED STOPPED
LUN .                   1255 : LOGGING UNIT NUMBER
LUL .                     RD : LOGGING UNIT LOCATION
ENGI.                DOMSTAD : RECORDING ENGINEER
WITN.                HEUSDEN : WITNESSED BY
CLNT.                A2DTECH : CLIENT CODE
ORIG.            2" 5" PRINT : ORIGIN OF DATA
UWI .       100100906321W500 : UNIQUE WELL ID
DICO. A2D Technologies, Inc. : DIGITIZING COMPANY
~Other -----------------------------------------------------
~ASCII -----------------------------------------------------
# ...
 6050.00000   11.44320   65.05440   57.61100   17.35780   79.48150   79.48150   40.45820   40.45820   17.35780   11.44320   26.15670 -108.68240  -32.25000   26.15670
 6100.00000   12.38510   66.61390   58.47950   17.10000  185.81530  185.81530   54.80280   54.80280   17.10000   12.38510   19.09210 -101.91830  -25.95340   19.09210
 6150.00000   10.70320   98.49820   91.82740   10.89000   73.46490   73.46490   47.54160   47.54160   10.89000   10.70320   16.21350 -110.58770  -35.09030   16.21350
 6200.00000   10.78580   88.34250   82.23480   12.16030   76.59670   76.59670   77.06100   77.06100   12.16030   10.78580   17.29130 -101.20330  -26.17340   17.29130
 6250.00000   10.77390  114.89700  101.69220    9.83360   76.14200   76.14200   83.01640   83.01640    9.83360   10.77390   12.27030  -99.24410  -24.68170   12.27030
 6300.00000   10.86520  104.10180   94.24270   10.61090   79.54500   79.54500   78.31100   78.31100   10.61090   10.86520   14.13690 -105.00940  -30.91450   14.13690
 6350.00000   11.86150   83.56020   73.22900   13.65580   60.80970   60.80970   70.17850   70.17850   13.65580   11.86150   25.47940 -106.47220  -32.84470   25.47940
 6400.00000   10.67500   55.21800   46.61770   21.45110   70.42950   70.42950   64.05670   64.05670   21.45110   10.67500   27.43060 -107.68250  -34.52250   27.43060
 6450.00000   10.66610   47.54310   42.77230   23.37960   69.63900   69.63900   62.43230   62.43230   23.37960   10.66610   25.68840 -109.41070  -36.71820   25.68840
 6500.00000   12.99550   84.41600   78.49790   12.73920   76.91280   76.91280   66.24450   66.24450   12.73920   12.99550   15.93160 -108.55060  -36.32560   15.93160
 6550.00000    9.97530   87.52530   79.88500   12.51800   71.76540   71.76540   31.26370   31.26370   12.51800    9.97530   24.25470 -151.02040  -79.26290   24.25470
 6600.00000   10.46330   87.40170   81.27440   12.30400   69.73380   69.73380   87.66190   87.66190   12.30400   10.46330   16.50470 -110.01700  -38.72700   16.50470
 6650.00000   10.85430   70.67890   64.04060   15.61510   77.50790   77.50790   27.15600   27.15600   15.61510   10.85430   21.95960 -139.75020  -68.92770   21.95960
 6700.00000   12.26290  239.88140  223.72370    4.46980   89.44390   89.44390   77.13990   77.13990    4.46980   12.26290    5.79430 -103.97350  -33.61850    5.79430
 6750.00000   10.06910   22.96030   15.51680   64.44620   84.11900   84.11900  164.23620  164.23620   64.44620   10.06910   81.76160 -110.12830  -40.24080   81.76160
 6800.00000    9.89280   27.40200   21.99170   45.47180   64.09040   64.09040  191.20600  191.20600   45.47180    9.89280   72.00150 -116.33520  -46.91520   72.00150
 6850.00000    9.88720  108.32280   95.23900   10.49990   64.86960   64.86960   69.53490   69.53490   10.49990    9.88720   15.79010 -119.82890  -50.87640   15.79010
 6900.00000    9.96430   58.50290   54.08910   18.48800   62.93510   62.93510   70.26680   70.26680   18.48800    9.96430   22.11600 -116.42620  -47.94120   22.11600
 6950.00000    9.99800   39.84600   33.22780   30.09530   60.72070   60.72070   71.27430   71.27430   30.09530    9.99800   34.13140 -113.22030  -45.20280   34.13140
 7000.00000    9.98440   40.31300   35.04640   28.53360   63.06550   63.06550   89.96260   89.96260   28.53360    9.98440   32.61900 -110.55390  -43.00390   32.61900
 7050.00000    9.94280   37.03840   31.29050   31.95860   62.95920   62.95920   86.60240   86.60240   31.95860    9.94280   37.46070 -112.43290  -45.35040   37.46070
 7100.00000    9.94750   32.95310   27.35640   36.55450   63.36080   63.36080   85.95880   85.95880   36.55450    9.94750   38.88270 -105.62880  -39.01380   38.88270
 7150.00000   10.10280   26.11810   19.94670   50.13370   52.47890   52.47890   23.33420   23.33420   50.13370   10.10280   47.99690 -172.53220 -106.38460   47.99690
 7200.00000    9.53650   34.23100   29.03310   34.44350   50.37770   50.37770   26.12020   26.12020   34.44350    9.53650   68.82510 -213.06460 -147.38450   68.82510
 7250.00000   11.52900    6.72590    2.78920  358.52690   53.74290   53.74290   44.03690   44.03690  358.52690   11.52900  107.62690 -187.84750 -122.63490  107.62690
 7300.00000    9.64620   33.56150   27.77130   36.00840   49.96300   49.96300   26.91520   26.91520   36.00840    9.64620   56.70220 -216.96270 -152.21760   56.70220
 7350.00000    9.84630   10.83730    4.48210  223.10880   52.92620   52.92620   22.84160   22.84160  223.10880    9.84630   98.59250 -149.41700  -85.13940   98.59250
 7400.00000   10.92560   12.21070    7.10540  140.73850   53.75930   53.75930   61.63950   61.63950  140.73850   10.92560   81.54480 -105.72630  -41.91620   81.54480
 7450.00000   10.83370  111.01620  104.16340    9.60030   61.49270   61.49270   35.94840   35.94840    9.60030   10.83370   19.91510 -170.61430 -107.27170   19.91510
 7500.00000   10.00350   56.95110   51.87830   19.27590   53.27420   53.27420   38.90110   38.90110   19.27590   10.00350   35.77240 -170.84900 -107.97390   35.77240
 7550.00000   10.01690   55.91730   48.50700   20.61560   53.27370   53.27370   37.66410   37.66410   20.61560   10.01690   42.19430 -159.09940  -96.69180   42.19430
 7600.00000   10.73480   26.25950   24.53400   40.75970   54.56050   54.56050   27.68970   27.68970   40.75970   10.73480   57.64760 -123.49240  -61.55230   57.64760
 7650.00000   10.21070   32.26210   20.35910   49.11800   55.79720   55.79720   15.58250   15.58250   49.11800   10.21070   46.86270 -170.60940 -109.13680   46.86270
 7700.00000   10.22460   19.27110   15.41760   64.86100   51.64680   51.64680   15.72770   15.72770   64.86100   10.22460   74.55740 -192.00360 -130.99850   74.55740
 7750.00000   10.84980   11.32170    4.74000  210.97110   52.84340   52.84340   21.39630   21.39630  210.97110   10.84980   72.79340 -128.52310  -67.98550   72.79340
 7800.00000    9.93610  208.22780  190.98910    5.23590   65.69290   65.69290   70.78570   70.78570    5.23590    9.93610    9.21200  -92.03920  -32.32090    9.21200
 7850.00000    9.93550   89.79020   81.57470   12.25870   67.17250   67.17250   57.32170   57.32170   12.25870    9.93550   18.67270  -60.84020   -2.33780   18.67270
 7900.00000   10.31760   46.05890   41.88130   23.87700   60.12500   60.12500   65.77140   65.77140   23.87700   10.31760   31.98850  -84.93870  -27.65230   31.98850
 7950.00000   10.94200   16.33740    8.61850  116.02900   58.94640   58.94640   44.52040   44.52040  116.02900   10.94200   68.36330 -107.89080  -51.82040   68.36330
 8000.00000    9.32490   42.98440   39.18390   25.52070   56.62620   56.62620   15.48030   15.48030   25.52070    9.32490   69.88590 -222.55390 -167.69950   69.88590
 8050.00000   10.05870   26.97670   20.82370   48.02210   54.42770   54.42770   14.63570   14.63570   48.02210   10.05870   68.71640 -238.12030 -184.48180   68.71640
 8100.00000    9.70780   15.49890   10.23810   97.67470   54.43050   54.43050   34.46420   34.46420   97.67470    9.70780   87.55260 -122.38540  -69.96290   87.55260
 8150.00000    9.67440   10.58130    4.08460  244.82060   55.37610   55.37610   39.05170   39.05170  244.82060    9.67440  117.04770  -84.92850  -33.72200  117.04770
 8200.00000    9.69500   15.97000   11.63010   85.98400   58.19990   58.19990   57.42590   57.42590   85.98400    9.69500   59.40890  -64.84390  -14.85340   59.40890
 8250.00000    9.68690    8.16920    2.98140  335.41050   54.35800   54.35800   28.38170   28.38170  335.41050    9.68690  153.14210  -75.35170  -26.57710  153.14210
 8300.00000    9.69190   18.63250   14.28010   70.02770   57.48640   57.48640   59.14830   59.14830   70.02770    9.69190   64.46080  -50.01640   -2.21770   64.46080
 8350.00000    9.81130   20.48170   20.36020   49.11550   53.54730   53.54730   26.47530   26.47530   49.11550    9.81130   48.48290  -87.02270  -39.34870   48.48290
 8400.00000   10.39310   10.34300    5.66040  176.66700   51.30430   51.30430   36.03300   36.03300  176.66700   10.39310  121.27240  -79.74680  -32.19750  121.27240
 8450.00000   10.46990   10.04260    3.85900  259.13200   50.49670   50.49670   18.58410   18.58410  259.13200   10.46990   97.02690 -135.07750  -87.65290   97.02690
