~Version ---------------------------------------------------
VERS.      2.0 : CWLS log ASCII Standard -VERSION 2.0
WRAP.       NO : One line per depth step
CREA. 08/31/17 : LAS Creation Date
~Well ------------------------------------------------------
STRT.FT                            1200.0 : START DEPTH
STOP.FT                           11900.0 : STOP DEPTH
STEP.FT                          50.00000 : STEP LENGTH
NULL.                             -999.25 : NULL VALUE
COMP.                THE PURE OIL COMPANY : COMPANY
WELL. PURE AMERADA ANTE CREEK 12-17-66-26 : WELL
FLD .                                     : FIELD
LOC .                                     : LOCATION
CTRY.                              CANADA : COUNTRY
SRVC.              Schlumberger of Canada : SERVICE COMPANY
DATE.                         16-Mar-1961 : LOGDATE
PROV.                             Alberta : PROVINCE
UWI .                    100121706626W500 : UNIQUE WELL ID
SLAT.WGS84                       54.71423 : SURFACE LATITUDE
SLON.WGS84                      -117.9041 : SURFACE LONGITUDE
~Curve Information -----------------------------------------
DEPT  .FT         : Depth Curve
CALWS .IN         : CALIPER [MCALED]
CILDED.MMHO       : DEEP CONDUCTIVITY INDUCTION FROM IEL LOG
CONDWS.MMHO       : CONDUCTIVITY [1000/DRESWS]
DRESWS.OHMM       : DEEP RESISTIVITY [ILDED]
DTED  .US/F       : ACOUSTIC TRANSIT TIME SLOWNESS, DELTA T FROM BCS LOG [ADJ. TO NEUTED]
DTWS  .US/F       : COMPRESSIONAL SONIC [DTED]
GRNED .UgRa-Eq/T  : GAMMA RAY NEUTRON FROM GRN LOG
GRSED .UgRa-Eq/T  : GAMMA RAY FROM BCS LOG [ADJ. TO GRNED]
GRWS  .GAPI       : GAMMA RAY [GRSED SPL. TO GRNED @ 8833', GRWS*16.50]
ILDED .OHMM       : DEEP INDUCTION RESISTIVITY FROM IEL LOG
MCALED.IN         : MLT MICROLOG CALIPER FROM ML LOG
NEUTED.NAPI       : NEUTRON FROM GRN LOG
NEUTWS.NAPI       : NEUTRON [NEUTED]
SNED  .OHMM       : SHORT NORMAL FROM IEL LOG
SPRED .MV         : SPONTANEOUS POTENTIAL FROM IEL LOG
SPWS  .MV         : SPONTANEOUS POTENTIAL [BASELINED 0 MV, SPRED]
SRESWS.OHMM       : SHALLOW RESISTIVITY [SNED]
~Params ----------------------------------------------------
LMF .                     KB : LOG MEASURED FROM
DMF .                     KB : DRILLING MEASURED FROM
EKB .FT                 2620 : KELLY BUSHING
EGL .FT                 2606 : GROUND LEVEL
DATE.               06/16/61 : RUN DATE
RUN .                      1 : RUN NUMBER
DD  .FT                11935 : DEPTH DRILLER
DL  .FT                11937 : DEPTH LOGGER
BLI .FT                11932 : BOTTOM LOG INTERVAL
TLI .FT                 1235 : TOP LOG INTERVAL
CBD .FT                 1236 : CASING BOTTOM DRILLER
CBL .FT                 1235 : CASING BOTTOM LOGGER
BS  .IN                    9 : BIT SIZE
BSD .FT                11935 : BIT SIZE AT DEPTH
DFT .                    GEL : DRILLING FLUID TYPE
DFD .                   10.1 : DRILLING FLUID DENSITY
DFV .                    600 : DRILLING FLUID VISCOSITY
DFPH.                    9.5 : DRILLING FLUID PH
DFL .                    7.8 : DRILLING FLUID LOSS
MSS .             CIRCULATED : MUD SAMPLE SOURCE
RMS .OHMM               3.65 : RESISTIVITY MUD SAMPLE
MST .DEGF                 56 : MUD SAMPLE TEMPERATURE
RMF .OHMM                2.8 : RESISTIVITY MUD FILTRATE SAMPLE
MFST.DEGF                 70 : MUD FILTRATE SAMPLE TEMPERATURE
RMC .OHMM                3.5 : RESISTIVITY MUD CAKE
MCST.DEGF                 70 : MUD CAKE SAMPLE TEMPERATURE
TCS .HRS                 600 : TIME CIRCULATED STOPPED
LUN .                  1573C : LOGGING UNIT NUMBER
LUL .                     WC : LOGGING UNIT LOCATION
ENGI.              HAUSEGGER : RECORDING ENGINEER
WITN.              ZASEYBIDA : WITNESSED BY
CLNT.                A2DTECH : CLIENT CODE
ORIG.            2" 5" PRINT : ORIGIN OF DATA
UWI .       100121706626W500 : UNIQUE WELL ID
DICO. A2D Technologies, Inc. : DIGITIZING COMPANY
~Other -----------------------------------------------------
~ASCII -----------------------------------------------------
# ...
 3250.00000   12.95900  117.81980  124.94070    8.00380  104.48970  104.48970    -999.25    5.82380   96.09270    8.00380   12.95900    -999.25    -999.25   11.59380 -131.84220   -9.81960   11.59380
 3300.00000   13.00940  161.69910  174.59320    5.72760  101.22700  101.22700    -999.25    6.95940  114.83010    5.72760   13.00940    -999.25    -999.25    8.91740 -130.35870   -8.39510    8.91740
 3350.00000   12.97930  181.50140  203.86940    4.90510   94.34050   94.34050    -999.25    6.52630  107.68400    4.90510   12.97930    -999.25    -999.25    7.62350 -132.14390  -10.23930    7.62350
 3400.00000   12.98820  171.27240  192.57430    5.19280   99.50280   99.50280    -999.25    6.53170  107.77310    5.19280   12.98820    -999.25    -999.25    7.97070 -132.10740  -10.26180    7.97070
 3450.00000   13.05740  148.55860  155.11090    6.44700   97.66250   97.66250    -999.25    5.73090   94.55980    6.44700   13.05740    -999.25    -999.25    8.94480 -131.30180   -9.51520    8.94480
 3500.00000   12.94480  156.33090  159.00020    6.28930   89.59500   89.59500    -999.25    6.41690  105.87890    6.28930   12.94480    -999.25    -999.25    9.04860 -130.65400   -8.92650    9.04860
 3550.00000   12.24880  127.84620  135.70730    7.36880   95.25200   95.25200    -999.25    6.61400  109.13100    7.36880   12.24880    -999.25    -999.25   10.09780 -129.95740   -8.28880   10.09780
 3600.00000   11.95290  162.75000  172.04890    5.81230  101.52300  101.52300    -999.25    6.94430  114.58100    5.81230   11.95290    -999.25    -999.25    8.09380 -128.90650   -7.29700    8.09380
 3650.00000   10.59150  126.80080  131.68980    7.59360   93.37770   93.37770    -999.25    6.20840  102.43860    7.59360   10.59150    -999.25    -999.25   10.03890 -128.31040   -6.75990   10.03890
 3700.00000    9.80150   99.75420  104.08530    9.60750   92.23850   92.23850    -999.25    5.90520   97.43580    9.60750    9.80150    -999.25    -999.25   12.73800 -128.44110   -6.94960   12.73800
 3750.00000    9.82100   80.82640   83.88000   11.92180   83.11430   83.11430    -999.25    5.67450   93.62920   11.92180    9.82100    -999.25    -999.25   16.19480 -130.83520   -9.40270   16.19480
 3800.00000   10.28500  104.67960  109.01200    9.17330   87.83400   87.83400    -999.25    6.00010   99.00160    9.17330   10.28500    -999.25    -999.25   12.21410 -128.46150   -7.08800   12.21410
 3850.00000   10.63780  123.61040  134.43930    7.43830   90.37200   90.37200    -999.25    7.11730  117.43550    7.43830   10.63780    -999.25    -999.25   10.32690 -128.89580   -7.58130   10.32690
 3900.00000   10.70110  126.62690  135.06210    7.40400   90.28050   90.28050    -999.25    7.10800  117.28200    7.40400   10.70110    -999.25    -999.25   10.19450 -127.86150   -6.60600   10.19450
 3950.00000   10.48750  128.48040  139.47970    7.16950   89.32370   89.32370    -999.25    7.38230  121.80790    7.16950   10.48750    -999.25    -999.25   10.21820 -127.51400   -6.31750   10.21820
 4000.00000   10.39710  131.45070  144.01540    6.94370   95.77500   95.77500    -999.25    7.54960  124.56840    6.94370   10.39710    -999.25    -999.25   10.76960 -127.03510   -5.89760   10.76960
 4050.00000   10.26210  138.98210  148.87600    6.71700   95.51480   95.51480    -999.25    6.98520  115.25580    6.71700   10.26210    -999.25    -999.25   10.62060 -126.62700   -5.54860   10.62060
 4100.00000    9.84430  125.88500  135.49400    7.38040   95.62520   95.62520    -999.25    7.18380  118.53270    7.38040    9.84430    -999.25    -999.25   11.63290 -126.11250   -5.09300   11.63290
 4150.00000   10.02410  131.26020  140.87480    7.09850   94.18500   94.18500    -999.25    7.12930  117.63350    7.09850   10.02410    -999.25    -999.25   11.11900 -126.13600   -5.17550   11.11900
 4200.00000    9.92920  109.38730  116.95910    8.55000   92.41400   92.41400    -999.25    6.80960  112.35840    8.55000    9.92920    -999.25    -999.25   13.14590 -126.94820   -6.04680   13.14590
 4250.00000   10.35500  102.58760  109.22630    9.15530   87.92520   87.92520    -999.25    6.23770  102.92210    9.15530   10.35500    -999.25    -999.25   13.72030 -126.15470   -5.31230   13.72030
 4300.00000   10.52820   89.13070   92.61320   10.79760   96.59400   96.59400    -999.25    8.03070  132.50660   10.79760   10.52820    -999.25    -999.25   17.46390 -126.46950   -5.68610   17.46390
 4350.00000   10.05510   94.50280   96.50930   10.36170  102.98350  102.98350    -999.25    8.18660  135.07890   10.36170   10.05510    -999.25    -999.25   17.79360 -125.87360   -5.14920   17.79360
 4400.00000   10.29650  122.14180  131.90180    7.58140   97.20330   97.20330    -999.25    6.66150  109.91480    7.58140   10.29650    -999.25    -999.25   12.18970 -125.07770   -4.41230   12.18970
 4450.00000   10.81910  109.90160  112.24730    8.90890   96.33020   96.33020    -999.25    7.06030  116.49500    8.90890   10.81910    -999.25    -999.25   15.61650 -125.78350   -5.17710   15.61650
 4500.00000   11.02260   94.25880   96.77450   10.33330   80.25270   80.25270    -999.25    5.11150   84.33980   10.33330   11.02260    -999.25    -999.25   13.03920 -126.47080   -5.92340   13.03920
 4550.00000   10.95000  125.53050  131.67940    7.59420   83.41450   83.41450    -999.25    5.85750   96.64870    7.59420   10.95000    -999.25    -999.25    9.66070 -125.48850   -5.00010    9.66070
 4600.00000   11.14740  151.21030  152.89820    6.54030   81.20150   81.20150    -999.25    5.45660   90.03390    6.54030   11.14740    -999.25    -999.25    9.73620 -124.44050   -4.01120    9.73620
 4650.00000   10.41820  123.45290  126.66400    7.89490   81.63070   81.63070    -999.25    5.84750   96.48380    7.89490   10.41820    -999.25    -999.25   10.83410 -125.01090   -4.81030   10.83410
 4700.00000    9.55170  143.06000  140.69050    7.10780   80.71820   80.71820    -999.25    6.11940  100.97010    7.10780    9.55170    -999.25    -999.25   10.71290 -124.05920   -4.13250   10.71290
 4750.00000    9.81480   72.03710   74.35940   13.44820   77.20350   77.20350    -999.25    5.35020   88.27830   13.44820    9.81480    -999.25    -999.25   19.15930 -133.23100  -13.57830   19.15930
 4800.00000   10.56290  164.59900  174.51400    5.73020   87.61370   87.61370    -999.25    6.97680  115.11720    5.73020   10.56290    -999.25    -999.25    7.86950 -122.83100   -3.45210    7.86950
 4850.00000   10.65970  161.57090  172.55360    5.79530   91.23850   91.23850    -999.25    6.45430  106.49590    5.79530   10.65970    -999.25    -999.25    8.18710 -121.69110   -2.58620    8.18710
 4900.00000   10.73460  116.88980  119.72750    8.35230   83.46680   83.46680    -999.25    6.16240  101.67960    8.35230   10.73460    -999.25    -999.25   11.38260 -121.57390   -2.74290   11.38260
 4950.00000   10.37590  117.69900  119.78340    8.34840   81.24070   81.24070    -999.25    6.50400  107.31600    8.34840   10.37590    -999.25    -999.25   11.70990 -121.69000   -3.13280   11.70990
 5000.00000   10.24100  105.13140  107.92030    9.26610   85.35000   85.35000    -999.25    6.26320  103.34280    9.26610   10.24100    -999.25    -999.25   11.92510 -121.12490   -2.84170   11.92510
 5050.00000   10.34940  300.26950  324.97080    3.07720  101.94800  101.94800    -999.25    6.89720  113.80380    3.07720   10.34940    -999.25    -999.25    4.97090 -119.40490   -1.39560    4.97090
 5100.00000   10.11380  257.16480  271.33360    3.68550  100.41370  100.41370    -999.25   15.12780  249.60870    3.68550   10.11380    -999.25    -999.25    6.27050 -118.61560   -0.88010    6.27050
 5150.00000   10.39430  249.18710  257.98460    3.87620   94.38830   94.38830    -999.25    6.89110  113.70310    3.87620   10.39430    -999.25    -999.25    6.07740 -118.72570   -1.27620    6.07740
 5200.00000   10.13450  200.95410  217.94090    4.58840   99.90350   99.90350    -999.25    6.40050  105.60830    4.58840   10.13450    -999.25    -999.25    6.69080 -119.01690   -1.88130    6.69080
 5250.00000   10.05520  243.87850  279.22040    3.58140   91.51520   91.51520    -999.25    6.52380  107.64270    3.58140   10.05520    -999.25    -999.25    5.44800 -118.15650   -1.33480    5.44800
