~Version ---------------------------------------------------
VERS.      2.0 : CWLS log ASCII Standard -VERSION 2.0
WRAP.       NO : One line per depth step
CREA. 11/21/17 : LAS Creation Date
~Well ------------------------------------------------------
STRT.FT                             1050.0 : START DEPTH
STOP.FT                            10400.0 : STOP DEPTH
STEP.FT                           50.00000 : STEP LENGTH
NULL.                              -999.25 : NULL VALUE
COMP.               CHEVRON CANADA LIMITED : COMPANY
WELL. CHEVRON GULF ET AL FOXCK 10-21-62-18 : WELL
FLD .                                      : FIELD
LOC .                                      : LOCATION
CTRY.                               CANADA : COUNTRY
SRVC.                         Schlumberger : SERVICE COMPANY
DATE.                          28-Apr-1976 : LOGDATE
PROV.                              Alberta : PROVINCE
UWI .                     102102106218W500 : UNIQUE WELL ID
SLAT.WGS84                        54.37974 : SURFACE LATITUDE
SLON.WGS84                       -116.6321 : SURFACE LONGITUDE
~Curve Information -----------------------------------------
DEPT    .FT    : Depth Curve
CALDED  .IN    : CALIPER FROM DENSITY LOG
CALSED  .IN    : CALIPER FROM SONIC LOG
CALWS   .IN    : CALIPER [CALSED SPL. TO CALDED @ 10384']
CONDWS  .MMHO  : CONDUCTIVITY [1000/DRESWS]
DCORED  .G/C3  : DENSITY CORRECTION FROM DENSITY LOG
DCORWS  .G/C3  : DENSITY CORRECTION [DCORED]
DENWS   .G/C3  : FORMATION BULK DENSITY [RHOBED]
DPHILSED.V/V   : DENSITY POROSITY LIMESTONE [M=2.71, F=1.00] FROM DENSITY LOG
DPHISSED.V/V   : DENSITY POROSITY SANDSTONE [M=2.65, F=1.00] FROM DENSITY LOG
DPOLSWS .V/V   : DENSITY POROSITY LIMESTONE [CALC. FROM DENWS M=2.71, F=1.00]
DRESWS  .OHMM  : DEEP RESISTIVITY [ILDED]
DTED    .US/F  : DELTA-T FROM SONIC LOG
DTWS    .US/F  : COMPRESSIONAL SONIC [DTED]
GRDED   .GAPI  : GAMMA RAY FROM DENSITY LOG
GRSED   .GAPI  : GAMMA RAY FROM SONIC LOG
GRWS    .GAPI  : GAMMA RAY [GRSED SPL. TO GRDED@3031M]
ILDED   .OHMM  : DEEP INDUCTION FROM RESISTIVITY LOG
ILMED   .OHMM  : MEDIUM INDUCTION FROM RESISTIVITY LOG
LL8ED   .OHMM  : LATEROLOG-8 FROM RESISTIVITY LOG
MRESWS  .OHMM  : MEDIUM RESISTIVITY [ILMED]
NPHILSED.V/V   : NEUTRON POROSITY  SANDSTONE FROM DENSITY LOG
NPHISSED.V/V   : NEUTRON POROSITY SANDSTONE FROM DENSITY LOG
NPOLSWS .V/V   : NEUTRON POROSITY LIMESTONE [NPHISSED MATRIX CONVERSION FOR LIMESTONE, SPL. TO NPHILSED @ 6545']
RHOBED  .G/C3  : BULK DENSITY FROM DENSITY LOG
SPRED   .MV    : SPONTANEOUS POTENTIAL FROM RESISTIVITY LOG
SPWS    .MV    : SPONTANEOUS POTENTIAL [BASELINE 0 MV,SPRED]
SRESWS  .OHMM  : SHALLOW EWSISTIVITY [LL8ED]
TENDED  .LBF   : TENSION FROM DENSITY LOG
TENSED  .LBF   : TENSION FROM SONIC LOG
~Params ----------------------------------------------------
PD  .                     GL : PERMANENT DATUM
EPD .FT               2869.5 : ELEVATION PERMANENT DATUM
LMF .                     KB : LOG MEASURED FROM
DAPD.FT                 14.5 : FEET ABOVE PERMANENT DATUM
EKB .FT                 2884 : KELLY BUSHING
EGL .FT               2869.5 : GROUND LEVEL
DATE.               04/28/76 : RUN DATE
RUN .                      1 : RUN NUMBER
DD  .FT                10415 : DEPTH DRILLER
DL  .FT                10422 : DEPTH LOGGER
BLI .FT                10416 : BOTTOM LOG INTERVAL
TLI .FT                 1107 : TOP LOG INTERVAL
CBD .FT                 1108 : CASING BOTTOM DRILLER
CBL .FT                 1107 : CASING BOTTOM LOGGER
BS  .IN                 8.75 : BIT SIZE
BSD .FT                10415 : BIT SIZE AT DEPTH
DFT .               GEL CHEM : DRILLING FLUID TYPE
DFD .                    9.4 : DRILLING FLUID DENSITY
DFV .                     72 : DRILLING FLUID VISCOSITY
DFPH.                   10.5 : DRILLING FLUID PH
DFL .                   10.8 : DRILLING FLUID LOSS
MSS .             CIRCULATED : MUD SAMPLE SOURCE
RMS .OHMM               1.66 : RESISTIVITY MUD SAMPLE
MST .DEGF                 60 : MUD SAMPLE TEMPERATURE
RMF .OHMM                1.2 : RESISTIVITY MUD FILTRATE SAMPLE
MFST.DEGF                 60 : MUD FILTRATE SAMPLE TEMPERATURE
RMB .OHMM               0.52 : RESISTIVITY MUD AT BHT
TCS .HRS                 3.5 : TIME CIRCULATED STOPPED
LUN .                   7691 : LOGGING UNIT NUMBER
LUL .                    EDM : LOGGING UNIT LOCATION
ENGI.   CROCKFORD KREZANOSKI : RECORDING ENGINEER
WITN.                   WONG : WITNESSED BY
CLNT.                A2DTECH : CLIENT CODE
ORIG.            2" 5" PRINT : ORIGIN OF DATA
UWI .       102102106218W500 : UNIQUE WELL ID
DICO. A2D Technologies, Inc. : DIGITIZING COMPANY
~Other -----------------------------------------------------
DIL-LL-BHC-CNL-FDC LOG RUN
SCH.- CNL(NPHI) USED FOR NEUTRON MATRIX CONVERSION
~ASCII -----------------------------------------------------
# ...
 3550.00000    -999.25    9.53450    9.53450  174.27680    -999.25    -999.25    -999.25    -999.25    -999.25    -999.25    5.73800  120.26710  120.26710    -999.25  134.49280  134.49280    5.73800    4.59190    5.15980    4.59190    -999.25    -999.25    -999.25    -999.25  -57.34590   -0.91290    5.15980    -999.25 1010.05360
 3600.00000    -999.25    9.81220    9.81220  103.33460    -999.25    -999.25    -999.25    -999.25    -999.25    -999.25    9.67730   86.21780   86.21780    -999.25   89.52430   89.52430    9.67730   10.11680   10.80940   10.11680    -999.25    -999.25    -999.25    -999.25  -60.31250   -3.78320   10.80940    -999.25 1153.17530
 3650.00000    -999.25   10.17590   10.17590  121.66930    -999.25    -999.25    -999.25    -999.25    -999.25    -999.25    8.21900   90.05970   90.05970    -999.25   96.90540   96.90540    8.21900    7.50720    7.72430    7.50720    -999.25    -999.25    -999.25    -999.25  -60.62690   -4.00190    7.72430    -999.25 1224.23740
 3700.00000    -999.25    9.99770    9.99770  121.29860    -999.25    -999.25    -999.25    -999.25    -999.25    -999.25    8.24490   89.77300   89.77300    -999.25   93.00040   93.00040    8.24490    7.69940    7.54600    7.69940    -999.25    -999.25    -999.25    -999.25  -60.85150   -4.13030    7.54600    -999.25  902.96800
 3750.00000    -999.25   11.26430   11.26430  150.93200    -999.25    -999.25    -999.25    -999.25    -999.25    -999.25    6.62550   91.44650   91.44650    -999.25   95.85920   95.85920    6.62550    6.06730    6.69540    6.06730    -999.25    -999.25    -999.25    -999.25  -62.26690   -5.45000    6.69540    -999.25  967.68140
 3800.00000    -999.25   11.70630   11.70630  111.70440    -999.25    -999.25    -999.25    -999.25    -999.25    -999.25    8.95220   85.00640   85.00640    -999.25   86.99780   86.99780    8.95220    7.83000    7.29220    7.83000    -999.25    -999.25    -999.25    -999.25  -62.86690   -5.95440    7.29220    -999.25 1114.29740
 3850.00000    -999.25   12.67350   12.67350  110.27790    -999.25    -999.25    -999.25    -999.25    -999.25    -999.25    9.06800   86.78970   86.78970    -999.25   83.90110   83.90110    9.06800    8.27830    7.42730    8.27830    -999.25    -999.25    -999.25    -999.25  -62.74120   -5.73240    7.42730    -999.25  999.82060
 3900.00000   12.73000   12.22090   12.22090  139.19240    0.06730    0.06730    2.52540    -999.25    0.07760    0.10800    7.18430   92.00140   92.00140   95.44650   89.27640   89.27640    7.18430    6.26750    6.51500    6.26750    -999.25    0.32740    0.28360    2.52540  -61.01610   -4.17440    6.51500 2425.20080  115.58110
 3950.00000   12.23870   12.11260   12.11260  166.36890    0.07110    0.07110    2.52310    -999.25    0.08290    0.10930    6.01090   96.06560   96.06560  101.75380  103.23300  103.23300    6.01090    5.35920    5.76410    5.35920    -999.25    0.35020    0.30660    2.52310  -59.95570   -3.83830    5.76410 1514.00150  523.49420
 4000.00000   12.96810   11.77660   11.77660  144.41480    0.10300    0.10300    2.52620    -999.25    0.09250    0.10750    6.92450   91.80820   91.80820   96.70310   96.87670   96.87670    6.92450    6.29290    5.88830    6.29290    -999.25    0.31990    0.27600    2.52620  -59.11120   -3.71320    5.88830 1776.11980  396.52070
 4050.00000   12.89460   11.14670   11.14670  128.05080    0.06140    0.06140    2.46940    -999.25    0.10960    0.14070    7.80940   90.63760   90.63760   89.40230   94.71700   94.71700    7.80940    7.16810    6.86000    7.16810    -999.25    0.30970    0.26580    2.46940  -58.08440   -3.40590    6.86000 1615.97180  804.25110
 4100.00000   12.07250   10.56410   10.56410  120.74960    0.08650    0.08650    2.46910    -999.25    0.12250    0.14090    8.28160   86.33080   86.33080   77.58370   77.84380   77.84380    8.28160    7.37450    8.44040    7.37450    -999.25    0.29570    0.25170    2.46910  -58.35430   -4.40000    8.44040 2081.81060  950.36070
 4150.00000   11.67890   11.21550   11.21550  107.12950    0.07860    0.07860    2.51820    -999.25    0.08730    0.11220    9.33450   84.12590   84.12590   91.26900   89.97420   89.97420    9.33450    8.58550    7.93160    8.58550    -999.25    0.29400    0.25000    2.51820  -57.01710   -3.70730    7.93160 1986.83880  615.39890
 4200.00000   10.16730   10.36820   10.36820  109.17330    0.07690    0.07690    2.57250    -999.25    0.04460    0.08040    9.16000   84.62620   84.62620  107.99220   87.83720   87.83720    9.16000    8.75240    8.11760    8.75240    -999.25    0.28970    0.24570    2.57250  -56.96260   -4.11050    8.11760 2828.59170  965.16330
 4250.00000    -999.25   10.83610   10.83610  113.37480    -999.25    -999.25    -999.25    -999.25    -999.25    -999.25    8.82030   82.75690   82.75690    -999.25   93.08950   93.08950    8.82030    8.56390    7.96630    8.56390    -999.25    -999.25    -999.25    -999.25  -57.44240   -5.04500    7.96630    -999.25 1105.74960
 4300.00000    -999.25   10.48910   10.48910  114.56330    -999.25    -999.25    -999.25    -999.25    -999.25    -999.25    8.72880   79.20340   79.20340    -999.25   97.05740   97.05740    8.72880    8.47440    8.17390    8.47440    -999.25    -999.25    -999.25    -999.25  -56.65890   -4.71630    8.17390    -999.25  938.15430
 4350.00000    -999.25   10.06880   10.06880  151.84180    -999.25    -999.25    -999.25    -999.25    -999.25    -999.25    6.58580   88.66560   88.66560    -999.25  103.73460  103.73460    6.58580    6.75380    7.18720    6.75380    -999.25    -999.25    -999.25    -999.25  -54.96160   -3.47670    7.18720    -999.25 1102.36940
 4400.00000    -999.25    9.97250    9.97250  151.54270    -999.25    -999.25    -999.25    -999.25    -999.25    -999.25    6.59880   96.08630   96.08630    -999.25  106.50930  106.50930    6.59880    7.04760    7.47010    7.04760    -999.25    -999.25    -999.25    -999.25  -54.40630   -3.37610    7.47010    -999.25  952.24260
 4450.00000    -999.25    9.81260    9.81260  122.65420    -999.25    -999.25    -999.25    -999.25    -999.25    -999.25    8.15300   92.41410   92.41410    -999.25  110.99230  110.99230    8.15300    8.65910    9.55590    8.65910    -999.25    -999.25    -999.25    -999.25  -52.81340   -2.24090    9.55590    -999.25 1124.98340
 4500.00000    -999.25    9.80460    9.80460  129.79760    -999.25    -999.25    -999.25    -999.25    -999.25    -999.25    7.70430   92.73850   92.73850    -999.25  104.40780  104.40780    7.70430    8.05980    8.88210    8.05980    -999.25    -999.25    -999.25    -999.25  -52.55660   -2.43880    8.88210    -999.25  500.14340
 4550.00000    -999.25    9.66930    9.66930  109.17980    -999.25    -999.25    -999.25    -999.25    -999.25    -999.25    9.15920   94.38450   94.38450    -999.25  123.73380  123.73380    9.15920    9.66910   10.84980    9.66910    -999.25    -999.25    -999.25    -999.25  -50.86850   -1.10270   10.84980    -999.25  536.92610
 4600.00000    -999.25    9.46520    9.46520   91.36010    -999.25    -999.25    -999.25    -999.25    -999.25    -999.25   10.94570   90.94150   90.94150    -999.25  107.20000  107.20000   10.94570   11.73330   12.71970   11.73330    -999.25    -999.25    -999.25    -999.25  -56.10270   -5.48540   12.71970    -999.25  740.84900
 4650.00000    -999.25   10.13540   10.13540  137.34940    -999.25    -999.25    -999.25    -999.25    -999.25    -999.25    7.28070   92.26250   92.26250    -999.25  101.75500  101.75500    7.28070    7.51000    8.21760    7.51000    -999.25    -999.25    -999.25    -999.25  -59.51810   -8.05480    8.21760    -999.25 1033.32170
 4700.00000    -999.25   10.20540   10.20540  113.42360    -999.25    -999.25    -999.25    -999.25    -999.25    -999.25    8.81700   85.89380   85.89380    -999.25   91.19650   91.19650    8.81700    9.46220   10.06120    9.46220    -999.25    -999.25    -999.25    -999.25  -63.44540  -11.13050   10.06120    -999.25 1412.31650
 4750.00000    -999.25   10.32600   10.32600  131.60490    -999.25    -999.25    -999.25    -999.25    -999.25    -999.25    7.59850   80.81400   80.81400    -999.25   77.82520   77.82520    7.59850    7.79220    7.77210    7.79220    -999.25    -999.25    -999.25    -999.25  -68.53100  -15.37020    7.77210    -999.25  782.75280
