~Version ---------------------------------------------------
VERS.      2.0 : CWLS log ASCII Standard -VERSION 2.0
WRAP.       NO : One line per depth step
CREA. 11/20/17 : LAS Creation Date
~Well ------------------------------------------------------
STRT.FT                         1450.0 : START DEPTH
STOP.FT                        13550.0 : STOP DEPTH
STEP.FT                       50.00000 : STEP LENGTH
NULL.                          -999.25 : NULL VALUE
COMP. AMOCO CANADA PETROLEUM CO., LTD. : COMPANY
WELL.            AMOCO TONY 7-16-62-24 : WELL
FLD .                                  : FIELD
LOC .                                  : LOCATION
CTRY.                           CANADA : COUNTRY
SRVC.                     Schlumberger : SERVICE COMPANY
DATE.                      27-Nov-1977 : LOGDATE
PROV.                          Alberta : PROVINCE
UWI .                 100071606224W500 : UNIQUE WELL ID
SLAT.WGS84                    54.36239 : SURFACE LATITUDE
SLON.WGS84                   -117.5361 : SURFACE LONGITUDE
~Curve Information -----------------------------------------
DEPT    .FT    : Depth Curve
CALDED  .IN    : CALIPER FROM DENSITY LOG [ADJ. TO RESISTIVITY LOG]
CALSED  .IN    : CALIPER FROM  SONIC LOG [ADJ. TO RESISTIVITY LOG]
CALWS   .IN    : CALIPER [CALDED]
CONDWS  .MMHO  : CONDUCTIVITY [1000/DRESWS]
DCORWS  .IN    : DENSITY CORRECTION [DRHOED]
DENWS   .IN    : FORMATION BULK DENSITY [CALC. FROM DPOLSWS M=2.71, F=1.00]
DPHILSED.V/V   : DENSITY POROSITY LIMESTONE [M=2.71, F=1.00] FROM DENSITY LOG [ADJ. TO RESISTIVITY LOG]
DPHISSED.V/V   : DENSITY POROSITY SANDSTONE [M=2.65, F=1.00] FROM DENSITY LOG [ADJ. TO RESISTIVITY LOG]
DPOLSWS .V/V   : DENSITY POROSITY LIMESTONE [DPHISSED MATRIX CONVERSION FOR LS, SPL. TO DPHILSED @8451' & SPL. TO CALC. FROM RHOBED M=2.71, F=1.00]
DRESWS  .OHMM  : DEEP RESISTIVITITY [ILDED]
DRHOED  .IN    : DENSITY CORRECTION FROM DENSITY LOG [ADJ. TO RESISTIVITY LOG]
DTED    .US/F  : DELTA TIME FROM SONIC LOG [ADJ. TO RESISTIVITY LOG]
DTWS    .US/F  : COMPRESSIONAL SONIC [DTED]
GRDED   .GAPI  : GAMMA RAY FROM DENSITY LOG [ADJ. TO RESISTIVITY LOG]
GRSED   .GAPI  : GAMMA RAY FROM SONIC LOG [ADJ. TO RESISTIVITY LOG]
GRWS    .GAPI  : GAMMA RAY [GRSED]
ILDED   .OHMM  : DEEP INDUCTION FROM RESISTIVITY LOG
ILMED   .OHMM  : MEDIUM INDUCTION FROM RESISTIVITY LOG
LL8ED   .OHMM  : 8 INCH LATEROLOG RESISTIVITY FROM RESISTIVITY LOG
MRESWS  .OHMM  : MEDIUM RESISTIVITY [ILMED]
NPHILSED.V/V   : NEUTRON POROSITY LIMESTONE FROM DENSITY LOG [ADJ. TO RESISTIVITY LOG]
NPHISSED.V/V   : NEUTRON POROSITY SANDSTONE FROM DENSITY LOG [ADJ. TO RESISTIVITY LOG]
NPOLSWS .V/V   : NEUTRON POROSITY LIMESTONE [NPHISSED MATRIX CONVERSION FOR LIMESTONE, SPL. TO NPHILSED @ 8424']
RHOBED  .IN    : BULK DENSITY FROM DENSITY LOG [ADJ. TO RESISTIVITY LOG]
SPRED   .MV    : SPONTANEOUS POTENTIAL FROM RESISTIVITY LOG
SPWS    .MV    : SPONTANEOUS POTENTIAL [BASELINE 0 MV,SPRED]
SRESWS  .OHMM  : SHALLOW RESISTIVITY [LL8ED]
~Params ----------------------------------------------------
PD  .                     GL : PERMANENT DATUM
EPD .FT                 5402 : ELEVATION PERMANENT DATUM
LMF .                     KB : LOG MEASURED FROM
DAPD.FT                   17 : FEET ABOVE PERMANENT DATUM
DATE.               11/27/77 : RUN DATE
RUN .                      2 : RUN NUMBER
DD  .FT                13685 : DEPTH DRILLER
DL  .FT                13579 : DEPTH LOGGER
BLI .FT                13573 : BOTTOM LOG INTERVAL
TLI .FT                 8448 : TOP LOG INTERVAL
CBD .FT                 8448 : CASING BOTTOM DRILLER
CBL .FT                 8448 : CASING BOTTOM LOGGER
BSD .FT                13685 : BIT SIZE AT DEPTH
DFT .                    8.6 : DRILLING FLUID TYPE
DFD .                     86 : DRILLING FLUID DENSITY
CLNT.                A2DTECH : CLIENT CODE
ORIG.          1" 2.5" PRINT : ORIGIN OF DATA
UWI .       100071606224W500 : UNIQUE WELL ID
DICO. A2D Technologies, Inc. : DIGITIZING COMPANY
~Other -----------------------------------------------------
DIL-BHC-CNL-FDC LOG RUN
RHOB & DRHO FROM 2" SCALE
~ASCII -----------------------------------------------------
# ...
 5350.00000   14.39260   12.66030   14.39260   69.82650    0.18840    2.38710    -999.25    0.15930    0.18880   14.32130    0.18840   77.80280   77.80280  104.39640  110.14320  109.72960   14.32130   11.96110   12.63280   11.96110    -999.25    0.27600    0.23200    2.39610  -51.18740   -5.74530   12.63280
 5400.00000   14.83470   12.69410   14.83470   44.71170    0.25040    2.28910    -999.25    0.21870    0.24610   22.36550    0.25040   72.95510   72.95510   86.68160   94.04980   93.43500   22.36550   17.57220   19.23390   17.57220    -999.25    0.25110    0.20720    2.29580  -51.49460   -6.19030   19.23390
 5450.00000   12.23410   12.41410   12.23410   27.97250    0.08470    2.40240    -999.25    0.15010    0.17990   35.78540    0.08470   72.06090   72.06090   95.39660  103.83520  102.90560   35.78540   27.41110   29.81560   27.41110    -999.25    0.24750    0.20360    2.40650  -52.82230   -7.65700   29.81560
 5500.00000   13.53390   12.43850   13.53390   55.86060    0.22160    2.13470    -999.25    0.31230    0.33640   17.90170    0.22160   77.18650   77.18650   98.69650  104.14240  104.14240   17.90170   14.95990   17.10800   14.95990    -999.25    0.28080    0.23680    2.18150  -50.44600   -5.41880   17.10800
 5550.00000   12.97250   12.42780   12.97250   77.35870    0.16980    2.17490    -999.25    0.28800    0.31290   12.92680    0.16980   80.75560   80.75560  103.85620  104.29720  104.29720   12.92680   10.80330   12.03520   10.80330    -999.25    0.34680    0.30310    2.16670  -50.08460   -5.19550   12.03520
 5600.00000   12.04480   12.39400   12.04480   83.04150    0.22220    2.36780    -999.25    0.17100    0.20010   12.04380    0.22220   78.82590   78.82590   96.86610  105.35150  105.35150   12.04380   10.58030   12.32290   10.58030    -999.25    0.32750    0.28370    2.38530  -50.58110   -5.83090   12.32290
 5650.00000   13.21050   12.57580   13.21050   94.56260    0.21430    2.20850    -999.25    0.26760    0.29330   10.57500    0.21430   80.66910   80.66910  101.25670  117.06960  117.41480   10.57500    9.04630   11.20610    9.04630    -999.25    0.35790    0.31440    2.21110  -50.58480   -5.97250   11.20610
 5700.00000   12.79740   12.30620   12.79740   94.40740    0.20160    2.12680    -999.25    0.31710    0.34110   10.59240    0.20160   84.89920   84.89920  105.72590  119.53340  117.20170   10.59240    9.07110   11.70660    9.07110    -999.25    0.39850    0.35560    2.10870  -50.45770   -5.98430   11.70660
 5750.00000   13.31980   12.33800   13.31980   95.56940    0.19840    2.19030    -999.25    0.27860    0.30390   10.46360    0.19840   87.96270   87.96270  113.57140  123.38630  123.08090   10.46360    9.08530   11.57350    9.08530    -999.25    0.41050    0.36780    2.18200  -49.67850   -5.34320   11.57350
 5800.00000   13.14530   12.39400   13.14530   83.26810    0.21510    2.24950    -999.25    0.24270    0.26930   12.00940    0.21510   85.98120   85.98120  120.14560  127.51910  127.99740   12.00940   10.43460   13.51310   10.43460    -999.25    0.41310    0.37050    2.29410  -49.46630   -5.26910   13.51310
 5850.00000   13.48060   12.43470   13.48060   80.98710    0.20140    2.20050    -999.25    0.27240    0.29790   12.34770    0.20140   86.40110   86.40110  112.21840  118.32690  118.32690   12.34770   10.73310   13.95250   10.73310    -999.25    0.43590    0.39380    2.21000  -48.71250   -4.65420   13.95250
 5900.00000   13.48060   12.53860   13.48060   75.17840    0.24890    2.24940    -999.25    0.24280    0.26940   13.30170    0.24890   87.12030   87.12030  112.00160  124.66700  124.66700   13.30170   11.43950   15.02970   11.43950    -999.25    0.41500    0.37240    2.26170  -48.16740   -4.24700   15.02970
 5950.00000   13.48390   12.40940   13.48390   80.99130    0.24990    2.16770    -999.25    0.29230    0.31710   12.34710    0.24990   83.93630   83.93630  106.87150  111.45360  111.45360   12.34710   10.80950   13.45490   10.80950    -999.25    0.38670    0.34350    2.16590  -48.35130   -4.56980   13.45490
 6000.00000   13.87200   12.53080   13.87200   77.49600    0.24310    2.12370    -999.25    0.31900    0.34290   12.90390    0.24310   85.05330   85.05330  106.91710  124.19930  123.98290   12.90390   11.17180   14.66640   11.17180    -999.25    0.39010    0.34700    2.11140  -47.91070   -4.26730   14.66640
 6050.00000   12.92670   12.37230   12.92670   48.45410    0.23880    2.31080    -999.25    0.20560    0.23350   20.63810    0.23880   92.18680   92.18680  131.15170  139.54720  138.01200   20.63810   16.93860   24.28200   16.93860    -999.25    0.42050    0.37810    2.31820  -47.96810   -4.46280   24.28200
 6100.00000   12.95580   12.49320   12.95580   68.98770    0.20900    2.14650    -999.25    0.30520    0.32950   14.49540    0.20900   87.15990   87.15990  106.87930  119.93560  118.64580   14.49540   12.58940   17.69300   12.58940    -999.25    0.38110    0.33790    2.14680  -47.53080   -4.16450   17.69300
 6150.00000   12.00110   12.59730   12.00110   88.94820    0.14560    2.38620    -999.25    0.15990    0.18940   11.24250    0.14560   88.31300   88.31300  101.91760  105.57180  106.16990   11.24250    9.79080   13.81340    9.79080    -999.25    0.45840    0.41700    2.39010  -47.43320   -4.20470   13.81340
 6200.00000   11.54770   12.43720   11.54770   50.06020    0.09170    2.42310    -999.25    0.13750    0.16780   19.97600    0.09170   92.95650   92.95650  152.01370  152.93860  153.73270   19.97600   16.90070   23.79540   16.90070    -999.25    0.49160    0.45140    2.44730  -47.77750   -4.59600   23.79540
 6250.00000   11.69940   12.52400   11.69940   77.04640    0.07180    2.46720    -999.25    0.11080    0.14200   12.97920    0.07180   73.91400   73.91400   89.17590   96.67460   96.67460   12.97920   11.40130   13.62060   11.40130    -999.25    0.30060    0.25660    2.48160  -49.61010   -6.22950   13.62060
 6300.00000   13.68220   12.59350   13.68220   80.58930    0.20020    2.23470    -999.25    0.25170    0.27800   12.40860    0.20020   73.45070   73.45070   87.92600   86.81280   86.81280   12.40860   11.34720   13.14440   11.34720    -999.25    0.30160    0.25760    2.25530  -49.63620   -6.05640   13.14440
 6350.00000   13.93880   12.57070   13.93880  102.72960    0.20220    2.14370    -999.25    0.30680    0.33120    9.73590    0.20220   79.24930   79.24930  104.10560  114.71300  113.42120    9.73590    8.67410   10.04970    8.67410    -999.25    0.36780    0.32430    2.12340  -47.21110   -3.43100   10.04970
 6400.00000   13.50180   12.73960   13.50180   93.22440    0.22390    2.16750    -999.25    0.29240    0.31720   10.72680    0.22390   80.08260   80.08260  100.30830  101.74300  102.35080   10.72680    9.67790   11.05410    9.67790    -999.25    0.38130    0.33810    2.17440  -48.04940   -4.07050   11.05410
 6450.00000   13.17250   12.49340   13.17250  124.74850    0.18590    2.35490    -999.25    0.17890    0.20770    8.01700    0.18590   83.07550   83.07550  108.84260  108.78970  108.87980    8.01700    6.92310    8.82900    6.92310    -999.25    0.39980    0.35690    2.37130  -47.75790   -3.57870    8.82900
 6500.00000   12.61580   12.37910   12.61580   85.52200    0.22990    2.38530    -999.25    0.16040    0.18990   11.69290    0.22990   71.28190   71.28190   85.39030   89.41720   89.41720   11.69290   10.91020   12.07820   10.91020    -999.25    0.26350    0.21950    2.39050  -48.04440   -4.14030   12.07820
 6550.00000   13.73760   12.52580   13.73760  141.99100    0.20580    2.25860    -999.25    0.23720    0.26400    7.04270    0.20580   79.43310   79.43310   99.93490  101.02830  101.02830    7.04270    6.41820    7.34650    6.41820    -999.25    0.38420    0.34100    2.26130  -47.26610   -3.84690    7.34650
 6600.00000   13.70680   12.56610   13.70680  110.98840    0.24180    2.17220    -999.25    0.28960    0.31450    9.01010    0.24180   77.87280   77.87280  107.53640  111.06780  111.06780    9.01010    8.37600   10.00160    8.37600    -999.25    0.33860    0.29480    2.17080  -46.19450   -3.26310   10.00160
