~Version ---------------------------------------------------
VERS.      2.0 : CWLS log ASCII Standard -VERSION 2.0
WRAP.       NO : One line per depth step
CREA. 10/26/17 : LAS Creation Date
~Well ------------------------------------------------------
STRT.FT                     1150.0 : START DEPTH
STOP.FT                    11150.0 : STOP DEPTH
STEP.FT                   50.00000 : STEP LENGTH
NULL.                      -999.25 : NULL VALUE
COMP.            TRIAD OIL CO. LTD : COMPANY
WELL. TRIAD PAN AM ANTE 2-27-66-25 : WELL
FLD .                              : FIELD
LOC .                              : LOCATION
CTRY.                       CANADA : COUNTRY
SRVC.                   Lane Wells : SERVICE COMPANY
DATE.                  15-Aug-1967 : LOGDATE
PROV.                      Alberta : PROVINCE
UWI .             100022706625W500 : UNIQUE WELL ID
SLAT.WGS84                54.73614 : SURFACE LATITUDE
SLON.WGS84                 -117.69 : SURFACE LONGITUDE
~Curve Information -----------------------------------------
DEPT  .FT    : Depth Curve
CALSED.IN    : CALIPER FROM SONIC LOG
CALWS .IN    : CALIPER [CALSED]
CONDWS.MMHO  : CONDUCTIVITY [1000/DRESWS]
DRESWS.OHMM  : DEEP RESISTIVITY [ILDED]
DTED  .US/F  : DELTA TIME FROM SONIC LOG
DTWS  .US/F  : DELTA TIME [DTED]
GRSED .GAPI  : GAMMA RAY FROM SONIC LOG
GRWS  .GAPI  : GAMMA RAY [GRSED]
ILDED .OHMM  : INDUCTION LOG DEEP RESISTIVITY
SNED  .OHMM  : 16 INCH SHORT NORMAL RESISTIVITY FROM IEL
SPRED .MV    : SPONTANEOUS POTENTIAL FROM RESISTIVITY LOG
SPWS  .MV    : SPONTANEOUS POTENTIAL [BASELINE 0 MV] [SPRED]
SRESWS.OHMM  : SHALLOW RESISTIVITY [SNED]
~Params ----------------------------------------------------
PD  .                     GL : PERMANENT DATUM
EPD .FT               2399.7 : ELEVATION PERMANENT DATUM
LMF .                     KB : LOG MEASURED FROM
DAPD.FT                   15 : FEET ABOVE PERMANENT DATUM
DMF .                     KB : DRILLING MEASURED FROM
EKB .FT               2414.7 : KELLY BUSHING
EGL .FT               2399.7 : GROUND LEVEL
DATE.               08/15/67 : RUN DATE
RUN .                      1 : RUN NUMBER
DD  .FT                11172 : DEPTH DRILLER
DL  .FT                11160 : DEPTH LOGGER
BLI .FT                11156 : BOTTOM LOG INTERVAL
TLI .FT                 1144 : TOP LOG INTERVAL
CS  .IN                9.625 : CASING SIZE
CBD .FT                 1145 : CASING BOTTOM DRILLER
CBL .FT                 1144 : CASING BOTTOM LOGGER
BS  .IN                7.625 : BIT SIZE
BSD .FT                11172 : BIT SIZE AT DEPTH
DFT .                MUD GEL : DRILLING FLUID TYPE
DFD .                    9.9 : DRILLING FLUID DENSITY
DFV .                     89 : DRILLING FLUID VISCOSITY
DFPH.                      9 : DRILLING FLUID PH
DFL .                    7.2 : DRILLING FLUID LOSS
MSS .                   CIRC : MUD SAMPLE SOURCE
RMS .OHMM                3.0 : RESISTIVITY MUD SAMPLE
MST .DEGF                 86 : MUD SAMPLE TEMPERATURE
RMF .OHMM                2.4 : RESISTIVITY MUD FILTRATE SAMPLE
MFST.DEGF                 86 : MUD FILTRATE SAMPLE TEMPERATURE
RMC .OHMM                3.2 : RESISTIVITY MUD CAKE
MCST.DEGF                 86 : MUD CAKE SAMPLE TEMPERATURE
MFSS.                   MEAS : MUD FILTRATE SAMPLE SOURCE
MCSS.                   MEAS : MUD CAKE SAMPLE SOURCE
RMB .OHMM                1.2 : RESISTIVITY MUD AT BHT
TCS .HRS                   6 : TIME CIRCULATED STOPPED
LUN .                   1256 : LOGGING UNIT NUMBER
LUL .                    EDM : LOGGING UNIT LOCATION
ENGI.      KOWALCHUK DOMSTAD : RECORDING ENGINEER
WITN.            DANIELEWICZ : WITNESSED BY
CLNT.                A2DTECH : CLIENT CODE
ORIG.            2" 5" PRINT : ORIGIN OF DATA
UWI .       100022706625W500 : UNIQUE WELL ID
DICO. A2D Technologies, Inc. : DIGITIZING COMPANY
~Other -----------------------------------------------------
~ASCII -----------------------------------------------------
# ...
 8950.00000   11.32110   11.32110    2.92580  341.82450   48.69140   48.69140   24.64440   24.65640  340.94160  297.35220  -79.32400  -60.45070  297.21450
 9000.00000    9.81500    9.81500    2.19640  455.28460   49.99260   49.99260   18.28800   18.46540  455.28500  208.08360 -106.77850  -88.24250  208.08460
 9050.00000    9.90990    9.90990    3.60250  277.58410   49.08430   49.08430   24.00060   24.00060  277.58410  162.03750  -96.90240  -78.70220  162.03750
 9100.00000   10.59760   10.59760    2.19980  454.59100   48.88180   48.88180   20.97740   21.27600  454.59100  299.25620  -85.81040  -67.94920  299.24420
 9150.00000   10.82800   10.82800    4.27320  234.01800   48.01400   48.01400   19.73800   19.73800  234.01800  194.04500  -95.46600  -77.94050  194.04500
 9200.00000   11.71170   11.71170    4.69760  212.87720   47.07360   47.07360   22.41500   22.22070  212.81180  246.73130  -98.37730  -81.19080  246.77500
 9250.00000   10.70600   10.70600    3.34230  299.20110   47.37220   47.37220   20.71380   20.68690  299.09610  251.72920 -120.87630 -104.02730  251.82940
 9300.00000   11.65690   11.65690    2.39440  417.63250   48.15980   48.15980   18.44630   18.44630  417.63250  216.00610 -138.74860 -122.23530  216.00610
 9350.00000   11.12650   11.12650    2.23730  447.00810   49.03670   49.03670   20.95170   21.02860  450.02760  166.65060 -144.05820 -127.88400  166.65060
 9400.00000    8.84230    8.84230   36.45820   27.42870   51.76910   51.76910   22.25290   22.25290   27.42870   78.82090 -155.77580 -139.93720   78.82090
 9450.00000    8.70030    8.70030   14.15340   70.75120   49.32370   49.32370   25.64920   25.89050   71.11380  115.93110 -127.60550 -112.10600  115.87060
 9500.00000    8.45100    8.45100   11.06840   90.40840   49.09200   49.09200   22.33300   22.27600   90.12400  126.15500 -148.69730 -133.53510  126.15500
 9550.00000    9.64830    9.64830    8.06260  124.02910   47.82620   47.82620   24.33430   24.33430  124.02910  132.75130 -163.84770 -149.02130  132.75130
 9600.00000   10.60980   10.60980    7.17690  139.58200   49.67900   49.67900   28.27120   28.25740  137.84050  158.49600 -187.58000 -173.09260  158.51200
 9650.00000    8.65890    8.65890   54.72380   18.27360   51.66300   51.66300   36.61890   36.61890   18.27360   40.13840 -161.62320 -147.47150   40.13840
 9700.00000   14.03180   14.03180    2.26590  441.82810   48.05220   48.05220   39.02150   38.92820  435.96940  129.69480  -94.92630  -81.11370  129.74620
 9750.00000   10.32600   10.32600   15.79550   66.13960   58.93360   58.93360   43.76300   44.00080   60.83300   70.35900  -52.06280  -38.58760   72.55550
 9800.00000   12.12000   12.12000    2.19820  454.91950   49.06370   49.06370   32.70170   32.70170  454.91950  170.91720  -72.74190  -59.60240  170.91720
 9850.00000   11.10700   11.10700    2.31890  431.75610   50.34740   50.34740   32.84870   32.33650  436.29620  133.09520  -74.52560  -61.72520  133.10620
 9900.00000    9.27730    9.27730    4.53440  220.53710   52.21570   52.21570   34.74880   34.74880  220.53710  141.48090  -83.88230  -71.41750  141.48090
 9950.00000    8.57130    8.57130    8.05020  124.43590   52.07720   52.07720   38.00670   38.86620  124.74560  108.71860  -90.72080  -78.59500  108.66050
 10000.00000    8.62900    8.62900   20.31980   49.21310   53.93080   53.93080   40.40200   40.38790   49.06900   73.35100  -86.35760  -74.56930   73.35360
 10050.00000    8.53080    8.53080   15.50900   64.47870   52.85560   52.85560   39.10500   39.10500   64.47870   97.30570 -108.11650  -96.66390   97.30570
 10100.00000    8.28330    8.28330    9.89200  101.33400   55.48030   55.48030   41.79720   41.73100  100.42700  122.46360  -77.36480  -66.25120  122.46440
 10150.00000    9.20400    9.20400   96.26490   10.38800   81.78200   81.78200  104.61800  104.61800   10.38800   19.95000  -84.98000  -74.20210   19.95000
 10200.00000   11.40570   11.40570  171.76060    5.83080   74.25000   74.25000   88.46430   89.03930    5.84020    8.50250  -93.86380  -83.42500    8.47920
 10250.00000   10.45300   10.45300  138.69370    7.21570   71.34730   71.34730   67.67740   67.06270    7.21110   11.70730  -80.55230  -70.45090   11.69770
 10300.00000    9.41570    9.41570   97.31510   10.27590   70.01390   70.01390   76.62870   76.62870   10.27590   20.66910  -81.52850  -71.76270   20.66910
 10350.00000    9.75690    9.75690  138.44570    7.22320   70.26040   70.26040   77.43600   77.38080    7.22340   10.79690  -94.37010  -84.94350   10.79380
 10400.00000    9.01200    9.01200  110.20500    9.07400   62.37500   62.37500   79.25400   79.25400    9.07400   16.32400  -74.95700  -65.86600   16.32400
 10450.00000    9.01340    9.01340  136.42100    7.33030   67.10840   67.10840   98.78240   99.15860    7.33390   12.62280  -35.07270  -26.32080   12.59700
 10500.00000    9.08400    9.08400  159.41370    6.27300   70.08140   70.08140   98.31600   99.63870    6.27300   10.67800  -38.38900  -29.97450   10.67770
 10550.00000    8.46480    8.46480  146.93130    6.80590   65.07110   65.07110   73.11850   73.11850    6.80590   11.20060  -60.34210  -52.26320   11.20060
 10600.00000    8.80530    8.80530  157.26360    6.35940   73.20750   73.20750  104.87080  105.82750    6.35940   10.25000  -85.42620  -77.68640   10.25020
 10650.00000    8.57680    8.57680  156.05250    6.40810   74.30050   74.30050  111.44450  111.44450    6.40810   11.20390  -71.65650  -64.25240   11.20390
 10700.00000    8.95380    8.95380  173.19330    5.77450   72.50160   72.50160   91.50250   90.81650    5.77340    9.08180  -69.91530  -62.85030    9.08620
 10750.00000    7.95700    7.95700    5.31980  188.32590   76.80440   76.80440  164.80300  164.42230  188.25500  173.92200  -59.46630  -52.73870  173.92450
 10800.00000    8.01300    8.01300  113.95880    8.77510   81.32220   81.32220  126.10610  126.10610    8.77510   16.01510  -37.19960  -30.80760   16.01510
 10850.00000    8.07540    8.07540   61.96560   16.13850   74.78960   74.78960   51.08100   49.99260   16.13820   31.74920  -24.80600  -17.08250   31.73150
 10900.00000    7.91670    7.91670   62.19330   16.07890   56.96070   56.96070   61.71060   61.71060   16.07890   34.44430  -49.88620  -35.11080   34.44430
 10950.00000    7.81350    7.81350   92.94460   10.76040   62.38560   62.38560   70.15840   70.77850   10.75430   21.32180  -53.31840  -36.55850   21.33070
 11000.00000    7.85500    7.85500   27.31770   37.16610   53.99430   53.99430   48.93600   48.94150   36.51700   71.79400  -56.59850  -39.83860   72.36150
 11050.00000    7.75270    7.75270   12.60140   79.35640   55.04710   55.04710   52.56040   52.56040   79.35640  133.10880 -104.35720  -87.59730  133.10880
 11100.00000    7.85830    7.85830    3.06210  327.06270   48.91400   48.91400   20.87240   21.53010  325.37520  244.67560 -131.62230 -114.86240  244.81610
 11150.00000    -999.25    -999.25   77.11410   12.96780   53.08580   53.08580    -999.25    -999.25   12.96780   38.41500 -125.96180 -109.20190   38.41500
