~Version ---------------------------------------------------
VERS.      2.0 : CWLS log ASCII Standard -VERSION 2.0
WRAP.       NO : One line per depth step
CREA. 11/17/17 : LAS Creation Date
~Well ------------------------------------------------------
STRT.FT                       700.0 : START DEPTH
STOP.FT                      6300.0 : STOP DEPTH
STEP.FT                    50.00000 : STEP LENGTH
NULL.                       -999.25 : NULL VALUE
COMP.      CHEVRON STANDARD LIMITED : COMPANY
WELL. CHEVRON GIFT LAKE 15-36-78-12 : WELL
FLD .                               : FIELD
LOC .                               : LOCATION
CTRY.                        CANADA : COUNTRY
SRVC.                       Unknown : SERVICE COMPANY
DATE.                   14-Feb-1976 : LOGDATE
PROV.                       Alberta : PROVINCE
UWI .              100153607812W500 : UNIQUE WELL ID
SLAT.WGS84                 55.80826 : SURFACE LATITUDE
SLON.WGS84                -115.7168 : SURFACE LONGITUDE
~Curve Information -----------------------------------------
DEPT    .FT    : Depth Curve
CALDED  .IN    : CALIPER FROM DENSITY LOG [ADJ TO RESISTIVITY LOG]
CALSED  .IN    : CALIPER FROM SONIC LOG
CALWS   .IN    : CALIPER [CALDED]
CONDWS  .MMHO  : CONDUCTIVITY [1000/DRESWS]
DCORWS  .G/C3  : DENSITY CORRECTION [DRHOED]
DENWS   .G/C3  : FORMATION BULK DENSITY [RHOBED]
DPHILSED.V/V   : DENSITY POROSITY LIMESTONE [M=2.71, F=1.00(ASSUMED)] FROM DENSITY LOG
DPHISSED.V/V   : DENSITY POROSITY SANDSTONE [M=2.65, F=1.00(ASSUMED)] FROM DENSITY LOG
DPOLSWS .V/V   : DENSITY POROSITY LIMESTONE [CALC FROM DENWS,M=2.71, F=1.00]
DRESWS  .OHMM  : DEEP RESISTIVITY [ILDED]
DRHOED  .G/C3  : DENSITY CORRECTION FROM DENSITY LOG [ADJ TO DPHISSED]
DTED    .US/F  : DELTA TIME FROM SONIC LOG
DTWS    .US/F  : COMPRESSIONAL SONIC [DTED]
GRDED   .GAPI  : GAMMA RAY FROM DENSITY LOG [ADJ TO RESISTIVITY LOG]
GRSED   .GAPI  : GAMMA RAY FROM SONIC LOG
GRWS    .GAPI  : GAMMA RAY [GRSED SPL @700' TO GRDED]
ILDED   .OHMM  : INDUCTION LOG DEEP RESISTIVITY FROM RESISTIVITY LOG
ILMED   .OHMM  : INDUCTION LOG MEDIUM RESISTIVITY FROM RESISTIVITY LOG
LL8ED   .OHMM  : 8 INCH LATEROLOG RESISTIVITY FROM RESISTIVITY LOG
MRESWS  .OHMM  : MEDIUM RESISTIVITY [ILMED]
NPHILSED.V/V   : NEUTRON POROSITY LIMESTONE FROM DENSITY LOG
NPHISSED.V/V   : NEUTRON POROSITY SANDSTONE FROM DENSITY LOG
NPOLSWS .V/V   : NEUTRON POROSITY LIMESTONE [NPHISSED MATRIX CONVERTED TO LIMESTONE(SLB CNL) SPL @2670' TO NPHILSED]
RHOBED  .G/C3  : BULK DENSITY FROM DENSITY LOG [ADJ TO DPHISSED]
SPRED   .MV    : SPONTANEOUS POTENTIAL FROM RESISTIVITY LOG
SPWS    .MV    : SPONTANEOUS POTENTIAL [BASELINE 0MV, SPRED]
SRESWS  .OHMM  : SHALLOW RESISTIVITY [LL8ED]
~Params ----------------------------------------------------
PD  .                     GL : PERMANENT DATUM
EPD .FT               2288.9 : ELEVATION PERMANENT DATUM
LMF .                     KB : LOG MEASURED FROM
DAPD.FT                 12.1 : FEET ABOVE PERMANENT DATUM
EKB .FT                 2301 : KELLY BUSHING
EGL .FT               2288.9 : GROUND LEVEL
DATE.               02/14/76 : RUN DATE
RUN .                      1 : RUN NUMBER
DD  .FT                 6318 : DEPTH DRILLER
DL  .FT                 6318 : DEPTH LOGGER
BLI .FT                 6312 : BOTTOM LOG INTERVAL
TLI .FT                  727 : TOP LOG INTERVAL
CBD .FT                  727 : CASING BOTTOM DRILLER
CBL .FT                  727 : CASING BOTTOM LOGGER
BS  .IN                7.875 : BIT SIZE
BSD .FT                 6318 : BIT SIZE AT DEPTH
DFT .                    GEL : DRILLING FLUID TYPE
DFD .                    9.6 : DRILLING FLUID DENSITY
DFV .                     68 : DRILLING FLUID VISCOSITY
DFPH.                    9.5 : DRILLING FLUID PH
DFL .                    8.5 : DRILLING FLUID LOSS
RMS .OHMM               1.06 : RESISTIVITY MUD SAMPLE
MST .DEGF                 64 : MUD SAMPLE TEMPERATURE
RMF .OHMM               0.79 : RESISTIVITY MUD FILTRATE SAMPLE
MFST.DEGF                 62 : MUD FILTRATE SAMPLE TEMPERATURE
RMB .OHMM               0.44 : RESISTIVITY MUD AT BHT
TCS .HRS                 2.5 : TIME CIRCULATED STOPPED
LUN .                   7636 : LOGGING UNIT NUMBER
LUL .                    EDM : LOGGING UNIT LOCATION
ENGI.             SLUSARCHUK : RECORDING ENGINEER
WITN.               SHEPPARD : WITNESSED BY
CLNT.                A2DTECH : CLIENT CODE
ORIG.            2" 5" PRINT : ORIGIN OF DATA
UWI .       100153607812W500 : UNIQUE WELL ID
DICO. A2D Technologies, Inc. : DIGITIZING COMPANY
~Other -----------------------------------------------------
DIL-FDC-CNL-GR-SLC TOOL RUN
~ASCII -----------------------------------------------------
# ...
 4600.00000    7.64960    7.93150    7.64960  290.01480    0.02250    2.58110    0.07880    -999.25    0.07540    3.44810    0.02250   58.12620   58.12620   37.15420   38.74920   37.15420    3.44810    4.81260   17.47320    4.81260    0.18840    -999.25    0.18840    2.58110 -118.20930  -63.43790   17.47320
 4650.00000    8.48220    8.78600    8.48220   43.96740    0.00370    2.76030   -0.02850    -999.25   -0.02940   22.74410    0.00370   49.94720   49.94720   32.00320   26.81500   32.00320   22.74410   28.49410   48.30170   28.49410    0.11510    -999.25    0.11510    2.76030  -85.53140  -34.36100   48.30170
 4700.00000    8.66760    9.49430    8.66760  126.13680    0.01740    2.71020   -0.00570    -999.25   -0.00010    7.92790    0.01740   60.28640   60.28640   40.83800   52.22610   40.83800    7.92790    8.55010   12.72310    8.55010    0.19080    -999.25    0.19080    2.71020  -66.60950  -19.04000   12.72310
 4750.00000    7.62420    7.70550    7.62420  137.64440    0.02650    2.63050    0.04390    -999.25    0.04650    7.26510    0.02650   52.70260   52.70260   19.14500   19.39430   19.14500    7.26510   10.29030   32.40220   10.29030    0.18250    -999.25    0.18250    2.63050 -112.22400  -68.25550   32.40220
 4800.00000    7.70660    7.86430    7.70660  219.38150    0.02950    2.68010    0.01510    -999.25    0.01750    4.57560    0.02950   53.29030   53.29030   29.30290   30.16750   29.30290    4.57560    6.90170   61.92680    6.90170    0.15450    -999.25    0.15450    2.68010 -115.26480  -74.87920   61.92680
 4850.00000    7.85630    8.19910    7.85630   32.29140    0.03170    2.82440   -0.07520    -999.25   -0.06690   30.96800    0.03170   52.46520   52.46520   30.47750   32.80970   30.47750   30.96800   33.25460   46.91930   33.25460    0.10940    -999.25    0.10940    2.82440  -60.00490  -23.23820   46.91930
 4900.00000    7.90760    8.13090    7.90760   76.74600    0.00120    2.68420    0.01800    -999.25    0.01510   13.03000    0.00120   61.47240   61.47240   54.03290   56.79600   54.03290   13.03000   13.94000   17.16250   13.94000    0.14060    -999.25    0.14060    2.68420  -44.33160   -9.26170   17.16250
 4950.00000    9.53930    9.71140    9.53930  441.54010    0.05380    2.38020    0.19630    -999.25    0.19290    2.26480    0.05380   96.99520   96.99520  130.03030  120.52330  130.03030    2.26480    2.43770    2.89300    2.43770    0.39670    -999.25    0.39670    2.38020  -60.14860  -25.55810    2.89300
 5000.00000   11.73730   10.86980   11.73730  404.89110    0.08650    2.40920    0.17650    -999.25    0.17590    2.46980    0.08650   93.64120   93.64120  119.03660  125.57140  119.03660    2.46980    2.53510    3.07130    2.53510    0.38080    -999.25    0.38080    2.40920  -66.11530  -32.00420    3.07130
 5050.00000   12.69890   11.23560   12.69890  304.67600    0.06910    2.52770    0.10760    -999.25    0.10660    3.28220    0.06910   87.27700   87.27700  104.25320  108.35180  104.25320    3.28220    3.41740    4.18130    3.41740    0.28020    -999.25    0.28020    2.52770  -61.06810  -27.43390    4.18130
 5100.00000   13.31020   10.81790   13.31020  368.77240    0.04130    2.48370    0.12930    -999.25    0.13230    2.71170    0.04130   93.57670   93.57670  115.58870  122.89290  115.58870    2.71170    2.81490    3.39550    2.81490    0.33170    -999.25    0.33170    2.48370  -56.55170  -23.39930    3.39550
 5150.00000   14.44080   11.81240   14.44080  419.55110    0.08630    2.48960    0.12890    -999.25    0.12890    2.38350    0.08630   93.41340   93.41340  110.06770  112.85990  110.06770    2.38350    2.55300    3.13710    2.55300    0.34380    -999.25    0.34380    2.48960  -63.02750  -30.35450    3.13710
 5200.00000   14.81840   12.14090   14.81840  369.75410    0.14320    2.50280    0.12330    -999.25    0.12120    2.70450    0.14320   90.87250   90.87250  104.92300  107.90590  104.92300    2.70450    2.84460    3.54900    2.84460    0.30450    -999.25    0.30450    2.50280  -61.33620  -29.14260    3.54900
 5250.00000   15.06210   11.89190   15.06210  378.65880    0.10160    2.51570    0.11640    -999.25    0.11360    2.64090    0.10160   91.68960   91.68960   99.41910  109.06220   99.41910    2.64090    2.71610    3.21330    2.71610    0.33290    -999.25    0.33290    2.51570  -55.15810  -23.44380    3.21330
 5300.00000   15.00000   12.79220   15.00000  397.29870    0.14490    2.37220    0.20390    -999.25    0.19760    2.51700    0.14490   91.29530   91.29530  107.52040  101.03030  107.52040    2.51700    2.59810    3.09320    2.59810    0.34810    -999.25    0.34810    2.37220  -54.45520  -23.21790    3.09320
 5350.00000   12.35790   11.46510   12.35790  353.93220    0.15190    2.49960    0.12710    -999.25    0.12300    2.82540    0.15190   87.56030   87.56030   86.61760   90.72680   86.61760    2.82540    2.92900    3.72820    2.92900    0.30070    -999.25    0.30070    2.49960  -47.47280  -16.71730    3.72820
 5400.00000   13.92990   11.94840   13.92990  312.25600    0.16330    2.53600    0.10470    -999.25    0.10180    3.20250    0.16330   85.39340   85.39340   99.18070   96.89790   99.18070    3.20250    3.34560    3.97260    3.34560    0.29800    -999.25    0.29800    2.53600  -53.70350  -23.42740    3.97260
 5450.00000   14.29190   12.43560   14.29190  360.67230    0.13400    2.42900    0.16510    -999.25    0.16430    2.77260    0.13400   91.57590   91.57590  100.36130   98.35060  100.36130    2.77260    2.88670    3.46430    2.88670    0.32480    -999.25    0.32480    2.42900  -54.48420  -24.68740    3.46430
 5500.00000   13.22620   11.56200   13.22620  371.63670    0.05160    2.41030    0.18010    -999.25    0.17530    2.69080    0.05160   89.96080   89.96080   91.40200   97.54680   91.40200    2.69080    2.82630    3.46230    2.82630    0.33060    -999.25    0.33060    2.41030  -52.14790  -22.83050    3.46230
 5550.00000   13.15610   12.10890   13.15610  415.80450    0.18630    2.30900    0.23650    -999.25    0.23450    2.40530    0.18630   98.54450   98.54450  108.94060  107.26200  108.94060    2.40530    2.50620    3.08320    2.50620    0.42170    -999.25    0.42170    2.30900  -50.98760  -22.14720    3.08320
 5600.00000    8.39170    8.70230    8.39170  238.19730    0.19930    2.54170    0.09890    -999.25    0.09840    4.19820    0.19930   80.62520   80.62520   77.42130   72.76230   77.42130    4.19820    4.32240    6.69840    4.32240    0.25320    -999.25    0.25320    2.54170  -43.39470  -15.03600    6.69840
 5650.00000    8.46200    8.95530    8.46200  264.90070    0.24110    2.49080    0.12860    -999.25    0.12820    3.77500    0.24110   82.59230   82.59230   77.53710   80.59600   77.53710    3.77500    3.93990    5.38500    3.93990    0.25290    -999.25    0.25290    2.49080  -40.11810  -12.23880    5.38500
 5700.00000   14.70790   12.59760   14.70790  436.75750    0.16450    2.41340    0.17540    -999.25    0.17350    2.28960    0.16450   97.34920   97.34920   99.70540  108.52000   99.70540    2.28960    2.40450    3.07630    2.40450    0.33080    -999.25    0.33080    2.41340  -52.60400  -24.04080    3.07630
 5750.00000   12.22430   10.78150   12.22430  494.85350    0.14990    2.14230    0.33590    -999.25    0.33200    2.02080    0.14990  107.25730  107.25730  148.03450  153.95780  148.03450    2.02080    2.08330    2.55680    2.08330    0.41760    -999.25    0.41760    2.14230  -58.42540  -28.43450    2.55680
 5800.00000   14.52660   13.46530   14.52660  285.25850    0.13930    2.41790    0.16810    -999.25    0.17080    3.50610    0.13930   89.92910   89.92910   87.30440   88.73250   87.30440    3.50610    3.62460    4.50380    3.62460    0.36550    -999.25    0.36550    2.41790  -60.91450  -29.50310    4.50380
 5850.00000   11.73200   11.05950   11.73200  338.14630    0.18230    2.41510    0.17730    -999.25    0.17250    2.95730    0.18230   85.29890   85.29890   79.47570   84.28370   79.47570    2.95730    3.05720    3.69630    3.05720    0.33310    -999.25    0.33310    2.41510  -62.98860  -30.14230    3.69630
