~Version ---------------------------------------------------
VERS. 2.0 : CWLS log ASCII Standard -VERSION 2.0
WRAP.  NO : ONE LINE PER DEPTH STEP
~Well ------------------------------------------------------
STRT.M                      300.0 : START DEPTH
STOP.M                     2850.0 : STOP DEPTH
STEP.M                   50.00000 : STEP LENGTH
NULL.                     -999.25 : NULL VALUE
COMP.        MOBIL OIL CANADA LTD : COMPANY
WELL. MOBIL GOOSE RIVER 7-9-68-18 : WELL
FLD .                             : FIELD
LOC .                             : LOCATION
CTRY.                      CANADA : COUNTRY
SRVC.                     Unknown : SERVICE COMPANY
DATE.                 26-Feb-1983 : LOGDATE
PROV.                     Alberta : PROVINCE
UWI .            100070906818W500 : UNIQUE WELL ID
SLAT.WGS84               54.87148 : SURFACE LATITUDE
SLON.WGS84              -116.6809 : SURFACE LONGITUDE
~Curve Information -----------------------------------------
DEPT   .M    0   1   0  0 : 1 MEASURED DEPTH
SPR    .MV   07 010 01 00 : SPONTANEOUS POTENTIAL FROM RESISTIVITY LOG
RILM   .OHMM 07 120 44 00 : INDUCTION MEDIUM RESISTIVITY
RFOC   .OHMM 07 220 06 00 : SHALLOW FOCUSED LOG RESISTIVITY
RILD   .OHMM 07 120 46 00 : INDUCTION DEEP RESISTIVITY
GRS    .GAPI 60 310 01 00 : GAMMA RAY FROM SONIC LOG
AC     .US/M 60 500 00 00 : ACOUSTIC
CALS   .MM   60 280 50 00 : CALIPER FROM SONIC LOG
TENS   .KG   60 635 00 00 : TENSION FROM SONIC LOG
C24    .MM   45 280 24 00 : CALIPER 2-4 PAD ELECTRODE
C13    .MM   45 280 13 00 : CALIPER 1-3 PAD ELECTRODE
CORR   .G/C3 45 356 01 00 : DENSITY CORRECTION
DEN    .G/C3 45 350 01 00 : COMPENSATED BULK DENSITY
TEND   .KG   45 635 00 00 : TENSION FROM DENSITY LOG
GRD    .GAPI 45 310 01 00 : GAMMA RAY FROM DENSITY LOG
CN_SS  .DEC  42 890 03 00 : COMPENSATED NEUTRON POROSITY SANDSTONE
PORD_SS.DEC  45 890 12 00 : DENSITY POROSITY [SANDSTONE]
PORD_LS.DEC  45 890 10 00 : DENSITY POROSITY [LIMESTONE]
CN_LS  .DEC  42 890 01 00 : COMPENSATED NEUTRON POROSITY LIMESTONE
~Params ----------------------------------------------------
PD  .                         GL : PERMANENT DATUM
EPD .M                     803.8 : ELEVATION PERMANENT DATUM
LMF .                         KB : LOG MEASURED FROM
DAPD.M                      7.74 : FEET ABOVE PERMANENT DATUM
DMF .                         KB : DRILLING MEASURED FROM
EKB .M                    811.54 : KELLY BUSHING
EGL .M                     803.8 : GROUND LEVEL
DATE.                   02/26/83 : RUN DATE
RUN .                          1 : RUN NUMBER
DD  .M                    2888.4 : DEPTH DRILLER
DL  .M                    2887.4 : DEPTH LOGGER
BLI .M                    2886.8 : BOTTOM LOG INTERVAL
TLI .M                       420 : TOP LOG INTERVAL
CS  .MM                    244.5 : CASING SIZE
CBD .M                       416 : CASING BOTTOM DRILLER
CBL .M                       420 : CASING BOTTOM LOGGER
BS  .MM                      222 : BIT SIZE
BSD .M                    2888.4 : BIT SIZE AT DEPTH
DFT .                   GEL CHEM : DRILLING FLUID TYPE
DFD .                       1090 : DRILLING FLUID DENSITY
DFV .                         78 : DRILLING FLUID VISCOSITY
DFPH.                          9 : DRILLING FLUID PH
DFL .                          9 : DRILLING FLUID LOSS
MSS .                   FLOWLINE : MUD SAMPLE SOURCE
RMS .OHMM                    1.9 : RESISTIVITY MUD SAMPLE
MST .DEGC                     23 : MUD SAMPLE TEMPERATURE
RMF .OHMM                    1.9 : RESISTIVITY MUD FILTRATE SAMPLE
MFST.DEGC                   22.2 : MUD FILTRATE SAMPLE TEMPERATURE
RMC .OHMM                    1.9 : RESISTIVITY MUD CAKE
MCST.DEGC                   23.2 : MUD CAKE SAMPLE TEMPERATURE
MFSS.                       MEAS : MUD FILTRATE SAMPLE SOURCE
MCSS.                       MEAS : MUD CAKE SAMPLE SOURCE
RMB .OHMM                   0.82 : RESISTIVITY MUD AT BHT
TCS .HRS                       6 : TIME CIRCULATED STOPPED
LUN .                     HL 621 : LOGGING UNIT NUMBER
LUL .                         GP : LOGGING UNIT LOCATION
ENGI.                       GUNN : RECORDING ENGINEER
WITN.                     MELNYK : WITNESSED BY
CLNT.                    A2DTECH : CLIENT CODE
ORIG. 6.5"/100M 16.5"/100M PRINT : ORIGIN OF DATA
UWI .           100070906818W500 : UNIQUE WELL ID
DICO.     A2D Technologies, Inc. : DIGITIZING COMPANY
~Other -----------------------------------------------------
~ASCII -----------------------------------------------------
  300.00000    -999.25    -999.25    -999.25    -999.25    -999.25    -999.25    -999.25    -999.25    -999.25    -999.25    -999.25    -999.25    -999.25   53.34390    0.43880    -999.25    -999.25    -999.25
  350.00000    -999.25    -999.25    -999.25    -999.25    -999.25    -999.25    -999.25    -999.25    -999.25    -999.25    -999.25    -999.25    -999.25   37.52260    0.37340    -999.25    -999.25    -999.25
  400.00000    -999.25    -999.25    -999.25    -999.25    -999.25    -999.25    -999.25    -999.25    -999.25    -999.25    -999.25    -999.25    -999.25   43.95790    0.41550    -999.25    -999.25    -999.25
  450.00000  -48.38040    5.38190    4.12610    5.29770   57.89600  377.52430  258.20270  -33.76350  230.96810  271.57960    0.10750    2.35000  -25.52230   53.68280    0.28930    0.17900    -999.25    -999.25
  500.00000  -32.18820    3.16810    3.23390    3.49360   66.07000  401.72080  291.38150  -44.58620  294.10280  390.65160   -0.00810    1.59240  -24.37590   58.78160    0.37090    0.64120    -999.25    -999.25
  550.00000  -33.04250    3.86660    3.38420    3.73670   62.73110  375.97840  248.74160  -42.13090  269.47480  288.36170    0.17890    1.99480  -34.80370   57.82720    0.31990    0.39560    -999.25    -999.25
  600.00000  -37.83060    6.25300    4.96770    5.73460   50.44610  381.93420  240.02210  -23.69530  213.61340  288.54740    0.11320    2.30620  -32.53150   49.85740    0.33330    0.20820    -999.25    -999.25
  650.00000  -32.57750    4.84770    4.17950    4.45570   64.58690  340.52010  252.84170  -37.38740  213.12170  304.31140    0.19040    2.16590  -32.03990   71.64180    0.34060    0.29370    -999.25    -999.25
  700.00000  -29.53570    6.17380    5.85750    5.98180  109.38090  372.76670  296.70710  -29.77530  285.76150  267.98470    0.13250    2.15240  -32.12980  107.80730    0.33380    0.30030    -999.25    -999.25
  750.00000  -28.03620    4.77850    5.25670    6.25960   83.32570  338.29980  268.88850  -38.14130  239.65830  307.54120    0.00330    1.74690  -16.77770   86.22350    0.38720    0.59800    -999.25    -999.25
  800.00000  -27.82300    6.82710    5.33110    7.94520   97.99080  417.40390  252.70810  -27.35720  250.09360  279.39650    0.01330    1.83070  -34.49300   90.80480    0.39870    0.50260    -999.25    -999.25
  850.00000  -24.04770    6.75160    6.16780    7.25090   97.19780  328.18340  311.98470  -35.96270  343.02570  278.48740    0.13510    2.12410  -22.08940   95.06780    0.32000    0.32380    -999.25    -999.25
  900.00000  -23.43130    6.31290    6.03570    6.65550  101.74890  333.47740  324.65520  -23.56250  369.62560  280.82180    0.18700    2.22480  -34.67450   92.09930    0.28620    0.25230    -999.25    -999.25
  950.00000  -34.86120    6.31370    7.76160    6.52870  134.46520  358.90650  230.76460  -44.86400  239.28240  237.45430    0.17980    2.42250  -35.44180  137.55060    0.35250    0.13900    -999.25    -999.25
 1000.00000  -16.47670    4.53990    4.81060    5.29470   94.47180  321.22650  233.64670  -26.60900  272.63750  246.60220   -0.01540    1.78210  -34.06510   90.22710    0.33160    0.52630    -999.25    -999.25
 1050.00000  -24.05890    5.43490    5.35330    5.57730  103.74220  322.31280  239.61710  -23.43980  275.27470  235.47930    0.22230    2.17840  -14.47270  100.70080    0.27210    0.28720    -999.25    -999.25
 1100.00000  -25.18330    3.95380    4.38400    4.06600  106.64700  337.19570  285.92380  -27.46440  291.86260  290.60830    0.19430    2.14690  -17.87090  105.28400    0.38760    0.30980    -999.25    -999.25
 1150.00000  -26.59920    3.28820    3.52380    3.21940   94.89840  331.46930  289.00390  -42.91440  281.49470  279.80510    0.16140    2.01130  -20.18470   98.44030    0.27890    0.39160    -999.25    -999.25
 1200.00000  -28.21350    5.76040    4.94070    4.99750   86.01730  298.84780  227.17190  -35.90150  223.03610  256.67610    0.20420    2.18110  -13.28700   86.44870    0.26800    0.26540    -999.25    -999.25
 1250.00000  -36.09270    6.21700    5.76610    6.61460   83.12970  406.84440  227.26330  -22.85020  232.19040  246.77680    0.03200    2.17330   -8.54010   85.25080    0.24340    0.27890    -999.25    -999.25
 1300.00000  -32.66140    5.25180    4.83360    4.69020   74.97160  281.55100  234.62950  -24.49470  230.99310  256.13270    0.06250    2.49740  -22.01860   73.90380    0.24270    0.09210    -999.25    -999.25
 1350.00000  -50.68480    7.67720   10.76670    6.68890   57.66090  263.95950  221.28120  -40.81200  223.61390  231.32590    0.17430    2.47050  -32.49980   49.49230    0.23840    0.10830    -999.25    -999.25
 1400.00000  -91.81460    6.81660   11.57800    3.44950   58.24280  274.41330  211.53070  -22.07120  199.97540  228.19240    0.17570    2.43320  -26.94600   55.28860    0.26180    0.12910    -999.25    -999.25
 1450.00000  -25.51210    1.99510    2.80970    1.75940   87.03390  370.28540  297.57360  -22.03980  314.95190  285.33220    0.16660    2.08200  -36.32640   87.52180    0.40080    0.34600    -999.25    -999.25
 1500.00000  -51.35520   14.62430   18.09650   11.34860   49.67110  241.81590  256.68240  -22.61590  274.91350  262.78180    0.02420    2.46920   -6.78510   48.78540    0.18500    0.10900    -999.25    -999.25
 1550.00000  -29.40070   12.18690   17.01640   13.35280  117.72870  351.36030  250.65900  -29.29550  317.18200  264.49360    0.11270    2.09290  -35.94880  107.15130    0.34490    0.33060    0.34660    0.29800
 1600.00000 -101.39350    5.85840   12.55320    3.70250   69.40460  236.46330  277.83790  -31.83730  278.30690  281.57260    0.06370    2.44790  -25.71560   75.64920    -999.25    -999.25    0.14920    0.15810
 1650.00000 -135.28550   12.44980   33.47250    8.19010   24.04800  179.85020  223.60340  -33.03370  249.12150  240.46230    0.13330    2.72490  -27.66610   25.74830    -999.25    -999.25   -0.00960    0.11810
 1700.00000  -81.16700   13.28720   20.73400    5.18830   18.70540  181.37850  242.70780  -35.23760  243.71610  270.01820    0.05250    2.66620  -15.61950   34.78420    -999.25    -999.25    0.02590    0.04520
 1750.00000 -109.08730   13.29510   23.17760   11.47180   21.12440  184.54980  270.19820  -24.92570  264.61670  270.92970    0.07260    2.68960  -39.36730   22.01960    -999.25    -999.25    0.01270    0.06880
 1800.00000 -166.99260   22.40790  173.71980   10.30950   13.50910  187.79110  258.46970  -30.16530  247.43860  255.86590    0.17000    2.65790  -20.83070   18.38670    -999.25    -999.25    0.03070    0.07710
 1850.00000  -84.63380   15.09150   27.10660   13.61070   56.00750  192.12820  258.11590  -25.09540  248.96750  281.36210    0.04110    2.66760  -28.20070   51.86830    -999.25    -999.25    0.02630    0.03290
 1900.00000  -89.93550  213.02250  226.64760  248.65050   25.34830  176.76570  243.50340  -31.83050  233.09680  248.00570    0.07270    2.69720  -25.13390   21.64370    -999.25    -999.25    0.01000    0.01710
 1950.00000  -65.87290   62.60520   61.78300   58.43390   39.44530  180.34030  233.85920  -32.57950  221.94040  240.12990    0.02370    2.67400  -23.66050   30.04210    -999.25    -999.25    0.02160    0.03540
 2000.00000  -22.73250   42.74070   42.92770   35.48320   68.08310  205.45780  251.58800  -33.10760  250.65930  270.04090    0.05970    2.66980  -20.02630   68.17370    -999.25    -999.25    0.02290    0.06850
 2050.00000  -47.81920    -999.25 1263.91320    -999.25   16.57830  176.46880  279.76210  -23.42170  245.93380  333.99570    0.06960    2.67790  -25.21830   16.43820    -999.25    -999.25    0.01920    0.01080
 2100.00000  -99.87240    -999.25 2011.00830    -999.25   13.57380  161.17720  262.79690  -37.49550  241.66390  290.74260    0.10600    2.75440  -17.59180   11.92230    -999.25    -999.25   -0.03100    0.00980
 2150.00000 -126.83420   57.34860  317.68570   29.68590   14.51250  173.25520  237.30810  -29.98580  247.50890  242.57040    0.03850    2.66230  -29.57340    9.69720    -999.25    -999.25    0.02520    0.02610
 2200.00000 -201.55840    -999.25 1044.98070    -999.25   16.43840  165.44890  232.02440  -28.09620  251.20790  232.56700    0.05000    2.67340  -24.35110   10.08300    -999.25    -999.25    0.02150    0.01400
