~Version ---------------------------------------------------
VERS.      2.0 : CWLS log ASCII Standard -VERSION 2.0
WRAP.       NO : One line per depth step
CREA. 08/26/14 : LAS Creation Date
~Well ------------------------------------------------------
STRT.FT                    1300.0 : START DEPTH
STOP.FT                   12250.0 : STOP DEPTH
STEP.FT                  50.00000 : STEP LENGTH
NULL.                     -999.25 : NULL VALUE
COMP.  TEXACO EXPLORATION COMPANY : COMPANY
WELL. TEXACO MARLBORO 10-12-54-18 : WELL
FLD .                             : FIELD
LOC .                             : LOCATION
CTRY.                      CANADA : COUNTRY
SRVC.      Schlumberger of Canada : SERVICE COMPANY
DATE.                 04-Oct-1969 : LOGDATE
PROV.                     Alberta : PROVINCE
UWI .            100101205418W500 : UNIQUE WELL ID
SLAT.WGS84                53.6526 : SURFACE LATITUDE
SLON.WGS84               -116.514 : SURFACE LONGITUDE
~Curve Information -----------------------------------------
DEPT.FT    : Depth Curve
CALD.IN    : CALIPER FROM DENSITY LOG
CALS.IN    : CALIPER FROM SONIC LOG
CILD.MMHO  : INDUCTION DEEP CONDUCTIVITY
DRHO.G/C3  : BULK DENSITY CORRECTION
DT  .US/F  : DELTA-T (INTERVAL TRANSIT TIME)
GRD .GAPI  : GAMMA RAY FROM DENSITY LOG
GRS .GAPI  : GAMMA RAY FROM SONIC LOG
ILD .OHMM  : INDUCTION DEEP RESISTIVITY
RHOB.G/C3  : BULK DENSITY
SN  .OHMM  : SHORT NORMAL RESISTIVITY
SPR .MV    : SPONTANEOUS POTENTIAL FROM RESISTIVITY LOG
~Params ----------------------------------------------------
PD  .                     GL : PERMANENT DATUM
EPD .FT               3162.6 : ELEVATION PERMANENT DATUM
LMF .                     KB : LOG MEASURED FROM
DAPD.FT                 13.7 : FEET ABOVE PERMANENT DATUM
EKB .FT               3179.3 : KELLY BUSHING
EGL .FT               3165.6 : GROUND LEVEL
DATE.               11/18/69 : RUN DATE
RUN .                      1 : RUN NUMBER
DD  .FT                12259 : DEPTH DRILLER
DL  .FT                12263 : DEPTH LOGGER
BLI .FT                12262 : BOTTOM LOG INTERVAL
TLI .FT                 8816 : TOP LOG INTERVAL
CBD .FT                 1266 : CASING BOTTOM DRILLER
CBL .FT                 1264 : CASING BOTTOM LOGGER
BSD .FT                12259 : BIT SIZE AT DEPTH
DFT .               GEL CHEM : DRILLING FLUID TYPE
DFD .                   10.5 : DRILLING FLUID DENSITY
DFV .                     60 : DRILLING FLUID VISCOSITY
DFPH.                      9 : DRILLING FLUID PH
DFL .                    6.8 : DRILLING FLUID LOSS
RMS .OHMM               1.58 : RESISTIVITY MUD SAMPLE
MST .DEGF                 68 : MUD SAMPLE TEMPERATURE
RMF .OHMM               1.05 : RESISTIVITY MUD FILTRATE SAMPLE
MFST.DEGF                 66 : MUD FILTRATE SAMPLE TEMPERATURE
RMC .OHMM               1.92 : RESISTIVITY MUD CAKE
MCST.DEGF                 68 : MUD CAKE SAMPLE TEMPERATURE
RMB .OHMM               0.47 : RESISTIVITY MUD AT BHT
TCS .HRS                 2.5 : TIME CIRCULATED STOPPED
LUN .                   7502 : LOGGING UNIT NUMBER
LUL .                    EDM : LOGGING UNIT LOCATION
ENGI.                 SLADEN : RECORDING ENGINEER
WITN.               BRYNLUND : WITNESSED BY
CLNT.                A2DTECH : CLIENT CODE
ORIG.            2" 5" PRINT : ORIGIN OF DATA
UWI .       100101205418W500 : UNIQUE WELL ID
DICO. A2D Technologies, Inc. : DIGITIZING COMPANY
~Other -----------------------------------------------------
~ASCII -----------------------------------------------------
# ...
 7400.00000    -999.25    9.90220  109.01680    -999.25   79.01520    -999.25   87.92480    8.75400    -999.25   13.08320  -40.69570
 7450.00000    -999.25    9.44800   44.07360    -999.25   68.98700    -999.25   73.43370   20.59340    -999.25   28.19600  -41.51800
 7500.00000    -999.25   11.39710  296.10130    -999.25   86.70680    -999.25   84.11180    3.56640    -999.25    5.28830  -42.69840
 7550.00000    -999.25    9.34610   36.88080    -999.25   67.62360    -999.25   51.72020   23.96720    -999.25   31.82800  -62.38310
 7600.00000    -999.25   11.42250  107.80320    -999.25   82.16070    -999.25   83.71840    9.13580    -999.25   12.37350  -40.61470
 7650.00000    -999.25    9.44560   52.04540    -999.25   68.27750    -999.25   68.16870   17.47860    -999.25   22.31340  -43.49410
 7700.00000    -999.25    9.71540   70.20110    -999.25   71.75630    -999.25   78.65430   13.09390    -999.25   20.91480  -38.86410
 7750.00000    -999.25    9.71830   56.59980    -999.25   68.98240    -999.25   67.90700   16.22960    -999.25   25.22390  -43.11240
 7800.00000    -999.25    9.93500   74.26470    -999.25   74.74800    -999.25   73.97840   12.58580    -999.25   20.06430  -41.85580
 7850.00000    -999.25    9.83750   56.51060    -999.25   69.02180    -999.25   68.13500   16.86070    -999.25   26.41950  -42.40680
 7900.00000    -999.25    9.47340   51.35820    -999.25   75.54790    -999.25   70.60090   17.85830    -999.25   27.57590  -42.58430
 7950.00000    -999.25   10.00740   58.25450    -999.25   64.73500    -999.25   46.10800   16.20670    -999.25   34.32560  -43.50090
 8000.00000    -999.25    9.92140   65.18220    -999.25   68.34400    -999.25   51.40910   14.01980    -999.25   19.19240  -46.36830
 8050.00000    -999.25    9.83710   66.86970    -999.25   70.07410    -999.25   74.64120   13.86470    -999.25   20.29230  -40.57810
 8100.00000    -999.25    9.87330   58.80080    -999.25   66.31190    -999.25   61.74810   15.83900    -999.25   23.27310  -43.46390
 8150.00000    -999.25    9.75460   25.93900    -999.25   68.06480    -999.25   48.66000   38.43180    -999.25   42.66110  -51.73140
 8200.00000    -999.25    9.53770   32.10640    -999.25   65.63400    -999.25   68.47790   29.16400    -999.25   41.75810  -64.10370
 8250.00000    -999.25   10.18930   43.68170    -999.25   66.46910    -999.25   80.13440   21.10730    -999.25   27.43820  -55.63240
 8300.00000    -999.25    9.71960   37.61200    -999.25   75.94430    -999.25   46.60080   24.03450    -999.25   31.85870 -118.46740
 8350.00000    -999.25   10.05990   25.11040    -999.25   68.80800    -999.25   50.75010   36.92180    -999.25   42.57110  -65.24450
 8400.00000    -999.25    9.57300   30.95400    -999.25   72.22520    -999.25   88.10670   29.89530    -999.25   37.79890  -56.10130
 8450.00000    -999.25    9.60210   29.47360    -999.25   71.33780    -999.25   72.96640   31.54660    -999.25   42.48730  -55.71950
 8500.00000    -999.25    9.45440   59.81510    -999.25   65.60630    -999.25   72.97770   15.30880    -999.25   24.57710  -61.22540
 8550.00000   10.70430    9.98360  110.44500    0.13090   87.44320  108.82940   90.15080    8.73460    2.20690   15.78410  -54.58600
 8600.00000    9.11210    8.95150    0.58180    0.01910   55.65730   26.63080   15.01730  493.63720    2.56450  302.19940 -117.10700
 8650.00000    8.80920    8.90940   -0.10130    0.06020   56.70530   17.37170   11.80560  494.92900    2.56380  350.53750 -124.74590
 8700.00000    8.81850    8.36280    0.48980    0.00240   52.87370   27.09030   15.34180  494.76680    2.63260  507.71870  -76.17060
 8750.00000   10.71800    8.95930   17.49790    0.19000   53.03900   39.33600   29.53680   59.64980    2.56430  135.12760  -94.58720
 8800.00000   11.02510    8.93900   24.44380    0.15310   54.64360   56.91090   58.83470   39.25490    2.32030   58.77610 -111.81870
 8850.00000   11.28460    9.82050   23.86380    0.05440   56.55640   63.30360   60.33150   43.52490    2.34880   44.60660  -75.35230
 8900.00000    9.70030    9.24650   14.10020   -0.00520   50.15390   18.21270   17.57760   71.74870    2.90040   50.08480  -70.25880
 8950.00000    8.83780    9.32560   11.98490    0.09690   53.66040   59.95790   49.40580   98.24760    2.60690  133.98390  -71.41600
 9000.00000    9.34190    9.15950   11.06370    0.03950   49.35990   16.33170   13.13180   96.16780    2.87700   83.43990 -114.18240
 9050.00000   11.62140    9.72540   16.60740    0.13530   53.00210   22.59790   21.06200   61.65930    2.28520  109.24810 -125.81290
 9100.00000   11.15900    9.31300   35.73900    0.18190   52.37320   67.56250   72.66140   29.89560    2.42530   30.09930  -63.63010
 9150.00000    9.41960    9.13800   67.54800   -0.00030   56.71800   81.73460   71.92630   14.96530    2.70260   20.91120  -52.40350
 9200.00000    9.44170    9.05400   19.87200    0.02270   54.29290   62.49890   64.43590   45.37710    2.70370   66.75350  -33.25340
 9250.00000   11.02590    9.37910   18.98660    0.18250   54.52930   47.78950   43.52200   51.90770    2.46840   65.17600  -31.91840
 9300.00000   11.65590    9.80770    6.15160    0.14370   50.93960   15.80910   15.30250  206.55620    2.68350  219.81580 -101.11860
 9350.00000   10.67660    9.56160   40.38670    0.11070   54.76700   28.03500   28.58000   25.27160    2.70280   44.16450  -82.72690
 9400.00000    9.07940    9.06810   35.83750    0.05050   57.41740   52.40320   47.28630   28.15680    2.63450   39.85620  -32.28250
 9450.00000    8.95300    9.04800   23.75840    0.02920   56.74950   50.50410   49.68620   42.73910    2.57850   47.70110  -33.47990
 9500.00000    9.17650    9.47540   54.47270    0.09930   62.81840   80.19170   75.63790   18.58910    2.53810   22.07280  -32.11900
 9550.00000    8.98960    8.85410   10.94740    0.01480   53.09710   44.31870   45.69350  102.26710    2.66500   90.69840  -38.04730
 9600.00000    8.95700    8.88900   21.50030    0.00750   55.76560   64.88300   57.83700   46.89150    2.71100   48.73400  -65.49060
 9650.00000    9.17210    8.99830    8.90180    0.01460   51.84710   40.13450   42.25050  132.27070    2.67410  246.94430  -59.10450
 9700.00000   11.32290    9.53050    4.91840    0.19270   49.74720   23.45090   21.36920  276.60860    2.60320  268.68160 -101.04840
 9750.00000   11.70200    9.62000    5.18540    0.20380   49.11840   18.12620   18.06910  257.39100    2.49590  287.28980 -122.57950
 9800.00000   13.18060    9.72850    4.98170    0.16780   48.89960   13.60320   16.55870  271.61020    2.37780  299.28140 -126.92800
 9850.00000   11.98600    9.55900    4.86900    0.21030   47.50070   16.40340   13.89820  271.24790    2.53470  273.58890 -127.13000
 9900.00000   13.20130    9.91180    4.24120    0.18910   48.27250   21.37860   18.93840  393.90720    2.43870  328.59800 -134.73970
 9950.00000    8.94110    9.08790    7.84070    0.02250   47.74990   14.23180   12.82410  148.96330    2.64490  201.51800 -144.02230
 10000.00000   11.68020    9.55740    5.38340    0.12170   51.73880   16.70300   16.96240  252.79380    1.98810  178.96620 -141.39610
 10050.00000   12.36810    9.60990    4.85900    0.09860   49.26330   17.48790   17.82790  257.26520    1.92540  183.90700 -138.14370
 10100.00000   15.31950    9.74310    6.61170    0.18160   49.75060   16.46660   15.98370  177.39870    2.26230  168.91480 -135.34630
 10150.00000   13.43720    9.55580    6.19720    0.16950   50.62730   21.39120   19.81110  186.43060    2.46550  128.72970 -126.08160
 10200.00000   12.33880    9.69800   11.29970    0.15760   49.49530   22.94940   17.49380   89.07570    2.47470  101.74870 -127.38130
 10250.00000   15.14960   10.44170    6.71610    0.15990   49.16150   19.27930   17.23720  162.01770    2.45230   95.22730 -126.54930
 10300.00000   11.45840    9.32470    9.84240    0.16370   49.31260   25.36670   20.91250  103.07820    2.23250  121.08870 -120.11090
 10350.00000    9.03920    8.96540   47.59360    0.04350   48.51440   43.69510   26.13380   21.12410    2.87640   57.38230 -113.05590
 10400.00000    9.15010    9.01460    3.49570    0.00590   48.24450   17.15720   12.31070  362.54030    2.84660  175.09580 -137.00530
