~Version ---------------------------------------------------
VERS.      2.0 : CWLS log ASCII Standard -VERSION 2.0
WRAP.       NO : One line per depth step
CREA. 12/21/17 : LAS Creation Date
~Well ------------------------------------------------------
STRT.FT                        1250.0 : START DEPTH
STOP.FT                       11500.0 : STOP DEPTH
STEP.FT                      50.00000 : STEP LENGTH
NULL.                         -999.25 : NULL VALUE
COMP.    CANADIAN HOMESTEAD OILS LTD. : COMPANY
WELL. HOMESTEAD RB ANTE CK 10-2-66-24 : WELL
FLD .                                 : FIELD
LOC .                                 : LOCATION
CTRY.                          CANADA : COUNTRY
SRVC.                    Schlumberger : SERVICE COMPANY
DATE.                     02-Sep-1962 : LOGDATE
PROV.                         Alberta : PROVINCE
UWI .                100100206624W500 : UNIQUE WELL ID
SLAT.WGS84                   54.68504 : SURFACE LATITUDE
SLON.WGS84                  -117.5129 : SURFACE LONGITUDE
~Curve Information -----------------------------------------
DEPT  .FT    : Depth Curve
CALSED.IN    : CALIPER FROM GR-CALIPER-SONIC LOG
CALWS .IN    : CALIPER [CALSED]
CILDED.MMHO  : DEEP INDUCTION CONDUCTIVITY FROM IEL LOG
CONDWS.MMHO  : CONDUCTIVITY [1000/DRESWS]
DRESWS.OHMM  : DEEP RESISTIVITY [ILDED]
DT1ED .US/F  : DELTA-T (1' SPAN)  FROM GR-CALIPER-SONIC LOG
DTED  .US/F  : ACOUSTIC TRANSIT TIME SLOWNESS (3' SPAN), DELTA T FROM GR-CALIPER-SONIC LOG
DTWS  .US/F  : COMPRESSIONAL SONIC [DTED]
GRSED .GAPI  : GAMMA RAY FROM GR-CALIPER-SONIC LOG
GRWS  .GAPI  : GAMMA RAY [GRSED]
ILDED .OHMM  : DEEP INDUCTION RESISTIVITY FROM IEL LOG
SNED  .OHMM  : SHORT NORMAL FROM IEL LOG
SPRED .MV    : SPONTANEOUS POTENTIAL FROM IEL LOG
SPWS  .MV    : SPONTANEOUS POTENTIAL [BASELINED 0 MV, SPRED]
SRESWS.OHMM  : SHALLOW RESISTIVITY [SNED]
~Params ----------------------------------------------------
PD  .                     GL : PERMANENT DATUM
EPD .FT                 2929 : ELEVATION PERMANENT DATUM
LMF .                     KB : LOG MEASURED FROM
DAPD.FT                   13 : FEET ABOVE PERMANENT DATUM
EKB .FT                 2942 : KELLY BUSHING
EGL .FT                 2929 : GROUND LEVEL
DATE.               09/02/62 : RUN DATE
RUN .                      1 : RUN NUMBER
DD  .FT                11515 : DEPTH DRILLER
DL  .FT                11527 : DEPTH LOGGER
BLI .FT                11526 : BOTTOM LOG INTERVAL
TLI .FT                 1237 : TOP LOG INTERVAL
CBD .FT                 1234 : CASING BOTTOM DRILLER
CBL .FT                 1237 : CASING BOTTOM LOGGER
BS  .IN                    9 : BIT SIZE
BSD .FT                11515 : BIT SIZE AT DEPTH
DFT .           GEL OIL CHEM : DRILLING FLUID TYPE
DFD .                     10 : DRILLING FLUID DENSITY
DFV .                     87 : DRILLING FLUID VISCOSITY
DFPH.                      9 : DRILLING FLUID PH
DFL .                   12.4 : DRILLING FLUID LOSS
RMS .OHMM               2.19 : RESISTIVITY MUD SAMPLE
MST .DEGF                 75 : MUD SAMPLE TEMPERATURE
RMF .OHMM               1.39 : RESISTIVITY MUD FILTRATE SAMPLE
MFST.DEGF                 73 : MUD FILTRATE SAMPLE TEMPERATURE
RMC .OHMM               2.51 : RESISTIVITY MUD CAKE
MCST.DEGF                 76 : MUD CAKE SAMPLE TEMPERATURE
RMB .OHMM               0.85 : RESISTIVITY MUD AT BHT
TCS .HRS                   4 : TIME CIRCULATED STOPPED
LUN .                   3534 : LOGGING UNIT NUMBER
LUL .                     WC : LOGGING UNIT LOCATION
ENGI.               HATLELID : RECORDING ENGINEER
WITN.                TIBBITT : WITNESSED BY
CLNT.                A2DTECH : CLIENT CODE
ORIG.            2" 5" PRINT : ORIGIN OF DATA
UWI .       100100206624W500 : UNIQUE WELL ID
DICO. A2D Technologies, Inc. : DIGITIZING COMPANY
~Other -----------------------------------------------------
~ASCII -----------------------------------------------------
 1250.00000    -999.25    -999.25  373.24550  196.83100    5.08050    -999.25    -999.25    -999.25    -999.25    -999.25    5.08050    2.69730 -133.02030   -2.08900    2.69730
 1300.00000    -999.25    -999.25  269.79650  263.97060    3.78830    -999.25    -999.25    -999.25    -999.25    -999.25    3.78830    1.59450 -136.46240   -5.53110    1.59450
 1350.00000    -999.25    -999.25  238.69060  236.32840    4.23140    -999.25    -999.25    -999.25    -999.25    -999.25    4.23140    2.82740 -135.98400   -5.05270    2.82740
 1400.00000    -999.25    -999.25  232.54660  228.06580    4.38470    -999.25    -999.25    -999.25    -999.25    -999.25    4.38470    2.64110 -135.43770   -4.50640    2.64110
 1450.00000    -999.25    -999.25  444.22000  433.63250    2.30610    -999.25    -999.25    -999.25    -999.25    -999.25    2.30610    1.03230 -135.38910   -4.45780    1.03230
 1500.00000    -999.25    -999.25  268.99870  261.08980    3.83010    -999.25    -999.25    -999.25    -999.25    -999.25    3.83010    2.23110 -135.30350   -4.37220    2.23110
 1550.00000    -999.25    -999.25  298.68470  283.46280    3.52780    -999.25    -999.25    -999.25    -999.25    -999.25    3.52780    2.42340 -135.00780   -4.07650    2.42340
 1600.00000    -999.25    -999.25  275.43810  271.83520    3.67870    -999.25    -999.25    -999.25    -999.25    -999.25    3.67870    1.88070 -133.35500   -2.42370    1.88070
 1650.00000    -999.25    -999.25  197.87080  189.36880    5.28070    -999.25    -999.25    -999.25    -999.25    -999.25    5.28070    3.01110 -135.14680   -4.29530    3.01110
 1700.00000    -999.25    -999.25   79.41550   77.93620   12.83100    -999.25    -999.25    -999.25    -999.25    -999.25   12.83100    8.76980 -141.60660  -10.84120    8.76980
 1750.00000    -999.25    -999.25  262.88020  255.97710    3.90660    -999.25    -999.25    -999.25    -999.25    -999.25    3.90660    2.09030 -134.25000   -3.57010    2.09030
 1800.00000    -999.25    -999.25  439.74650  374.60200    2.66950    -999.25    -999.25    -999.25    -999.25    -999.25    2.66950    2.35480 -134.12540   -3.53090    2.35480
 1850.00000    -999.25    -999.25   93.26220   68.53070   14.59200    -999.25    -999.25    -999.25    -999.25    -999.25   14.59200    9.31530 -137.54170   -7.03330    9.31530
 1900.00000    -999.25    -999.25  309.71680  292.43190    3.41960    -999.25    -999.25    -999.25    -999.25    -999.25    3.41960    1.83450 -133.77800   -3.35500    1.83450
 1950.00000    -999.25    -999.25  179.75020  181.34670    5.51430    -999.25    -999.25    -999.25    -999.25    -999.25    5.51430    3.07730 -133.06410   -2.72720    3.07730
 2000.00000    -999.25    -999.25  164.56070  153.68300    6.50690    -999.25    -999.25    -999.25    -999.25    -999.25    6.50690    3.98750 -138.03140   -7.77990    3.98750
 2050.00000    -999.25    -999.25  186.69880  177.83150    5.62330    -999.25    -999.25    -999.25    -999.25    -999.25    5.62330    3.93880 -142.14200  -11.97600    3.93880
 2100.00000    -999.25    -999.25   83.44030   82.54090   12.11520    -999.25    -999.25    -999.25    -999.25    -999.25   12.11520    8.24590 -150.73770  -20.65770    8.24590
 2150.00000    -999.25    -999.25  276.83040  261.41740    3.82530    -999.25    -999.25    -999.25    -999.25    -999.25    3.82530    2.61840 -134.06030   -4.06580    2.61840
 2200.00000    -999.25    -999.25  272.45210  258.73890    3.86490    -999.25    -999.25    -999.25    -999.25    -999.25    3.86490    2.50460 -132.90540   -2.99690    2.50460
 2250.00000    -999.25    -999.25  221.85590  201.62920    4.95960    -999.25    -999.25    -999.25    -999.25    -999.25    4.95960    3.18990 -133.18780   -3.36480    3.18990
 2300.00000    -999.25    -999.25  271.68350  265.97870    3.75970    -999.25    -999.25    -999.25    -999.25    -999.25    3.75970    2.37540 -133.63470   -3.89720    2.37540
 2350.00000    -999.25    -999.25  239.78900  236.91630    4.22090    -999.25    -999.25    -999.25    -999.25    -999.25    4.22090    2.99510 -133.22840   -3.57690    2.99510
 2400.00000    -999.25    -999.25  370.84570  340.10140    2.94030    -999.25    -999.25    -999.25    -999.25    -999.25    2.94030    1.52320 -132.48500   -2.91900    1.52320
 2450.00000    -999.25    -999.25  270.04090  248.87380    4.01810    -999.25    -999.25    -999.25    -999.25    -999.25    4.01810    2.41210 -133.08800   -3.60800    2.41210
 2500.00000    -999.25    -999.25  230.11580  211.77920    4.72190    -999.25    -999.25    -999.25    -999.25    -999.25    4.72190    3.41780 -132.37940   -2.98490    3.41780
 2550.00000    -999.25    -999.25  194.61320  165.52180    6.04150    -999.25    -999.25    -999.25    -999.25    -999.25    6.04150    3.75680 -131.91330   -2.60430    3.75680
 2600.00000    -999.25    -999.25   71.96730   70.92750   14.09890    -999.25    -999.25    -999.25    -999.25    -999.25   14.09890   10.02070 -148.40250  -19.17950   10.02070
 2650.00000    -999.25    -999.25  233.16480  228.17510    4.38260    -999.25    -999.25    -999.25    -999.25    -999.25    4.38260    3.23930 -131.48850   -2.35100    3.23930
 2700.00000    -999.25    -999.25  161.93330  155.14940    6.44540    -999.25    -999.25    -999.25    -999.25    -999.25    6.44540    5.17730 -131.88260   -2.83110    5.17730
 2750.00000    -999.25    -999.25  175.01600  171.67680    5.82490    -999.25    -999.25    -999.25    -999.25    -999.25    5.82490    5.36940 -133.68120   -4.71520    5.36940
 2800.00000    -999.25    -999.25  265.43210  243.87270    4.10050    -999.25    -999.25    -999.25    -999.25    -999.25    4.10050    2.92780 -131.05560   -2.17510    2.92780
 2850.00000    -999.25    -999.25  242.76680  238.24840    4.19730    -999.25    -999.25    -999.25    -999.25    -999.25    4.19730    4.02150 -130.38270   -1.58820    4.02150
 2900.00000    -999.25    -999.25  103.99840   99.10900   10.08990    -999.25    -999.25    -999.25    -999.25    -999.25   10.08990    7.71240 -141.69380  -12.98480    7.71240
 2950.00000    -999.25    -999.25  228.87900  232.09400    4.30860    -999.25    -999.25    -999.25    -999.25    -999.25    4.30860    4.18450 -132.91900   -4.29600    4.18450
 3000.00000    -999.25    -999.25  119.18250  115.91920    8.62670    -999.25    -999.25    -999.25    -999.25    -999.25    8.62670    7.23240 -136.47920   -7.94170    7.23240
 3050.00000    -999.25    -999.25  174.93950  170.81170    5.85440    -999.25    -999.25    -999.25    -999.25    -999.25    5.85440    4.27660 -132.93660   -4.48450    4.27660
 3100.00000    -999.25    -999.25  243.47170  227.53650    4.39490    -999.25    -999.25    -999.25    -999.25    -999.25    4.39490    3.21020 -132.34880   -3.98280    3.21020
 3150.00000    -999.25    -999.25  196.29640  189.93350    5.26500    -999.25    -999.25    -999.25    -999.25    -999.25    5.26500    3.77580 -132.40130   -4.06310    3.77580
 3200.00000    -999.25    -999.25  182.40630  170.47970    5.86580    -999.25    -999.25    -999.25    -999.25    -999.25    5.86580    4.75880 -132.46860   -4.01610    4.75880
 3250.00000   11.41630   11.41630  134.99990  126.70100    7.89260    -999.25    -999.25    -999.25    -999.25    -999.25    7.89260    6.02730 -133.98290   -5.41680    6.02730
 3300.00000   11.42320   11.42320  154.77870  144.81210    6.90550    -999.25    -999.25    -999.25    -999.25    -999.25    6.90550    6.14290 -134.07160   -5.39190    6.14290
 3350.00000   11.98680   11.98680  116.65390  110.54980    9.04570    -999.25    -999.25    -999.25    -999.25    -999.25    9.04570    8.39380 -134.14550   -5.35140    8.39380
 3400.00000    -999.25    -999.25  107.72860  100.13220    9.98680    -999.25    -999.25    -999.25    -999.25    -999.25    9.98680    9.34360 -137.97920   -9.07150    9.34360
 3450.00000   12.71490   12.71490  116.84600  112.92930    8.85510    -999.25   93.85920   93.85920  102.52410  102.52410    8.85510    7.91150 -137.19940   -8.17740    7.91150
 3500.00000   11.56500   11.56500  149.26640  141.87210    7.04860    -999.25   94.50190   94.50190  101.25430  101.25430    7.04860    5.65110 -139.39840  -10.26280    5.65110
