~Version ---------------------------------------------------
VERS.      2.0 : CWLS log ASCII Standard -VERSION 2.0
WRAP.       NO : One line per depth step
CREA. 11/22/17 : LAS Creation Date
~Well ------------------------------------------------------
STRT.FT                              300.0 : START DEPTH
STOP.FT                            16950.0 : STOP DEPTH
STEP.FT                           50.00000 : STEP LENGTH
NULL.                              -999.25 : NULL VALUE
COMP.                        BANFF OIL LTD : COMPANY
WELL. BANFF AQUIT SIEBENS RAMR 14-21-37-11 : WELL
FLD .                                      : FIELD
LOC .                                      : LOCATION
CTRY.                               CANADA : COUNTRY
SRVC.                         Schlumberger : SERVICE COMPANY
DATE.                          21-Oct-1970 : LOGDATE
PROV.                              Alberta : PROVINCE
UWI .                     100142103711W500 : UNIQUE WELL ID
SLAT.WGS84                        52.19912 : SURFACE LATITUDE
SLON.WGS84                       -115.5164 : SURFACE LONGITUDE
~Curve Information -----------------------------------------
DEPT    .FT    : Depth Curve
CALDED  .IN    : CALIPER FROM DENSITY LOG [DEP. ADJ. TO ILMED]
CALNED  .IN    : CALIPER FROM NEUTRON LOG [DEP. ADJ. TO ILMED]
CALSED  .IN    : CALIPER FROM SONIC LOG [DEP. ADJ. TO ILMED]
CALWS   .IN    : CALIPER 148' CALSED 13012' CALNED 13190' CALDED 14980' CALSED 15315' CALDED 16246' CALSED]
CONDWS  .MMHO  : DEEP CONDUCTIVITY [1000/DRESWS]
DCORWS  .G/C3  : DENSITY CORRECTION [DRHOED]
DENWS   .G/C3  : BULK DENSITY [M=2.71, F=1.00] [RHOBED]
DPHILSED.V/V   : DENSITY POROSITY [M=2.71, F=1.00] FROM DENSITY LOG [DEP. ADJ. TO ILMED]
DPOLSWS .V/V   : DENSITY POROSITY [M=2.71, F=1.00] [CAL. FROM DENWS]
DRESWS  .OHMM  : DEEP RESISTIVITY [ILDED]
DRHOED  .G/C3  : DENSITY CORRECTION FROM DENSITY LOG [DEP. ADJ. TO ILMED]
DTED    .US/F  : DELTA TIME FROM SONIC LOG [DEP. ADJ. TO ILMED]
DTWS    .US/F  : DELTA TIME [DTED]
GRDED   .GAPI  : GAMMA RAY FROM DENSITY LOG [DEP. ADJ. TO ILMED]
GRNED   .GAPI  : GAMMA RAY FROM NEUTRON LOG [DEP. ADJ. TO ILMED]
GRSED   .GAPI  : GAMMA RAY FROM SONIC LOG [DEP. ADJ. TO ILMED]
GRWS    .GAPI  : GAMMA RAY [GRSED]
ILDED   .OHMM  : INDUCTION LOG DEEP RESISTIVITY
ILMED   .OHMM  : INDUCTION LOG MEDIUM RESISTIVITY
LL8ED   .OHMM  : 8 INCH LATEROLOG RESISTIVITY
MRESWS  .OHMM  : MEDIUM RESISTIVITY [ILMED]
NPOLSWS .V/V   : NEUTRON POROSITY LIMESTONE [SNPLSED]
RHOBED  .G/C3  : BULK DENSITY FROM DENSITY LOG [DEP. ADJ. TO ILMED]
SNPLSED .V/V   : SIDEWALL NEUTRON POROSITY [LIMESTONE] [DEP. ADJ. TO ILMED]
SPRED   .MV    : SPONTANEOUS POTENTIAL FROM RESIST. LOG [DIVIDED BY 2 BELOW 13778'], SHIFTS REMOVED, PATCHED]
SPWS    .MV    : SPONTANEOUS POTENTIAL [BASELINE 0 MV] [SPRED][PL. USE W/ RESERVATION]
SRESWS  .OHMM  : SHALLOW RESISTIVITY [LL8ED]
~Params ----------------------------------------------------
PD  .                     GL : PERMANENT DATUM
EPD .FT                 4914 : ELEVATION PERMANENT DATUM
LMF .                     KB : LOG MEASURED FROM
DAPD.FT                 18.7 : FEET ABOVE PERMANENT DATUM
EKB .FT               4932.7 : KELLY BUSHING
EGL .FT                 4914 : GROUND LEVEL
DATE.               10/21/70 : RUN DATE
RUN .                      4 : RUN NUMBER
DD  .FT                16960 : DEPTH DRILLER
DL  .FT                16960 : DEPTH LOGGER
BLI .FT                16954 : BOTTOM LOG INTERVAL
TLI .FT                16000 : TOP LOG INTERVAL
BS  .IN                8.375 : BIT SIZE
BSD .FT                16960 : BIT SIZE AT DEPTH
DFT .                    GEL : DRILLING FLUID TYPE
DFD .                   10.1 : DRILLING FLUID DENSITY
DFV .                     61 : DRILLING FLUID VISCOSITY
DFPH.                     10 : DRILLING FLUID PH
DFL .                    8.4 : DRILLING FLUID LOSS
MSS .               FLOWLINE : MUD SAMPLE SOURCE
RMS .OHMM               1.51 : RESISTIVITY MUD SAMPLE
MST .DEGF                 66 : MUD SAMPLE TEMPERATURE
RMF .OHMM               1.11 : RESISTIVITY MUD FILTRATE SAMPLE
MFST.DEGF                 70 : MUD FILTRATE SAMPLE TEMPERATURE
TCS .HRS                   4 : TIME CIRCULATED STOPPED
LUN .                   7002 : LOGGING UNIT NUMBER
LUL .                     RD : LOGGING UNIT LOCATION
ENGI.                 TALBOT : RECORDING ENGINEER
WITN.          LEMEE BRINKER : WITNESSED BY
CLNT.                A2DTECH : CLIENT CODE
ORIG.            2" 5" PRINT : ORIGIN OF DATA
UWI .       100142103711W500 : UNIQUE WELL ID
DICO. A2D Technologies, Inc. : DIGITIZING COMPANY
~Other -----------------------------------------------------
~ASCII -----------------------------------------------------
# ...
 15900.00000   11.55860   11.61920    8.23580   11.55860   51.49200    0.24440    2.64150    0.03770    0.04010   19.42050    0.24440   67.84640   67.84640   74.42050   92.64160   86.75920   86.75920   19.42050   16.71200   24.76860   16.71200    0.11130    2.64150    0.11130   59.91940   -4.34440   24.76860
 15950.00000   10.16910    9.80930    7.80220   10.16910   45.44420    0.25350    2.75920   -0.02760   -0.02880   22.00500    0.25350   66.31760   66.31760   65.35010   88.88860   85.51650   85.51650   22.00500   23.28910   30.87820   23.28910    0.09820    2.75920    0.09820   37.76810  -28.28910   30.87820
 16000.00000    9.04740    8.60050    7.60270    9.04740   42.25440    0.04060    2.73060   -0.01530   -0.01200   23.66620    0.04060   63.97700   63.97700   68.38030   78.14650   80.61830   80.61830   23.66620   27.58500   32.46550   27.58500    0.06470    2.73060    0.06470    2.51680  -63.54050   32.46550
 16050.00000    8.45860    9.14130    8.17540    8.45860   50.95980    0.23790    2.73660   -0.02060   -0.01560   19.62330    0.23790   67.41860   67.41860   79.80640   93.50430   90.53020   90.53020   19.62330   21.43970   26.63490   21.43970    0.10040    2.73660    0.10040  -30.25870  -96.31600   26.63490
 16100.00000    9.89530    9.12650    8.42500    9.89530   51.05740    0.24610    2.69170    0.00880    0.01070   19.58580    0.24610   69.93010   69.93010   89.70680   98.89820   97.71520   97.71520   19.58580   21.85340   27.38880   21.85340    0.16050    2.69170    0.16050  -20.65400  -86.71130   27.38880
 16150.00000    8.50980    8.46730    8.53510    8.50980    2.46270    0.00480    2.68100    0.01450    0.01700  406.06620    0.00480   60.39910   60.39910   46.59990   52.13220   54.49050   54.49050  406.06620 1520.38540  580.75000 1520.38540    0.01810    2.68100    0.01810  -32.66580  -98.72320  580.75000
 16200.00000    8.75560    8.66500    8.45730    8.75560    1.20470    0.03420    2.61970    0.05200    0.05280  830.08070    0.03420   69.74230   69.74230   73.66060   89.93020   91.25670   91.25670  830.08070 1550.07820  732.84630 1550.07820    0.05760    2.61970    0.05760  -43.91300 -109.97040  732.84630
 16250.00000    -999.25    -999.25    8.49700    8.49700    0.82140    -999.25    -999.25    -999.25    -999.25 1217.47470    -999.25   51.70200   51.70200    -999.25    -999.25   29.12740   29.12740 1217.47470  555.82870 1417.21300  555.82870    -999.25    -999.25    -999.25  -43.69010 -109.74740 1417.21300
 16300.00000    -999.25    -999.25    8.55210    8.55210    0.93430    -999.25    -999.25    -999.25    -999.25 1070.33920    -999.25   50.07360   50.07360    -999.25    -999.25   21.81770   21.81770 1070.33920  767.45420 1523.89920  767.45420    -999.25    -999.25    -999.25  -40.46500 -106.52230 1523.89920
 16350.00000    -999.25    -999.25    8.63870    8.63870    1.41260    -999.25    -999.25    -999.25    -999.25  707.93590    -999.25   54.89110   54.89110    -999.25    -999.25   24.26230   24.26230  707.93590  503.24270  998.21300  503.24270    -999.25    -999.25    -999.25  -44.34790 -110.40520  998.21300
 16400.00000    -999.25    -999.25    8.82320    8.82320    5.33730    -999.25    -999.25    -999.25    -999.25  187.36110    -999.25   49.34440   49.34440    -999.25    -999.25   11.41630   11.41630  187.36110  467.86900  980.24780  467.86900    -999.25    -999.25    -999.25  -51.63000 -117.68730  980.24780
 16450.00000    -999.25    -999.25    8.56220    8.56220   48.39690    -999.25    -999.25    -999.25    -999.25   20.66250    -999.25   58.91090   58.91090    -999.25    -999.25   61.00710   61.00710   20.66250   22.20370   33.85120   22.20370    -999.25    -999.25    -999.25  -13.28400  -79.34130   33.85120
 16500.00000    -999.25    -999.25    8.60920    8.60920    2.55800    -999.25    -999.25    -999.25    -999.25  390.92760    -999.25   51.51770   51.51770    -999.25    -999.25   27.35440   27.35440  390.92760  515.64590  722.00870  515.64590    -999.25    -999.25    -999.25  -14.39140  -80.44870  722.00870
 16550.00000    -999.25    -999.25    8.75640    8.75640    7.03240    -999.25    -999.25    -999.25    -999.25  142.19830    -999.25   50.41340   50.41340    -999.25    -999.25   24.10780   24.10780  142.19830  225.74540  280.72810  225.74540    -999.25    -999.25    -999.25   -9.67800  -75.73530  280.72810
 16600.00000    -999.25    -999.25    8.66110    8.66110    2.62620    -999.25    -999.25    -999.25    -999.25  380.78400    -999.25   48.58080   48.58080    -999.25    -999.25   10.92770   10.92770  380.78400  309.60520 1459.43920  309.60520    -999.25    -999.25    -999.25  -20.60840  -86.66580 1459.43920
 16650.00000    -999.25    -999.25    8.79110    8.79110    1.37700    -999.25    -999.25    -999.25    -999.25  726.20210    -999.25   48.45590   48.45590    -999.25    -999.25   13.77120   13.77120  726.20210  172.75110 1262.53100  172.75110    -999.25    -999.25    -999.25  -19.52230  -85.57950 1262.53100
 16700.00000    -999.25    -999.25    8.46770    8.46770    3.27600    -999.25    -999.25    -999.25    -999.25  305.25370    -999.25   51.24210   51.24210    -999.25    -999.25   25.17820   25.17820  305.25370 1554.13240  647.09090 1554.13240    -999.25    -999.25    -999.25  -18.11970  -84.17700  647.09090
 16750.00000    -999.25    -999.25    8.62150    8.62150    0.69340    -999.25    -999.25    -999.25    -999.25 1442.06920    -999.25   50.45100   50.45100    -999.25    -999.25   19.74530   19.74530 1442.06920 1266.62630 1531.71860 1266.62630    -999.25    -999.25    -999.25  -41.15180 -107.20910 1531.71860
 16800.00000    -999.25    -999.25   11.40440   11.40440    1.79530    -999.25    -999.25    -999.25    -999.25  557.02130    -999.25   51.19130   51.19130    -999.25    -999.25   11.11340   11.11340  557.02130   47.20730   69.01190   47.20730    -999.25    -999.25    -999.25  -48.86030 -114.91760   69.01190
 16850.00000    -999.25    -999.25    8.75730    8.75730    0.68780    -999.25    -999.25    -999.25    -999.25 1453.91820    -999.25   48.68890   48.68890    -999.25    -999.25    9.88180    9.88180 1453.91820  805.81160  672.16300  805.81160    -999.25    -999.25    -999.25  -70.50360 -136.56090  672.16300
 16900.00000    -999.25    -999.25    8.29390    8.29390    0.71350    -999.25    -999.25    -999.25    -999.25 1401.58080    -999.25   47.42870   47.42870    -999.25    -999.25    8.66960    8.66960 1401.58080  833.11430 1492.27830  833.11430    -999.25    -999.25    -999.25  -35.99180 -102.04910 1492.27830
 16950.00000    -999.25    -999.25    8.34860    8.34860    4.58630    -999.25    -999.25    -999.25    -999.25  218.04110    -999.25   50.34590   50.34590    -999.25    -999.25    -999.25    -999.25  218.04110  155.32410  205.11990  155.32410    -999.25    -999.25    -999.25  -30.93740  -96.99470  205.11990
