~Version ---------------------------------------------------
VERS.      2.0 : CWLS log ASCII Standard -VERSION 2.0
WRAP.       NO : One line per depth step
CREA. 12/22/14 : LAS Creation Date
~Well ------------------------------------------------------
STRT.M                          300.0 : START DEPTH
STOP.M                         4800.0 : STOP DEPTH
STEP.M                       50.00000 : STEP LENGTH
NULL.                         -999.25 : NULL VALUE
COMP.             CANTERRA ENERGY LTD : COMPANY
WELL. CANTERRA GULF PHOENIX 1-9-40-12 : WELL
FLD .                              WC : FIELD
LOC .                                 : LOCATION
CTRY.                          CANADA : COUNTRY
SRVC.                    Schlumberger : SERVICE COMPANY
DATE.                     20-Apr-1984 : LOGDATE
PROV.                         Alberta : PROVINCE
UWI .                100010904012W500 : UNIQUE WELL ID
SLAT.WGS84                     52.424 : SURFACE LATITUDE
SLON.WGS84                  -115.6556 : SURFACE LONGITUDE
~Curve Information -----------------------------------------
DEPT    .M      : Depth Curve
CALDED  .MM     : CALIPER FROM DENSITY LOG [ADJ. TO RESISTIVITY LOG]
CALRED  .MM     : CALIPER FROM DLL LOG
CALSED  .MM     : CALIPER FROM SONIC LOG [ADJ. TO RESISTIVITY LOG]
CALWS   .MM     : CALIPER [CALSED SPL. TO CALDED @ 3240 M]
CONDWS  .MMHO   : CONDUCTIVITY [1000/DRESWS]
DCORWS  .KG/M3  : DENSITY CORRECTION [DRHOED]
DENWS   .KG/M3  : FORMATION BULK DENSITY [RHOBED]
DPHILSED.V/V    : DENSITY POROSITY LIMESTONE [M=2710, F=1000] FROM DENSITY LOG [ADJ. TO RESISTIVITY LOG]
DPHISSED.V/V    : DENSITY POROSITY SANDSTONE [M=2650, F=1000] FROM DENSITY LOG [ADJ. TO RESISTIVITY LOG]
DPOLSWS .V/V    : DENSITY POROSITY LIMESTONE [CALC. FROM DENWS, M=2.71, F=1.0]
DRESWS  .OHMM   : DEEP RESISTIVITY [LLDED SPL. TO LLSED @ 3340 M]
DRHOED  .KG/M3  : DENSITY CORRECTION FROM DENSITY LOG [ADJ. TO RESISTIVITY LOG]
DTED    .US/M   : DELTA T FROM SONIC LOG [ADJ. TO RESISTIVITY LOG]
DTWS    .US/M   : COMPRESSIONAL SONIC [DTED]
GRDED   .GAPI   : GAMMA RAY FROM DENSITY LOG [ADJ. TO RESISTIVITY LOG]
GRRED   .GAPI   : GAMMA RAY FROM DIL-SFL-DLL LOG
GRSED   .GAPI   : GAMMA RAY FROM SONIC LOG [ADJ. TO RESISTIVITY LOG]
GRWS    .GAPI   : GAMMA RAY [GRSED SPL. TO GRRED @ 200 M & GRDED @ 4800 M]
ILDED   .OHMM   : DEEP INDUCTION RESISTIVITY FROM DIL-SFL LOG
ILMED   .OHMM   : MEDIUM INDUCTION RESISTIVITY FROM DIL-SFL LOG
LAED    .MM     : LONG ARM CALIPER FROM DENSITY LOG [ADJ. TO RESISTIVITY LOG]
LLDED   .OHMM   : DEEP LATEROLOG RESISTIVITY FROM DLL LOG
LLSED   .OHMM   : SHALLOW LATEROLOG RESISTIVITY FROM DLL LOG
MRESWS  .OHMM   : MEDIUM RESISTIVITY [ILMED]
MSFLED  .OHMM   : MICROSPHERICALLY FOCUSED RESISTIVITY FROM DLL LOG
NPHILSED.V/V    : NEUTRON POROSITY LIMESTONE FROM DENSITY LOG [ADJ. TO RESISTIVITY LOG]
NPHISSED.V/V    : NEUTRON POROSITY SANDSTONE FROM DENSITY LOG [ADJ. TO RESISTIVITY LOG]
NPOLSWS .V/V    : NEUTRON POROSITY LIMESTONE [NPHILSED SPL. NPHISSED 3334-3630M (SLB MTRX CONV. SAND TO LIME) ]
RHOBED  .KG/M3  : BULK DENSITY FROM DENSITY LOG [ADJ. TO RESISTIVITY LOG]
SPSED   .MV     : SPONTANEOUS POTENTIAL FROM SONIC LOG [ADJ. TO RESISTIVITY LOG]
SPWS    .MV     : SPONTANEOUS POTENTIAL [BASELINE 0 MV, SPRED]
SRESWS  .OHMM   : SHALLOW RESISTIVITY [LLSED]
TENDED  .N      : TENSION FROM DENSITY LOG [ADJ. TO RESISTIVITY LOG]
TENRED  .N      : TENSION FROM RESISTIVITY LOG
TENSED  .N      : TENSION FROM SONIC LOG [ADJ. TO RESISTIVITY LOG]
~Params ----------------------------------------------------
PD  .                         GL : PERMANENT DATUM
EPD .M                    1276.4 : ELEVATION PERMANENT DATUM
LMF .                         KB : LOG MEASURED FROM
DAPD.M                       7.4 : FEET ABOVE PERMANENT DATUM
DMF .                         KB : DRILLING MEASURED FROM
EKB .M                    1283.8 : KELLY BUSHING
EDF .M                    1283.5 : DRILLING FLOOR
EGL .M                    1276.4 : GROUND LEVEL
DATE.                   04/20/84 : RUN DATE
RUN .                          2 : RUN NUMBER
DD  .M                      4815 : DEPTH DRILLER
DL  .M                      4817 : DEPTH LOGGER
BLI .M                    4812.5 : BOTTOM LOG INTERVAL
TLI .M                      3341 : TOP LOG INTERVAL
CS  .MM                      244 : CASING SIZE
CBD .M                      3340 : CASING BOTTOM DRILLER
CBL .M                      3341 : CASING BOTTOM LOGGER
BS  .MM                      216 : BIT SIZE
BSD .M                      4815 : BIT SIZE AT DEPTH
DFT .                   GEL CHEM : DRILLING FLUID TYPE
DFD .                       1335 : DRILLING FLUID DENSITY
DFV .                         53 : DRILLING FLUID VISCOSITY
DFPH.                       11.5 : DRILLING FLUID PH
DFL .                          5 : DRILLING FLUID LOSS
MSS .                   FLOWLINE : MUD SAMPLE SOURCE
RMS .OHMM                    0.9 : RESISTIVITY MUD SAMPLE
MST .DEGC                   14.4 : MUD SAMPLE TEMPERATURE
RMF .OHMM                   0.63 : RESISTIVITY MUD FILTRATE SAMPLE
MFST.DEGC                   13.3 : MUD FILTRATE SAMPLE TEMPERATURE
RMC .OHMM                   0.82 : RESISTIVITY MUD CAKE
MCST.DEGC                   14.6 : MUD CAKE SAMPLE TEMPERATURE
MFSS.               FILTER PRESS : MUD FILTRATE SAMPLE SOURCE
MCSS.               FILTER PRESS : MUD CAKE SAMPLE SOURCE
RMB .OHMM                  0.227 : RESISTIVITY MUD AT BHT
TCS .HRS                    1600 : TIME CIRCULATED STOPPED
TLAB.HRS                     445 : TIME LOGGER AT BOTTOM
LUN .                       8063 : LOGGING UNIT NUMBER
LUL .                         RD : LOGGING UNIT LOCATION
ENGI.               BROWN BROCHU : RECORDING ENGINEER
WITN.                   LEISHMAN : WITNESSED BY
CLNT.                    A2DTECH : CLIENT CODE
ORIG. 6.5"/100M 16.5"/100M PRINT : ORIGIN OF DATA
UWI .           100010904012W500 : UNIQUE WELL ID
DICO.     A2D Technologies, Inc. : DIGITIZING COMPANY
~Other -----------------------------------------------------
1/ SP IS VERY ERRATIC - TRIED THE BEST TO SHALE BASELINE TO 0 MV - ANY DOUBTS PLEASE REFER TO ORIGINAL SPSED.
2/ TOOLS STUCK AT VARIOUS SPOTS ENTIRE LOGRUN2 - PLEASE SEE TENSION CURVES AS INDICATORS.
3/ CNLD NOT LOGGED 2770-2410; 2187-TOP.
~ASCII -----------------------------------------------------
# ...
 3450.00000  340.20290  272.93760  299.03570  340.20290   67.12670   89.65160 2312.45040    -999.25    0.18470    0.23250   14.89720   89.65160  239.87150  239.87150   49.08050   70.75530   64.34980   70.75530    -999.25    -999.25  324.40340   14.89720   12.06330    -999.25    0.43930    -999.25    0.24180    0.20180 2312.45040  -47.67930  -15.52040   12.06330 19974.40820    -999.25 16963.79100
 3500.00000  261.37420  301.10460  264.81280  236.91810   67.98370  -10.11020 2453.01590    -999.25    0.14290    0.15030   14.70940  -10.11020  225.52000  225.52000   66.06910   77.77260   70.81800   77.77260    -999.25    -999.25  314.70150   14.70940   13.30510    -999.25    5.84570    -999.25    0.23630    0.19630 2453.01590  -47.55370  -12.49240   13.30510 18320.46480    -999.25 17196.29100
 3550.00000  231.21440  286.38200  251.75600  230.92900   27.51670   13.05210 2794.66600    -999.25   -0.08660   -0.04950   36.34160   13.05210  205.08360  205.08360   51.88770   69.77960   71.37820   69.77960    -999.25    -999.25  284.48410   36.34160   39.80750    -999.25   12.67930    -999.25    0.17420    0.13420 2794.66600  -50.62500  -12.66130   39.80750 18929.49020    -999.25 17318.53130
 3600.00000  223.71860  281.32670  238.97160  223.97520   53.81180   25.78300 2655.96580    -999.25   -0.00410    0.03160   18.58330   25.78300  235.83370  235.83370   59.91000   73.64900   62.77500   73.64900    -999.25    -999.25  302.98880   18.58330   16.72830    -999.25    2.15320    -999.25    0.15790    0.11790 2655.96580  -50.39410   -9.52800   16.72830 18978.64840    -999.25 17583.74800
 3650.00000  235.67600  290.27350  253.69670  234.94210  171.65910   84.35790 2677.35160    0.03070   -0.01210    0.01910    5.82550   84.35790  267.46620  267.46620   69.88540   85.56550   70.52470   85.56550    -999.25    -999.25  330.80670    5.82550    4.57170    -999.25    1.06780    0.30590    0.36050    0.30590 2677.35160  -48.50430   -5.82790    4.57170 19432.92770    -999.25 17629.65430
 3700.00000  213.43570  207.84260  208.67100  216.05180    5.59670   31.75590 2779.95580   -0.04310    -999.25   -0.04090  178.67620   31.75590  162.70610  162.70610   15.33010   17.78800   12.25400   17.78800    -999.25    -999.25  210.91060  178.67620  215.09700    -999.25   31.29810    0.07060    -999.25    0.07060 2779.95580 -152.99010 -118.33280  215.09700 18954.49220    -999.25 17849.64060
 3750.00000  220.67160  255.07750  227.29350  224.81840    1.91210   30.27250 2926.71130   -0.11920    -999.25   -0.12670  522.98380   30.27250  165.34700  165.34700   20.09910   24.64310   24.55770   24.64310    -999.25    -999.25  270.97240  522.98380  417.40950    -999.25    9.09030    0.02740    -999.25    0.02740 2926.71130  -78.95230  -52.31420  417.40950 19112.58110    -999.25 18253.96680
 3800.00000  217.86810  213.14330  216.57120  224.71360    1.87470   41.37210 2725.51710   -0.00610    -999.25   -0.00910  533.40550   41.37210  152.46160  152.46160    6.03480    8.49290   11.30780    8.49290    -999.25    -999.25  227.70210  533.40550  626.96470    -999.25  159.38460    0.02560    -999.25    0.02560 2725.51710 -166.88660 -148.26760  626.96470 19525.89650    -999.25 18348.83590
 3850.00000  346.11980  360.26670  238.55670  346.11980    9.61190   50.72460 2161.22950    0.32010    -999.25    0.32090  104.03730   50.72460  173.65030  173.65030   42.16510   57.98610   48.63730   57.98610    -999.25    -999.25  205.75540  104.03730   61.58290    -999.25    7.03400    0.13590    -999.25    0.13590 2161.22950  -70.06470  -59.46480   61.58290 19821.38090    -999.25 18840.38280
 3900.00000  324.42690  307.14700  226.64280  324.42690    2.04920  250.54530 2838.12620   -0.09390    -999.25   -0.07490  487.98420  250.54530  169.79080  169.79080   40.09110   47.18160   41.01120   47.18160    -999.25    -999.25  219.19370  487.98420  370.63640    -999.25  163.25610    0.02390    -999.25    0.02390 2838.12620 -119.15840 -116.57770  370.63640 20115.02540    -999.25 19163.58200
 3950.00000  243.70360  227.49120  220.98220  243.70360    1.51570  171.16720 2809.78130   -0.07210    -999.25   -0.05840  659.77560  171.16720  170.01850  170.01850   29.55830   29.77170   27.22780   29.77170    -999.25    -999.25  223.87960  659.77560  534.38680    -999.25   32.04860    0.01460    -999.25    0.01460 2809.78130 -101.87180 -107.31020  534.38680 20902.21290    -999.25 19442.89260
 4000.00000  231.31160  222.49510  222.36680  231.31160    3.70720   14.72970 2736.85860   -0.01560    -999.25   -0.01570  269.74640   14.72970  176.83810  176.83810   49.76420   42.03640   40.07950   42.03640    -999.25    -999.25  177.25150  269.74640  275.28610    -999.25  410.02140    0.01520    -999.25    0.01520 2736.85860  -93.96860 -107.42610  275.28610 20905.37300    -999.25 19753.63870
 4050.00000  329.13640  275.54350  234.80730  328.89940    1.09730  189.61640 2658.33470    0.04930    -999.25    0.03020  911.31320  189.61640  161.87910  161.87910   27.74090   26.93990   28.65760   26.93990    -999.25    -999.25  171.87220  911.31320  465.10530    -999.25    1.00970    0.01480    -999.25    0.01480 2658.33470 -133.02830 -154.50500  465.10530 20961.85160    -999.25 20029.43160
 4100.00000  332.98210  259.50540  237.57390  334.43310    0.23200  174.82500 2731.51540   -0.01370    -999.25   -0.01260 4309.97020  174.82500  154.66270  154.66270   21.81160   11.57960   10.56250   11.57960    -999.25    -999.25  179.13180 4309.97020 1564.79020    -999.25    0.99410    0.01020    -999.25    0.01020 2731.51540 -161.75280 -191.24860 1564.79020 21367.85740    -999.25 20407.07620
 4150.00000  277.10200  250.83340  248.13650  275.25560    2.14760  122.73330 2765.85250   -0.03240    -999.25   -0.03270  465.63970  122.73330  158.35750  158.35750   13.81080    9.62280    6.90950    9.62280    -999.25    -999.25  169.77500  465.63970  520.24110    -999.25    3.72270    0.03040    -999.25    0.03040 2765.85250  -95.03320 -132.54810  520.24110 21333.44920    -999.25 20394.40230
 4200.00000  244.88240  235.18790  229.45630  242.28020   10.15350  137.53280 2822.66990   -0.06260    -999.25   -0.06590   98.48820  137.53280  170.42220  170.42220    8.65400    6.56520    4.93900    6.56520    -999.25    -999.25  179.00640   98.48820   90.95790    -999.25   14.18330    0.08220    -999.25    0.08220 2822.66990 -108.67420 -154.20830   90.95790 21476.00390    -999.25 20550.03320
 4250.00000  219.43250  243.79740  240.24710  219.56320    0.41290   59.34850 2873.48750   -0.09820    -999.25   -0.09560 2421.99320   59.34850  152.84740  152.84740   14.64620   18.65920   10.44010   18.65920    -999.25    -999.25  270.98040 2421.99320 1583.40370    -999.25   54.59600    0.02880    -999.25    0.02880 2873.48750  -44.81110  -96.84180 1583.40370 21515.11520    -999.25 20859.40040
 4300.00000  296.83540  285.48140  231.61130  314.76540    1.35310  223.89300 2701.64650    0.02010    -999.25    0.00490  739.04910  223.89300  160.12490  160.12490   12.96840   14.58690   12.05650   14.58690    -999.25    -999.25  201.37010  739.04910  561.11710    -999.25    2.97030    0.03930    -999.25    0.03930 2701.64650 -143.70350 -194.90140  561.11710 22565.53520    -999.25 20924.15630
 4350.00000  284.27460  277.53180  236.15110  277.98690    0.87050  248.17380 2897.74150   -0.11430    -999.25   -0.10980 1148.79720  248.17380  158.49830  158.49830   23.19590   25.67820   26.79130   25.67820    -999.25    -999.25  178.65700 1148.79720 1037.53820    -999.25   22.45290    0.00470    -999.25    0.00470 2897.74150 -245.14040 -295.50550 1037.53820 22599.17580    -999.25 21593.92770
 4400.00000  259.91670  254.61090  253.34110  259.91670   90.46910    8.26120 2743.86940   -0.02260    -999.25   -0.01980   11.05350    8.26120  196.10690  196.10690   52.92640   60.28230   54.90130   60.28230    -999.25    -999.25  224.63900   11.05350   10.71860    -999.25   28.58710    0.09180    -999.25    0.09180 2743.86940 -487.74200 -537.27440   10.71860 22952.86910    -999.25 21981.89260
 4450.00000  258.84630  249.66000  255.69900  258.84630  146.70720   37.44500 2762.44950   -0.02840    -999.25   -0.03070    6.81630   37.44500  219.97420  219.97420   65.63310   72.05100   71.92690   72.05100    -999.25    -999.25  239.07130    6.81630    7.14210    -999.25   16.87680    0.19140    -999.25    0.19140 2762.44950 -377.50940 -426.20900    7.14210 23532.84770    -999.25 22131.30470
