~Version ---------------------------------------------------
VERS.      2.0 : CWLS log ASCII Standard -VERSION 2.0
WRAP.       NO : One line per depth step
CREA. 12/18/17 : LAS Creation Date
~Well ------------------------------------------------------
STRT.FT                           300.0 : START DEPTH
STOP.FT                          8400.0 : STOP DEPTH
STEP.FT                        50.00000 : STEP LENGTH
NULL.                           -999.25 : NULL VALUE
COMP.     HUDSON'S BAY OIL & GAS CO LTD : COMPANY
WELL. HUDSONS BAY EAST VIRGINIA HILLS 1 : WELL
FLD .                                   : FIELD
LOC .                                   : LOCATION
CTRY.                            CANADA : COUNTRY
SRVC.  Schlumberger Well Surveying Corp : SERVICE COMPANY
DATE.                       16-Jul-1957 : LOGDATE
PROV.                           Alberta : PROVINCE
UWI .                  100053106506W500 : UNIQUE WELL ID
SLAT.WGS84                     54.66668 : SURFACE LATITUDE
SLON.WGS84                    -114.9047 : SURFACE LONGITUDE
~Curve Information -----------------------------------------
DEPT     .FT         : Depth Curve
CALWS    .IN         : CALIPER [MCALED]
CONDWS   .MMHO       : CONDUCTIVITY [1000/DRESWS]
DRESWS   .OHMM       : DEEP RESISTIVITY [LNED]
GRN1ED   .CPS        : GAMMA RAY FROM CNL LOG
GRN2ED   .CPS        : GAMMA RAY FROM CNL LOG
GRNED    .UgRa-Eq/T  : GAMMA RAY FROM GRN LOG
GRWS     .GAPI       : GAMMA RAY [GRNED SPL. TO GRN2ED @ (6722'-7414') & GRN1ED @ 7214'TO FR] [GRNED*16.5]
LNED     .OHMM       : LONG NORMAL RESISTIVITY FROM RESISTIVITY LOG
LT18ED   .OHMM       : LATERAL 18' RESISTIVITY FROM RESISTIVITY LOG
MCALED   .IN         : MLT CALIPER FROM MICRO LOG
NEUTED   .CU         : NEUTRON FROM GRN LOG
NEUTWS   .CU         : NEUTRON [NEUTED]
NPHISS1ED.V/V        : NEUTRON POROSITY SANDSTONE FROM CNL LOG
NPHISSED .V/V        : NEUTRON POROSITY SANDSTONE FROM CNL LOG
NPOSSWS  .V/V        : NEUTRON POROSITY SANDSTONE [NPHISSED SPL. TO NPHISS1ED @ 7420']
SNED     .OHMM       : SHORT NORMAL RESISTIVITY FROM RESISTIVITY LOG
SPRED    .MV         : SPONTANEOUS POTENTIAL FROM RESISTIVITY LOG
SPWS     .MV         : SPONTANEOUS POTENTIAL [BASELINE 0 MV,SPRED]
SRESWS   .OHMM       : SHALLOW RESISTIVITY [SNED]
~Params ----------------------------------------------------
LMF .                     KB : LOG MEASURED FROM
DMF .                     KB : DRILLING MEASURED FROM
EKB .FT                 2615 : KELLY BUSHING
EGL .FT                 2602 : GROUND LEVEL
DATE.               07/16/57 : RUN DATE
RUN .                      1 : RUN NUMBER
DD  .FT                 8422 : DEPTH DRILLER
DL  .FT                 8418 : DEPTH LOGGER
TCS .HRS                   2 : TIME CIRCULATED STOPPED
LUL .                    EDM : LOGGING UNIT LOCATION
ENGI.                  JAMES : RECORDING ENGINEER
WITN.              PINNNACLE : WITNESSED BY
CLNT.                A2DTECH : CLIENT CODE
ORIG.            2" 5" PRINT : ORIGIN OF DATA
UWI .       100053106506W500 : UNIQUE WELL ID
DICO. A2D Technologies, Inc. : DIGITIZING COMPANY
~Other -----------------------------------------------------
~ASCII -----------------------------------------------------
# ...
 4000.00000    9.81330  162.63340    6.14880    -999.25    -999.25    6.39650  105.54230    6.14880    1.83210    9.81330  333.65780  333.65780    -999.25    -999.25    -999.25   10.68010 -105.43500  -33.72250   10.68010
 4050.00000    9.54910  246.85260    4.05100    -999.25    -999.25    2.57540   42.49410    4.05100    5.76390    9.54910  449.00040  449.00040    -999.25    -999.25    -999.25    8.87510 -136.92770  -65.83550    8.87510
 4100.00000   11.46820  342.25480    2.92180    -999.25    -999.25    2.98840   49.30860    2.92180    4.95810   11.46820  470.36550  470.36550    -999.25    -999.25    -999.25    3.95380  -90.04500  -19.57720    3.95380
 4150.00000   10.75230   33.29500   30.03450    -999.25    -999.25    5.44150   89.78470   30.03450   27.22680   10.75230  670.56650  670.56650    -999.25    -999.25    -999.25   23.34830  -75.59650   -5.74890   23.34830
 4200.00000   10.83970   67.39230   14.83850    -999.25    -999.25   11.32740  186.90210   14.83850   11.80120   10.83970  332.24270  332.24270    -999.25    -999.25    -999.25   11.81150  -75.29570   -5.86620   11.81150
 4250.00000   11.02500    6.68730  149.53690    -999.25    -999.25    3.18910   52.62010  149.53690  156.85880   11.02500  968.03440  968.03440    -999.25    -999.25    -999.25   66.20460 -164.99580  -95.66220   66.20460
 4300.00000   11.28880    7.00260  142.80320    -999.25    -999.25    3.13850   51.78520  142.80320  212.11590   11.28880  971.59660  971.59660    -999.25    -999.25    -999.25   66.11200 -163.43650  -94.19870   66.11200
 4350.00000    9.05680  190.38920    5.25240    -999.25    -999.25    4.03790   66.62530    5.25240   10.97000    9.05680  483.29980  483.29980    -999.25    -999.25    -999.25   13.84690 -173.29750 -104.15620   13.84690
 4400.00000    9.54570   10.34830   96.63420    -999.25    -999.25    2.23380   36.85770   96.63420  249.24770    9.54570 1070.18520 1070.18520    -999.25    -999.25    -999.25   47.05700 -194.87960 -125.83420   47.05700
 4450.00000   11.02380    5.90390  169.37910    -999.25    -999.25    2.91600   48.11400  169.37910  140.94660   11.02380 1042.65530 1042.65530    -999.25    -999.25    -999.25   75.35380 -136.39570  -67.44680   75.35380
 4500.00000    9.58570   11.92580   83.85150    -999.25    -999.25    2.22840   36.76860   83.85150  148.10510    9.58570  697.35930  697.35930    -999.25    -999.25    -999.25   45.79820 -185.57470 -116.72170   45.79820
 4550.00000    9.59010    6.63960  150.61140    -999.25    -999.25    2.05020   33.82830  150.61140  287.61080    9.59010  950.99370  950.99370    -999.25    -999.25    -999.25   70.57420 -194.28120 -125.52410   70.57420
 4600.00000    9.48830    7.92670  126.15520    -999.25    -999.25    2.58990   42.73340  126.15520  119.94700    9.48830  992.72490  992.72490    -999.25    -999.25    -999.25   63.10070 -182.79960 -114.13900   63.10070
 4650.00000    9.20730    9.86530  101.36560    -999.25    -999.25    2.01950   33.32170  101.36560   63.69980    9.20730  921.97740  921.97740    -999.25    -999.25    -999.25   62.64770 -192.11950 -123.55470   62.64770
 4700.00000    9.39840    6.40890  156.03180    -999.25    -999.25    2.08520   34.40580  156.03180  507.88710    9.39840  910.99400  910.99400    -999.25    -999.25    -999.25   71.93490 -173.05960 -104.59130   71.93490
 4750.00000    9.91640    3.24960  307.72980    -999.25    -999.25    3.78520   62.45580  307.72980  324.51890    9.91640  976.97780  976.97780    -999.25    -999.25    -999.25  117.23980 -134.03340  -65.66100  117.23980
 4800.00000    9.06600    7.00150  142.82660    -999.25    -999.25    3.02680   49.94220  142.82660  177.19970    9.06600  997.17120  997.17120    -999.25    -999.25    -999.25   71.03380 -185.95450 -117.67800   71.03380
 4850.00000    9.05380   36.79540   27.17730    -999.25    -999.25    2.54730   42.03050   27.17730   18.89430    9.05380  851.94400  851.94400    -999.25    -999.25    -999.25   29.25330 -186.13550 -117.95550   29.25330
 4900.00000    9.05810   13.88210   72.03530    -999.25    -999.25    2.90830   47.98700   72.03530   26.17670    9.05810  910.26590  910.26590    -999.25    -999.25    -999.25   48.38330 -177.31110 -109.22700   48.38330
 4950.00000    8.77760  950.29930    1.05230    -999.25    -999.25    2.99290   49.38290    1.05230    1.13640    8.77760  475.92900  475.92900    -999.25    -999.25    -999.25    7.87460 -174.95300 -106.96540    7.87460
 5000.00000    9.75960  288.79200    3.46270    -999.25    -999.25    5.82110   96.04820    3.46270    3.18890    9.75960  364.58680  364.58680    -999.25    -999.25    -999.25    4.63930  -91.45710  -23.56530    4.63930
 5050.00000    9.15270    9.43340  106.00660    -999.25    -999.25    2.85790   47.15530  106.00660   15.83330    9.15270  633.20620  633.20620    -999.25    -999.25    -999.25   65.90350 -167.36740  -99.57150   65.90350
 5100.00000    9.20650   22.92220   43.62590    -999.25    -999.25    3.93090   64.85980   43.62590   19.62590    9.20650  621.30000  621.30000    -999.25    -999.25    -999.25   36.12380 -177.11540 -109.41600   36.12380
 5150.00000    9.50620   36.50650   27.39240    -999.25    -999.25    3.88050   64.02830   27.39240   16.73410    9.50620  511.74530  511.74530    -999.25    -999.25    -999.25   30.73440 -147.95840  -80.35490   30.73440
 5200.00000   10.99810  134.88910    7.41350    -999.25    -999.25    5.86830   96.82690    7.41350    9.03690   10.99810  365.18050  365.18050    -999.25    -999.25    -999.25    8.71600  -73.72830   -6.22130    8.71600
 5250.00000   10.08320   41.33030   24.19530    -999.25    -999.25    3.04450   50.23430   24.19530    2.82300   10.08320  741.87500  741.87500    -999.25    -999.25    -999.25   17.54930  -79.38680  -11.97570   17.54930
 5300.00000   10.13910   14.93350   66.96360    -999.25    -999.25    3.66120   60.40980   66.96360   93.98640   10.13910  736.96910  736.96910    -999.25    -999.25    -999.25   38.69610  -78.34720  -11.03190   38.69610
 5350.00000   10.26060   20.88760   47.87540    -999.25    -999.25    3.66220   60.42630   47.87540  149.17430   10.26060  600.75540  600.75540    -999.25    -999.25    -999.25   28.10500  -99.86940  -32.65060   28.10500
 5400.00000   10.04010   63.48440   15.75190    -999.25    -999.25    5.45630   90.02890   15.75190   18.88950   10.04010  416.22050  416.22050    -999.25    -999.25    -999.25   17.83700  -69.60430   -2.48140   17.83700
 5450.00000    -999.25  335.49170    2.98070    -999.25    -999.25    7.30420  120.51930    2.98070    5.17470    -999.25  264.60240  264.60240    -999.25    -999.25    -999.25    3.30390  -77.22750  -11.02920    3.30390
 5500.00000    -999.25  268.29790    3.72720    -999.25    -999.25    7.91350  130.57280    3.72720    1.67780    -999.25  237.33410  237.33410    -999.25    -999.25    -999.25    3.92090  -71.64360   -6.59900    3.92090
 5550.00000    -999.25  518.75290    1.92770    -999.25    -999.25    8.36230  137.97790    1.92770    3.01480    -999.25  205.82060  205.82060    -999.25    -999.25    -999.25    2.78400  -79.38220  -15.49120    2.78400
 5600.00000    -999.25  481.95090    2.07490    -999.25    -999.25    6.89440  113.75760    2.07490    4.76980    -999.25  159.32450  159.32450    -999.25    -999.25    -999.25    2.41950  -75.01630  -12.28650    2.41950
 5650.00000    -999.25  415.17890    2.40860    -999.25    -999.25    8.14840  134.44860    2.40860    3.97770    -999.25  229.62860  229.62860    -999.25    -999.25    -999.25    2.68820  -72.54110  -10.96490    2.68820
 5700.00000    -999.25  529.82940    1.88740    -999.25    -999.25    8.20080  135.31320    1.88740    3.26740    -999.25  220.61980  220.61980    -999.25    -999.25    -999.25    3.15150  -71.02300  -10.60810    3.15150
 5750.00000    -999.25  454.40090    2.20070    -999.25    -999.25    7.07330  116.70940    2.20070    4.04170    -999.25  154.50100  154.50100    -999.25    -999.25    -999.25    2.61840  -76.51940  -17.25810    2.61840
 5800.00000    -999.25  459.15790    2.17790    -999.25    -999.25    6.35820  104.91030    2.17790    3.49520    -999.25  117.76590  117.76590    -999.25    -999.25    -999.25    2.52340  -67.61670   -9.50900    2.52340
