~Version ---------------------------------------------------
VERS.      2.0 : CWLS log ASCII Standard -VERSION 2.0
WRAP.       NO : One line per depth step
CREA. 11/20/17 : LAS Creation Date
~Well ------------------------------------------------------
STRT.FT                      1000.0 : START DEPTH
STOP.FT                      9200.0 : STOP DEPTH
STEP.FT                    50.00000 : STEP LENGTH
NULL.                       -999.25 : NULL VALUE
COMP. AMOCO CANADA PETROLEUM CO LTD : COMPANY
WELL.    AMOCO HB SAKWA 11-26-62-14 : WELL
FLD .                               : FIELD
LOC .                               : LOCATION
CTRY.                        CANADA : COUNTRY
SRVC.                       Unknown : SERVICE COMPANY
DATE.                   15-Jan-1977 : LOGDATE
PROV.                       Alberta : PROVINCE
UWI .              100112606214W500 : UNIQUE WELL ID
SLAT.WGS84                 54.39502 : SURFACE LATITUDE
SLON.WGS84                 -115.993 : SURFACE LONGITUDE
~Curve Information -----------------------------------------
DEPT    .FT    : Depth Curve
CALDED  .IN    : CALIPER FROM DENSITY LOG [ADJ. TO RESISTIVITY LOG]
CALSED  .IN    : CALIPER FROM SONIC LOG [ADJ. TO RESISTIVITY LOG]
CALWS   .IN    : CALIPER [CALDED]
CONDWS  .MMHO  : CONDUCTIVITY [1000/DRESWS]
DCORWS  .G/C3  : DENSITY CORRECTION [DRHOED]
DENWS   .G/C3  : FORMATION BULK DENSITY [CALC. FROM DPOLSWS,M=2.71, F=1.00]
DPHILSED.V/V   : DENSITY POROSITY LIMESTONE [M=2.71, F=1.00] FROM DENSITY LOG [ADJ. TO RESISTIVITY LOG/NPHILS/NPHISS]
DPHISSED.V/V   : DENSITY POROSITY SANDSTONE [M=2.65, F=1.00] FROM DENSITY LOG [ADJ. TO RESISTIVITY LOG/NPHILSED/NPHISSED]
DPOLSWS .V/V   : DENSITY POROSITY LIMESTONE [DPHISSED CONVERTED TO LIMESTONE MATRIX,M=2.71, F=1.00,SPL. TO DPHILSED @ 5507']
DRESWS  .OHMM  : DEEP RESISTIVITY [ILDED]
DRHOED  .G/C3  : DENSITY CORRECTION FROM DENSITY LOG [ADJ. TO RESISTIVITY LOG/NPHILSED/NPHISSED/DPHILSED/DPHISSED]
DTED    .US/F  : DELTA-T FROM SONIC LOG [ADJ. TO RESISTIVITY LOG]
DTWS    .US/F  : COMPRESSIONAL SONIC [DTED]
GRDED   .GAPI  : GAMMA RAY FROM DENSITY LOG [ADJ. TO RESISTIVITY LOG]
GRSED   .GAPI  : GAMMA RAY FROM SONIC LOG [ADJ. TO RESISTIVITY LOG]
GRWS    .GAPI  : GAMMA RAY [GRSED SPL. TO GRDED @ 1007']
ILDED   .OHMM  : DEEP INDUCTION RESISTIVITY FROM RESISTIVITY LOG
ILMED   .OHMM  : MEDIUM INDUCTION RESISTIVITY FROM RESISTIVITY LOG
LL8ED   .OHMM  : LATEROLOG 8 FROM RESISTIVITY LOG
MRESWS  .OHMM  : MEDIUM RESISTIVITY [ILMED]
NPHILSED.V/V   : NEUTRON POROSITY LIMESTONE FROM DENSITY LOG [ADJ. TO RESISTIVITY LOG]
NPHISSED.V/V   : NEUTRON POROSITY SANDSTONE FROM DENSITY LOG [ADJ. TO RESISTIVITY LOG]
NPOLSWS .V/V   : NEUTRON POROSITY LIMESTONE [NPHISSED MATRIX CONVERSION FOR LIMESTONE, SPL. TO NPHILSED @5597']
RHOBED  .G/C3  : BULK DENSITY FROM DENSITY LOG [ADJ. TO RESISTIVITY LOG/NPHILSED/NPHISSED/DPHILSED/DPHISSED]
SPRED   .MV    : SPONTANEOUS POTENTIAL FROM RESISTIVITY LOG
SPWS    .MV    : SPONTANEOUS POTENTIAL [BASELINE 0 MV,SPRED]
SRESWS  .OHMM  : SHALLOW RESISTIVITY [LL8ED]
~Params ----------------------------------------------------
PD  .                     GL : PERMANENT DATUM
EPD .FT                 2835 : ELEVATION PERMANENT DATUM
LMF .                     KB : LOG MEASURED FROM
DAPD.FT                 14.6 : FEET ABOVE PERMANENT DATUM
EKB .FT               2849.6 : KELLY BUSHING
EGL .FT               2835.0 : GROUND LEVEL
DATE.               01/15/77 : RUN DATE
RUN .                      1 : RUN NUMBER
DD  .FT                 9200 : DEPTH DRILLER
DL  .FT                 9205 : DEPTH LOGGER
BLI .FT                 9204 : BOTTOM LOG INTERVAL
TLI .FT                 1012 : TOP LOG INTERVAL
CBD .FT                 1015 : CASING BOTTOM DRILLER
CBL .FT                 1012 : CASING BOTTOM LOGGER
BS  .IN                 8.25 : BIT SIZE
BSD .FT                 9200 : BIT SIZE AT DEPTH
DFT .                    GEL : DRILLING FLUID TYPE
DFD .                    9.1 : DRILLING FLUID DENSITY
DFV .                    105 : DRILLING FLUID VISCOSITY
DFPH.                    9.5 : DRILLING FLUID PH
RMS .OHMM               3.85 : RESISTIVITY MUD SAMPLE
MST .DEGF                 48 : MUD SAMPLE TEMPERATURE
RMF .OHMM               3.25 : RESISTIVITY MUD FILTRATE SAMPLE
MFST.DEGF                 62 : MUD FILTRATE SAMPLE TEMPERATURE
TCS .HRS                   8 : TIME CIRCULATED STOPPED
LUN .                   7802 : LOGGING UNIT NUMBER
LUL .                    EDM : LOGGING UNIT LOCATION
ENGI.                   PIHM : RECORDING ENGINEER
WITN.            PHILLIPCHUK : WITNESSED BY
CLNT.                A2DTECH : CLIENT CODE
ORIG.            2" 5" PRINT : ORIGIN OF DATA
UWI .       100112606214W500 : UNIQUE WELL ID
DICO. A2D Technologies, Inc. : DIGITIZING COMPANY
~Other -----------------------------------------------------
DIL-CNFD-BHC LOG RUN.
RHOB & DRHO VERIFYED FROM 2" OF SCALE
~ASCII -----------------------------------------------------
# ...
 4900.00000   10.97850   11.05830   10.97850   87.65090    0.03130    2.46470    -999.25    0.11230    0.14340   11.40890    0.03130   79.55500   79.55500   78.38140   99.14450   78.38140   11.40890   10.46460   14.20980   10.46460    -999.25    0.30770    0.26370    2.44190 -139.21850   -5.24850   14.20980
 4950.00000   13.19020   12.60210   13.19020   97.96430    0.02990    2.55430    -999.25    0.05800    0.09110   10.20780    0.02990   77.16160   77.16160   58.11220   71.42610   58.11220   10.20780    9.83770   11.67860    9.83770    -999.25    0.34830    0.30460    2.59900 -137.07300   -4.54040   11.67860
 5000.00000   10.95550   11.16000   10.95550  116.60720    0.02340    2.49110    -999.25    0.09630    0.12800    8.57580    0.02340   79.15320   79.15320   77.23280   88.16690   77.23280    8.57580    8.03660    9.97760    8.03660    -999.25    0.29010    0.24610    2.49060 -139.67780   -8.58260    9.97760
 5050.00000   11.00300   10.90530   11.00300  131.17100    0.03550    2.47110    -999.25    0.10840    0.13970    7.62360    0.03550   73.48860   73.48860   57.52750   70.78920   57.52750    7.62360    8.24340   15.31550    8.24340    -999.25    0.23970    0.19590    2.48900 -158.38120  -28.71620   15.31550
 5100.00000   11.84820   11.72060   11.84820  123.32280    0.03580    2.44800    -999.25    0.12240    0.15320    8.10880    0.03580   75.97910   75.97910   62.31170   71.56480   62.31170    8.10880    7.68350    7.49230    7.68350    -999.25    0.23710    0.19330    2.45640 -135.20150   -6.61870    7.49230
 5150.00000   12.92030   12.45830   12.92030  218.44550    0.09160    2.37690    -999.25    0.16550    0.19480    4.57780    0.09160   84.44190   84.44190   82.57640  104.39380   82.57640    4.57780    4.44030    5.91300    4.44030    -999.25    0.31610    0.27220    2.40780 -136.96550   -7.23220    5.91300
 5200.00000   10.89670   11.33380   10.89670  152.79770    0.02510    2.48370    -999.25    0.10080    0.13240    6.54460    0.02510   80.43500   80.43500   75.94690  100.13210   75.94690    6.54460    6.27380    7.59520    6.27380    -999.25    0.27960    0.23560    2.48520 -138.37530   -7.49150    7.59520
 5250.00000   10.85490   10.80380   10.85490  116.35210    0.02640    2.59670    -999.25    0.03230    0.06630    8.59460    0.02640   77.88370   77.88370   69.39890   91.21650   69.39890    8.59460    8.21110    9.96730    8.21110    -999.25    0.30540    0.26140    2.61930 -138.20900   -8.42210    9.96730
 5300.00000   12.78490   11.21570   12.78490  140.21730    0.18490    2.16310    -999.25    0.29510    0.31980    7.13180    0.18490   80.16120   80.16120   77.85530   99.21090   77.85530    7.13180    6.43380    7.05230    6.43380    -999.25    0.34710    0.30350    2.19050 -131.49040   -3.35390    7.05230
 5350.00000   10.49500   10.53370   10.49500   67.58900    0.03410    2.50500    -999.25    0.08790    0.11990   14.79530    0.03410   73.50830   73.50830   74.53540   84.68780   74.53540   14.79530   13.83340   16.63920   13.83340    -999.25    0.22140    0.17770    2.50680 -132.94560   -6.47610   16.63920
 5400.00000   11.59310   10.78550   11.59310  108.20750    0.15220    2.15670    -999.25    0.29900    0.32360    9.24150    0.15220   81.91040   81.91040   88.53200   96.15680   88.53200    9.24150    8.21110   11.82230    8.21110    -999.25    0.34600    0.30230    2.18100 -127.34030   -2.55650   11.82230
 5450.00000   10.10380    9.76840   10.10380  129.40960    0.04220    2.30480    -999.25    0.20920    0.23690    7.72740    0.04220   81.55950   81.55950   47.08730   50.59790   47.08730    7.72740   12.22980   34.40130   12.22980    -999.25    0.18980    0.14650    2.31150 -152.90180  -30.07590   34.40130
 5500.00000   15.20880   11.29890   15.20880  158.23790    0.25120    2.30320    -999.25    0.21020    0.23790    6.31960    0.25120   80.87400   80.87400  101.53310  110.39660  101.53310    6.31960    6.00220    6.63980    6.00220    -999.25    0.28260    0.23860    2.29740 -123.93470   -3.06660    6.63980
 5550.00000   15.27310   11.41840   15.27310  172.37320    0.22720    2.01650    -999.25    0.38400    0.40560    5.80160    0.22720   84.08220   84.08220   91.62330  108.58340   91.62330    5.80160    5.45060    6.86320    5.45060    -999.25    0.35840    0.31490    2.01300 -124.35240   -5.43240    6.86320
 5600.00000   15.28520   12.98810   15.28520  295.65680    0.21000    2.26910    0.29250    0.23090    0.25780    3.38230    0.21000   93.77910   93.77910   89.98110  104.16200   89.98110    3.38230    3.24460    4.72960    3.24460    0.43330    0.46000    0.43330    2.31450 -125.26200   -8.30970    4.72960
 5650.00000    9.10200    9.74380    9.10200    0.63810    0.01630    2.56220    0.08640    0.06620    0.08640 1567.23000    0.01630   61.21530   61.21530   72.54050   65.57220   72.54050 1567.23000  339.71060  415.32780  339.71060    0.08390    0.10500    0.08390    2.56460 -120.08630   -5.09190  415.32780
 5700.00000    9.46230    9.77880    9.46230  150.41670    0.06290    2.65240    0.03370    -999.25    0.03370    6.64820    0.06290   56.72980   56.72980   37.84200   47.50610   37.84200    6.64820    9.10520   27.19760    9.10520    0.12790    -999.25    0.12790    2.64350 -184.47050  -70.43530   27.19760
 5750.00000    9.73950   10.22690    9.73950   70.15230    0.00150    2.65990    0.02930    -999.25    0.02930   14.25470    0.00150   53.39220   53.39220   33.07370   38.78280   33.07370   14.25470   17.83270   30.03410   17.83270    0.07070    -999.25    0.07070    2.66300 -158.69270  -45.67770   30.03410
 5800.00000   10.90410   10.17500   10.90410    0.63870    0.07220    2.59900    0.06490    -999.25    0.06490 1565.75870    0.07220   50.38640   50.38640   11.17500   16.36830   11.17500 1565.75870  254.41760  491.72530  254.41760    0.00260    -999.25    0.00260    2.59660 -175.30750  -63.30780  491.72530
 5850.00000   11.07250   10.29600   11.07250    1.62940    0.01550    2.65450    0.03250    -999.25    0.03250  613.72310    0.01550   49.42580   49.42580   14.87140   16.68900   14.87140  613.72310  113.69620  166.05600  113.69620    0.00070    -999.25    0.00070    2.65170 -197.05410  -86.07970  166.05600
 5900.00000   10.38120   10.18810   10.38120   10.89240    0.06490    2.64570    0.03760    -999.25    0.03760   91.80700    0.06490   49.77950   49.77950   13.45010   13.81890   13.45010   91.80700   80.95920  406.20220   80.95920    0.01220    -999.25    0.01220    2.64610 -205.75270  -95.79850  406.20220
 5950.00000   10.99420   11.29430   10.99420  408.91430    0.02340    2.61080    0.05800    -999.25    0.05800    2.44550    0.02340   67.39590   67.39590   49.30180   61.88720   49.30180    2.44550    2.44210    3.32610    2.44210    0.21660    -999.25    0.21660    2.59850 -158.76210  -49.82820    3.32610
 6000.00000    9.97760   10.25140    9.97760  177.93590    0.01960    2.58000    0.07600    -999.25    0.07600    5.62000    0.01960   62.79660   62.79660   68.12880   86.71130   68.12880    5.62000    6.98890    9.41010    6.98890    0.12770    -999.25    0.12770    2.60160 -143.03250  -35.11890    9.41010
 6050.00000   10.09740   10.47170   10.09740   92.12770    0.00240    2.67390    0.02110    -999.25    0.02110   10.95810    0.00240   55.67250   55.67250   35.01400   40.31630   35.01400   10.95810   11.68390   16.13600   11.68390    0.04930    -999.25    0.04930    2.67490 -141.39660  -34.49820   16.13600
 6100.00000    9.58140    9.75970    9.58140    9.79740    0.02100    2.67680    0.01940    -999.25    0.01940  102.06780    0.02100   50.99340   50.99340   19.66950   20.62050   19.66950  102.06780   79.07410  497.02310   79.07410    0.01050    -999.25    0.01050    2.66770 -169.67480  -63.80170  497.02310
 6150.00000    9.41960    9.96250    9.41960   19.14300    0.00220    2.69190    0.01060    -999.25    0.01060   52.23840    0.00220   52.61130   52.61130   12.77130   14.22300   12.77130   52.23840   74.93560  355.14740   74.93560    0.01810    -999.25    0.01810    2.68720 -174.50250  -69.64970  355.14740
