~Version ---------------------------------------------------
VERS.      2.0 : CWLS log ASCII Standard -VERSION 2.0
WRAP.       NO : One line per depth step
CREA. 12/01/17 : LAS Creation Date
~Well ------------------------------------------------------
STRT.FT                      1000.0 : START DEPTH
STOP.FT                      9350.0 : STOP DEPTH
STEP.FT                    50.00000 : STEP LENGTH
NULL.                       -999.25 : NULL VALUE
COMP. ATLANTIC RICHFIELD CANADA LTD : COMPANY
WELL.         ARCO SNIPE 10-6-69-17 : WELL
FLD .                               : FIELD
LOC .                               : LOCATION
CTRY.                        CANADA : COUNTRY
SRVC.        Schlumberger of Canada : SERVICE COMPANY
DATE.                   01-Jan-1971 : LOGDATE
PROV.                       Alberta : PROVINCE
UWI .              100100606917W500 : UNIQUE WELL ID
SLAT.WGS84                 54.94767 : SURFACE LATITUDE
SLON.WGS84                -116.5759 : SURFACE LONGITUDE
~Curve Information -----------------------------------------
DEPT  .FT    : Depth Curve
CALSED.IN    : CALIPER FROM SONIC LOG
CALWS .IN    : CALIPER [CALSED]
CONDWS.MMHO  : CONDUCTIVITY [1000/DRESWS]
DRESWS.OHMM  : DEEP MRESISTIVITY [ILDED]
DTED  .US/F  : DELTA-TIME FROM SONIC LOG
DTWS  .US/F  : COMPRESSIONAL SONIC [DTED]
GRSED .GAPI  : GAMMA RAY FROM SONIC LOG
GRWS  .GAPI  : GAMMA RAY [GRSED]
ILDED .OHMM  : DEEP INDUCTION LOG RESISTIVITY FROM RESISTIVITY LOG
ILMED .OHMM  : MEDIUM INDUCTION LOG RESISTIVITY FROM RESISTIVITY LOG
LL8ED .OHMM  : 8 INCH LATEROLOG RESISTIVITY FROM RESISTIVITY LOG
MRESWS.OHMM  : MEDIUM RESISTIITY [ILMED]
SPRED .MV    : SPONTANEOUS POTENTIAL FROM RESISTIVITY LOG
SPWS  .MV    : SPONTANEOUS POTENTIAL [BASELINE TO ZERO, SPRED]
SRESWS.OHMM  : SHALLOW RESISTIVITY [LL8ED]
~Params ----------------------------------------------------
PD  .                     GL : PERMANENT DATUM
EPD .FT               3010.5 : ELEVATION PERMANENT DATUM
LMF .                     KB : LOG MEASURED FROM
DAPD.FT                 18.5 : FEET ABOVE PERMANENT DATUM
EKB .FT                 3029 : KELLY BUSHING
EGL .FT               3010.5 : GROUND LEVEL
DATE.               01/01/71 : RUN DATE
RUN .                      1 : RUN NUMBER
DD  .FT                 9400 : DEPTH DRILLER
DL  .FT                 9398 : DEPTH LOGGER
BLI .FT                 9392 : BOTTOM LOG INTERVAL
TLI .FT                  974 : TOP LOG INTERVAL
CBD .FT                  974 : CASING BOTTOM DRILLER
CBL .FT                  974 : CASING BOTTOM LOGGER
BS  .IN                7.875 : BIT SIZE
BSD .FT                 9400 : BIT SIZE AT DEPTH
DFT .              FRESH GEL : DRILLING FLUID TYPE
DFD .                    9.4 : DRILLING FLUID DENSITY
DFV .                     76 : DRILLING FLUID VISCOSITY
DFPH.                   10.5 : DRILLING FLUID PH
DFL .                    9.2 : DRILLING FLUID LOSS
MSS .               FLOWLINE : MUD SAMPLE SOURCE
RMS .OHMM               3.45 : RESISTIVITY MUD SAMPLE
MST .DEGF                 60 : MUD SAMPLE TEMPERATURE
RMF .OHMM               2.98 : RESISTIVITY MUD FILTRATE SAMPLE
MFST.DEGF                 48 : MUD FILTRATE SAMPLE TEMPERATURE
RMB .OHMM               1.08 : RESISTIVITY MUD AT BHT
TCS .HRS                   3 : TIME CIRCULATED STOPPED
LUN .                   7502 : LOGGING UNIT NUMBER
LUL .                    EDM : LOGGING UNIT LOCATION
ENGI.                 BUFTON : RECORDING ENGINEER
WITN.                 BAINES : WITNESSED BY
CLNT.                A2DTECH : CLIENT CODE
ORIG.            2" 5" PRINT : ORIGIN OF DATA
UWI .       100100606917W500 : UNIQUE WELL ID
DICO. A2D Technologies, Inc. : DIGITIZING COMPANY
~Other -----------------------------------------------------
~ASCII -----------------------------------------------------
# ...
 7900.00000    9.06050    9.06050   71.71800   13.94350   59.92930   59.92930   41.27680   41.27680   13.94350   16.83690   24.11750   16.83690  -26.70710  -13.38790   24.11750
 7950.00000   11.71230   11.71230  212.72970    4.70080   77.95690   77.95690   61.44770   61.44770    4.70080    4.99860    5.92040    4.99860  -34.37530  -21.41350    5.92040
 8000.00000   13.40770   13.40770  283.71210    3.52470   88.02970   88.02970   70.17730   70.17730    3.52470    3.17000    4.61680    3.17000  -39.35350  -26.91940    4.61680
 8050.00000   14.16190   14.16190  247.66540    4.03770   83.59090   83.59090   65.55900   65.55900    4.03770    3.48770    5.17510    3.48770  -51.57650  -39.67000    5.17510
 8100.00000   14.68170   14.68170  248.01590    4.03200   83.67720   83.67720   72.03210   72.03210    4.03200    3.54050    5.16300    3.54050  -50.02490  -38.64960    5.16300
 8150.00000   14.69260   14.69260  193.97510    5.15530   78.65050   78.65050   63.70850   63.70850    5.15530    4.67680    6.27310    4.67680  -71.55780  -60.71010    6.27310
 8200.00000   14.88310   14.88310  262.36390    3.81150   83.97680   83.97680   62.38270   62.38270    3.81150    3.51600    5.25060    3.51600  -55.38990  -45.07340    5.25060
 8250.00000   13.72230   13.72230  235.42150    4.24770   81.61790   81.61790   62.71600   62.71600    4.24770    4.04630    5.46570    4.04630  -54.19560  -44.40680    5.46570
 8300.00000   12.34100   12.34100  251.75030    3.97220   83.28670   83.28670   64.57020   64.57020    3.97220    3.81750    5.39860    3.81750  -43.06610  -33.80490    5.39860
 8350.00000    8.41480    8.41480   82.00750   12.19400   63.93660   63.93660   43.45350   43.45350   12.19400   14.26610   22.13230   14.26610  -32.01600  -23.28600   22.13230
 8400.00000    8.57150    8.57150  103.01950    9.70690   68.10390   68.10390   56.81360   56.81360    9.70690   10.71750   13.11120   10.71750  -26.35410  -18.15180   13.11120
 8450.00000    8.65740    8.65740   96.18900   10.39620   65.89780   65.89780   49.17010   49.17010   10.39620   11.49910   13.46510   11.49910  -19.54020  -11.86900   13.46510
 8500.00000    8.63830    8.63830  135.31800    7.39000   71.02350   71.02350   65.66700   65.66700    7.39000    8.18740   10.09160    8.18740  -27.30780  -20.16430   10.09160
 8550.00000    8.84220    8.84220  116.93550    8.55180   68.51760   68.51760   63.61720   63.61720    8.55180    9.65790   12.61750    9.65790  -21.94760  -15.33170   12.61750
 8600.00000    9.48320    9.48320  183.21390    5.45810   74.03270   74.03270   58.39830   58.39830    5.45810    5.91270    7.78390    5.91270  -29.56940  -23.48470    7.78390
 8650.00000    8.73360    8.73360  134.65470    7.42640   70.60420   70.60420   64.92010   64.92010    7.42640    8.27130   11.36190    8.27130  -23.58460  -18.02760   11.36190
 8700.00000    8.73060    8.73060  104.18290    9.59850   68.14500   68.14500   56.48020   56.48020    9.59850   10.57720   13.55880   10.57720  -12.24290   -7.21700   13.55880
 8750.00000    8.99480    8.99480  181.40260    5.51260   74.96290   74.96290   66.98650   66.98650    5.51260    6.15170    7.93080    6.15170  -21.74860  -17.25040    7.93080
 8800.00000    8.88440    8.88440  179.69860    5.56490   83.24010   83.24010   93.10720   93.10720    5.56490    6.02360    8.56290    6.02360  -20.84240  -16.87190    8.56290
 8850.00000    8.61310    8.61310  135.64840    7.37200   72.47700   72.47700   49.68640   49.68640    7.37200    9.14150   12.43940    9.14150  -19.94770  -16.05700   12.43940
 8900.00000   10.54170   10.54170  168.83910    5.92280   86.07440   86.07440   86.41780   86.41780    5.92280    6.55560    8.55270    6.55560  -37.68530  -33.79460    8.55270
 8950.00000    8.87330    8.87330   85.02530   11.76120   60.03270   60.03270   39.92730   39.92730   11.76120   12.96530   15.74450   12.96530  -24.72570  -20.83500   15.74450
 9000.00000    8.64850    8.64850   23.51650   42.52330   55.39550   55.39550   27.27920   27.27920   42.52330   60.25440   61.82420   60.25440  -20.75640  -16.86570   61.82420
 9050.00000    8.65110    8.65110   37.30440   26.80680   59.41250   59.41250   36.71920   36.71920   26.80680   29.46370   37.77270   29.46370  -21.05980  -17.16910   37.77270
 9100.00000    8.82700    8.82700   28.50390   35.08290   58.30790   58.30790   30.82790   30.82790   35.08290   36.82020   39.09770   36.82020  -19.76930  -15.87860   39.09770
 9150.00000    8.69110    8.69110   52.44250   19.06850   60.87800   60.87800   50.30370   50.30370   19.06850   21.40590   25.08480   21.40590  -14.84740  -10.95670   25.08480
 9200.00000    8.62700    8.62700   50.85070   19.66540   60.40230   60.40230   46.03500   46.03500   19.66540   21.44870   28.01450   21.44870  -12.08800   -8.19730   28.01450
 9250.00000    8.64810    8.64810    1.21130  825.52580   50.25810   50.25810    8.65920    8.65920  825.52580  705.08940  432.95110  705.08940  -46.22010  -42.32940  432.95110
 9300.00000    8.59680    8.59680    0.61830 1617.34750   50.85950   50.85950   17.81570   17.81570 1617.34750 1087.37650 1489.31680 1087.37650  -38.10400  -34.21330 1489.31680
 9350.00000    8.49590    8.49590   34.23470   29.21010   59.64100   59.64100   90.84690   90.84690   29.21010   29.96040   46.32200   29.96040  -64.93870  -61.04800   46.32200
