~Version ---------------------------------------------------
VERS.      2.0 : CWLS log ASCII Standard -VERSION 2.0
WRAP.       NO : One line per depth step
CREA. 11/16/17 : LAS Creation Date
~Well ------------------------------------------------------
STRT.FT                         1050.0 : START DEPTH
STOP.FT                        10100.0 : STOP DEPTH
STEP.FT                       50.00000 : STEP LENGTH
NULL.                          -999.25 : NULL VALUE
COMP.             PETROFINA CANADA LTD : COMPANY
WELL.        FINA ET AL WIND 7-7-61-16 : WELL
FLD .                                  : FIELD
LOC .                                  : LOCATION
CTRY.                           CANADA : COUNTRY
SRVC. Schlumberger Well Surveying Corp : SERVICE COMPANY
DATE.                      23-Jan-1978 : LOGDATE
PROV.                          Alberta : PROVINCE
UWI .                 100070706116W500 : UNIQUE WELL ID
SLAT.WGS84                    54.25864 : SURFACE LATITUDE
SLON.WGS84                    -116.383 : SURFACE LONGITUDE
~Curve Information -----------------------------------------
DEPT    .FT    : Depth Curve
CALDED  .IN    : CALIPER FROM DENSITY LOG [ADJ.TO RESISTIVITY LOG]
CALSED  .IN    : CALIPER FROM SONIC LOG [ADJ.TO RESISTIVITY LOG]
CALWS   .IN    : CALIPER [CALSED]
CONDWS  .MMHO  : CONDUCTIVITY [1000/DRESWS]
DCORWS  .G/C3  : DENSITY CORRECTION [DRHOED]
DENWS   .G/C3  : FORMATION BULK DENSITY [RHOBED]
DPHILSED.V/V   : DENSITY POROSITY LIMESTONE [M=2.71, F=1.00] FROM DENSITY LOG [ADJ.TO RESISTIVITY LOG]
DPHISSED.V/V   : DENSITY POROSITY SANDSTONE [M=2.65, F=1.00] FROM DENSITY LOG [ADJ.TO RESISTIVITY LOG]
DPOLSWS .V/V   : DENSITY POROSITY LIMESTONE [CALC FROM DENWS, M=2.71, F=1.00]
DRESWS  .OHMM  : DEEP RESISTIVITY [ILDED]
DRHOED  .G/C3  : DENSITY CORRECTION FROM DENSITY LOG [ADJ.TO RESISTIVITY LOG]
DTED    .US/F  : DELTA TIME FROM SONIC LOG [ADJ.TO RESISTIVITY LOG]
DTWS    .US/F  : COMPRESSIONAL SONIC [DTED]
GRDED   .GAPI  : GAMMA RAY FROM DENSITY LOG [ADJ.TO RESISTIVITY LOG]
GRDRED  .GAPI  : GAMMA RAY [FROM REPEAT SECTION] FROM DENSITY LOG [ADJ.TO RESISTIVITY LOG]
GRSED   .GAPI  : GAMMA RAY FROM SONIC LOG [ADJ.TO RESISTIVITY LOG]
GRSRED  .GAPI  : GAMMA RAY [FROM REPEAT SECTION] FROM SONIC LOG [ADJ.TO RESISTIVITY LOG]
GRWS    .GAPI  : GAMMA RAY [GRSED SPL.TO GRSRED @ 10087.5']
ILDED   .OHMM  : DEEP INDUCTION FROM RESISTIVITY LOG
ILMED   .OHMM  : MEDIUM INDUCTION FROM RESISTIVITY LOG
LL8ED   .OHMM  : LATEROLOG 8 FROM RESISTIVITY LOG
MRESWS  .OHMM  : MEDIUM RESISTIVITY [ILMED]
NPHILSED.V/V   : NEUTRON POROSITY LIMESTONE FROM DENSITY LOG [ADJ.TO RESISTIVITY LOG]
NPHISSED.V/V   : NEUTRON POROSITY SANDSTONE FROM DENSITY LOG [ADJ.TO RESISTIVITY LOG]
NPOLSWS .V/V   : NEUTRON POROSITY LIMESTONE [NPHISSED MATRIX (SLB) CONVERSION FOR LIMESTONE, SPL.TO NPHILSED @ 6298']
RHOBED  .G/C3  : BULK DENSITY FROM DENSITY LOG [ADJ.TO RESISTIVITY LOG]
SPRED   .MV    : SPONTANEOUS POTENTIAL FROM RESISTIVITY LOG
SPWS    .MV    : SPONTANEOUS POTENTIAL [BASELINE 0 MV, SPRED]
SRESWS  .OHMM  : SHALLOW RESISTIVITY [LL8ED]
~Params ----------------------------------------------------
PD  .                     GL : PERMANENT DATUM
EPD .FT               2840.2 : ELEVATION PERMANENT DATUM
LMF .                     KB : LOG MEASURED FROM
DAPD.FT                 13.8 : FEET ABOVE PERMANENT DATUM
EKB .FT                 2854 : KELLY BUSHING
EGL .FT               2840.2 : GROUND LEVEL
DATE.               01/23/78 : RUN DATE
RUN .                      1 : RUN NUMBER
DD  .FT                10130 : DEPTH DRILLER
DL  .FT                10136 : DEPTH LOGGER
BLI .FT                10130 : BOTTOM LOG INTERVAL
TLI .FT                 1041 : TOP LOG INTERVAL
CBD .FT                 1041 : CASING BOTTOM DRILLER
CBL .FT                 1041 : CASING BOTTOM LOGGER
BS  .IN                7.875 : BIT SIZE
BSD .FT                10130 : BIT SIZE AT DEPTH
DFT .               GEL CHEM : DRILLING FLUID TYPE
DFD .                    9.1 : DRILLING FLUID DENSITY
DFV .                     88 : DRILLING FLUID VISCOSITY
DFPH.                    9.6 : DRILLING FLUID PH
DFL .                      6 : DRILLING FLUID LOSS
MSS .               FLOWLINE : MUD SAMPLE SOURCE
RMF .OHMM                2.1 : RESISTIVITY MUD FILTRATE SAMPLE
MFST.DEGF                 61 : MUD FILTRATE SAMPLE TEMPERATURE
RMB .OHMM               0.67 : RESISTIVITY MUD AT BHT
TCS .HRS                 2.5 : TIME CIRCULATED STOPPED
LUN .                   7730 : LOGGING UNIT NUMBER
LUL .                    EDM : LOGGING UNIT LOCATION
ENGI.               CAMPBELL : RECORDING ENGINEER
WITN.                  SMITH : WITNESSED BY
CLNT.                A2DTECH : CLIENT CODE
ORIG.            2" 5" PRINT : ORIGIN OF DATA
UWI .       100070706116W500 : UNIQUE WELL ID
DICO. A2D Technologies, Inc. : DIGITIZING COMPANY
~Other -----------------------------------------------------
~ASCII -----------------------------------------------------
 1050.00000    -999.25    9.66040    9.66040  210.65490    -999.25    -999.25    -999.25    -999.25    -999.25    4.74710    -999.25  109.56500  109.56500    -999.25    -999.25  107.98930    -999.25  107.98930    4.74710    3.78270    4.40610    3.78270    -999.25    -999.25    -999.25    -999.25  -91.29210   -3.25830    4.40610
 1100.00000    -999.25    9.72950    9.72950  177.57670    -999.25    -999.25    -999.25    -999.25    -999.25    5.63310    -999.25  102.04300  102.04300    -999.25    -999.25   93.71420    -999.25   93.71420    5.63310    4.78650    4.99460    4.78650    -999.25    -999.25    -999.25    -999.25  -89.66130   -3.40760    4.99460
 1150.00000    -999.25    9.90890    9.90890  193.75340    -999.25    -999.25    -999.25    -999.25    -999.25    5.16120    -999.25  107.86570  107.86570    -999.25    -999.25   95.88360    -999.25   95.88360    5.16120    4.42730    4.96040    4.42730    -999.25    -999.25    -999.25    -999.25  -86.02830   -4.01510    4.96040
 1200.00000    -999.25   10.14620   10.14620  244.44340    -999.25    -999.25    -999.25    -999.25    -999.25    4.09600    -999.25  109.75000  109.75000    -999.25    -999.25   99.20580    -999.25   99.20580    4.09600    3.50490    3.61210    3.50490    -999.25    -999.25    -999.25    -999.25  -84.24050   -2.74970    3.61210
 1250.00000    -999.25    9.51970    9.51970  352.99520    -999.25    -999.25    -999.25    -999.25    -999.25    2.83290    -999.25  110.25780  110.25780    -999.25    -999.25  121.49310    -999.25  121.49310    2.83290    2.51810    3.24050    2.51810    -999.25    -999.25    -999.25    -999.25  -84.24730   -2.64790    3.24050
 1300.00000    -999.25    9.59530    9.59530  205.83760    -999.25    -999.25    -999.25    -999.25    -999.25    4.85820    -999.25  105.50270  105.50270    -999.25    -999.25   96.56610    -999.25   96.56610    4.85820    4.08710    4.42690    4.08710    -999.25    -999.25    -999.25    -999.25  -83.29260   -1.13200    4.42690
 1350.00000    -999.25    9.73450    9.73450  174.17160    -999.25    -999.25    -999.25    -999.25    -999.25    5.74150    -999.25  101.64660  101.64660    -999.25    -999.25  106.32070    -999.25  106.32070    5.74150    4.93450    5.90430    4.93450    -999.25    -999.25    -999.25    -999.25  -88.03640   -3.85340    5.90430
 1400.00000    -999.25   10.09770   10.09770   71.84270    -999.25    -999.25    -999.25    -999.25    -999.25   13.91930    -999.25  102.33600  102.33600    -999.25    -999.25   70.93340    -999.25   70.93340   13.91930   11.65020   10.54140   11.65020    -999.25    -999.25    -999.25    -999.25  -94.66630   -8.14520   10.54140
 1450.00000    -999.25   10.17620   10.17620  122.02570    -999.25    -999.25    -999.25    -999.25    -999.25    8.21000    -999.25  107.09440  107.09440    -999.25    -999.25   84.52470    -999.25   84.52470    8.21000    7.26510    7.66890    7.26510    -999.25    -999.25    -999.25    -999.25  -89.47660   -4.20290    7.66890
 1500.00000    -999.25    9.81400    9.81400   93.60140    -999.25    -999.25    -999.25    -999.25    -999.25   10.68360    -999.25   95.24940   95.24940    -999.25    -999.25   56.06290    -999.25   56.06290   10.68360    9.74780   10.37980    9.74780    -999.25    -999.25    -999.25    -999.25  -87.94550   -2.49890   10.37980
 1550.00000    -999.25   10.11190   10.11190  159.06600    -999.25    -999.25    -999.25    -999.25    -999.25    6.28670    -999.25   98.68510   98.68510    -999.25    -999.25   70.69440    -999.25   70.69440    6.28670    5.58000    6.15550    5.58000    -999.25    -999.25    -999.25    -999.25  -88.21980   -2.59780    6.15550
 1600.00000    -999.25    9.26600    9.26600   75.19700    -999.25    -999.25    -999.25    -999.25    -999.25   13.29850    -999.25  115.38860  115.38860    -999.25    -999.25   68.84630    -999.25   68.84630   13.29850   12.01040   11.82370   12.01040    -999.25    -999.25    -999.25    -999.25  -94.32020   -8.40880   11.82370
 1650.00000    -999.25    9.18320    9.18320  186.59150    -999.25    -999.25    -999.25    -999.25    -999.25    5.35930    -999.25  100.43220  100.43220    -999.25    -999.25   90.20350    -999.25   90.20350    5.35930    4.54190    5.07990    4.54190    -999.25    -999.25    -999.25    -999.25  -88.48400   -2.08010    5.07990
 1700.00000    -999.25   10.08630   10.08630  238.70070    -999.25    -999.25    -999.25    -999.25    -999.25    4.19020    -999.25  101.18980  101.18980    -999.25    -999.25   88.15140    -999.25   88.15140    4.19020    3.88250    4.22710    3.88250    -999.25    -999.25    -999.25    -999.25  -87.37220   -1.40690    4.22710
 1750.00000    -999.25   10.34680   10.34680  233.99480    -999.25    -999.25    -999.25    -999.25    -999.25    4.27360    -999.25  102.85620  102.85620    -999.25    -999.25   91.69520    -999.25   91.69520    4.27360    3.93850    4.50680    3.93850    -999.25    -999.25    -999.25    -999.25  -87.68420   -2.09060    4.50680
 1800.00000    -999.25    9.51780    9.51780  274.53670    -999.25    -999.25    -999.25    -999.25    -999.25    3.64250    -999.25  115.76980  115.76980    -999.25    -999.25  102.59300    -999.25  102.59300    3.64250    3.25780    3.74030    3.25780    -999.25    -999.25    -999.25    -999.25  -89.00230   -3.26770    3.74030
 1850.00000    -999.25   10.22180   10.22180  192.78660    -999.25    -999.25    -999.25    -999.25    -999.25    5.18710    -999.25   96.38170   96.38170    -999.25    -999.25   90.87050    -999.25   90.87050    5.18710    4.45740    5.01100    4.45740    -999.25    -999.25    -999.25    -999.25  -87.90650   -2.53610    5.01100
 1900.00000    -999.25   10.20170   10.20170  146.46440    -999.25    -999.25    -999.25    -999.25    -999.25    6.82760    -999.25   94.32620   94.32620    -999.25    -999.25   82.06500    -999.25   82.06500    6.82760    5.77960    6.56290    5.77960    -999.25    -999.25    -999.25    -999.25  -89.13620   -3.97950    6.56290
 1950.00000    -999.25    9.99020    9.99020  133.27440    -999.25    -999.25    -999.25    -999.25    -999.25    7.50650    -999.25   96.37540   96.37540    -999.25    -999.25   84.16570    -999.25   84.16570    7.50650    6.71090    6.27710    6.71090    -999.25    -999.25    -999.25    -999.25  -91.53850   -6.26460    6.27710
 2000.00000    -999.25    9.77480    9.77480  253.83290    -999.25    -999.25    -999.25    -999.25    -999.25    3.93960    -999.25  109.01180  109.01180    -999.25    -999.25  108.14480    -999.25  108.14480    3.93960    3.31400    3.75430    3.31400    -999.25    -999.25    -999.25    -999.25  -87.51240   -1.86930    3.75430
 2050.00000    -999.25    9.39280    9.39280  214.56460    -999.25    -999.25    -999.25    -999.25    -999.25    4.66060    -999.25   91.01360   91.01360    -999.25    -999.25   93.09540    -999.25   93.09540    4.66060    4.53570    5.04250    4.53570    -999.25    -999.25    -999.25    -999.25  -86.70090   -0.68940    5.04250
 2100.00000    -999.25    9.32650    9.32650  191.92990    -999.25    -999.25    -999.25    -999.25    -999.25    5.21060    -999.25   91.91260   91.91260    -999.25    -999.25  102.65800    -999.25  102.65800    5.21060    4.81230    5.66330    4.81230    -999.25    -999.25    -999.25    -999.25  -88.39410   -2.02000    5.66330
 2150.00000    -999.25    9.72750    9.72750  131.12520    -999.25    -999.25    -999.25    -999.25    -999.25    7.62630    -999.25   89.20990   89.20990    -999.25    -999.25   82.38290    -999.25   82.38290    7.62630    7.10860    8.47640    7.10860    -999.25    -999.25    -999.25    -999.25  -88.05710   -1.45620    8.47640
 2200.00000    -999.25   10.06490   10.06490  288.41230    -999.25    -999.25    -999.25    -999.25    -999.25    3.46760    -999.25  108.43560  108.43560    -999.25    -999.25  115.98990    -999.25  115.98990    3.46760    3.18940    3.70880    3.18940    -999.25    -999.25    -999.25    -999.25  -88.12890   -1.30030    3.70880
 2250.00000    -999.25    9.99950    9.99950  424.03430    -999.25    -999.25    -999.25    -999.25    -999.25    2.35830    -999.25  109.17240  109.17240    -999.25    -999.25  112.03750    -999.25  112.03750    2.35830    2.14090    3.19700    2.14090    -999.25    -999.25    -999.25    -999.25  -87.14260   -1.21400    3.19700
