~Version ---------------------------------------------------
VERS.      2.0 : CWLS log ASCII Standard -VERSION 2.0
WRAP.       NO : One line per depth step
CREA. 12/21/17 : LAS Creation Date
~Well ------------------------------------------------------
STRT.FT                         1250.0 : START DEPTH
STOP.FT                        12650.0 : STOP DEPTH
STEP.FT                       50.00000 : STEP LENGTH
NULL.                          -999.25 : NULL VALUE
COMP. AMOCO CANADA PETROLEUM CO., LTD. : COMPANY
WELL. AMOCO A-1 DEEP VALLEY 6-32-61-23 : WELL
FLD .                                  : FIELD
LOC .                                  : LOCATION
CTRY.                           CANADA : COUNTRY
SRVC.           Schlumberger of Canada : SERVICE COMPANY
DATE.                      06-Sep-1970 : LOGDATE
PROV.                          Alberta : PROVINCE
UWI .                 100063206123W500 : UNIQUE WELL ID
SLAT.WGS84                    54.31655 : SURFACE LATITUDE
SLON.WGS84                   -117.4164 : SURFACE LONGITUDE
~Curve Information -----------------------------------------
DEPT    .FT    : Depth Curve
CALDED  .IN    : CALIPER FROM DENSITY LOG [ADJ. TO RESISTIVITY LOG]
CALNED  .IN    : CALIPER FROM SNP LOG [ADJ. TO RESISTIVITY LOG]
CALSED  .IN    : CALIPER FROM SONIC LOG
CALWS   .IN    : CALIPER [CALSED]
CONDWS  .MMHO  : CONDUCTIVITY [1000/DRESWS]
CORRED  .G/C3  : DENSITY CORRECTION FROM DENSITY LOG [ADJ. TO RESISTIVITY LOG]
DCORWS  .G/C3  : DENSITY CORRECTION [CORRED]
DENWS   .G/C3  : FORMATION BULK DENSITY [RHOBED]
DPHILSED.V/V   : DENSITY POROSITY LIMESTONE [M=2.71, F=1.00] FROM DENSITY LOG [ADJ. TO RESISTIVITY LOG]
DPOLSWS .V/V   : DENSITY POROSITY LIMESTONE [CALC FROM DENWS,M=2.71, F=1.00]
DRESWS  .OHMM  : DEEP RESISTIVITY [ILDED]
DTED    .US/F  : DELTA-T FROM SONIC LOG [ADJ. TO RESISTIVITY LOG]
DTWS    .US/F  : COMPRESSIONAL SONIC [DTED]
GRDED   .GAPI  : GAMMA RAY FROM DENSITY LOG [ADJ. TO RESISTIVITY LOG]
GRNED   .GAPI  : GAMMA RAY FROM SNP LOG [ADJ. TO RESISTIVITY LOG]
GRSED   .GAPI  : GAMMA RAY FROM SONIC LOG
GRWS    .GAPI  : GAMMA RAY [GRSED SPL. TO GRDED @ 1502'& SPL. TO GRNED @ 12657']
ILDED   .OHMM  : DEEP INDUCTION RESISTIVITY FROM RESISTIVITY LOG
ILMED   .OHMM  : MEDIUM INDUCTION FROM RESISTIVITY LOG
LL8ED   .OHMM  : LATEROLOG 8 FROM RESISTIVITY LOG
MRESWS  .OHMM  : MEDIUM RESISTIVITY [ILMED]
NPHILSED.V/V   : NEUTRON POROSITY LIMESTONE FROM SNP LOG [ADJ. TO RESISTIVITY LOG]
NPOLSWS .V/V   : NEUTRON POROSITY LIMESTONE [NPHILSED]
RHOBED  .G/C3  : BULK DENSITY FROM DENSITY LOG [ADJ. TO RESISTIVITY LOG]
SPRED   .MV    : SPONTANEOUS POTENTIAL FROM RESISTIVITY LOG
SPWS    .MV    : SPONTANEOUS POTENTIAL [BASELINE 0 MV,SPRED]
SRESWS  .OHMM  : SHALLOW RESISTIVITY [LLBED]
~Params ----------------------------------------------------
PD  .                     GL : PERMANENT DATUM
EPD .FT                 3450 : ELEVATION PERMANENT DATUM
LMF .                     KB : LOG MEASURED FROM
DAPD.FT                   14 : FEET ABOVE PERMANENT DATUM
EKB .FT                 3464 : KELLY BUSHING
EGL .FT                 3450 : GROUND LEVEL
DATE.               11/06/70 : RUN DATE
RUN .                      1 : RUN NUMBER
DD  .FT                12700 : DEPTH DRILLER
DL  .FT                12697 : DEPTH LOGGER
BLI .FT                12691 : BOTTOM LOG INTERVAL
TLI .FT                 1513 : TOP LOG INTERVAL
CBD .FT                 1514 : CASING BOTTOM DRILLER
CBL .FT                 1513 : CASING BOTTOM LOGGER
BS  .IN                 8.75 : BIT SIZE
BSD .FT                12700 : BIT SIZE AT DEPTH
DFT .                    GEL : DRILLING FLUID TYPE
DFD .                    9.1 : DRILLING FLUID DENSITY
DFV .                     85 : DRILLING FLUID VISCOSITY
DFPH.                    8.5 : DRILLING FLUID PH
DFL .                   11.8 : DRILLING FLUID LOSS
MSS .               MEASURED : MUD SAMPLE SOURCE
RMS .OHMM               2.56 : RESISTIVITY MUD SAMPLE
MST .DEGF                 59 : MUD SAMPLE TEMPERATURE
RMF .OHMM               2.14 : RESISTIVITY MUD FILTRATE SAMPLE
MFST.DEGF                 58 : MUD FILTRATE SAMPLE TEMPERATURE
RMC .OHMM               2.35 : RESISTIVITY MUD CAKE
MCST.DEGF                 62 : MUD CAKE SAMPLE TEMPERATURE
TCS .HRS                 500 : TIME CIRCULATED STOPPED
TLAB.HRS                  30 : TIME LOGGER AT BOTTOM
LUN .                   7501 : LOGGING UNIT NUMBER
LUL .                    EDM : LOGGING UNIT LOCATION
ENGI.                HAYWOOD : RECORDING ENGINEER
WITN.                   DION : WITNESSED BY
CLNT.                A2DTECH : CLIENT CODE
ORIG.            2" 5" PRINT : ORIGIN OF DATA
UWI .       100063206123W500 : UNIQUE WELL ID
DICO. A2D Technologies, Inc. : DIGITIZING COMPANY
~Other -----------------------------------------------------
DIL-LAT,FDC-SNP-BCS LOG RAN
~ASCII -----------------------------------------------------
# ...
 2550.00000    -999.25    -999.25   10.19800   10.19800   96.70810    -999.25    -999.25    -999.25    -999.25    -999.25   10.34040   89.22010   89.22010    -999.25    -999.25   85.76200   85.76200   10.34040    9.72680    9.42970    9.72680    -999.25    -999.25    -999.25  -69.30790  -14.10020    9.42970
 2600.00000    -999.25    -999.25   10.14340   10.14340  239.39480    -999.25    -999.25    -999.25    -999.25    -999.25    4.17720   96.84840   96.84840    -999.25    -999.25   79.98930   79.98930    4.17720    4.04610    4.45920    4.04610    -999.25    -999.25    -999.25  -63.33590   -8.29440    4.45920
 2650.00000    -999.25    -999.25   10.08510   10.08510  161.79400    -999.25    -999.25    -999.25    -999.25    -999.25    6.18070   78.77840   78.77840    -999.25    -999.25   52.85950   52.85950    6.18070    5.50250    7.66040    5.50250    -999.25    -999.25    -999.25  -62.37250   -7.49720    7.66040
 2700.00000    -999.25    -999.25    9.71210    9.71210  162.45900    -999.25    -999.25    -999.25    -999.25    -999.25    6.15540   86.08470   86.08470    -999.25    -999.25   65.32540   65.32540    6.15540    5.99330    5.95860    5.99330    -999.25    -999.25    -999.25  -62.79270   -8.08370    5.95860
 2750.00000    -999.25    -999.25   11.35170   11.35170  280.88310    -999.25    -999.25    -999.25    -999.25    -999.25    3.56020   98.47440   98.47440    -999.25    -999.25   71.68910   71.68910    3.56020    3.53150    3.83710    3.53150    -999.25    -999.25    -999.25  -61.71540   -7.17260    3.83710
 2800.00000    -999.25    -999.25   11.15580   11.15580  237.52400    -999.25    -999.25    -999.25    -999.25    -999.25    4.21010  111.19230  111.19230    -999.25    -999.25   77.52750   77.52750    4.21010    3.91070    3.79500    3.91070    -999.25    -999.25    -999.25  -61.40260   -7.02600    3.79500
 2850.00000    -999.25    -999.25   10.89690   10.89690  248.18820    -999.25    -999.25    -999.25    -999.25    -999.25    4.02920   96.14940   96.14940    -999.25    -999.25   71.21040   71.21040    4.02920    4.24630    4.47250    4.24630    -999.25    -999.25    -999.25  -61.73420   -7.36560    4.47250
 2900.00000    -999.25    -999.25   10.17990   10.17990  153.49900    -999.25    -999.25    -999.25    -999.25    -999.25    6.51470   96.52310   96.52310    -999.25    -999.25   70.91150   70.91150    6.51470    5.53240    5.36320    5.53240    -999.25    -999.25    -999.25  -61.04860   -6.30060    5.36320
 2950.00000    -999.25    -999.25   10.17190   10.17190  139.55370    -999.25    -999.25    -999.25    -999.25    -999.25    7.16570   93.02660   93.02660    -999.25    -999.25   64.72440   64.72440    7.16570    6.46130    7.00780    6.46130    -999.25    -999.25    -999.25  -64.00560   -8.87820    7.00780
 3000.00000    -999.25    -999.25    9.85300    9.85300  167.71770    -999.25    -999.25    -999.25    -999.25    -999.25    5.96240   84.49870   84.49870    -999.25    -999.25   72.65410   72.65410    5.96240    5.50120    5.84900    5.50120    -999.25    -999.25    -999.25  -62.21400   -6.70730    5.84900
 3050.00000    -999.25    -999.25   10.46740   10.46740  198.18460    -999.25    -999.25    -999.25    -999.25    -999.25    5.04580   94.19310   94.19310    -999.25    -999.25   92.08910   92.08910    5.04580    4.80720    4.56110    4.80720    -999.25    -999.25    -999.25  -61.75770   -5.87160    4.56110
 3100.00000    -999.25    -999.25    9.91850    9.91850  145.63250    -999.25    -999.25    -999.25    -999.25    -999.25    6.86660   88.05870   88.05870    -999.25    -999.25   81.12280   81.12280    6.86660    6.40090    6.78680    6.40090    -999.25    -999.25    -999.25  -61.88500   -5.61950    6.78680
 3150.00000    -999.25    -999.25   10.10130   10.10130  251.13010    -999.25    -999.25    -999.25    -999.25    -999.25    3.98200  100.83520  100.83520    -999.25    -999.25   87.44200   87.44200    3.98200    3.85850    3.69290    3.85850    -999.25    -999.25    -999.25  -61.62810   -5.06610    3.69290
 3200.00000    -999.25    -999.25   10.10810   10.10810  204.15660    -999.25    -999.25    -999.25    -999.25    -999.25    4.89820   87.44010   87.44010    -999.25    -999.25   80.92560   80.92560    4.89820    4.77410    4.51080    4.77410    -999.25    -999.25    -999.25  -60.80850   -5.24790    4.51080
 3250.00000    -999.25    -999.25    9.93380    9.93380  235.00660    -999.25    -999.25    -999.25    -999.25    -999.25    4.25520   95.41820   95.41820    -999.25    -999.25   99.92520   99.92520    4.25520    4.11130    4.02040    4.11130    -999.25    -999.25    -999.25  -60.79640   -6.23730    4.02040
 3300.00000    -999.25    -999.25    9.85570    9.85570   85.81190    -999.25    -999.25    -999.25    -999.25    -999.25   11.65340   86.11260   86.11260    -999.25    -999.25   86.08990   86.08990   11.65340   10.01090    9.08280   10.01090    -999.25    -999.25    -999.25  -63.28810   -9.73050    9.08280
 3350.00000    -999.25    -999.25    9.99210    9.99210  248.57690    -999.25    -999.25    -999.25    -999.25    -999.25    4.02290   91.90180   91.90180    -999.25    -999.25   80.63940   80.63940    4.02290    3.89070    3.70090    3.89070    -999.25    -999.25    -999.25  -61.07490   -8.51870    3.70090
 3400.00000    -999.25    -999.25   10.65430   10.65430  303.33360    -999.25    -999.25    -999.25    -999.25    -999.25    3.29670  105.21980  105.21980    -999.25    -999.25   74.56480   74.56480    3.29670    3.09200    3.64980    3.09200    -999.25    -999.25    -999.25  -58.80100   -7.24630    3.64980
 3450.00000    -999.25    -999.25    9.94090    9.94090  411.06590    -999.25    -999.25    -999.25    -999.25    -999.25    2.43270  103.39650  103.39650    -999.25    -999.25   91.53240   91.53240    2.43270    2.37120    2.89640    2.37120    -999.25    -999.25    -999.25  -59.18540   -8.63220    2.89640
 3500.00000    -999.25    -999.25    9.97080    9.97080  274.92160    -999.25    -999.25    -999.25    -999.25    -999.25    3.63740  105.14290  105.14290    -999.25    -999.25   68.96350   68.96350    3.63740    3.39190    4.40750    3.39190    -999.25    -999.25    -999.25  -56.23930   -6.68750    4.40750
 3550.00000    -999.25    -999.25   10.11060   10.11060  323.78180    -999.25    -999.25    -999.25    -999.25    -999.25    3.08850  107.33150  107.33150    -999.25    -999.25   94.85890   94.85890    3.08850    2.92120    3.28680    2.92120    -999.25    -999.25    -999.25  -54.76030   -6.21000    3.28680
 3600.00000    -999.25    -999.25    9.56980    9.56980  142.71040    -999.25    -999.25    -999.25    -999.25    -999.25    7.00720   89.82830   89.82830    -999.25    -999.25   63.90230   63.90230    7.00720    6.18500    5.13440    6.18500    -999.25    -999.25    -999.25  -55.58600   -8.03710    5.13440
 3650.00000    -999.25    -999.25   10.28080   10.28080  163.16140    -999.25    -999.25    -999.25    -999.25    -999.25    6.12890   92.89710   92.89710    -999.25    -999.25   77.31940   77.31940    6.12890    5.84310    5.51460    5.84310    -999.25    -999.25    -999.25  -55.40460   -8.23630    5.51460
 3700.00000    -999.25    -999.25    9.98210    9.98210  143.18650    -999.25    -999.25    -999.25    -999.25    -999.25    6.98390   86.32940   86.32940    -999.25    -999.25   62.25120   62.25120    6.98390    6.80800    6.56160    6.80800    -999.25    -999.25    -999.25  -56.33340   -9.16510    6.56160
 3750.00000    -999.25    -999.25    9.20730    9.20730  132.53990    -999.25    -999.25    -999.25    -999.25    -999.25    7.54490   84.45090   84.45090    -999.25    -999.25   59.25360   59.25360    7.54490    7.87360    6.99700    7.87360    -999.25    -999.25    -999.25  -56.34940   -9.18110    6.99700
 3800.00000    -999.25    -999.25   10.53690   10.53690  196.05150    -999.25    -999.25    -999.25    -999.25    -999.25    5.10070   89.47770   89.47770    -999.25    -999.25   60.56000   60.56000    5.10070    5.09370    4.58450    5.09370    -999.25    -999.25    -999.25  -54.15970   -6.99140    4.58450
