~Version ---------------------------------------------------
VERS.      2.0 : CWLS log ASCII Standard -VERSION 2.0
WRAP.       NO : One line per depth step
CREA. 12/12/17 : LAS Creation Date
~Well ------------------------------------------------------
STRT.FT                      1000.0 : START DEPTH
STOP.FT                      9550.0 : STOP DEPTH
STEP.FT                    50.00000 : STEP LENGTH
NULL.                       -999.25 : NULL VALUE
COMP.    TEXACO EXPLORATION COMPANY : COMPANY
WELL. TEXACO SAKWATAMAU 10-24-61-14 : WELL
FLD .                               : FIELD
LOC .                               : LOCATION
CTRY.                        CANADA : COUNTRY
SRVC.                  Schlumberger : SERVICE COMPANY
DATE.                   24-May-1968 : LOGDATE
PROV.                       Alberta : PROVINCE
UWI .              100102406114W500 : UNIQUE WELL ID
SLAT.WGS84                 54.29276 : SURFACE LATITUDE
SLON.WGS84                -115.9587 : SURFACE LONGITUDE
~Curve Information -----------------------------------------
DEPT   .FT    : Depth Curve
CALDED .IN    : CALIPER FROM DENSITY LOG
CALWS  .IN    : CALIPER [CALDED]
CILDED .MMHO  : DEEP INDUCTION CONDUCTIVITY FROM RESISTIVITY LOG
CONDWS .MMHO  : CONDUCTIVITY [CILDED]
DCORWS .G/C3  : DENSITY CORRECTION [DRHOED]
DENWS  .G/C3  : FORMATION BULK DENSITY [RHOBED]
DPOLSWS.V/V   : DENSITY POROSITY LIMESTONE [CALC FROM DENWS,M=2.71, F=1.00 ASSUMED]
DRESWS .OHMM  : DEEP RESISTIVITY [1000/CILDED]
DRHOED .G/C3  : DENSITY CORRECTION FROM DENSITY LOG
GRDED  .GAPI  : GAMA RAY FROM DENSITY LOG
GRWS   .GAPI  : GAMMA RAY [GRDED]
ILDED  .OHMM  : DEEP INDUCTION LOG RESISTIVITY FROM RESISTIVITY LOG
RHOBED .G/C3  : BULK DENSITY FROM DENSITY LOG
SNED   .OHMM  : SHORT NORMAL 16" RESISTIVITY FROM RESISTIVITY LOG
SPRED  .MV    : SELF POTENTIAL FROM RESISTIVITY LOG
SPWS   .MV    : SPONTANEOUS POTENTIAL [BASELINE 0 MV,SPRED]
SRESWS .OHMM  : SHALLOW RESISTIVITY [SNED]
~Params ----------------------------------------------------
PD  .                     GL : PERMANENT DATUM
EPD .FT               3060.2 : ELEVATION PERMANENT DATUM
LMF .                     KB : LOG MEASURED FROM
DAPD.FT                 14.3 : FEET ABOVE PERMANENT DATUM
EKB .FT               3074.5 : KELLY BUSHING
EGL .FT               3060.2 : GROUND LEVEL
DATE.               05/24/68 : RUN DATE
RUN .                      1 : RUN NUMBER
DD  .FT                 9585 : DEPTH DRILLER
DL  .FT                 9586 : DEPTH LOGGER
BLI .FT                 9585 : BOTTOM LOG INTERVAL
TLI .FT                  977 : TOP LOG INTERVAL
CBD .FT                  977 : CASING BOTTOM DRILLER
CBL .FT                  977 : CASING BOTTOM LOGGER
BS  .IN                7.625 : BIT SIZE
BSD .FT                 9585 : BIT SIZE AT DEPTH
DFT .                    GEL : DRILLING FLUID TYPE
DFD .                    9.6 : DRILLING FLUID DENSITY
DFV .                    157 : DRILLING FLUID VISCOSITY
DFPH.                    9.1 : DRILLING FLUID PH
DFL .                    7.8 : DRILLING FLUID LOSS
TCS .HRS                   3 : TIME CIRCULATED STOPPED
LUN .                 DSU A9 : LOGGING UNIT NUMBER
LUL .                    EDM : LOGGING UNIT LOCATION
ENGI.               STUEHMER : RECORDING ENGINEER
WITN.                   GUNN : WITNESSED BY
CLNT.                A2DTECH : CLIENT CODE
ORIG.            2" 5" PRINT : ORIGIN OF DATA
UWI .       100102406114W500 : UNIQUE WELL ID
DICO. A2D Technologies, Inc. : DIGITIZING COMPANY
~Other -----------------------------------------------------
~ASCII -----------------------------------------------------
# ...
 5100.00000    9.14060    9.14060  140.48150  140.48150    0.04960    2.58700    0.07190    7.11840    0.04960   73.17000   73.17000    6.56300    2.58700    8.41000  -30.00320  -23.29270    8.41000
 5150.00000    9.39280    9.39280   68.99590   68.99590    0.05720    2.48430    0.13200   14.49360    0.05720   75.55500   75.55500   14.62360    2.48430   22.64720  -42.44170  -36.25460   22.64720
 5200.00000    9.58720    9.58720   82.75640   82.75640    0.08000    1.55890    0.67320   12.08370    0.08000   46.06500   46.06500   11.90850    1.55890   17.53370  -33.35130  -27.69110   17.53370
 5250.00000    9.60690    9.60690  109.87450  109.87450    0.13520    2.13290    0.33750    9.10130    0.13520   71.29500   71.29500    8.92460    2.13290   12.45460  -28.96400  -23.82730   12.45460
 5300.00000   10.14790   10.14790  174.58260  174.58260    0.05120    2.41740    0.17110    5.72790    0.05120   67.96500   67.96500    5.52800    2.41740    6.90710  -30.17360  -25.56030    6.90710
 5350.00000    9.64820    9.64820  103.30990  103.30990    0.08720    2.49190    0.12750    9.67960    0.08720   75.07500   75.07500    9.31430    2.49190   12.92870  -35.13480  -31.04840   12.92870
 5400.00000    9.23750    9.23750  102.99770  102.99770    0.07010    2.44540    0.15470    9.70900    0.07010   71.82000   71.82000    9.24420    2.44540   13.06990  -33.40320  -29.84030   13.06990
 5450.00000    9.04550    9.04550  167.05220  167.05220    0.15430    2.38830    0.18810    5.98620    0.15430   52.92000   52.92000    5.83680    2.38830    9.36300  -50.87730  -47.84130    9.36300
 5500.00000   11.23400   11.23400   78.91940   78.91940    0.07660    1.45290    0.73510   12.67120    0.07660   23.17500   23.17500   13.40990    1.45290   14.27840  -34.51790  -32.00530   14.27840
 5550.00000    9.01570    9.01570  126.85800  126.85800    0.03210    2.60760    0.05990    7.88280    0.03210   75.39000   75.39000    7.46780    2.60760    8.77330  -31.59560  -29.60650    8.77330
 5600.00000    8.44620    8.44620   81.26400   81.26400    0.01450    2.65470    0.03230   12.30560    0.01450   54.01500   54.01500   12.57350    2.65470   15.43660  -41.13360  -39.67140   15.43660
 5650.00000    9.11850    9.11850  120.90010  120.90010    0.06210    2.52010    0.11110    8.27130    0.06210   74.95500   74.95500    7.91760    2.52010    9.80830  -28.02510  -27.08630    9.80830
 5700.00000   10.69050   10.69050  141.28680  141.28680    0.25170    2.39060    0.18680    7.07780    0.25170   82.14000   82.14000    6.87870    2.39060    8.22480  -27.48320  -27.07130    8.22480
 5750.00000    8.95100    8.95100   68.09840   68.09840    0.02080    2.62120    0.05190   14.68460    0.02080   48.42000   48.42000   15.97180    2.62120   20.10730  -27.02310  -27.13470   20.10730
 5800.00000    9.59760    9.59760   73.64130   73.64130    0.24010    2.18860    0.30490   13.57930    0.24010   76.93500   76.93500   13.52170    2.18860   29.72570  -55.88920  -56.52430   29.72570
 5850.00000   11.10270   11.10270  155.79470  155.79470    0.25180    2.34040    0.21610    6.41870    0.25180   84.09000   84.09000    6.29350    2.34040    8.32910  -23.03600  -24.19800    8.32910
 5900.00000   11.11870   11.11870  158.88680  158.88680    0.22660    2.32460    0.22540    6.29380    0.22660   88.36500   88.36500    6.31670    2.32460    7.48800  -22.92790  -24.61330    7.48800
 5950.00000   10.00920   10.00920  150.82120  150.82120    0.17820    2.32940    0.22260    6.63040    0.17820   71.73000   71.73000    6.46300    2.32940    9.17830  -21.05500  -23.26730    9.17830
 6000.00000    8.19530    8.19530   11.49060   11.49060    0.02470    2.57520    0.07880   87.02770    0.02470   45.94500   45.94500  111.76190    2.57520  110.77130  -23.50530  -26.24110  110.77130
 6050.00000    8.39130    8.39130    5.47790    5.47790    0.01010    2.60750    0.05990  182.55170    0.01010   70.38000   70.38000  518.78290    2.60750  185.32320  -10.95880  -14.21800  185.32320
 6100.00000    8.83500    8.83500  140.74940  140.74940    0.01090    2.71350   -0.00200    7.10480    0.01090   35.13000   35.13000    7.45730    2.71350   14.94540  -51.35440  -55.02520   14.94540
 6150.00000    8.73870    8.73870   12.52580   12.52580    0.04930    2.71370   -0.00220   79.83520    0.04930   19.44000   19.44000   96.06210    2.71370  113.97910  -83.21490  -87.25930  113.97910
 6200.00000    9.21360    9.21360   10.39040   10.39040    0.02910    2.75100   -0.02400   96.24270    0.02910   15.34500   15.34500  157.11720    2.75100  179.51190 -175.90860 -180.32910  179.51190
 6250.00000    8.82690    8.82690   21.40200   21.40200    0.08710    2.69430    0.00920   46.72460    0.08710   12.85500   12.85500   53.01420    2.69430  176.55040 -175.05280 -179.84690  176.55040
 6300.00000    8.83720    8.83720  195.66180  195.66180    0.01560    2.70600    0.00230    5.11090    0.01560   63.69000   63.69000    4.99540    2.70600    7.19080  -49.97710  -55.14480    7.19080
 6350.00000    8.63990    8.63990   77.27290   77.27290    0.01830    2.69490    0.00880   12.94110    0.01830   64.12500   64.12500   13.54050    2.69490   18.92870  -28.84240  -34.38620   18.92870
 6400.00000    9.18280    9.18280   78.16870   78.16870    0.00530    2.71050   -0.00030   12.79280    0.00530   67.33500   67.33500   12.27550    2.71050   17.86780  -12.92010  -18.83750   17.86780
 6450.00000    8.78790    8.78790   31.33270   31.33270    0.01710    2.73100   -0.01230   31.91550    0.01710   50.88000   50.88000   31.99990    2.73100   51.59460  -14.44060  -20.73410   51.59460
 6500.00000    8.35770    8.35770   38.92740   38.92740    0.01250    2.72280   -0.00750   25.68880    0.01250   31.95000   31.95000   27.12030    2.72280   39.41340  -19.48210  -26.14920   39.41340
 6550.00000    8.40090    8.40090   58.70660   58.70660    0.03680    2.72830   -0.01070   17.03390    0.03680   19.12500   19.12500   18.12860    2.72830   23.70060  -52.67480  -59.71550   23.70060
 6600.00000    8.40030    8.40030   21.15660   21.15660   -0.00210    2.72380   -0.00810   47.26660   -0.00210   28.11000   28.11000   50.27600    2.72380   55.10110  -12.18780  -19.60460   55.10110
 6650.00000    8.45430    8.45430   23.22110   23.22110   -0.00050    2.70360    0.00370   43.06430   -0.00050   26.53500   26.53500   46.09370    2.70360   50.91960  -13.44560  -21.23600   50.91960
 6700.00000    8.44570    8.44570   20.90830   20.90830    0.02250    2.74320   -0.01940   47.82790    0.02250   35.55000   35.55000   49.85390    2.74320   55.22340  -14.25900  -22.42550   55.22340
 6750.00000    8.50870    8.50870   21.91560   21.91560    0.00400    2.73590   -0.01510   45.62960    0.00400   38.58000   38.58000   53.82270    2.73590   54.81780  -10.43590  -18.97600   54.81780
 6800.00000    8.61260    8.61260   45.59070   45.59070    0.02300    2.56810    0.08300   21.93430    0.02300  177.55500  177.55500   23.04270    2.56810   32.90860   -7.71880  -16.63260   32.90860
 6850.00000    8.38080    8.38080   21.55470   21.55470   -0.00040    2.38000    0.19300   46.39360   -0.00040  288.39000  288.39000   68.43940    2.38000   76.62410  -10.02170  -19.31150   76.62410
 6900.00000    8.65020    8.65020   14.24890   14.24890   -0.00380    2.66560    0.02600   70.18090   -0.00380   10.98000   10.98000   79.07340    2.66560  120.21730  -62.03850  -71.19450  120.21730
 6950.00000    8.62050    8.62050    5.12160    5.12160   -0.00640    2.72030   -0.00600  195.25150   -0.00640   16.11000   16.11000  586.87230    2.72030  237.87140  -17.85530  -25.86500  237.87140
 7000.00000    9.23180    9.23180    9.34070    9.34070    0.00040    2.69630    0.00800  107.05840    0.00040   13.05000   13.05000  552.04830    2.69630  210.00120  -47.43480  -54.30570  210.00120
 7050.00000    8.66460    8.66460    7.32030    7.32030   -0.00040    2.72500   -0.00880  136.60640   -0.00040   11.58000   11.58000  444.42600    2.72500  149.97880  -54.95770  -60.68980  149.97880
 7100.00000    9.42880    9.42880   10.54690   10.54690    0.01580    2.73400   -0.01400   94.81460    0.01580   15.01500   15.01500  152.16980    2.73400  158.00680  -71.72040  -76.30610  158.00680
