~Version ---------------------------------------------------
VERS.      2.0 : CWLS log ASCII Standard -VERSION 2.0
WRAP.       NO : One line per depth step
CREA. 01/05/18 : LAS Creation Date
~Well ------------------------------------------------------
STRT.FT                         300.0 : START DEPTH
STOP.FT                       11250.0 : STOP DEPTH
STEP.FT                      50.00000 : STEP LENGTH
NULL.                         -999.25 : NULL VALUE
COMP.            MOBIL OIL CANADA LTD : COMPANY
WELL. MOBIL ET AL ROSEVEAR 10-4-54-15 : WELL
FLD .                              WC : FIELD
LOC .                                 : LOCATION
CTRY.                          CANADA : COUNTRY
SRVC.                    Schlumberger : SERVICE COMPANY
DATE.                     09-Jul-1971 : LOGDATE
PROV.                         Alberta : PROVINCE
UWI .                100100405415W500 : UNIQUE WELL ID
SLAT.WGS84                   53.63557 : SURFACE LATITUDE
SLON.WGS84                  -116.1457 : SURFACE LONGITUDE
~Curve Information -----------------------------------------
DEPT    .FT    : Depth Curve
CALDED  .IN    : CALIPER FROM DENSITY LOG [ADJ. TO RESISTIVITY LOG]
CALNED  .IN    : CALIPER FROM NEUTRON LOG [ADJ. TO RESISTIVITY LOG]
CALSED  .IN    : CALIPER FROM SONIC LOG [ADJ. TO RESISTIVITY LOG]
CALWS   .IN    : CALIPER [CALSED]
CILDED  .MMHO  : CONDUCTIVITY FROM RESISTIVITY LOG
CONDWS  .MMHO  : CONDUCTIVITY [1000/DRESWS]
DCORWS  .G/C3  : DENSITY CORRECTION [DRHOED]
DENWS   .G/C3  : FORMATION BULK DENSITY [RHOBED]
DPHILSED.V/V   : DENSITY POROSITY LIMESTONE [M=2.71 F=1.00] FROM DENSITY LOG [ADJ. TO RESISTIVITY LOG]
DPOLSWS .V/V   : DENSITY POROSITY LIMESTONE [CALC FROM DENWS, M=2.71 F=1.00]
DRESWS  .OHMM  : DEEP RESISTIVITY [1000/CILDED IF ILDED <=1, ILDED]
DRHOED  .G/C3  : DENSITY CORRECTION FROM DENSITY LOG [ADJ. TO RESISTIVITY LOG]
DTED    .US/F  : DELTA-T FROM SONIC LOG [ADJ. TO RESISTIVITY LOG]
DTWS    .US/F  : COMPRESSIONAL SONIC [DTED]
GRDED   .GAPI  : GAMMA RAY FROM DENSITY LOG [ADJ. TO RESISTIVITY LOG]
GRNED   .GAPI  : GAMMA RAY NEUTRON LOG [ADJ. TO RESISTIVITY LOG]
GRSED   .GAPI  : GAMMA RAY FROM SONIC LOG [ADJ. TO RESISTIVITY LOG]
GRWS    .GAPI  : GAMMA RAY [GRSED]
ILDED   .OHMM  : DEEP INDUCTION FROM RERSISTIVITY LOG
MCALED  .IN    : CALIPER FROM MICROLOG
NPOLSWS .V/V   : NEUTRON POROSITY LIMESTONE [SNPLSED]
RHOBED  .G/C3  : BULK DENSITY FROM DENSITY LOG  [ADJ. TO RESISTIVITY LOG]
SNED    .OHMM  : SHORT NORMAL RESISTIVITY FROM RESISTIVITY LOG
SNPLSED .V/V   : SIDE WALL NEUTRON POROSITY FROM DENSITY LOG [ADJ. TO RESISTIVITY LOG]
SPRED   .MV    : SPONTANEOUS POTENTIAL FROM RESISTIVITY LOG
SPWS    .MV    : SPONTANEOUS POTENTIAL [BASELINE 0 MV, SPRED]
SRESWS  .OHMM  : SHALLOW RESISTIVITY [SNED]
~Params ----------------------------------------------------
PD  .                     GL : PERMANENT DATUM
EPD .FT                 2903 : ELEVATION PERMANENT DATUM
LMF .                     KB : LOG MEASURED FROM
DAPD.FT                   13 : FEET ABOVE PERMANENT DATUM
EKB .FT                 2916 : KELLY BUSHING
EGL .FT                 2903 : GROUND LEVEL
DATE.               07/09/71 : RUN DATE
RUN .                      1 : RUN NUMBER
DD  .FT                11300 : DEPTH DRILLER
DL  .FT                11289 : DEPTH LOGGER
BLI .FT                11288 : BOTTOM LOG INTERVAL
TLI .FT                 1176 : TOP LOG INTERVAL
CBD .FT                 1176 : CASING BOTTOM DRILLER
CBL .FT                 1176 : CASING BOTTOM LOGGER
BS  .IN                 8.75 : BIT SIZE
BSD .FT                11300 : BIT SIZE AT DEPTH
DFT .                    GEL : DRILLING FLUID TYPE
DFD .                    9.1 : DRILLING FLUID DENSITY
DFV .                    100 : DRILLING FLUID VISCOSITY
DFPH.                     11 : DRILLING FLUID PH
DFL .                    8.2 : DRILLING FLUID LOSS
RMS .OHMM               2.46 : RESISTIVITY MUD SAMPLE
MST .DEGF                 71 : MUD SAMPLE TEMPERATURE
RMF .OHMM               2.36 : RESISTIVITY MUD FILTRATE SAMPLE
MFST.DEGF                 72 : MUD FILTRATE SAMPLE TEMPERATURE
RMC .OHMM               2.22 : RESISTIVITY MUD CAKE
MCST.DEGF                 72 : MUD CAKE SAMPLE TEMPERATURE
TCS .HRS                   5 : TIME CIRCULATED STOPPED
LUN .                   7501 : LOGGING UNIT NUMBER
LUL .                    EDM : LOGGING UNIT LOCATION
ENGI.                  PLUNE : RECORDING ENGINEER
WITN.                   DOAN : WITNESSED BY
CLNT.                A2DTECH : CLIENT CODE
ORIG.            2" 5" PRINT : ORIGIN OF DATA
UWI .       100100405415W500 : UNIQUE WELL ID
DICO. A2D Technologies, Inc. : DIGITIZING COMPANY
~Other -----------------------------------------------------
~ASCII -----------------------------------------------------
# ...
 4200.00000    -999.25    -999.25   10.42050   10.42050   94.90530   97.03220    -999.25    -999.25    -999.25    -999.25   10.30590    -999.25   83.58230   83.58230    -999.25    -999.25   62.21240   62.21240   10.30590    -999.25    -999.25    -999.25   11.29230    -999.25 -130.25800   -5.57310   11.29230
 4250.00000    -999.25    -999.25   10.72200   10.72200  144.13540  144.16700    -999.25    -999.25    -999.25    -999.25    6.93640    -999.25   88.92970   88.92970    -999.25    -999.25   58.05310   58.05310    6.93640    -999.25    -999.25    -999.25    7.42320    -999.25 -127.93120   -3.53000    7.42320
 4300.00000    -999.25    -999.25    9.78440    9.78440   43.66900   43.65400    -999.25    -999.25    -999.25    -999.25   22.90740    -999.25   67.62240   67.62240    -999.25    -999.25   36.50990   36.50990   22.90740    -999.25    -999.25    -999.25   25.18700    -999.25 -133.83600  -10.02420   25.18700
 4350.00000    -999.25    -999.25   10.46590   10.46590   66.19280   64.89740    -999.25    -999.25    -999.25    -999.25   15.41370    -999.25   74.71210   74.71210    -999.25    -999.25   58.00020   58.00020   15.41370    -999.25    -999.25    -999.25   16.45390    -999.25 -126.69960   -3.48010   16.45390
 4400.00000    -999.25    -999.25   10.52960   10.52960  132.69920  132.26290    -999.25    -999.25    -999.25    -999.25    7.56070    -999.25   88.55800   88.55800    -999.25    -999.25   67.49160   67.49160    7.56070    -999.25    -999.25    -999.25    8.50740    -999.25 -125.09740   -2.46440    8.50740
 4450.00000    -999.25    -999.25   10.33960   10.33960   90.34170   89.55990    -999.25    -999.25    -999.25    -999.25   11.16570    -999.25   81.54190   81.54190    -999.25    -999.25   84.17410   84.17410   11.16570    -999.25    -999.25    -999.25   12.97560    -999.25 -124.53460   -2.41270   12.97560
 4500.00000    -999.25    -999.25   10.58780   10.58780   92.70590   92.65010    -999.25    -999.25    -999.25    -999.25   10.79330    -999.25   80.90110   80.90110    -999.25    -999.25   86.66350   86.66350   10.79330    -999.25    -999.25    -999.25   11.62690    -999.25 -125.77900   -3.91400   11.62690
 4550.00000    -999.25    -999.25   10.90510   10.90510   91.04920   90.78610    -999.25    -999.25    -999.25    -999.25   11.01490    -999.25   82.68390   82.68390    -999.25    -999.25   95.69530   95.69530   11.01490    -999.25    -999.25    -999.25   11.78560    -999.25 -125.91520   -4.30840   11.78560
 4600.00000    -999.25    -999.25   11.75730   11.75730   80.25940   78.82010    -999.25    -999.25    -999.25    -999.25   12.68720    -999.25   80.21620   80.21620    -999.25    -999.25  101.38430  101.38430   12.68720    -999.25    -999.25    -999.25   13.53180    -999.25 -125.31210   -3.96470   13.53180
 4650.00000    -999.25    -999.25   11.44260   11.44260   79.43720   78.29570    -999.25    -999.25    -999.25    -999.25   12.77210    -999.25   80.42690   80.42690    -999.25    -999.25   97.51360   97.51360   12.77210    -999.25    -999.25    -999.25   13.88740    -999.25 -124.63740   -3.54690   13.88740
 4700.00000    -999.25    -999.25   11.19510   11.19510   74.14120   72.65540    -999.25    -999.25    -999.25    -999.25   13.76400    -999.25   83.40290   83.40290    -999.25    -999.25   98.19890   98.19890   13.76400    -999.25    -999.25    -999.25   15.09200    -999.25 -123.95130   -3.12030   15.09200
 4750.00000    -999.25    -999.25   10.67060   10.67060   82.59690   81.18000    -999.25    -999.25    -999.25    -999.25   12.31830    -999.25   88.04300   88.04300    -999.25    -999.25  111.34430  111.34430   12.31830    -999.25    -999.25    -999.25   14.59620    -999.25 -122.24170   -1.66750   14.59620
 4800.00000    -999.25    -999.25   10.87420   10.87420   66.19080   65.58800    -999.25    -999.25    -999.25    -999.25   15.24670    -999.25   84.24800   84.24800    -999.25    -999.25  107.23450  107.23450   15.24670    -999.25    -999.25    -999.25   19.72330    -999.25 -121.78120   -1.46520   19.72330
 4850.00000    -999.25    -999.25   10.72480   10.72480   88.09040   87.16790    -999.25    -999.25    -999.25    -999.25   11.47230    -999.25   83.26170   83.26170    -999.25    -999.25  104.65030  104.65030   11.47230    -999.25    -999.25    -999.25   13.06410    -999.25 -122.31920   -2.26270   13.06410
 4900.00000    -999.25    -999.25   10.35540   10.35540   95.40070   92.81780    -999.25    -999.25    -999.25    -999.25   10.77380    -999.25   81.88930   81.88930    -999.25    -999.25   97.80800   97.80800   10.77380    -999.25    -999.25    -999.25   12.20630    -999.25 -123.34150   -3.54180   12.20630
 4950.00000    -999.25    -999.25   10.13580   10.13580  112.32230  113.07790    -999.25    -999.25    -999.25    -999.25    8.84480    -999.25   83.03150   83.03150    -999.25    -999.25   85.52930   85.52930    8.84480    -999.25    -999.25    -999.25    9.82380    -999.25 -123.75770   -4.21750    9.82380
 5000.00000    -999.25    -999.25   10.11100   10.11100  104.31790  101.07440    -999.25    -999.25    -999.25    -999.25    9.89370    -999.25   81.02130   81.02130    -999.25    -999.25   97.01060   97.01060    9.89370    -999.25    -999.25    -999.25   10.54450    -999.25 -124.49990   -5.21650   10.54450
 5050.00000    -999.25    -999.25   10.30240   10.30240  109.78320  108.48220    -999.25    -999.25    -999.25    -999.25    9.21810    -999.25   80.37360   80.37360    -999.25    -999.25   93.90720   93.90720    9.21810    -999.25    -999.25    -999.25   10.17440    -999.25 -123.47690   -4.45170   10.17440
 5100.00000    -999.25    -999.25   10.48140   10.48140   91.85020   91.04120    -999.25    -999.25    -999.25    -999.25   10.98410    -999.25   76.79330   76.79330    -999.25    -999.25   87.49510   87.49510   10.98410    -999.25    -999.25    -999.25   11.69620    -999.25 -123.25420   -4.48850   11.69620
 5150.00000    -999.25    -999.25   10.92910   10.92910  115.02530  114.35760    -999.25    -999.25    -999.25    -999.25    8.74450    -999.25   79.01730   79.01730    -999.25    -999.25   94.74720   94.74720    8.74450    -999.25    -999.25    -999.25   10.27090    -999.25 -121.91360   -3.40470   10.27090
 5200.00000    -999.25    -999.25   10.69600   10.69600   91.35230   90.66990    -999.25    -999.25    -999.25    -999.25   11.02920    -999.25   85.52920   85.52920    -999.25    -999.25  103.55530  103.55530   11.02920    -999.25    -999.25    -999.25   12.09740    -999.25 -121.13530   -2.88590   12.09740
 5250.00000    -999.25    -999.25   10.37360   10.37360  140.94940  140.39420    -999.25    -999.25    -999.25    -999.25    7.12280    -999.25   82.58400   82.58400    -999.25    -999.25   99.83020   99.83020    7.12280    -999.25    -999.25    -999.25    8.10850    -999.25 -121.43960   -3.44710    8.10850
 5300.00000   13.51300   12.32650   10.25250   10.25250  103.77130  102.99830    -999.25    2.06350    0.37180    0.37810    9.70890    -999.25   81.96450   81.96450  121.54420   95.85920   95.50510   95.50510    9.70890    9.34060    0.36910    2.06350   10.57310    0.36910 -121.24230   -3.50790   10.57310
 5350.00000   12.73880   12.96360   10.62870   10.62870  107.13780  105.84880    0.24960    2.09000    0.39090    0.36260    9.45000    0.24960   82.50090   82.50090  124.79720  100.88960  100.50000  100.50000    9.45000   10.26730    0.38330    2.09000   10.41210    0.38330 -121.33440   -3.85950   10.41210
 5400.00000   10.88260   10.16300    9.80180    9.80180   56.67440   55.85000    0.25000    2.42730    0.20300    0.16530   17.90510    0.25000   70.85140   70.85140  106.61200   78.57630   79.67720   79.67720   17.90510    9.06410    0.21520    2.42730   19.56940    0.21520 -120.21620   -3.46510   19.56940
 5450.00000   11.76510   11.17650   10.05780   10.05780   84.75150   84.19090    0.25000    2.15870    0.35020    0.32240   11.87790    0.25000   77.22250   77.22250  130.44250  101.71080   93.61410   93.61410   11.87790    9.08150    0.35640    2.15870   12.47720    0.35640 -118.51170   -2.52460   12.47720
