~Version ---------------------------------------------------
VERS. 2.0 : CWLS log ASCII Standard -VERSION 2.0
WRAP.  NO : ONE LINE PER DEPTH STEP
~Well ------------------------------------------------------
STRT.F                       550.0 : START DEPTH
STOP.F                     12450.0 : STOP DEPTH
STEP.F                    50.00000 : STEP LENGTH
NULL.                      -999.25 : NULL VALUE
COMP.       CALIFORNIA STANDARD CO : COMPANY
WELL. STANDARD CYNTHIA 16-21-49-13 : WELL
FLD .                           WC : FIELD
LOC .                              : LOCATION
CTRY.                       CANADA : COUNTRY
SRVC.                 Schlumberger : SERVICE COMPANY
DATE.                  28-Dec-1957 : LOGDATE
PROV.                      Alberta : PROVINCE
UWI .             100162104913W500 : UNIQUE WELL ID
SLAT.WGS84                53.24881 : SURFACE LATITUDE
SLON.WGS84               -115.8321 : SURFACE LONGITUDE
~Curve Information -----------------------------------------
DEPT.F                   : 
MCAL.IN     15 280 01 00 : MLT (MICROLOG) CALIPER
GRN .MG/TON 35 310 00 00 : GAMMA RAY FROM GRN LOG
NEUT.CPS    35 330 30 00 : NEUTRON
CALM.IN     20 280 01 00 : CALIPER FROM MICROLATEROLOG
TENM.LB     20 635 00 00 : TENSION FROM MICROLOG/MICROLOG FOCUSED
MLL .OHMM   20 270 04 00 : MICRO FOCUSED LATEROLOG RESISTIVITY
ILD .OHMM   06 120 46 00 : INDUCTION DEEP RESISTIVITY
SPR1.MV                  : SPONTANEOUS POTENTIAL
CILD.MMHO   06 110 46 00 : INDUCTION DEEP CONDUCTIVITY
SPR2.MV                  : SPONTANEOUS POTENTIAL
LL7 .OHMM   01 220 07 00 : LATEROLOG 7
SPR .MV     01 010 01 00 : SPONTANEOUS POTENTIAL FROM RESISTIVITY LOG
SN  .OHMM   01 040 16 00 : SHORT NORMAL RESISTIVITY
LN  .OHMM   01 060 64 00 : LONG NORMAL RESISTIVITY
LT18.OHMM   01 070 18 00 : LATERAL 18'
~Params ----------------------------------------------------
PD  .                        : PERMANENT DATUM
EPD .FT                    0 : ELEVATION PERMANENT DATUM
LMF .                     KB : LOG MEASURED FROM
DAPD.FT                    0 : FEET ABOVE PERMANENT DATUM
DMF .                     KB : DRILLING MEASURED FROM
EKB .FT                 3297 : KELLY BUSHING
EDF .FT                    0 : DRILLING FLOOR
EGL .FT                    0 : GROUND LEVEL
DATE.               12/28/57 : RUN DATE
RUN .                      4 : RUN NUMBER
DD  .FT                12492 : DEPTH DRILLER
DL  .FT                12492 : DEPTH LOGGER
BLI .FT                12491 : BOTTOM LOG INTERVAL
TLI .FT                 8904 : TOP LOG INTERVAL
CS  .IN                    0 : CASING SIZE
CBD .FT                  616 : CASING BOTTOM DRILLER
CBL .FT                  616 : CASING BOTTOM LOGGER
BS  .IN                    9 : BIT SIZE
BSD .FT                12492 : BIT SIZE AT DEPTH
DFT .               OIL EMUL : DRILLING FLUID TYPE
DFD .                   10.7 : DRILLING FLUID DENSITY
DFV .                    140 : DRILLING FLUID VISCOSITY
DFPH.                     13 : DRILLING FLUID PH
DFL .                    3.6 : DRILLING FLUID LOSS
MSS .                        : MUD SAMPLE SOURCE
RMS .OHMM                1.1 : RESISTIVITY MUD SAMPLE
MST .DEGF                 50 : MUD SAMPLE TEMPERATURE
RMF .OHMM                  0 : RESISTIVITY MUD FILTRATE SAMPLE
MFST.DEGF                  0 : MUD FILTRATE SAMPLE TEMPERATURE
RMC .OHMM                  0 : RESISTIVITY MUD CAKE
MCST.DEGF                  0 : MUD CAKE SAMPLE TEMPERATURE
MFSS.                        : MUD FILTRATE SAMPLE SOURCE
MCSS.                        : MUD CAKE SAMPLE SOURCE
RMB .OHMM               0.28 : RESISTIVITY MUD AT BHT
TCS .HRS                   3 : TIME CIRCULATED STOPPED
TLAB.HRS                   0 : TIME LOGGER AT BOTTOM
LUN .                   1749 : LOGGING UNIT NUMBER
LUL .                     DV : LOGGING UNIT LOCATION
ENGI.                  GOETZ : RECORDING ENGINEER
WITN.             CHARLESTON : WITNESSED BY
CLNT.                A2DTECH : CLIENT CODE
ORIG.            2" 5" PRINT : ORIGIN OF DATA
UWI .       100162104913W500 : UNIQUE WELL ID
DICO. A2D Technologies, Inc. : DIGITIZING COMPANY
OS  .                        : OTHER SERVICES
PWI .                        : PRIMARY WELL IDENTIFIER
R1  .                        : REMARKS 1
R2  .                        : REMARKS 2
LSRV.                        : LOG MNEMONIC
~Other -----------------------------------------------------
~ASCII -----------------------------------------------------
  550.00000    -999.25    3.93420  175.13000    -999.25    -999.25    -999.25    -999.25    -999.25    -999.25    -999.25    -999.25    -999.25    -999.25    -999.25    -999.25
  600.00000    -999.25    3.76950  166.87140    -999.25    -999.25    -999.25    -999.25    -999.25    -999.25    -999.25    -999.25    -999.25    -999.25    -999.25    -999.25
  650.00000   12.09030    3.29060  246.28090    -999.25    -999.25    -999.25   54.35350  -78.06990   75.29890    -999.25    -999.25  -44.57990   29.58880   37.05700   38.50780
  700.00000   11.16120    4.10440  238.54370    -999.25    -999.25    -999.25   43.25300  -83.69640   84.53460    -999.25    -999.25  -47.77040   24.62290   28.57990   30.78650
  750.00000   11.04070    5.81620  222.24930    -999.25    -999.25    -999.25   19.53490  -81.09530  138.81680    -999.25    -999.25  -44.44920    9.30770   12.33830   19.75890
  800.00000   10.78920    7.43550  212.02270    -999.25    -999.25    -999.25   27.77740  -80.06520  126.84600    -999.25    -999.25  -43.17380   10.28250   16.73800   18.13440
  850.00000   10.35950    5.72420  214.41700    -999.25    -999.25    -999.25   26.74200  -79.22060  114.84190    -999.25    -999.25  -41.83240   10.94120   14.96980   10.83490
  900.00000   10.11420    4.36340  229.39850    -999.25    -999.25    -999.25   41.23640  -78.90740   85.63040    -999.25    -999.25  -41.16400   23.18270   28.45580   35.92040
  950.00000    9.89210    4.26510  268.40460    -999.25    -999.25    -999.25   28.84500  -75.67210  104.62060    -999.25    -999.25  -40.62500   22.19030   19.35320   25.10720
 1000.00000   11.90350    5.78840  194.51410    -999.25    -999.25    -999.25   20.93970  -78.99680  146.96920    -999.25    -999.25  -37.62780    9.01250   17.89300    1.95590
 1050.00000   11.70160    5.07030  241.43770    -999.25    -999.25    -999.25   39.04920  -79.34770   93.36840    -999.25    -999.25  -41.10750   19.23440   26.51840   18.53270
 1100.00000   13.09990    6.56110  217.46040    -999.25    -999.25    -999.25   21.77500  -78.76110  130.59640    -999.25    -999.25  -42.31900   10.31140   12.65490   16.73050
 1150.00000   14.88880    6.96970  197.83780    -999.25    -999.25    -999.25   17.28760  -76.59780  157.11220    -999.25    -999.25  -39.81280    8.66710    9.91270   12.42350
 1200.00000   13.58110    4.97460  231.39820    -999.25    -999.25    -999.25   27.86930  -77.06630  104.30230    -999.25    -999.25  -46.03300   17.88570   17.92070   35.99960
 1250.00000   14.86620    6.32630  243.88190    -999.25    -999.25    -999.25   33.49620  -81.76720  106.36790    -999.25    -999.25  -40.98340   15.69830   17.51820   11.68350
 1300.00000   14.86930    5.87460  236.12210    -999.25    -999.25    -999.25   23.98180  -80.09710  121.20170    -999.25    -999.25  -39.30060   12.20060   15.40100    8.10820
 1350.00000   14.85440    7.29370  209.19400    -999.25    -999.25    -999.25   16.17500  -67.58810  163.24010    -999.25    -999.25  -39.99510   10.91100   20.66950   16.91820
 1400.00000   14.91270    3.65410  242.93860    -999.25    -999.25    -999.25   23.25000  -85.58650  115.76930    -999.25    -999.25  -48.02250   16.14590   18.06300   26.68360
 1450.00000   14.90190    6.30330  203.50300    -999.25    -999.25    -999.25   25.46130  -82.87440  117.87050    -999.25    -999.25  -40.20390   10.78280   13.93440    8.01580
 1500.00000   14.86330    5.91840  193.20280    -999.25    -999.25    -999.25    9.83480  -75.48850  280.36940    -999.25    -999.25  -39.50670    5.70950   10.21660    9.41220
 1550.00000   14.75890    6.64600  202.01440    -999.25    -999.25    -999.25   22.24090  -76.96710  123.88700    -999.25    -999.25  -40.01200   13.44540   10.76870   12.75300
 1600.00000   13.78810    6.31910  214.97500    -999.25    -999.25    -999.25   25.46230  -82.76350  113.00090    -999.25    -999.25  -41.09030   20.18580   23.24880   12.77640
 1650.00000   14.45920    8.27290  185.43680    -999.25    -999.25    -999.25   45.59340  -87.75520   90.77400    -999.25    -999.25  -43.36170   22.12880   31.94950   11.53570
 1700.00000   14.48250    6.65930  195.17330    -999.25    -999.25    -999.25   20.89040  -79.81930  132.07820    -999.25    -999.25  -43.00350   13.62040   17.27790   18.23450
 1750.00000   13.77440    6.43770  238.03920    -999.25    -999.25    -999.25   29.04550  -75.17990  109.03590    -999.25    -999.25  -44.86670   23.76930   31.94290    6.77920
 1800.00000   13.35120    4.82780  177.73840    -999.25    -999.25    -999.25  107.70710  -69.65780   60.00920    -999.25    -999.25  -45.29590   37.64370   29.98020   21.67290
 1850.00000   13.54870    6.55200  188.55770    -999.25    -999.25    -999.25   27.99170  -75.59800  104.05760    -999.25    -999.25  -43.00940   17.10260   12.72570   34.93380
 1900.00000   12.19170    8.03660  195.65900    -999.25    -999.25    -999.25   13.41520  -75.14400  203.51060    -999.25    -999.25  -41.65670   11.31440   18.46350   25.62480
 1950.00000   11.99890    4.44040  248.17120    -999.25    -999.25    -999.25   32.17140  -86.74710  100.23100    -999.25    -999.25  -48.58090   16.31630   21.82150   24.27400
 2000.00000   12.32090    4.53370  250.84680    -999.25    -999.25    -999.25   17.18390  -74.42720  156.93520    -999.25    -999.25  -46.75950   13.59950   13.67230   27.15330
 2050.00000   11.43580    5.49360  221.58180    -999.25    -999.25    -999.25   19.95370  -77.61160  138.23580    -999.25    -999.25  -40.63750   16.92860   22.33230    4.68880
 2100.00000    9.74580    4.02250  229.11650    -999.25    -999.25    -999.25   40.73540  -93.73910   91.52250    -999.25    -999.25  -50.77830   16.62150   18.09230   15.55290
 2150.00000   10.99740    4.59690  228.78810    -999.25    -999.25    -999.25   15.95650  -67.23140  177.05690    -999.25    -999.25  -40.68030    9.44570    7.72800   18.13930
 2200.00000   12.67480    5.52190  199.15810    -999.25    -999.25    -999.25   22.09780  -66.42350  128.45390    -999.25    -999.25  -39.34040   11.07610    9.48200   16.46210
 2250.00000   11.05550    6.13910  193.55720    -999.25    -999.25    -999.25    6.82960  -64.27890  399.41380    -999.25    -999.25  -37.93480    4.12540    5.56780   10.22860
 2300.00000   12.64660    5.56030  206.52460    -999.25    -999.25    -999.25   14.10000  -65.21720  179.82000    -999.25    -999.25  -38.89870    9.34780    7.68550   10.71700
 2350.00000   10.20280    5.33350  234.27180    -999.25    -999.25    -999.25   17.95770  -69.86430  155.10200    -999.25    -999.25  -38.84780    8.39160    8.60420    7.40810
 2400.00000   10.84610    3.83050  221.55210    -999.25    -999.25    -999.25   56.83180  -82.17970   76.61660    -999.25    -999.25  -48.83600   20.80670   24.36830   16.87910
 2450.00000   11.37940    5.65780  226.68080    -999.25    -999.25    -999.25   12.46720  -69.02860  202.02400    -999.25    -999.25  -40.37860   10.13120    9.73070   13.01350
 2500.00000   11.13200    6.15560  220.19650    -999.25    -999.25    -999.25   16.76220  -68.35160  158.02860    -999.25    -999.25  -40.20820   11.91840   13.30550    3.20820
 2550.00000   10.61630    5.37500  250.52150    -999.25    -999.25    -999.25   21.34530  -93.55380  135.78200    -999.25    -999.25  -43.89770   17.20840   23.79330    1.12200
 2600.00000   10.39740    5.56060  241.01510    -999.25    -999.25    -999.25   24.97890  -70.30270  112.75690    -999.25    -999.25  -41.11800   17.39680   14.19650   21.78860
 2650.00000   11.17470    5.40120  237.09460    -999.25    -999.25    -999.25   19.76510  -64.75280  142.58530    -999.25    -999.25  -43.49180   13.48400   13.33760   14.57520
 2700.00000   11.20280    6.66440  222.92010    -999.25    -999.25    -999.25   25.42640  -73.74550  115.00610    -999.25    -999.25  -41.49700    9.25550    6.43890    6.85950
 2750.00000   11.82060    6.26650  223.36640    -999.25    -999.25    -999.25   21.55190  -68.64640  131.63320    -999.25    -999.25  -43.37240   10.34360   11.73310   11.41510
 2800.00000   11.94140    6.83410  221.38210    -999.25    -999.25    -999.25   17.40750  -66.19880  152.99750    -999.25    -999.25  -42.26240    9.01740    9.87520   12.40350
