~Version ---------------------------------------------------
VERS.      2.0 : CWLS log ASCII Standard -VERSION 2.0
WRAP.       NO : One line per depth step
CREA. 07/27/17 : LAS Creation Date
~Well ------------------------------------------------------
STRT.FT                             1150.0 : START DEPTH
STOP.FT                            10100.0 : STOP DEPTH
STEP.FT                           50.00000 : STEP LENGTH
NULL.                              -999.25 : NULL VALUE
COMP.      SYSTEX EXPLORATION SERVICES LTD : COMPANY
WELL. SYSTEX DOME ET AL EAGLET 11-27-63-16 : WELL
FLD .                                      : FIELD
LOC .                                      : LOCATION
CTRY.                               CANADA : COUNTRY
SRVC.                         Schlumberger : SERVICE COMPANY
DATE.                          01-Jan-1973 : LOGDATE
PROV.                              Alberta : PROVINCE
UWI .                     100112706316W500 : UNIQUE WELL ID
SLAT.WGS84                        54.48232 : SURFACE LATITUDE
SLON.WGS84                        -116.336 : SURFACE LONGITUDE
~Curve Information -----------------------------------------
DEPT  .FT    : Depth Curve
CALSED.IN    : CALIPER FROM SONIC LOG
CALWS .IN    : CALIPER [CALSED]
CILDED.MMHO  : DEEP INDUCTION CONDUCTIVITY FROM RESISTIVITY LOG
CONDWS.MMHO  : CONDUCTIVITY [1000/DRESWS]
DRESWS.OHMM  : DEEP RESISTIVITY [1000/CILDED IF ILDED<1, ILDED]
DTED  .US/F  : DELTA-T (INTERVAL TRANSIT TIME) FROM SONIC LOG
DTWS  .US/F  : COMPRESSIONAL  SONIC [DTED]
GRSED .GAPI  : GAMMA RAY FROM BCS LOG
GRWS  .GAPI  : GAMMA RAY [GRSED]
ILDED .OHMM  : DEEP INDUCTION FROM RESISTIVITY LOG
SNED  .OHMM  : SHORT NORMAL FROM RESISTIVITY LOG
SPRED .MV    : SPONTANEOUS POTENTIAL FROM RESISTIVITY LOG
SPWS  .MV    : SPONTANEOUS POTENTIAL [BASELINE 0 MV, SPRED]
SRESWS.OHMM  : SHALLOW RESISTIVITY [SNED]
~Params ----------------------------------------------------
PD  .                     GL : PERMANENT DATUM
EPD .FT               3365.6 : ELEVATION PERMANENT DATUM
LMF .                     KB : LOG MEASURED FROM
DAPD.FT                 15.4 : FEET ABOVE PERMANENT DATUM
DMF .                     KB : DRILLING MEASURED FROM
EKB .FT                 3381 : KELLY BUSHING
EGL .FT               3365.6 : GROUND LEVEL
DATE.               01/01/73 : RUN DATE
RUN .                      1 : RUN NUMBER
DD  .FT                10150 : DEPTH DRILLER
DL  .FT                10150 : DEPTH LOGGER
BLI .FT                10149 : BOTTOM LOG INTERVAL
TLI .FT                 1100 : TOP LOG INTERVAL
CBD .FT                 1125 : CASING BOTTOM DRILLER
CBL .FT                 1126 : CASING BOTTOM LOGGER
BS  .IN                7.875 : BIT SIZE
BSD .FT                10150 : BIT SIZE AT DEPTH
DFT .               GEL CHEM : DRILLING FLUID TYPE
DFD .                    9.5 : DRILLING FLUID DENSITY
DFV .                    190 : DRILLING FLUID VISCOSITY
DFPH.                   10.0 : DRILLING FLUID PH
DFL .                     92 : DRILLING FLUID LOSS
RMF .OHMM               1.17 : RESISTIVITY MUD FILTRATE SAMPLE
MFST.DEGF                 61 : MUD FILTRATE SAMPLE TEMPERATURE
TCS .HRS                   9 : TIME CIRCULATED STOPPED
LUN .                   7636 : LOGGING UNIT NUMBER
LUL .                    EDM : LOGGING UNIT LOCATION
ENGI.               BENOWSKI : RECORDING ENGINEER
WITN.                  GIETZ : WITNESSED BY
CLNT.                A2DTECH : CLIENT CODE
ORIG.            2" 5" PRINT : ORIGIN OF DATA
UWI .       100112706316W500 : UNIQUE WELL ID
DICO. A2D Technologies, Inc. : DIGITIZING COMPANY
~Other -----------------------------------------------------
~ASCII -----------------------------------------------------
# ...
 6050.00000    9.49510    9.49510   77.65490   80.88850   12.36270   73.29840   73.29840   45.16140   45.16140   12.36270   19.93230  -99.65020  -37.39460   19.93230
 6100.00000    9.95720    9.95720   95.31400   95.03810   10.52210   70.18270   70.18270   49.93140   49.93140   10.52210   20.03660  -97.18960  -38.64430   20.03660
 6150.00000   11.49780   11.49780  113.44320  115.42010    8.66400   73.92020   73.92020   87.29290   87.29290    8.66400   12.49670  -69.81450  -15.13470   12.49670
 6200.00000   12.53270   12.53270  341.17890  336.22490    2.97420  111.21870  111.21870   89.56330   89.56330    2.97420    4.84440  -64.95910  -14.17030    4.84440
 6250.00000   11.99960   11.99960  157.49500  150.77040    6.63260   85.04460   85.04460   77.58370   77.58370    6.63260    9.95390  -55.95310   -9.02980    9.95390
 6300.00000    9.83830    9.83830   45.45790   46.91970   21.31300   73.54420   73.54420   62.05510   62.05510   21.31300   23.13890  -59.18540  -16.12770   23.13890
 6350.00000   12.88740   12.88740  132.35000  130.31350    7.67380   94.00620   94.00620   80.34370   80.34370    7.67380   11.10200  -45.29170  -25.44380   11.10200
 6400.00000    8.58290    8.58290    3.49690    2.06180  485.01900   59.18120   59.18120   35.83170   35.83170  485.01900  171.91590  -41.88460  -32.51320  171.91590
 6450.00000    8.43500    8.43500  143.90850  146.31220    6.83470   67.95890   67.95890   43.12770   43.12770    6.83470   23.92440 -137.43880 -128.25800   23.92440
 6500.00000    8.43370    8.43370  242.75270  228.08140    4.38440   57.32690   57.32690   20.35140   20.35140    4.38440   14.00810  -98.56790  -89.57650   14.00810
 6550.00000    9.27470    9.27470   49.75400   49.27860   20.29280   48.55120   48.55120   32.86990   32.86990   20.29280   33.81440  -77.63480  -68.83270   33.81440
 6600.00000    9.18430    9.18430  311.66450  331.44410    3.01710   55.61870   55.61870   43.58420   43.58420    3.01710   10.17820 -110.75320 -102.14170   10.17820
 6650.00000    9.12190    9.12190   64.16530   66.46060   15.04650   58.47880   58.47880   36.99350   36.99350   15.04650   37.75700 -106.02790  -97.60570   37.75700
 6700.00000    9.19270    9.19270   12.33710   10.55900   94.70600   55.51820   55.51820   47.27310   47.27310   94.70600   60.64000  -82.27650  -74.04490   60.64000
 6750.00000    9.19130    9.19130    3.22470    2.03850  490.56600   50.39140   50.39140   19.37210   19.37210  490.56600  137.13440 -104.52920  -96.48690  137.13440
 6800.00000    8.89420    8.89420   36.73650   38.19960   26.17830   50.30630   50.30630   14.68710   14.68710   26.17830   81.56340 -167.30450 -159.45160   81.56340
 6850.00000    8.89800    8.89800   29.89090   30.65500   32.62110   52.12500   52.12500   12.68380   12.68380   32.62110   87.37940 -148.45660 -140.79430   87.37940
 6900.00000    9.41550    9.41550  374.10530  357.93540    2.79380   62.29170   62.29170   52.79320   52.79320    2.79380    6.30350  -95.63920  -88.16620    6.30350
 6950.00000    8.87220    8.87220  163.01140  170.13170    5.87780   59.22370   59.22370   44.04860   44.04860    5.87780   17.09380  -89.82980  -82.54740   17.09380
 7000.00000    9.37350    9.37350  462.21970  431.07160    2.31980   64.33050   64.33050   46.50490   46.50490    2.31980   10.58000 -115.28730 -108.19420   10.58000
 7050.00000    9.23910    9.23910   32.19820   32.31400   30.94630   53.37470   53.37470   31.34270   31.34270   30.94630   35.46630  -52.64960  -45.74590   35.46630
 7100.00000    9.59660    9.59660    9.72490   11.41940   87.57030   54.46440   54.46440   35.18950   35.18950   87.57030   68.46500  -22.68890  -15.97570   68.46500
 7150.00000    8.77520    8.77520    6.04850    3.36810  296.90480   53.65420   53.65420   30.18770   30.18770  296.90480   80.72330  -40.25500  -35.18750   80.72330
 7200.00000    8.59530    8.59530    4.65280    6.08620  164.30670   52.00470   52.00470   19.67790   19.67790  164.30670   61.53610 -101.24750 -100.02340   61.53610
 7250.00000    8.52420    8.52420   19.11030   17.21160   58.10040   53.26220   53.26220   16.37120   16.37120   58.10040   44.81690 -106.27240 -108.86660   44.81690
 7300.00000    8.46170    8.46170    5.97290    7.03050  142.23760   52.33270   52.33270   19.20180   19.20180  142.23760   76.66220  -86.93100  -93.34350   76.66220
 7350.00000    8.42210    8.42210    3.50550    1.98870  502.84930   52.27900   52.27900   30.25110   30.25110  502.84930  124.52820  -52.76390  -63.01970  124.52820
 7400.00000    8.45650    8.45650    2.89300    2.21180  452.11070   57.02110   57.02110   47.36830   47.36830  452.11070  183.52480  -19.04400  -33.11810  183.52480
 7450.00000    9.31560    9.31560    1.53750    2.00590  498.52530   48.91130   48.91130   15.97830   15.97830  498.52530  135.62620  -29.02410  -46.94160  135.62620
 7500.00000    8.99140    8.99140    2.57900    1.96380  509.22360   50.28450   50.28450   14.59650   14.59650  509.22360  169.31890  -12.42670  -34.16250  169.31890
 7550.00000    9.37080    9.37080    0.17250    2.00710  498.22970   48.74990   48.74990   13.73430   13.73430  498.22970   90.15920  -55.37760  -77.58210   90.15920
 7600.00000    8.73490    8.73490    3.27920    1.99030  502.44180   49.08300   49.08300   14.74260   14.74260  502.44180  134.92630  -33.56750  -55.81920  134.92630
 7650.00000    8.71510    8.71510    6.92510    1.99210  501.97700   49.92500   49.92500   11.04940   11.04940  501.97700  109.73740  -85.73460 -108.03320  109.73740
 7700.00000    8.61510    8.61510    3.62540    4.42090  226.20010   49.40300   49.40300   12.10510   12.10510  226.20010  113.60080 -105.41790 -127.76370  113.60080
 7750.00000    8.49120    8.49120   18.71960   20.99280   47.63540   49.04850   49.04850   14.01110   14.01110   47.63540   89.41150 -133.49630 -155.88910   89.41150
 7800.00000    8.37580    8.37580   31.37810   30.19300   33.12030   51.54790   51.54790   12.33400   12.33400   33.12030   77.59510 -154.77350 -177.21320   77.59510
 7850.00000    7.73490    7.73490   27.76230   27.64520   36.17270   55.11780   55.11780    9.56160    9.56160   36.17270  103.10390 -145.72530 -168.21220  103.10390
 7900.00000    8.40720    8.40720   15.71650   12.64500   79.08250   49.92590   49.92590   11.54170   11.54170   79.08250  116.24040 -145.70420 -168.23800  116.24040
 7950.00000    8.83660    8.83660    3.38680    2.03580  491.19610   48.94380   48.94380   13.40050   13.40050  491.19610  136.82230 -109.07470 -131.65580  136.82230
 8000.00000    8.73610    8.73610    3.92930    2.00430  498.92470   48.95710   48.95710   15.77360   15.77360  498.92470  110.02530 -113.88240 -136.51040  110.02530
 8050.00000    8.46940    8.46940    7.17810    7.23120  138.28870   50.00460   50.00460   10.69130   10.69130  138.28870   88.59030 -109.11050 -131.78540   88.59030
 8100.00000    8.18000    8.18000   16.47970   13.67410   73.13070   49.71440   49.71440    8.82860    8.82860   73.13070  120.65680 -159.94710 -182.66920  120.65680
 8150.00000    7.68080    7.68080   46.25040   45.80100   21.83360   52.47720   52.47720   12.52730   12.52730   21.83360   97.56850 -176.16280 -198.93180   97.56850
 8200.00000    8.14310    8.14310   12.88600   11.74960   85.10920   51.21190   51.21190    9.03790    9.03790   85.10920  101.66570 -156.68140 -179.49770  101.66570
 8250.00000    8.92190    8.92190   19.53660   16.93870   59.03640   51.01560   51.01560   32.13100   32.13100   59.03640   81.04160  -89.83260 -112.69580   81.04160
 8300.00000    8.54830    8.54830    1.10330    1.99060  502.36960   50.59050   50.59050   39.26900   39.26900  502.36960  176.17070  -70.53510  -93.44520  176.17070
 8350.00000    8.10040    8.10040    4.50070    4.76200  209.99410   48.26060   48.26060   17.09030   17.09030  209.99410  133.10950 -200.06160 -223.01890  133.10950
 8400.00000    8.75230    8.75230    9.71620    8.58860  116.43350   51.11900   51.11900   19.52030   19.52030  116.43350   45.31500 -181.92770 -204.93200   45.31500
 8450.00000    8.45940    8.45940   14.04790   11.19150   89.35340   54.48090   54.48090   25.35410   25.35410   89.35340   64.69940 -150.59600 -173.64750   64.69940
