~Version ---------------------------------------------------
VERS.      2.0 : CWLS log ASCII Standard -VERSION 2.0
WRAP.       NO : One line per depth step
CREA. 01/03/18 : LAS Creation Date
~Well ------------------------------------------------------
STRT.FT                 1000.0 : START DEPTH
STOP.FT                12750.0 : STOP DEPTH
STEP.FT               50.00000 : STEP LENGTH
NULL.                  -999.25 : NULL VALUE
COMP.      TALISMAN ENERGY INC : COMPANY
WELL. TALISMAN EDSON 6-8-52-17 : WELL
FLD .                          : FIELD
LOC .                          : LOCATION
CTRY.                   CANADA : COUNTRY
SRVC.   Schlumberger of Canada : SERVICE COMPANY
DATE.              06-May-1978 : LOGDATE
PROV.                  Alberta : PROVINCE
UWI .         100060805217W500 : UNIQUE WELL ID
SLAT.WGS84            53.47276 : SURFACE LATITUDE
SLON.WGS84           -116.4739 : SURFACE LONGITUDE
~Curve Information -----------------------------------------
DEPT    .FT    : Depth Curve
CALDED  .IN    : CALIPER FROM DENSITY LOG [ADJ. TO RESISTIVITY LOG]
CALSED  .IN    : CALIPER FROM SONIC LOG
CALWS   .IN    : CALIPER [CALSED]
CILDED  .MMHO  : DEEP CONDUCTIVITY FROM RESISTIVITY LOG
CONDWS  .MMHO  : CONDUCTIVITY [1000/DRESWS]
DCORED  .G/C3  : DENSITY CORRECTION FROM DENSITY LOG
DCORWS  .G/C3  : DENSITY CORRECTION [DCORED]
DENWS   .G/C3  : FORMATION BULK DENSITY [CALC. FROM DPOLSWS , M=2.71 F=1.00]
DPHILSED.V/V   : DENSITY POROSITY LIMESTONE [M=2.71 F=1.00] FROM DENSITY LOG [ADJ. TO RESISTIVITY LOG]
DPHISSED.V/V   : DENSITY POROSITY SANDSTONE [M=2.71 F=1.00] FROM DENSITY LOG [ADJ. TO RESISTIVITY LOG]
DPOLSWS .V/V   : DENSITY POROSITY LIMESTONE [DPHISSED MATRIX CONVERSION FOR LIMESTONE , M=2.71 F=1.00 & SPL TO DPHILSED @ 9209']
DRESWS  .OHMM  : DEEP RESISTIVITY [1000/CILDED IF ILDED<1, ILDED & SPL. TO ILDED 6256']
DTED    .US/F  : DELTA TIME FROM SONIC LOG
DTWS    .US/F  : COMPRESSIONAL SONIC [DTED]
GRDED   .GAPI  : GAMMA RAY FROM DENSITY LOG [ADJ. TO RESISTIVITY LOG]
GRSED   .GAPI  : GAMMA RAY FROM SONIC LOG
GRWS    .GAPI  : GAMMA RAY [GRSED]
ILDED   .OHMM  : DEEP INDUCTION RESISTIVITY FROM RESISTIVITY LOG
ILMED   .OHMM  : MEDIUM INDUCTION RESISTIVITY FROM RESISTIVITY LOG
LL8ED   .OHMM  : LATEROLOG 8 RESISTIVITY FROM RESISTIVITY LOG
MRESWS  .OHMM  : MEDIUM RESISTIVITY [ILMED]
NPHILSED.V/V   : NEUTRON POROSITY LIMESTONE FROM DENSITY LOG [ADJ. TO RESISTIVITY LOG]
NPHISSED.V/V   : NEUTRON POROSITY  SANDSTONE FROM DENSITY LOG [ADJ. TO RESISTIVITY LOG]
NPOLSWS .V/V   : NEUTRON POROSITY LIMESTONE [NPHISSED MATRIX CONVERSION FOR LIMESTONE & SPL. TO NPHILSED @ 9198']
RHOBED  .G/C3  : FORMATION BULK DENSITY  FROM DENSITY LOG[ADJ. TO RESISTIVITY LOG]
SPRED   .MV    : SPONTANEOUS POTENTIAL FROM RESISTIVITY LOG
SPWS    .MV    : SPONTANEOUS POTENTIAL [BASELINE 0 MV. SPRED]
SRESWS  .OHMM  : SHALLOW RESISTIVITY [LL8ED]
~Params ----------------------------------------------------
PD  .                     GL : PERMANENT DATUM
EPD .FT               3147.2 : ELEVATION PERMANENT DATUM
LMF .                     KB : LOG MEASURED FROM
DAPD.FT                 22.3 : FEET ABOVE PERMANENT DATUM
EKB .FT               3169.5 : KELLY BUSHING
EGL .FT               3147.2 : GROUND LEVEL
DATE.               05/31/78 : RUN DATE
RUN .                      2 : RUN NUMBER
DD  .FT                12769 : DEPTH DRILLER
DL  .FT                12757 : DEPTH LOGGER
BLI .FT                12751 : BOTTOM LOG INTERVAL
TLI .FT                 9616 : TOP LOG INTERVAL
CBD .FT                 9625 : CASING BOTTOM DRILLER
BS  .IN                  8.5 : BIT SIZE
BSD .FT                12769 : BIT SIZE AT DEPTH
DFT .                    GEL : DRILLING FLUID TYPE
DFD .                    9.1 : DRILLING FLUID DENSITY
DFV .                     51 : DRILLING FLUID VISCOSITY
DFPH.                     10 : DRILLING FLUID PH
DFL .                     22 : DRILLING FLUID LOSS
MSS .               FLOWLINE : MUD SAMPLE SOURCE
RMF .OHMM              0.809 : RESISTIVITY MUD FILTRATE SAMPLE
MFST.DEGF                 63 : MUD FILTRATE SAMPLE TEMPERATURE
TCS .HRS                  12 : TIME CIRCULATED STOPPED
LUN .                   7800 : LOGGING UNIT NUMBER
LUL .                    EDM : LOGGING UNIT LOCATION
ENGI.               BERNISKY : RECORDING ENGINEER
WITN.               BRINKMAN : WITNESSED BY
CLNT.                A2DTECH : CLIENT CODE
ORIG.            2" 5" PRINT : ORIGIN OF DATA
UWI .       100060805217W500 : UNIQUE WELL ID
DICO. A2D Technologies, Inc. : DIGITIZING COMPANY
~Other -----------------------------------------------------
~ASCII -----------------------------------------------------
# ...
 9750.00000   10.17750    9.56220    9.56220    -999.25   41.79850    0.04700    0.04700    2.71150   -0.00090    -999.25   -0.00090   23.92430   60.15420   60.15420   83.77010   80.17360   80.17360   23.92430   19.66460   33.04330   19.66460    0.11070    -999.25    0.11070    2.70450 -360.95480  -23.40140   33.04330
 9800.00000   10.14320    9.34090    9.34090    -999.25    5.28080    0.02220    0.02220    2.72290   -0.00760    -999.25   -0.00760  189.62180   50.98760   50.98760   21.46290   18.01160   18.01160  189.62180  177.89630  355.12980  177.89630    0.00830    -999.25    0.00830    2.72550 -378.29490   -8.75560  355.12980
 9850.00000    8.99010    9.28210    9.28210    -999.25    8.98470    0.02080    0.02080    2.69150    0.01080    -999.25    0.01080  111.30020   50.60030   50.60030   25.23260   21.31440   21.31440  111.30020  172.22610  313.53730  172.22610    0.01860    -999.25    0.01860    2.68480 -347.58020  -42.48980  313.53730
 9900.00000    8.97670    8.59900    8.59900    -999.25   13.73870    0.01260    0.01260    2.68250    0.01610    -999.25    0.01610   72.78720   53.90310   53.90310   45.04220   41.27530   41.27530   72.78720   86.25860  132.81000   86.25860    0.03620    -999.25    0.03620    2.70220 -343.86010  -49.34520  132.81000
 9950.00000    8.98080    8.55240    8.55240    -999.25   12.95110    0.05400    0.05400    2.71970   -0.00570    -999.25   -0.00570   77.21350   55.43220   55.43220   49.81930   46.05560   46.05560   77.21350   94.65990  125.53590   94.65990    0.05050    -999.25    0.05050    2.73870 -331.89570  -64.46550  125.53590
 10000.00000    9.73510    9.44820    9.44820    -999.25   22.70550    0.02520    0.02520    2.69870    0.00660    -999.25    0.00660   44.04210   57.92600   57.92600   66.22320   59.25120   59.25120   44.04210   46.37810   62.56840   46.37810    0.07150    -999.25    0.07150    2.72130 -321.81310  -77.68340   62.56840
 10050.00000    9.46440    9.02920    9.02920    -999.25   30.25540    0.01080    0.01080    2.66250    0.02780    -999.25    0.02780   33.05250   57.69870   57.69870   69.70680   68.29360   68.29360   33.05250   36.59400   47.74160   36.59400    0.07860    -999.25    0.07860    2.67060 -330.54260  -72.08920   47.74160
 10100.00000    8.89670    8.52790    8.52790    -999.25   14.68680    0.02290    0.02290    2.68280    0.01590    -999.25    0.01590   68.08840   57.86050   57.86050   58.93910   52.01340   52.01340   68.08840   86.76770  107.77790   86.76770    0.05840    -999.25    0.05840    2.68520 -331.27100  -74.51670  107.77790
 10150.00000    8.74420    8.55920    8.55920    -999.25   14.95220    0.06550    0.06550    2.66060    0.02890    -999.25    0.02890   66.87980   63.43430   63.43430  279.97270  300.09390  300.09390   66.87980  100.31200  253.65040  100.31200    0.10820    -999.25    0.10820    2.65620 -343.20090  -65.72210  253.65040
 10200.00000   10.20010    8.98210    8.98210    -999.25    0.61730    0.27240    0.27240    2.67890    0.01820    -999.25    0.01820 1620.08650   48.79030   48.79030   15.06220   16.25220   16.25220 1620.08650  630.07980 1555.92350  630.07980    0.00160    -999.25    0.00160    2.67140 -343.75350  -68.32540 1555.92350
 10250.00000    9.99750    8.92670    8.92670    -999.25    0.66230    0.24580    0.24580    2.70760    0.00140    -999.25    0.00140 1509.95300   49.10460   49.10460   17.65310   20.30650   20.30650 1509.95300 1513.91970 1561.89360 1513.91970    0.00330    -999.25    0.00330    2.70660 -331.79620  -83.41800 1561.89360
 10300.00000   12.42370    9.04140    9.04140    -999.25    3.16220    0.23640    0.23640    2.61090    0.05800    -999.25    0.05800  326.98770   49.73360   49.73360   12.28500   12.00940   12.00940  326.98770  302.26160 1477.35620  302.26160    0.00650    -999.25    0.00650    2.61190 -331.73330  -86.61620 1477.35620
 10350.00000   12.61440    9.00140    9.00140    -999.25    5.17620    0.20020    0.20020    2.50690    0.11880    -999.25    0.11880  193.19350   49.11300   49.11300   12.54810   10.32790   10.32790  193.19350  154.85220 1515.02540  154.85220    0.00340    -999.25    0.00340    2.48230 -318.65270 -102.85270 1515.02540
 10400.00000   11.97580    9.33490    9.33490    -999.25    6.71370    0.17110    0.17110    2.52210    0.10990    -999.25    0.10990  148.94850   49.87570   49.87570   15.24030   13.44360   13.44360  148.94850  153.05820  590.12740  153.05820    0.00720    -999.25    0.00720    2.53720 -307.95060 -116.69010  590.12740
 10450.00000   12.39630    8.95140    8.95140    -999.25    2.88330    0.27170    0.27170    2.32010    0.22800    -999.25    0.22800  346.81940   49.71100   49.71100   16.99540   14.61370   14.61370  346.81940  162.04170 1512.65190  162.04170    0.00780    -999.25    0.00780    2.33020 -324.67060 -103.12600 1512.65190
 10500.00000    8.55420    7.99210    7.99210    -999.25   38.94440    0.12370    0.12370    2.71170   -0.00100    -999.25   -0.00100   25.67760   56.19390   56.19390   11.10050    9.67170    9.67170   25.67760   32.72280   38.49000   32.72280    0.08730    -999.25    0.08730    2.71030 -307.54680 -123.38510   38.49000
 10550.00000   12.01150    9.04290    9.04290    -999.25    4.13070    0.24690    0.24690    2.44900    0.15270    -999.25    0.15270  242.11720   48.81910   48.81910   12.23580   10.17590   10.17590  242.11720  247.85530  621.16410  247.85530    0.00170    -999.25    0.00170    2.42780 -257.12290 -176.94430  621.16410
 10600.00000   13.28840    9.18710    9.18710    -999.25    7.55930    0.19690    0.19690    2.53060    0.10490    -999.25    0.10490  132.28800   48.95980   48.95980   14.77230   14.49510   14.49510  132.28800   68.26870  205.55530   68.26870    0.00880    -999.25    0.00880    2.53980 -330.33880 -106.88430  205.55530
 10650.00000   14.24290    9.05310    9.05310    -999.25    4.02730    0.26010    0.26010    2.47160    0.13940    -999.25    0.13940  248.30620   50.00860   50.00860   18.37180   15.03680   15.03680  248.30620  521.35900  335.73760  521.35900    0.00850    -999.25    0.00850    2.46150 -269.89750 -170.46090  335.73760
 10700.00000   14.16580    8.97630    8.97630    -999.25    3.27830    0.23640    0.23640    2.44030    0.15770    -999.25    0.15770  305.03960   49.98850   49.98850   14.45500   15.25800   15.25800  305.03960  264.49860  573.09720  264.49860    0.00820    -999.25    0.00820    2.46470 -267.05600 -176.45830  573.09720
 10750.00000   13.24300   10.93580   10.93580    -999.25    0.58120    0.20770    0.20770    2.32050    0.22780    -999.25    0.22780 1720.57710   52.22440   52.22440   13.57360   16.81940   16.81940 1720.57710  201.99580  170.08320  201.99580    0.05610    -999.25    0.05610    2.31850 -285.55110 -161.09850  170.08320
 10800.00000   12.06280    9.28490    9.28490    -999.25    7.21360    0.18340    0.18340    2.54580    0.09600    -999.25    0.09600  138.63770   50.94740   50.94740   11.41800   16.28580   16.28580  138.63770  404.50120  364.63890  404.50120    0.00970    -999.25    0.00970    2.55930 -316.51180 -133.27300  364.63890
 10850.00000   11.83920    9.33370    9.33370    -999.25   29.11840    0.12810    0.12810    2.52930    0.10570    -999.25    0.10570   34.34250   54.32640   54.32640   14.10630   15.30870   15.30870   34.34250   26.29600  108.81310   26.29600    0.08400    -999.25    0.08400    2.55610 -316.59950 -136.34130  108.81310
 10900.00000   12.56640    9.45030    9.45030    -999.25    4.72830    0.23040    0.23040    2.50260    0.12130    -999.25    0.12130  211.49180   47.77700   47.77700   17.89900   18.07610   18.07610  211.49180 2101.10500 1548.56350 2101.10500    0.05010    -999.25    0.05010    2.50970 -287.16650 -168.90950 1548.56350
 10950.00000   13.15910    9.34090    9.34090    -999.25    2.08640    0.26830    0.26830    2.69440    0.00910    -999.25    0.00910  479.29590   48.32320   48.32320   19.52440   21.24660   21.24660  479.29590  123.47530  377.95430  123.47530    0.05990    -999.25    0.05990    2.70060 -397.16420  -62.06770  377.95430
