~Version ---------------------------------------------------
VERS.      2.0 : CWLS log ASCII Standard -VERSION 2.0
WRAP.       NO : One line per depth step
CREA. 11/16/17 : LAS Creation Date
~Well ------------------------------------------------------
STRT.FT                    300.0 : START DEPTH
STOP.FT                   7750.0 : STOP DEPTH
STEP.FT                 50.00000 : STEP LENGTH
NULL.                    -999.25 : NULL VALUE
COMP.        GULF CANADA LIMITED : COMPANY
WELL. B.A. CPR HUXLEY 2-33-33-22 : WELL
FLD .                            : FIELD
LOC .                            : LOCATION
CTRY.                     CANADA : COUNTRY
SRVC.     Schlumberger of Canada : SERVICE COMPANY
DATE.                09-May-1959 : LOGDATE
PROV.                    Alberta : PROVINCE
UWI .           100023303322W400 : UNIQUE WELL ID
SLAT.WGS84              51.86894 : SURFACE LATITUDE
SLON.WGS84             -113.0601 : SURFACE LONGITUDE
~Curve Information -----------------------------------------
DEPT  .FT         : Depth Curve
CALMED.IN         : CALIPER FROM MICROLATERO LOG
CALWS .IN         : CALIPER [MCALED SPL. TO CALMED @ 5410']
CILDED.MMHO       : INDUCTION DEEP CONDUCTIVITY FROM RESISTIVITY LOG
CONDWS.MMHO       : CONDUCTIVITY [1000/DRESWS]
DRESWS.OHMM       : DEEP RESISTIVITY [1000/CILDED IF ILDED <=5, ILDED]
GRNED .UgRa-Eq/T  : GAMMA RAY FROM NEUTRON LOG  [ADJ. TO RESISTIVITY LOG]
GRWS  .GAPI       : GAMMA RAY [GRNED*16.5]
ILDED .OHMM       : INDUCTION DEEP RESISTIVITY FROM RESISTIVITY LOG
MCALED.IN         : MLT FROM MICRO LOG
MLLED .OHMM       : MICRO FOCUSED LATEROLOG RESISTIVITY FROM MICROLATERO LOG
NEUTED.CPS        : NEUTRON FROM NEUTRON LOG [ADJ. TO RESISTIVITY LOG]
NEUTWS.CPS        : NEUTRON [NEUTED]
SNED  .OHMM       : SHORT NORMAL RESISTIVITY FROM RESISTIVITY LOG
SPRED .MV         : SPONTANEOUS POTENTIAL FROM RESISTIVITY LOG
SPWS  .MV         : SPONTANEOUS POTENTIAL [BASELINE 0 MV, SPRED]
SRESWS.OHMM       : SHALLOW RESISTIVITY [SNED]
~Params ----------------------------------------------------
LMF .                     KB : LOG MEASURED FROM
DMF .                     KB : DRILLING MEASURED FROM
EKB .FT                 2780 : KELLY BUSHING
DATE.               05/09/59 : RUN DATE
RUN .                      2 : RUN NUMBER
DD  .FT                 7791 : DEPTH DRILLER
DL  .FT                 7795 : DEPTH LOGGER
BLI .FT                 7790 : BOTTOM LOG INTERVAL
TLI .FT                 5209 : TOP LOG INTERVAL
CBD .FT                  612 : CASING BOTTOM DRILLER
CBL .FT                  615 : CASING BOTTOM LOGGER
BS  .IN                    9 : BIT SIZE
BSD .FT                 7791 : BIT SIZE AT DEPTH
DFT .               GYP BASE : DRILLING FLUID TYPE
DFD .                   10.4 : DRILLING FLUID DENSITY
DFV .                     72 : DRILLING FLUID VISCOSITY
DFPH.                      7 : DRILLING FLUID PH
DFL .                    7.8 : DRILLING FLUID LOSS
RMS .OHMM                0.7 : RESISTIVITY MUD SAMPLE
MST .DEGF                 65 : MUD SAMPLE TEMPERATURE
RMF .OHMM               0.43 : RESISTIVITY MUD FILTRATE SAMPLE
MFST.DEGF                 78 : MUD FILTRATE SAMPLE TEMPERATURE
RMC .OHMM               0.84 : RESISTIVITY MUD CAKE
MCST.DEGF                 78 : MUD CAKE SAMPLE TEMPERATURE
RMB .OHMM               0.32 : RESISTIVITY MUD AT BHT
TCS .HRS                   2 : TIME CIRCULATED STOPPED
LUN .                  27410 : LOGGING UNIT NUMBER
ENGI.                MCKEOWN : RECORDING ENGINEER
WITN.                DOMANKO : WITNESSED BY
CLNT.                A2DTECH : CLIENT CODE
ORIG.            2" 5" PRINT : ORIGIN OF DATA
UWI .       100023303322W400 : UNIQUE WELL ID
DICO. A2D Technologies, Inc. : DIGITIZING COMPANY
~Other -----------------------------------------------------
~ASCII -----------------------------------------------------
  300.00000    -999.25    -999.25    -999.25    -999.25    -999.25    2.98070   46.08450    -999.25    -999.25    -999.25  151.32800  151.32800    -999.25    -999.25    -999.25    -999.25
  350.00000    -999.25    -999.25    -999.25    -999.25    -999.25    2.58160   43.13260    -999.25    -999.25    -999.25  174.10510  174.10510    -999.25    -999.25    -999.25    -999.25
  400.00000    -999.25    -999.25    -999.25    -999.25    -999.25    3.12020   53.19270    -999.25    -999.25    -999.25  153.71700  153.71700    -999.25    -999.25    -999.25    -999.25
  450.00000    -999.25    -999.25    -999.25    -999.25    -999.25    2.95010   51.37030    -999.25    -999.25    -999.25  174.00130  174.00130    -999.25    -999.25    -999.25    -999.25
  500.00000    -999.25    -999.25    -999.25    -999.25    -999.25    2.74860   45.39310    -999.25    -999.25    -999.25  146.34900  146.34900    -999.25    -999.25    -999.25    -999.25
  550.00000    -999.25    -999.25    -999.25    -999.25    -999.25    3.20910   53.59360    -999.25    -999.25    -999.25  155.63520  155.63520    -999.25    -999.25    -999.25    -999.25
  600.00000    -999.25    -999.25    -999.25    -999.25    -999.25    3.33880   53.05000    -999.25    -999.25    -999.25  144.64260  144.64260    -999.25    -999.25    -999.25    -999.25
  650.00000    -999.25   11.26250  172.37830  165.91180    6.02730    6.01650   93.42790    6.02730   11.26250    -999.25  168.00740  168.00740    6.83880  -27.16060   -4.23980    6.83880
  700.00000    -999.25   10.73280  186.88510  175.41400    5.70080    5.70400   92.34640    5.70080   10.73280    -999.25  193.43170  193.43170    8.72670  -28.42250   -4.47020    8.72670
  750.00000    -999.25   10.37120  231.37320  231.37320    4.32200    5.50940   93.54840    4.56730   10.37120    -999.25  194.61360  194.61360    5.43860  -27.94490   -2.95430    5.43860
  800.00000    -999.25   11.24440  278.18070  278.18070    3.59480    8.44130  132.86460    3.92660   11.24440    -999.25  193.35300  193.35300    4.68560  -28.49410   -3.42030    4.68560
  850.00000    -999.25   10.55310   87.14860   78.80660   12.68930    4.41560   74.49590   12.68930   10.55310    -999.25  233.44710  233.44710   12.78630  -31.58340   -6.80500   12.78630
  900.00000    -999.25   10.32510  208.04040  208.04040    4.80680    5.40620   88.62150    4.93300   10.32510    -999.25  188.13940  188.13940    5.96900  -29.76860   -5.28370    5.96900
  950.00000    -999.25   11.14230  183.16550  177.27350    5.64100    5.58520   90.97770    5.64100   11.14230    -999.25  189.33670  189.33670    6.11710  -29.71150   -5.52200    6.11710
 1000.00000    -999.25    9.37190  196.50810  166.58620    6.00290    5.36850   97.44070    6.00290    9.37190    -999.25  207.40440  207.40440    7.53150  -28.14920   -4.25320    7.53150
 1050.00000    -999.25   10.06870  179.28430  172.59230    5.79400    5.07490   84.04270    5.79400   10.06870    -999.25  190.82900  190.82900   10.24610  -27.46110   -3.85860   10.24610
 1100.00000    -999.25    9.57630  295.09840  295.09840    3.38870    4.86820   79.51850    3.71670    9.57630    -999.25  172.03330  172.03330    7.67230  -26.84730   -3.54030    7.67230
 1150.00000    -999.25   10.64260  140.25850  131.98010    7.57690    4.54710   77.40310    7.57690   10.64260    -999.25  171.06210  171.06210   10.39350  -28.01030   -4.99670   10.39350
 1200.00000    -999.25   10.36090  164.14980  162.04300    6.17120    5.18090   79.99860    6.17120   10.36090    -999.25  173.80150  173.80150    9.21070  -26.96130   -4.24320    9.21070
 1250.00000    -999.25   11.16490  229.23780  229.23780    4.36230    4.75350   76.94770    4.55210   11.16490    -999.25  172.27550  172.27550    5.46770  -27.40350   -4.97890    5.46770
 1300.00000    -999.25   11.44980  154.78650  141.91640    7.04640    4.04450   75.38600    7.04640   11.44980    -999.25  197.93630  197.93630    8.86930  -27.44890   -5.31780    8.86930
 1350.00000    -999.25   10.02640  267.25710  267.25710    3.74170    5.10340   90.76980    3.96220   10.02640    -999.25  162.96910  162.96910    6.38720  -27.44990   -5.61420    6.38720
 1400.00000    -999.25   14.21790  317.39720  317.39720    3.15060    5.00560   78.55980    3.29560   14.21790    -999.25  176.47740  176.47740    4.51900  -25.54780   -4.00560    4.51900
 1450.00000    -999.25   11.75690  292.57680  292.57680    3.41790    5.33280   84.32240    3.57410   11.75690    -999.25  165.78770  165.78770    4.44300  -24.93750   -3.69070    4.44300
 1500.00000    -999.25    9.86380  155.43760  146.63620    6.81960    5.73830   94.75780    6.81960    9.86380    -999.25  188.78940  188.78940   11.67130  -25.66690   -4.71360   11.67130
 1550.00000    -999.25    9.95890  233.09470  233.09470    4.29010    4.53230   74.78300    4.37690    9.95890    -999.25  192.93170  192.93170    4.80440  -24.07150   -3.41170    4.80440
 1600.00000    -999.25    9.85270  341.69520  341.69520    2.92660    6.04440  102.47820    3.14270    9.85270    -999.25  163.42680  163.42680    3.91540  -24.17020   -3.61280    3.91540
 1650.00000    -999.25   11.84930  279.76960  279.76960    3.57440    5.29410   84.64010    3.83270   11.84930    -999.25  181.49300  181.49300    4.16540  -24.76530   -4.20790    4.16540
 1700.00000    -999.25    9.19100  108.50360   99.26940   10.07360    3.45680   56.69570   10.07360    9.19100    -999.25  233.91210  233.91210   10.71280  -38.69980  -18.14240   10.71280
 1750.00000    -999.25    9.43770   98.81900   88.27290   11.32850    3.33500   53.61840   11.32850    9.43770    -999.25  205.78210  205.78210   11.54690  -40.66420  -20.10680   11.54690
 1800.00000    -999.25    8.53760   72.50880   65.69610   15.22160    4.94770   82.65680   15.22160    8.53760    -999.25  218.22710  218.22710   20.49930  -62.26930  -41.71190   20.49930
 1850.00000    -999.25   10.38830  139.36390  134.13460    7.45520    4.12580   63.66850    7.45520   10.38830    -999.25  226.58140  226.58140    8.38480  -28.94830   -8.39090    8.38480
 1900.00000    -999.25   11.83110  167.41940  165.18550    6.05380    4.70620   72.50100    6.05380   11.83110    -999.25  162.45470  162.45470    7.22790  -26.53340   -5.97600    7.22790
 1950.00000    -999.25   13.20840  235.05910  235.05910    4.25420    4.29260   75.27790    4.33950   13.20840    -999.25  178.20190  178.20190    5.30630  -25.18300   -4.62560    5.30630
 2000.00000    -999.25    8.44790  176.68060   68.18170   14.66670    3.63550   58.85390   14.66670    8.44790    -999.25  190.94520  190.94520    7.54470  -26.42020   -5.86280    7.54470
 2050.00000    -999.25   10.42520  149.58440  146.92700    6.80610    3.90110   64.36820    6.80610   10.42520    -999.25  212.05150  212.05150    7.55540  -26.52820   -5.97080    7.55540
 2100.00000    -999.25   13.09400  254.51560  254.51560    3.92900    4.10740   67.77210    4.09830   13.09400    -999.25  176.83270  176.83270    5.02870  -25.28420   -4.72680    5.02870
 2150.00000    -999.25   11.48030  232.56930  232.56930    4.29980    4.40840   70.52920    4.53600   11.48030    -999.25  185.27430  185.27430    5.46350  -25.08710   -4.52970    5.46350
 2200.00000    -999.25    9.92450   72.20440   67.65350   14.78120    2.99150   50.55850   14.78120    9.92450    -999.25  216.04150  216.04150   14.60830  -35.82470  -15.26730   14.60830
 2250.00000    -999.25   10.04320  149.59220  139.79950    7.15310    3.46690   57.20380    7.15310   10.04320    -999.25  210.82790  210.82790    7.50810  -27.45440   -6.89700    7.50810
 2300.00000    -999.25   10.57770  197.47100  186.52890    5.36110    4.36770   73.27820    5.36110   10.57770    -999.25  186.92370  186.92370    6.29910  -25.19760   -4.64020    6.29910
 2350.00000    -999.25    9.82800  156.91030  154.29960    6.48090    3.03940   52.32310    6.48090    9.82800    -999.25  213.78760  213.78760    7.28700  -26.79440   -6.23700    7.28700
 2400.00000    -999.25   10.18030  162.46980  157.77100    6.33830    4.02280   66.50660    6.33830   10.18030    -999.25  160.81080  160.81080    9.70070  -24.23070   -3.67330    9.70070
