~Version ---------------------------------------------------
VERS.      2.0 : CWLS log ASCII Standard -VERSION 2.0
WRAP.       NO : One line per depth step
CREA. 10/19/17 : LAS Creation Date
~Well ------------------------------------------------------
STRT.FT                          300.0 : START DEPTH
STOP.FT                        10200.0 : STOP DEPTH
STEP.FT                       50.00000 : STEP LENGTH
NULL.                          -999.25 : NULL VALUE
COMP.             IMPERIAL OIL LIMITED : COMPANY
WELL.   IMPERIAL CYNTHIA NO. 9-6-52-11 : WELL
FLD .                                  : FIELD
LOC .                                  : LOCATION
CTRY.                           CANADA : COUNTRY
SRVC. Schlumberger Well Surveying Corp : SERVICE COMPANY
DATE.                      06-Sep-1954 : LOGDATE
PROV.                          Alberta : PROVINCE
UWI .                 100090605211W500 : UNIQUE WELL ID
SLAT.WGS84               53.4630190179 : SURFACE LATITUDE
SLON.WGS84             -115.6015677109 : SURFACE LONGITUDE
~Curve Information -----------------------------------------
DEPT  .FT         : Depth Curve
CALIED.IN         : CALIPER FROM CALIPER LOG
CALWS .IN         : CALIPER [CALIED]
CONDWS.MMHO       : CONDUCTIVITY [1000/DRESWS]
DRESWS.OHMM       : DEEP RESISTIVITY [LNED]
GRNED .UgRa-Eq/T  : GAMMA RAY FROM NEUTRON LOG
GRWS  .GAPI       : GAMMA RAY [GRNED*16.50, CONVERTED TO API UNIT]
LNED  .OHMM       : LONG NORMAL FROM RESISTIVITY LOG
LT18ED.OHMM       : LATERAL 18' 8" FROM RESISTIVITY LOG
NEUTED.NAPI       : NEUTRON FROM NEUTRON LOG
NEUTWS.NAPI       : NEUTRON [NEUTED]
SNED  .OHMM       : SHORT NORMAL 16" FROM RESISTIVITY LOG
SPRED .MV         : SPONTANEOUS POTENTIAL FROM RESISTIVITY LOG
SPWS  .MV         : SPONTANEOUS POTENTIAL [BASELINE 0 MV,SPRED]
SRESWS.OHMM       : SHALLOW RESISTIVITY [SNED]
~Params ----------------------------------------------------
LMF .                     KB : LOG MEASURED FROM
DMF .                     KB : DRILLING MEASURED FROM
EKB .FT                 3086 : KELLY BUSHING
DATE.               09/06/54 : RUN DATE
RUN .                      4 : RUN NUMBER
DD  .FT                10217 : DEPTH DRILLER
DL  .FT                10217 : DEPTH LOGGER
BLI .FT                10217 : BOTTOM LOG INTERVAL
TLI .FT                 8589 : TOP LOG INTERVAL
CBD .FT                 5691 : CASING BOTTOM DRILLER
CBL .FT                 5690 : CASING BOTTOM LOGGER
BS  .IN                8.625 : BIT SIZE
BSD .FT                10217 : BIT SIZE AT DEPTH
DFT .              LIME BASE : DRILLING FLUID TYPE
DFD .                   10.1 : DRILLING FLUID DENSITY
DFV .                    240 : DRILLING FLUID VISCOSITY
DFPH.                   10.5 : DRILLING FLUID PH
DFL .                    7.8 : DRILLING FLUID LOSS
MSS .               FLOWLINE : MUD SAMPLE SOURCE
RMS .OHMM                1.4 : RESISTIVITY MUD SAMPLE
MST .DEGF                 70 : MUD SAMPLE TEMPERATURE
RMB .OHMM                0.5 : RESISTIVITY MUD AT BHT
TCS .HRS                 2.5 : TIME CIRCULATED STOPPED
LUN .                   1772 : LOGGING UNIT NUMBER
LUL .                    GDM : LOGGING UNIT LOCATION
ENGI.                BUCKLEY : RECORDING ENGINEER
WITN.                  BLAND : WITNESSED BY
CLNT.                A2DTECH : CLIENT CODE
ORIG.            2" 5" PRINT : ORIGIN OF DATA
UWI .       100090605211W500 : UNIQUE WELL ID
DICO. A2D Technologies, Inc. : DIGITIZING COMPANY
~Other -----------------------------------------------------
EL,GRN,CALIPER LOG RUN
SPRED MECHANICAL SHIFT @ 4901',5698'
ALL RESISTIVITY CURVES FROM LINEAR SCALE OF 5" LOG. RESISTIVITY DATA VERIFIED @700-3300', 5700-6300' FROM SMALL SCALE LOG
GRN DATA @700'-3300', 5500-6200', 6400-7400' FROM SMALL SCALE LOG
~ASCII -----------------------------------------------------
# ...
 7650.00000    -999.25    -999.25   25.13230   39.78950    2.79970   46.19500   39.78950    8.10550  243.17420  259.49650   32.17900  -58.70930  -43.52000   32.17900
 7700.00000    -999.25    -999.25   26.98970   37.05680    2.59840   42.87360   37.05680   92.99220  289.47320  298.51810   28.83720  -44.97660  -30.09960   28.83720
 7750.00000    -999.25    -999.25    7.29200  137.13730    2.00560   33.09240  137.13730   77.24770  342.15970  338.28760   70.91910  -39.88010  -25.31340   70.91910
 7800.00000    -999.25    -999.25    5.94300  168.26470    2.21170   36.49300  168.26470  211.11450  347.76390  346.39550   69.78590  -31.93970  -17.68340   69.78590
 7850.00000    -999.25    -999.25    5.89100  169.75840    2.15850   35.61530  169.75840  354.49660  335.82880  322.54620   72.26370  -31.81510  -17.87110   72.26370
 7900.00000    -999.25    -999.25    4.64600  215.23790    2.26500   37.37250  215.23790  283.28490  294.33890  293.67100   83.47960  -29.61730  -15.98370   83.47960
 7950.00000    -999.25    -999.25    3.43550  291.08100    2.89630   47.78900  291.08100  492.03510  332.44000  341.55370   99.03460  -14.90560   -1.58430   99.03460
 8000.00000    -999.25    -999.25    5.42420  184.36060    6.95280  114.72120  184.36060 1105.39280  291.15710  266.53250   63.52050  -23.49820  -10.16060   63.52050
 8050.00000    -999.25    -999.25    1.79600  556.79440    1.40430   23.17100  556.79440 1642.31710  360.54830  366.57690  122.14680  -85.41450  -72.04940  122.14680
 8100.00000    -999.25    -999.25    1.86330  536.76460    0.98710   16.28630  536.76460  537.65760  331.72060  314.13440  137.30010 -107.95620  -94.56350  137.30010
 8150.00000    -999.25    -999.25    2.43740  410.28070    1.36530   22.52740  410.28070  603.40860  299.12520  272.22390  116.68950 -128.02570 -114.60550  116.68950
 8200.00000    -999.25    -999.25    2.42460  412.45830    1.68000   27.72000  412.45830  738.34260  245.14510  272.28530  101.56170 -125.05040 -111.60260  101.56170
 8250.00000    -999.25    -999.25    2.84850  351.06640    1.35030   22.27990  351.06640  498.43720  259.52470  265.05530   97.72970 -107.14130  -93.66610   97.72970
 8300.00000    -999.25    -999.25    2.21470  451.53590    1.38380   22.83190  451.53590  103.97000  284.56050  286.94060  152.17450 -115.92980 -102.42710  152.17450
 8350.00000    -999.25    -999.25    3.15970  316.50320    1.24440   20.53180  316.50320  861.76180  297.35070  290.74870   78.62250 -106.89880  -93.36850   78.62250
 8400.00000    -999.25    -999.25    6.50570  153.71160    1.42130   23.45150  153.71160  324.81230  292.37320  297.71770   69.22430 -157.18480 -143.62700   69.22430
 8450.00000    -999.25    -999.25    1.98630  503.57860    1.14690   18.92390  503.57860 1151.23460  266.97660  291.23800  113.08670 -102.46690  -88.88150  113.08670
 8500.00000    -999.25    -999.25    1.71750  582.24690    1.51920   25.06600  582.24690  825.95030  258.04270  273.37510  127.06150  -97.02690  -83.41400  127.06150
 8550.00000    -999.25    -999.25    1.99180  502.06730    1.46090   24.10490  502.06730  648.91080  310.72480  295.65740  112.21290  -96.54810  -82.90780  112.21290
 8600.00000    -999.25    -999.25    2.37480  421.17320    1.37300   22.65450  421.17320 1492.73740  300.27660  296.58290   97.10860 -100.01950  -86.35150   97.10860
 8650.00000    -999.25    -999.25   62.67120   15.95630    1.59630   26.33900   15.95630  173.73130  213.10860  238.91250   13.01940 -182.86190 -169.16650   13.01940
 8700.00000    -999.25    -999.25    5.47390  182.83110    2.78020   45.87330  182.83110  883.81240  304.90150  242.41420   77.69840  -80.75750  -67.03440   77.69840
 8750.00000    -999.25    -999.25    5.49020  182.14180    1.49600   24.68400  182.14180  194.73280  252.85500  226.62380   83.08180 -117.00480 -103.25430   83.08180
 8800.00000    -999.25    -999.25    5.00320  199.87200    2.26660   37.39890  199.87200  156.99180  235.46420  235.60180   73.75960 -117.69540 -103.91740   73.75960
 8850.00000    -999.25    -999.25    3.84300  260.21610    1.81100   29.88070  260.21610  768.39970  250.25080  260.62310   89.72790 -113.71400  -99.90840   89.72790
 8900.00000    -999.25    -999.25   11.68430   85.58480    4.57090   75.41980   85.58480  179.16310  269.38640  244.63610   49.84590  -49.12580  -35.29270   49.84590
 8950.00000    -999.25    -999.25   24.63530   40.59210    6.30380  104.01270   40.59210  120.39980  195.60410  213.00540   25.66690  -37.18200  -23.32130   25.66690
 9000.00000    -999.25    -999.25   35.90590   27.85060    5.39450   89.00930   27.85060   30.65410  193.40650  191.83130   21.28300  -37.52710  -23.63900   21.28300
 9050.00000    -999.25    -999.25   25.91380   38.58950    4.78360   78.92860   38.58950   44.10210  227.88100  225.64660   30.03600  -40.01170  -26.09610   30.03600
 9100.00000    -999.25    -999.25   45.91630   21.78160    5.49810   90.71860   21.78160   13.57560  199.49380  204.95320   21.31050  -43.12010  -29.17690   21.31050
 9150.00000    -999.25    -999.25    9.94570  100.54640    3.05080   50.33820  100.54640   95.47310  256.32560  248.50740   62.59500  -45.88470  -31.91400   62.59500
 9200.00000    -999.25    -999.25   40.07120   24.95630    5.93390   97.90940   24.95630   18.52730  193.93810  224.39000   21.40690  -41.31220  -27.31390   21.40690
 9250.00000    -999.25    -999.25   13.13970   76.10500    3.98070   65.68160   76.10500   77.14840  261.98660  226.63580   48.92550  -38.21790  -24.19210   48.92550
 9300.00000    -999.25    -999.25   43.33940   23.07370    5.16160   85.16640   23.07370   21.36810  216.79220  201.07120   20.56410  -35.69650  -21.64330   20.56410
 9350.00000    -999.25    -999.25   50.31900   19.87320    6.11410  100.88270   19.87320   16.66080  201.18270  220.26580   18.03950  -37.68990  -23.60900   18.03950
 9400.00000    -999.25    -999.25   58.25270   17.16660    6.45860  106.56690   17.16660   16.72900  212.68240  206.48180   16.65390  -44.01230  -29.90400   16.65390
 9450.00000    -999.25    -999.25   51.05880   19.58610    5.46700   90.20550   19.58610   17.48640  197.45550  221.26010   17.04790  -45.31870  -31.18270   17.04790
 9500.00000    -999.25    -999.25   66.31830   15.07880    6.86700  113.30550   15.07880   12.87460  183.48350  201.04510   14.06460  -44.82470  -30.66130   14.06460
 9550.00000    -999.25    -999.25   78.44120   12.74840    6.05910   99.97510   12.74840   10.16850  186.44410  203.79260   13.66290  -41.50550  -27.31460   13.66290
 9600.00000    -999.25    -999.25   71.91970   13.90840    5.44440   89.83260   13.90840   11.11000  186.00210  205.23640   12.14450  -27.02040  -12.80190   12.14450
 9650.00000    -999.25    -999.25   62.60250   15.97380    5.35230   88.31300   15.97380   16.11790  214.26560  200.46440   15.09110  -16.38360   -2.13760   15.09110
 9700.00000    -999.25    -999.25   78.64200   12.71590    6.06930  100.14350   12.71590   12.47460  192.58780  195.69520   13.22660  -22.15360   -7.91990   13.22660
 9750.00000    -999.25    -999.25   75.33240   13.27450    6.42850  106.07020   13.27450   10.92520  186.49350  183.23590   12.45410  -29.63660  -15.66460   12.45410
 9800.00000    -999.25    -999.25   99.62040   10.03810    6.58570  108.66410   10.03810    9.10720  169.38640  182.50290    8.15550  -37.19320  -23.48280    8.15550
 9850.00000    -999.25    -999.25   36.58920   27.33280    6.75080  111.38820   27.33280   14.78910  207.03980  222.72720   23.49840  -30.63340  -17.18640   23.49840
 9900.00000    -999.25    -999.25    6.62050  151.04700    6.86100  113.20650  151.04700  135.96170  221.72650  211.40190   83.24940  -28.41760  -13.94190   83.24940
 9950.00000    -999.25    -999.25   37.06250   27.01540    7.23000  119.29500   27.01540   62.24520  218.82350  177.98290   23.94900  -36.67680  -19.76000   23.94900
 10000.00000    -999.25    -999.25  150.00600    6.66640    7.54110  124.42820    6.66640    7.46870  173.01340  174.23930    7.02210  -41.90850  -22.56650    7.02210
 10050.00000    -999.25    -999.25  126.26900    7.91960    6.70800  110.68200    7.91960    7.06390  187.30480  179.64880    8.95080  -31.99960  -10.23240    8.95080
