~Version ---------------------------------------------------
VERS.      2.0 : CWLS log ASCII Standard -VERSION 2.0
WRAP.       NO : One line per depth step
CREA. 12/18/17 : LAS Creation Date
~Well ------------------------------------------------------
STRT.FT                         300.0 : START DEPTH
STOP.FT                       11750.0 : STOP DEPTH
STEP.FT                      50.00000 : STEP LENGTH
NULL.                         -999.25 : NULL VALUE
COMP.            MOBIL OIL CANADA LTD : COMPANY
WELL. MOBIL OIL LESLIEVILLE 4-19-39-5 : WELL
FLD .                                 : FIELD
LOC .                                 : LOCATION
CTRY.                          CANADA : COUNTRY
SRVC.          Schlumberger of Canada : SERVICE COMPANY
DATE.                     02-Feb-1958 : LOGDATE
PROV.                         Alberta : PROVINCE
UWI .                100041903905W500 : UNIQUE WELL ID
SLAT.WGS84                   52.36478 : SURFACE LATITUDE
SLON.WGS84                  -114.7174 : SURFACE LONGITUDE
~Curve Information -----------------------------------------
DEPT  .FT     : Depth Curve
CALMED.IN     : CALIPER FROM MICRO LATEROLOG [ADJ. TO IEL LOG]
CALWS .IN     : CALIPER [MCALED SPL. TO CALMED @ 8500']
CILDED.MMHO   : CONDUCTIVITY INDUCTION LOG FROM IEL LOG
CONDWS.MMHO   : CONDUCTIVITY [1000/DRESWS]
DRESWS.OHMM   : DEEP RESISTIVITY [1000/CILDED,IF ILDED<2,ILDED]
GR1ED .GAPI   : GAMMA RAY FROM GR LOG [ADJ. TO IEL LOG]
GRED  .GAPI   : GAMMA RAY FROM GR-CCL LOG [ADJ. TO IEL LOG]
GRNED .UR/HR  : GAMMA RAY FROM GRN LOG [ADJ. TO IEL & LATEROLOG LOG]
GRWS  .GAPI   : GAMMA RAY [GRNED*10.4 SPL. TO GR1ED @ 7038'-7122']
ILDED .OHMM   : INDUCTION LOG RESISTIVITY FROM IEL LOG
LL7ED .OHMM   : LATEROLOG-7 RES. FROM LATEROLOG [ADJ. TO IEL LOG]
MCALED.IN     : MLT CALIPER FROM MICROLOG [ADJ. TO IEL LOG]
MLLED .OHMM   : MICRO-LATEROLOG RESISTIVITY FROM MICRO LATEROLOG [ADJ. TO IEL LOG]
MRESWS.OHMM   : MEDIUM RESISTIVITY [LL7ED]
NEUTED.NAPI   : NEUTRON FROM GRN LOG [ADJ. TO IEL & LATEROLOG LOG]
NEUTWS.NAPI   : NEUTRON [NEUTED]
SNED  .OHMM   : SHORT NORMAL 16" FROM IEL LOG
SPMED .MV     : SPONTAEOUS POTENTIAL FROM MICRO LATEROLOG [ADJ. TO IEL LOG]
SPR1ED.MV     : SPONTANEOUS POTENTIAL FROM LATEROLOG [ADJ. TO IEL LOG]
SPRED .MV     : SPONTANEOUS POTENTIAL FROM IEL LOG
SPWS  .MV     : SPONTANEOUS POTENTIAL [BASELINE 0MV, SPRED SPL. TO SPR1ED @ 7480']
SRESWS.OHMM   : SHALLOW RESISTIVITY [SNED]
TENED .LBF    : TENSION FROM GR LOG [ADJ. TO IEL LOG]
~Params ----------------------------------------------------
PD  .           GROUND LEVEL : PERMANENT DATUM
EPD .FT                 3169 : ELEVATION PERMANENT DATUM
LMF .                     KB : LOG MEASURED FROM
DMF .                     KB : DRILLING MEASURED FROM
EKB .FT                 3181 : KELLY BUSHING
EGL .FT                 3169 : GROUND LEVEL
DATE.             02/02/1958 : RUN DATE
RUN .                      1 : RUN NUMBER
DD  .FT                11765 : DEPTH DRILLER
DL  .FT                11766 : DEPTH LOGGER
BLI .FT                11762 : BOTTOM LOG INTERVAL
TLI .FT                 6000 : TOP LOG INTERVAL
CBD .FT                  886 : CASING BOTTOM DRILLER
CBL .FT                  885 : CASING BOTTOM LOGGER
BS  .IN                    9 : BIT SIZE
BSD .FT                11766 : BIT SIZE AT DEPTH
DFT .              LIME BASE : DRILLING FLUID TYPE
DFD .                   11.4 : DRILLING FLUID DENSITY
DFV .                    100 : DRILLING FLUID VISCOSITY
DFPH.                   13.0 : DRILLING FLUID PH
DFL .                    4.6 : DRILLING FLUID LOSS
RMS .OHMM                0.5 : RESISTIVITY MUD SAMPLE
MST .DEGF                 47 : MUD SAMPLE TEMPERATURE
RMF .OHMM                0.2 : RESISTIVITY MUD FILTRATE SAMPLE
MFST.DEGF                 70 : MUD FILTRATE SAMPLE TEMPERATURE
RMC .OHMM                0.6 : RESISTIVITY MUD CAKE
MCST.DEGF                 66 : MUD CAKE SAMPLE TEMPERATURE
RMB .OHMM               0.14 : RESISTIVITY MUD AT BHT
MRT .DEGF                212 : MAXIMUM RECORDED TEMPERATURE
LUN .                  1729C : LOGGING UNIT NUMBER
LUL .                     RD : LOGGING UNIT LOCATION
ENGI.                  CHASE : RECORDING ENGINEER
WITN.                 CARSON : WITNESSED BY
CLNT.                A2DTECH : CLIENT CODE
ORIG.           2", 5" PRINT : ORIGIN OF DATA
UWI .       100041903905W500 : UNIQUE WELL ID
DICO. A2D Technologies, Inc. : DIGITIZING COMPANY
~Other -----------------------------------------------------
~ASCII -----------------------------------------------------
# ...
 8050.00000    9.07340    9.11550    1.03270    1.65780  603.22500    -999.25    -999.25    5.56720   57.89890  603.22500 8778.45800    9.11550 1067.52210 8778.45800  828.18360  828.18360  109.56880 -119.65020  -97.25280 -198.63260  -46.07440  109.56880    -999.25
 8100.00000    9.61180    9.18020   42.08120   41.60670   24.03460    -999.25    -999.25    7.67940   79.86580   24.03460   45.42860    9.18020   50.50460   45.42860  370.23620  370.23620   32.14770 -109.88600  -97.21750 -118.54640  -46.40390   32.14770    -999.25
 8150.00000   10.10040    9.34370   40.57310   41.91820   23.85600    -999.25    -999.25    6.93740   72.14900   23.85600   37.89570    9.34370    7.92310   37.89570  338.37680  338.37680   24.90530 -111.07570 -104.31270 -187.47600  -53.86150   24.90530    -999.25
 8200.00000    8.76340    8.50020  116.97960  109.52300    9.13050    -999.25    -999.25    4.75780   49.48110    9.13050   19.15000    8.50020   16.08810   19.15000  546.57700  546.57700   21.23360 -119.04460 -110.63170 -171.00520  -60.54530   21.23360    -999.25
 8250.00000    9.41690    8.97600   13.37140   14.20300   70.40780    -999.25    -999.25    4.28060   44.51820   70.40780  157.85690    8.97600  990.44590  157.85690 1056.92880 1056.92880   53.74650 -114.86450 -107.23300  -68.61230  -57.50910   53.74650    -999.25
 8300.00000    8.16760    8.59440   20.77350   20.30560   49.24740    -999.25    -999.25    4.03390   41.95260   49.24740   83.95960    8.59440    7.95370   83.95960  935.63630  935.63630   38.81860 -114.64010 -106.45040 -199.15850  -57.08890   38.81860    -999.25
 8350.00000    9.17040    8.72400   47.11580   49.94180   20.02330    -999.25    -999.25    5.58760   58.11090   20.02330   40.92670    8.72400   42.64650   40.92670  556.20570  556.20570   19.26580 -107.28920  -99.76210 -146.26090  -50.76540   19.26580    -999.25
 8400.00000    9.89080    9.13480    0.83890    1.69040  591.56850    -999.25    -999.25    5.19090   53.98540  591.56850  458.35540    9.13480   17.56090  458.35540  931.73320  931.73320   69.60700 -100.40040  -89.86230   21.86780  -41.22800   69.60700    -999.25
 8450.00000   10.46110    9.59830    1.40900    2.37750  420.60490    -999.25    -999.25    5.16390   53.70400  420.60490 1202.99290    9.59830   18.91820 1202.99290  947.80530  947.80530   84.58250  -94.09310  -85.80890  -31.77300  -37.53950   84.58250    -999.25
 8500.00000    9.51400    9.23250    -999.25    -999.25    -999.25    -999.25    -999.25    4.69940   48.87380    -999.25  308.64910    9.23250 1039.15670  308.64910 1059.44340 1059.44340    -999.25  -95.65680  -88.25230    -999.25  -40.34530    -999.25    -999.25
 8550.00000    9.51400    9.51400    -999.25    -999.25    -999.25    -999.25    -999.25    4.36640   45.41060    -999.25  666.57010    -999.25  546.11060  666.57010 1040.74000 1040.74000    -999.25  -90.80300  -82.81500    -999.25  -35.27040    -999.25    -999.25
 8600.00000    9.24420    9.24420    -999.25    -999.25    -999.25    -999.25    -999.25    4.66580   48.52430    -999.25  518.40470    -999.25  595.09450  518.40470 1037.82230 1037.82230    -999.25  -85.64820  -77.26020    -999.25  -30.08040    -999.25    -999.25
 8650.00000    9.47240    9.47240    -999.25    -999.25    -999.25    -999.25    -999.25    4.76870   49.59450    -999.25 1501.98430    -999.25 1405.52270 1501.98430  932.54530  932.54530    -999.25  -88.01240  -79.33670    -999.25  -32.51940    -999.25    -999.25
 8700.00000    9.97730    9.97730    -999.25    -999.25    -999.25    -999.25    -999.25    4.50780   46.88110    -999.25 1882.86850    -999.25    5.37760 1882.86850 1021.34900 1021.34900    -999.25  -86.62150  -79.21490    -999.25  -32.76240    -999.25    -999.25
 8750.00000   10.61020   10.61020    -999.25    -999.25    -999.25    -999.25    -999.25    4.21850   43.87240    -999.25 1862.09830    -999.25   39.49940 1862.09830  793.90480  793.90480    -999.25  -83.07840  -77.45370    -999.25  -31.36360    -999.25    -999.25
 8800.00000    9.77950    9.77950    -999.25    -999.25    -999.25    -999.25    -999.25    4.52310   47.04020    -999.25 4819.50780    -999.25   37.28990 4819.50780 1200.59670 1200.59670    -999.25  -84.62850  -78.19920    -999.25  -32.47150    -999.25    -999.25
 8850.00000    9.19260    9.19260    -999.25    -999.25    -999.25    -999.25    -999.25    4.68970   48.77290    -999.25 2924.88620    -999.25  968.01910 2924.88620 1254.16090 1254.16090    -999.25  -79.64480  -75.59840    -999.25  -30.23560    -999.25    -999.25
 8900.00000    9.14930    9.14930    -999.25    -999.25    -999.25    -999.25    -999.25    5.51700   57.37680    -999.25 2689.96390    -999.25  979.75740 2689.96390 1232.06790 1232.06790    -999.25  -72.38890  -70.24100    -999.25  -25.24060    -999.25    -999.25
 8950.00000    9.27820    9.27820    -999.25    -999.25    -999.25    -999.25    -999.25    5.03620   52.37650    -999.25 1783.53390    -999.25  959.97000 1783.53390 1200.13200 1200.13200    -999.25  -80.45810  -77.78900    -999.25  -33.15340    -999.25    -999.25
 9000.00000    9.22340    9.22340    -999.25    -999.25    -999.25    -999.25    -999.25    2.61330   27.17830    -999.25  812.43560    -999.25   26.45780  812.43560 1193.11250 1193.11250    -999.25  -89.19100  -88.49040    -999.25  -44.21720    -999.25    -999.25
 9050.00000    9.65570    9.65570    -999.25    -999.25    -999.25    -999.25    -999.25    3.33550   34.68920    -999.25  411.51960    -999.25  128.73110  411.51960 1341.99140 1341.99140    -999.25  -79.81920  -80.40420    -999.25  -36.49350    -999.25    -999.25
 9100.00000    9.38180    9.38180    -999.25    -999.25    -999.25    -999.25    -999.25    3.55000   36.92000    -999.25 5089.13820    -999.25  467.55570 5089.13820 1302.24880 1302.24880    -999.25  -80.59060  -80.36170    -999.25  -36.81580    -999.25    -999.25
 9150.00000    9.37400    9.37400    -999.25    -999.25    -999.25    -999.25    -999.25    4.02860   41.89740    -999.25  172.95790    -999.25   85.22680  172.95790 1088.59110 1088.59110    -999.25  -80.74710  -79.94190    -999.25  -36.75840    -999.25    -999.25
 9200.00000    9.33250    9.33250    -999.25    -999.25    -999.25    -999.25    -999.25    3.46110   35.99540    -999.25  318.99790    -999.25  612.16910  318.99790 1081.86270 1081.86270    -999.25  -82.97950  -80.95910    -999.25  -38.14040    -999.25    -999.25
 9250.00000    9.37950    9.37950    -999.25    -999.25    -999.25    -999.25    -999.25    4.28130   44.52500    -999.25 6884.30270    -999.25  138.84660 6884.30270 1337.41320 1337.41320    -999.25  -78.97960  -76.31260    -999.25  -33.85640    -999.25    -999.25
 9300.00000    9.19190    9.19190    -999.25    -999.25    -999.25    -999.25    -999.25    2.62670   27.31770    -999.25 5078.66800    -999.25  809.34730 5078.66800 1434.30130 1434.30130    -999.25  -88.60320  -84.10500    -999.25  -42.01120    -999.25    -999.25
 9350.00000   10.68140   10.68140    -999.25    -999.25    -999.25    -999.25    -999.25    3.07890   32.02060    -999.25 1610.42830    -999.25    7.47240 1610.42830  988.58030  988.58030    -999.25  -83.01040  -81.04660    -999.25  -39.31760    -999.25    -999.25
 9400.00000    9.35760    9.35760    -999.25    -999.25    -999.25    -999.25    -999.25    3.15730   32.83590    -999.25  232.08880    -999.25   42.05600  232.08880 1028.76060 1028.76060    -999.25  -73.09000  -69.11980    -999.25  -27.75330    -999.25    -999.25
 9450.00000   10.57580   10.57580    -999.25    -999.25    -999.25    -999.25    -999.25    3.19540   33.23220    -999.25 8283.36430    -999.25   16.28710 8283.36430 1249.43300 1249.43300    -999.25  -76.14480  -73.07260    -999.25  -32.07090    -999.25    -999.25
 9500.00000    8.82830    8.82830    -999.25    -999.25    -999.25    -999.25    -999.25    2.79500   29.06800    -999.25 1267.38570    -999.25   37.04360 1267.38570  937.83580  937.83580    -999.25  -84.17920  -80.39280    -999.25  -39.75350    -999.25    -999.25
 9550.00000    9.24840    9.24840    -999.25    -999.25    -999.25    -999.25    -999.25    3.10790   32.32220    -999.25 9701.75490    -999.25 1081.26110 9701.75490 1142.53060 1142.53060    -999.25  -86.89630  -87.32920    -999.25  -47.05230    -999.25    -999.25
