~Version ---------------------------------------------------
VERS. 2.0 : CWLS log ASCII Standard -VERSION 2.0
WRAP.  NO : ONE LINE PER DEPTH STEP
~Well ------------------------------------------------------
STRT.M                             300.0 : START DEPTH
STOP.M                            1750.0 : STOP DEPTH
STEP.M                          50.00000 : STEP LENGTH
NULL.                            -999.25 : NULL VALUE
COMP. CANADIAN NATURAL RESOURCES LIMITED : COMPANY
WELL.      LASMO OPINAC NIPISI 6-14-80-9 : WELL
FLD .                                    : FIELD
LOC .                                    : LOCATION
CTRY.                             CANADA : COUNTRY
SRVC.                       Schlumberger : SERVICE COMPANY
DATE.                        07-Apr-1990 : LOGDATE
PROV.                            Alberta : PROVINCE
UWI .                   100061408009W500 : UNIQUE WELL ID
SLAT.WGS84                 55.9312477112 : SURFACE LATITUDE
SLON.WGS84               -115.2961120605 : SURFACE LONGITUDE
~Curve Information -----------------------------------------
DEPT  .M      : DEPTH METERS
C2    .MM     : CALIPER 2 FROM DENSITY LOG
DPHILS.V/V    : DENSITY POROSITY [M=27100 F=1000] FROM DENSITY LOG
DRHO  .KG/M3  : DENSITY CORRECTION FROM DENSITY LOG
DT    .US/M   : DELTA TIME FROM SONIC LOG
GRM   .GAPI   : GAMMA RAY MICROLOG
GRR   .GAPI   : GAMMA RAY FROM RESISTIVITY LOG
IDPH  .OHMM   : INDUCTION DEEP PHASE RESISTIVITY
IMPH  .OHMM   : INDUCTION MEDIUM PHASE RESISTIVITY
MCAL  .MM     : CALIPER FROM MICROLOG
NPHILS.V/V    : NEUTRON POROSITY LIMESTONE FROM DENSITY LOG
PEF   .B/E    : PHOTOELECTRIC FACTOR FROM DENSITY LOG
RHOB  .KG/M3  : BULK DENSITY FROM DENSITY LOG
SFLU  .OHMM   : SPHERICALLY FOCUSED LOG RESISTIVITY
SPR   .MV     : SPONTANEOUS POTENTIAL FROM RESISTIVITY LOG
~Params ----------------------------------------------------
PD  .                         GL : PERMANENT DATUM
EPD .M                     646.1 : ELEVATION PERMANENT DATUM
LMF .                         KB : LOG MEASURED FROM
DAPD.M                       4.5 : FEET ABOVE PERMANENT DATUM
DMF .                         KB : DRILLING MEASURED FROM
EKB .M                     650.6 : KELLY BUSHING
EDF .M                     650.3 : DRILLING FLOOR
EGL .M                     646.1 : GROUND LEVEL
DATE.                   04/07/90 : RUN DATE
RUN .                          1 : RUN NUMBER
DD  .M                      1770 : DEPTH DRILLER
DL  .M                    1766.6 : DEPTH LOGGER
BLI .M                    1765.7 : BOTTOM LOG INTERVAL
TLI .M                       206 : TOP LOG INTERVAL
CS  .MM                      219 : CASING SIZE
CBD .M                       207 : CASING BOTTOM DRILLER
CBL .M                       206 : CASING BOTTOM LOGGER
BS  .MM                      200 : BIT SIZE
BSD .M                      1770 : BIT SIZE AT DEPTH
DFT .                   GEL CHEM : DRILLING FLUID TYPE
DFD .                       1170 : DRILLING FLUID DENSITY
DFV .                         80 : DRILLING FLUID VISCOSITY
DFPH.                         12 : DRILLING FLUID PH
DFL .                         10 : DRILLING FLUID LOSS
MSS .                   FLOWLINE : MUD SAMPLE SOURCE
RMS .OHMM                   0.71 : RESISTIVITY MUD SAMPLE
MST .DEGC                     17 : MUD SAMPLE TEMPERATURE
RMF .OHMM                   0.54 : RESISTIVITY MUD FILTRATE SAMPLE
MFST.DEGC                     18 : MUD FILTRATE SAMPLE TEMPERATURE
RMC .OHMM                   0.64 : RESISTIVITY MUD CAKE
MCST.DEGC                     17 : MUD CAKE SAMPLE TEMPERATURE
MFSS.                   MEASURED : MUD FILTRATE SAMPLE SOURCE
MCSS.                   MEASURED : MUD CAKE SAMPLE SOURCE
RMB .OHMM                  0.445 : RESISTIVITY MUD AT BHT
TCS .HRS                    1100 : TIME CIRCULATED STOPPED
TLAB.HRS                    1630 : TIME LOGGER AT BOTTOM
LUN .                       8373 : LOGGING UNIT NUMBER
LUL .                   EDMONTON : LOGGING UNIT LOCATION
ENGI.                  ZACHYSTAL : RECORDING ENGINEER
WITN.                      SMITH : WITNESSED BY
CLNT.                    A2DTECH : CLIENT CODE
ORIG. 6.5"/100M 16.5"/100M PRINT : ORIGIN OF DATA
UWI .           100061408009W500 : UNIQUE WELL ID
DICO.     A2D Technologies, Inc. : DIGITIZING COMPANY
~Other -----------------------------------------------------
~ASCII -----------------------------------------------------
  300.00000  251.54840    -999.25    -999.25  458.06000    -999.25   84.67650    3.56140    3.25670    -999.25    -999.25    -999.25    -999.25    3.57910  -62.42550
  350.00000  232.57430    -999.25    -999.25  397.64080    -999.25   50.79470    6.87030    8.16900    -999.25    -999.25    -999.25    -999.25    8.35290  -82.36220
  400.00000  239.10540    -999.25    -999.25  396.61270    -999.25   69.93030    4.08260    4.78580    -999.25    -999.25    -999.25    -999.25    5.81360  -76.80480
  450.00000  292.95480    -999.25    -999.25  360.82410    -999.25   56.62620    6.12350    6.34660    -999.25    -999.25    -999.25    -999.25    6.66010  -73.91460
  500.00000  354.75980    -999.25    -999.25  366.05310    -999.25   62.25020    5.33000    4.91720    -999.25    -999.25    -999.25    -999.25    4.69400  -65.40030
  550.00000  313.84820    -999.25    -999.25  373.76970    -999.25   74.47000    4.94030    4.68370    -999.25    -999.25    -999.25    -999.25    5.08380  -66.92990
  600.00000  361.53350    -999.25    -999.25  362.26580    -999.25   45.45410    4.24610    4.12940    -999.25    -999.25    -999.25    -999.25    3.71840  -72.89800
  650.00000  285.92880    -999.25    -999.25  261.14960    -999.25   42.16730    4.91410    4.51830    -999.25    -999.25    -999.25    -999.25    5.37070  -94.90840
  700.00000  292.73730    -999.25    -999.25  207.89020    -999.25   20.23250   14.24880   14.81120    -999.25    -999.25    -999.25    -999.25   20.04800  -99.05080
  750.00000  255.54810    -999.25    -999.25  213.73270    -999.25   24.24360   16.66450   15.62950    -999.25    -999.25    -999.25    -999.25   17.20540  -99.36580
  800.00000  247.76680    -999.25    -999.25  214.24900    -999.25   22.18800   16.84680   15.92230    -999.25    -999.25    -999.25    -999.25   18.13550  -98.56060
  850.00000  303.78810    -999.25    -999.25  395.92780    -999.25  132.01800    3.27090    3.15240    -999.25    -999.25    -999.25    -999.25    4.05580  -92.29540
  900.00000  250.66330    -999.25    -999.25  177.24820    -999.25   12.95290   49.60420   55.95800    -999.25    -999.25    -999.25    -999.25   68.90000 -106.05560
  950.00000  227.05430    -999.25    -999.25  197.86140    -999.25   17.23840   28.40570   48.01810    -999.25    -999.25    -999.25    -999.25  109.65890 -118.25250
 1000.00000  245.82030    -999.25    -999.25  175.17870    -999.25   16.98180   56.74130   56.60680    -999.25    -999.25    -999.25    -999.25   75.55490 -101.37360
 1050.00000  281.09610    -999.25    -999.25  167.21180    -999.25   14.65530   89.92900   97.07240    -999.25    -999.25    -999.25    -999.25  115.05530 -107.33730
 1100.00000  260.74380    -999.25    -999.25  172.77310    -999.25   20.46510   46.06110   51.20860    -999.25    -999.25    -999.25    -999.25   65.36760 -114.61480
 1150.00000  242.40810    -999.25    -999.25  163.95860    -999.25   12.23840   67.74120  265.01560    -999.25    -999.25    -999.25    -999.25  448.09080 -126.87370
 1200.00000  256.26740    -999.25    -999.25  216.34960    -999.25   36.48650   10.06980   16.36350    -999.25    -999.25    -999.25    -999.25   24.80810 -126.79480
 1250.00000  236.78810    -999.25    -999.25  184.60070    -999.25   21.91400   39.70160   41.74060    -999.25    -999.25    -999.25    -999.25   47.45890 -113.10460
 1300.00000  261.31440    -999.25    -999.25  229.67870    -999.25   49.83850    6.19110    7.13940    -999.25    -999.25    -999.25    -999.25   10.35070 -105.53260
 1350.00000  243.52840    -999.25    -999.25  248.59220    -999.25   49.05050    6.38790    6.59670    -999.25    -999.25    -999.25    -999.25    7.22140  -94.51540
 1400.00000  307.60680    -999.25    -999.25  303.75820   76.80120   67.79310    3.07260    2.98390  142.07560    -999.25    -999.25    -999.25    3.19210  -99.07050
 1450.00000  237.13910    -999.25    -999.25  232.02780   49.70140   44.12720    7.91670    8.04920  142.00700    -999.25    -999.25    -999.25    8.72600 -108.03030
 1500.00000  332.64190    -999.25    -999.25  300.52740   76.65370   61.64690    3.31740    3.00320  141.26780    -999.25    -999.25    -999.25    3.70400 -121.87270
 1550.00000  325.83780    0.37520  136.78170  279.34740   67.84830   66.67210    3.61920    3.37160  326.11910    0.34710    2.44880 2072.73390    4.00900 -127.54740
 1600.00000  282.79310    0.54410   37.57550  284.89650   57.90460   63.19620    4.36430    4.19200  265.28670    0.36240    2.15660 1700.11890    4.94390 -125.63730
 1650.00000  242.38950    0.02740    5.36860  188.42660   22.91130   22.85660   32.82120   33.67790  225.94940    0.05920    4.68130 2660.70920   34.49350  -28.62840
 1700.00000  213.74750    0.03450    3.35190  168.92770   14.47380   14.00380   43.08720   50.05500  220.46750    0.03180    5.02790 2649.88650   68.96170  -65.37040
 1750.00000  200.01430    0.02450   39.66750  211.99320   49.82920    -999.25   12.26110   13.98230  208.20940    0.21510    3.39350 2689.48360   26.24120  -39.76640
