~Version ---------------------------------------------------
VERS.      2.0 : CWLS log ASCII Standard -VERSION 2.0
WRAP.       NO : One line per depth step
CREA. 08/01/17 : LAS Creation Date
~Well ------------------------------------------------------
STRT.FT                          300.0 : START DEPTH
STOP.FT                         9600.0 : STOP DEPTH
STEP.FT                       50.00000 : STEP LENGTH
NULL.                          -999.25 : NULL VALUE
COMP.             IMPERIAL OIL LIMITED : COMPANY
WELL. IMP GOOSE RIVER EAST 10-15-67-18 : WELL
FLD .                                  : FIELD
LOC .                                  : LOCATION
CTRY.                           CANADA : COUNTRY
SRVC.           Schlumberger of Canada : SERVICE COMPANY
DATE.                      29-Jan-1963 : LOGDATE
PROV.                          Alberta : PROVINCE
UWI .                 100101506718W500 : UNIQUE WELL ID
SLAT.WGS84                    54.80149 : SURFACE LATITUDE
SLON.WGS84                   -116.6536 : SURFACE LONGITUDE
~Curve Information -----------------------------------------
DEPT  .FT    : Depth Curve
CALSED.IN    : CALIPER FROM SONIC LOG  [ADJ. TO RESISTIVITY LOG]
CALWS .IN    : CALIPER [CALSED]
CILDED.MMHO  : DEEP  INDUCTION CONDUCTIVITY FROM RESISTIVITY LOG
CONDWS.MMHO  : CONDUCTIVITY [1000/DRESWS]
DRESWS.OHMM  : DEEP RESISTIVITY [ILDED] IF ILDED<2;1000/CILDED;ELSE ILDED
DT1ED .US/F  : DELTA-T [(3' SPACING & 1' PICKUP SPAN) FROM SONIC LOG [ADJ. TO RESISTIVITY LOG]
DTED  .US/F  : DELTA-T [(3' SPACING & 3' PICKUP SPAN) FROM SONIC LOG [ADJ. TO RESISTIVITY LOG]
DTWS  .US/F  : COMPRESSIONAL SONIC [DTED]
GRSED .GAPI  : GAMMA RAY FROM SONIC LOG [ADJ. TO RESISTIVITY LOG]
GRWS  .GAPI  : GAMMA RAY [GRSED]
ILDED .OHMM  : DEEP INDUCTION RESISTIVITY FROM RESISTIVITY LOG
SNED  .OHMM  : 16 INCH SHORT NORMAL RESISTIVITY FROM RESISTIVITY LOG
SPRED .MV    : SPONTANEOUS POTENTIAL FROM RESISTIVITY LOG
SPWS  .MV    : SPONTANEOUS POTENTIAL [BASELINE 0 MV,SPRED]
SRESWS.OHMM  : SHALLOW RESISTIVITY [SNED]
~Params ----------------------------------------------------
PD  .                     GL : PERMANENT DATUM
EPD .FT                 2657 : ELEVATION PERMANENT DATUM
LMF .                     KB : LOG MEASURED FROM
DAPD.FT                   12 : FEET ABOVE PERMANENT DATUM
EKB .FT                 2669 : KELLY BUSHING
EGL .FT                 2657 : GROUND LEVEL
DATE.               01/29/63 : RUN DATE
RUN .                      1 : RUN NUMBER
DD  .FT                 9637 : DEPTH DRILLER
DL  .FT                 9633 : DEPTH LOGGER
BLI .FT                 9632 : BOTTOM LOG INTERVAL
TLI .FT                  957 : TOP LOG INTERVAL
CBD .FT                  957 : CASING BOTTOM DRILLER
CBL .FT                  957 : CASING BOTTOM LOGGER
BS  .IN                7.875 : BIT SIZE
BSD .FT                 9637 : BIT SIZE AT DEPTH
DFT .                    GEL : DRILLING FLUID TYPE
DFD .                   10.1 : DRILLING FLUID DENSITY
DFV .                    283 : DRILLING FLUID VISCOSITY
DFPH.                      9 : DRILLING FLUID PH
DFL .                    8.2 : DRILLING FLUID LOSS
RMS .OHMM               2.21 : RESISTIVITY MUD SAMPLE
MST .DEGF                 60 : MUD SAMPLE TEMPERATURE
RMF .OHMM               1.61 : RESISTIVITY MUD FILTRATE SAMPLE
MFST.DEGF                 64 : MUD FILTRATE SAMPLE TEMPERATURE
RMC .OHMM               2.47 : RESISTIVITY MUD CAKE
MCST.DEGF                 64 : MUD CAKE SAMPLE TEMPERATURE
RMB .OHMM               0.74 : RESISTIVITY MUD AT BHT
TCS .HRS                   3 : TIME CIRCULATED STOPPED
LUN .                   1534 : LOGGING UNIT NUMBER
LUL .                     VV : LOGGING UNIT LOCATION
ENGI.                  KEOWN : RECORDING ENGINEER
WITN.               INGLESON : WITNESSED BY
CLNT.                A2DTECH : CLIENT CODE
ORIG.            2" 5" PRINT : ORIGIN OF DATA
UWI .       100101506718W500 : UNIQUE WELL ID
DICO. A2D Technologies, Inc. : DIGITIZING COMPANY
~Other -----------------------------------------------------
IEL-BCS LOG RUN
ALL IEL DATA FROM TOP TO 3786' FROM SMALL SECTION
~ASCII -----------------------------------------------------
  300.00000    -999.25    -999.25    -999.25    -999.25    -999.25    -999.25    -999.25    -999.25   41.97070   41.97070    -999.25    -999.25    -999.25    -999.25    -999.25
  350.00000    -999.25    -999.25    -999.25    -999.25    -999.25    -999.25    -999.25    -999.25   55.43890   55.43890    -999.25    -999.25    -999.25    -999.25    -999.25
  400.00000    -999.25    -999.25    -999.25    -999.25    -999.25    -999.25    -999.25    -999.25   56.03790   56.03790    -999.25    -999.25    -999.25    -999.25    -999.25
  450.00000    -999.25    -999.25    -999.25    -999.25    -999.25    -999.25    -999.25    -999.25   40.84600   40.84600    -999.25    -999.25    -999.25    -999.25    -999.25
  500.00000    -999.25    -999.25    -999.25    -999.25    -999.25    -999.25    -999.25    -999.25   58.64030   58.64030    -999.25    -999.25    -999.25    -999.25    -999.25
  550.00000    -999.25    -999.25    -999.25    -999.25    -999.25    -999.25    -999.25    -999.25   49.36610   49.36610    -999.25    -999.25    -999.25    -999.25    -999.25
  600.00000    -999.25    -999.25    -999.25    -999.25    -999.25    -999.25    -999.25    -999.25   48.90770   48.90770    -999.25    -999.25    -999.25    -999.25    -999.25
  650.00000    -999.25    -999.25    -999.25    -999.25    -999.25    -999.25    -999.25    -999.25   50.78940   50.78940    -999.25    -999.25    -999.25    -999.25    -999.25
  700.00000    -999.25    -999.25    -999.25    -999.25    -999.25    -999.25    -999.25    -999.25   52.34420   52.34420    -999.25    -999.25    -999.25    -999.25    -999.25
  750.00000    -999.25    -999.25    -999.25    -999.25    -999.25    -999.25    -999.25    -999.25   53.88910   53.88910    -999.25    -999.25    -999.25    -999.25    -999.25
  800.00000    -999.25    -999.25    -999.25    -999.25    -999.25    -999.25    -999.25    -999.25   52.87450   52.87450    -999.25    -999.25    -999.25    -999.25    -999.25
  850.00000    -999.25    -999.25    -999.25    -999.25    -999.25    -999.25    -999.25    -999.25   48.73080   48.73080    -999.25    -999.25    -999.25    -999.25    -999.25
  900.00000    -999.25    -999.25    -999.25    -999.25    -999.25    -999.25    -999.25    -999.25   56.40680   56.40680    -999.25    -999.25    -999.25    -999.25    -999.25
  950.00000    -999.25    -999.25    -999.25    -999.25    -999.25    -999.25    -999.25    -999.25   59.37770   59.37770    -999.25    -999.25    -999.25    -999.25    -999.25
 1000.00000   10.33960   10.33960  198.19750  208.95150    4.78580    -999.25  111.07750  111.07750   70.45600   70.45600    4.78580    5.41530  -64.48310   -9.75360    5.41530
 1050.00000   10.08650   10.08650  360.92480  308.60390    3.24040    -999.25  125.37000  125.37000   66.60580   66.60580    3.24040    3.09800  -59.73420   -6.27840    3.09800
 1100.00000   10.93880   10.93880  145.51060  158.43090    6.31190    -999.25  118.74280  118.74280   59.44490   59.44490    6.31190    5.43330  -60.61940   -4.82240    5.43330
 1150.00000   10.14190   10.14190  234.40770  240.59280    4.15640    -999.25  117.51450  117.51450   61.32620   61.32620    4.15640    4.04960  -69.24350  -11.73850    4.04960
 1200.00000   12.00140   12.00140  242.37890  234.89620    4.25720    -999.25  113.94480  113.94480   68.73220   68.73220    4.25720    4.11500  -62.87520   -9.74720    4.11500
 1250.00000   11.74930   11.74930  271.18580  271.54730    3.68260    -999.25  134.84020  134.84020   68.69490   68.69490    3.68260    4.67180  -57.66290   -8.40090    4.67180
 1300.00000    9.88950    9.88950  310.91150  324.63320    3.08040    -999.25  140.09320  140.09320   70.78330   70.78330    3.08040    3.23970  -57.64730   -8.57480    3.23970
 1350.00000   10.62480   10.62480  220.30050  238.20870    4.19800    -999.25  123.01900  123.01900   60.36450   60.36450    4.19800    4.32540  -61.31180  -11.16840    4.32540
 1400.00000   11.48920   11.48920  180.55090  197.38660    5.06620    -999.25  140.32230  140.32230   51.72370   51.72370    5.06620    4.87950  -58.57980   -7.63590    4.87950
 1450.00000   10.08420   10.08420  288.72740  294.81130    3.39200    -999.25  136.95860  136.95860   57.70600   57.70600    3.39200    3.99240  -56.66520   -4.91550    3.99240
 1500.00000    9.25370    9.25370  248.08830  254.93300    3.92260    -999.25  136.09650  136.09650   58.58050   58.58050    3.92260    4.25410  -56.09780   -5.37950    4.25410
 1550.00000    9.22590    9.22590  244.06910  246.53010    4.05630    -999.25  128.66450  128.66450   60.17740   60.17740    4.05630    3.87810  -54.52100   -4.85950    3.87810
 1600.00000    8.19200    8.19200  121.57580  115.03510    8.69300    -999.25  122.36650  122.36650   55.36590   55.36590    8.69300    6.82640  -63.43710  -14.83940    6.82640
 1650.00000    9.35110    9.35110  241.87440  262.50160    3.80950    -999.25  129.70800  129.70800   59.48730   59.48730    3.80950    3.96700  -50.81900   -3.58850    3.96700
 1700.00000    8.07430    8.07430  171.01280  169.95820    5.88380    -999.25  100.00080  100.00080   50.21980   50.21980    5.88380    7.89210  -52.18120   -6.45020    7.89210
 1750.00000    8.79400    8.79400  186.92020  191.87970    5.21160    -999.25  126.68550  126.68550   53.60110   53.60110    5.21160    4.94330  -49.97520  -10.47690    4.94330
 1800.00000    8.35720    8.35720  230.14070  231.62620    4.31730    -999.25  100.27700  100.27700   58.40200   58.40200    4.31730    4.45200  -46.22010   -8.56060    4.45200
 1850.00000   10.97360   10.97360  258.94080  266.77340    3.74850    -999.25  140.31180  140.31180   55.09920   55.09920    3.74850    4.71290  -49.00220   -7.56290    4.71290
 1900.00000    8.93730    8.93730  259.04580  277.50030    3.60360    -999.25  120.05600  120.05600   53.11260   53.11260    3.60360    3.94700  -48.36280   -7.93700    3.94700
 1950.00000    8.11650    8.11650   60.45170   71.48320   13.98930    -999.25   83.47200   83.47200   48.80280   48.80280   13.98930   10.64650  -54.04600  -13.29100   10.64650
 2000.00000    8.97810    8.97810  255.54480  273.29120    3.65910    -999.25  125.41620  125.41620   52.30820   52.30820    3.65910    3.96970  -80.48470  -13.90460    3.96970
 2050.00000    8.65440    8.65440  233.51860  235.43260    4.24750    -999.25  107.87800  107.87800   61.56290   61.56290    4.24750    4.77970  -80.77130   -5.62370    4.77970
 2100.00000    8.09700    8.09700  149.19010  152.75570    6.54640    -999.25  108.32120  108.32120   45.71020   45.71020    6.54640    7.50540  -91.46190  -13.75590    7.50540
 2150.00000    8.56740    8.56740  223.35320  235.74900    4.24180    -999.25  111.46220  111.46220   60.95480   60.95480    4.24180    4.89830  -79.75780   -7.77880    4.89830
 2200.00000    8.89760    8.89760  296.00680  293.81520    3.40350    -999.25  114.65700  114.65700   66.42210   66.42210    3.40350    3.83490  -72.32620   -3.63150    3.83490
 2250.00000    8.98130    8.98130  227.38320  237.42820    4.21180    -999.25  126.39630  126.39630   57.83260   57.83260    4.21180    4.77040  -70.33860   -4.11180    4.77040
 2300.00000    8.69180    8.69180  186.03830  199.58490    5.01040    -999.25  110.34300  110.34300   70.40510   70.40510    5.01040    5.51900  -74.67870  -10.91990    5.51900
 2350.00000    8.16870    8.16870  152.88750  170.08250    5.87950    -999.25  106.44870  106.44870   79.12030   79.12030    5.87950    6.05500  -71.93190   -2.62900    6.05500
 2400.00000    8.14020    8.14020  183.94130  193.04270    5.18020    -999.25  102.92450  102.92450   77.22340   77.22340    5.18020    5.56630  -80.79760   -8.20100    5.56630
 2450.00000    7.70380    7.70380  166.13040  179.09590    5.58360    -999.25  110.88400  110.88400   94.75970   94.75970    5.58360    6.57070  -81.51150   -6.11140    6.57070
 2500.00000    7.81220    7.81220  129.94700  141.21500    7.08140    -999.25  103.21880  103.21880  109.18870  109.18870    7.08140    8.44880  -79.90580   -2.99320    8.44880
 2550.00000    7.78860    7.78860  169.89350  180.78610    5.53140    -999.25  105.79200  105.79200   91.27100   91.27100    5.53140    6.26280  -82.43360   -5.34130    6.26280
