~Version ---------------------------------------------------
VERS. 2.0 : CWLS log ASCII Standard -VERSION 2.0
WRAP.  NO : ONE LINE PER DEPTH STEP
~Well ------------------------------------------------------
STRT.F                      900.0 : START DEPTH
STOP.F                    11750.0 : STOP DEPTH
STEP.F                   50.00000 : STEP LENGTH
NULL.                     -999.25 : NULL VALUE
COMP.        MOBIL OIL CANADA LTD : COMPANY
WELL. MOBIL ET AL PINE CREEK 6-36 : WELL
FLD .                             : FIELD
LOC .                             : LOCATION
CTRY.                      CANADA : COUNTRY
SRVC.                Schlumberger : SERVICE COMPANY
DATE.                 21-Apr-1961 : LOGDATE
PROV.                     Alberta : PROVINCE
UWI .            100063605819W500 : UNIQUE WELL ID
SLAT.WGS84               54.05556 : SURFACE LATITUDE
SLON.WGS84              -116.6911 : SURFACE LONGITUDE
~Curve Information -----------------------------------------
DEPT.F                 : 
CILD.MMHO 07 110 46 00 : CONDUCTIVITY INDUCTION LOG DEEP
ILD .OHMM              : DEEP INDUCTION RESISTIVITY
SPR .MV                : SPONTANEOUS POTENTIAL FROM RESISTIVITY
SN  .OHMM 01 040 10 00 : SHORT NORMAL 10"
MCAL.IN                : MLT [MICROLOG] CALIPER
DT  .US/F 60 520 00 00 : ACOUSTIC TRANSIT TIME SLOWNESS, DELTA T
DT_1.US/F 60 520 00 00 : ACOUSTIC TRANSIT TIME SLOWNESS, DELTA T
DT_2.US/F 60 520 00 00 : ACOUSTIC TRANSIT TIME SLOWNESS, DELTA T
DT_3.US/F 60 520 00 00 : ACOUSTIC TRANSIT TIME SLOWNESS, DELTA T
GRS .GAPI 00 000 00 01 : GAMMA RAY FROM SONIC
~Params ----------------------------------------------------
PD  .                     GL : PERMANENT DATUM
LMF .                     KB : LOG MEASURED FROM
DAPD.FT                 13.6 : FEET ABOVE PERMANENT DATUM
DMF .                     KB : DRILLING MEASURED FROM
EKB .FT                 3433 : KELLY BUSHING
EGL .FT               3419.4 : GROUND LEVEL
DATE.               04/21/61 : RUN DATE
RUN .                      2 : RUN NUMBER
DD  .FT                11780 : DEPTH DRILLER
DL  .FT                11781 : DEPTH LOGGER
BLI .FT                11780 : BOTTOM LOG INTERVAL
TLI .FT                 8720 : TOP LOG INTERVAL
BS  .IN                    9 : BIT SIZE
BSD .FT                11780 : BIT SIZE AT DEPTH
DFT .              LIME BASE : DRILLING FLUID TYPE
DFV .                    120 : DRILLING FLUID VISCOSITY
DFPH.                     13 : DRILLING FLUID PH
DFL .                    8.8 : DRILLING FLUID LOSS
RMS .OHMM                1.0 : RESISTIVITY MUD SAMPLE
MST .DEGF                 55 : MUD SAMPLE TEMPERATURE
RMF .OHMM               0.22 : RESISTIVITY MUD FILTRATE SAMPLE
MFST.DEGF                203 : MUD FILTRATE SAMPLE TEMPERATURE
RMC .OHMM               0.39 : RESISTIVITY MUD CAKE
MCST.DEGF                203 : MUD CAKE SAMPLE TEMPERATURE
RMB .OHMM               0.28 : RESISTIVITY MUD AT BHT
TCS .HRS                   4 : TIME CIRCULATED STOPPED
LUN .                   2742 : LOGGING UNIT NUMBER
LUL .                    EDM : LOGGING UNIT LOCATION
ENGI.               MC CAMUS : RECORDING ENGINEER
WITN.           CURRIE MOORE : WITNESSED BY
CLNT.                A2DTECH : CLIENT CODE
ORIG.            2" 5" PRINT : ORIGIN OF DATA
UWI .       100063605819W500 : UNIQUE WELL ID
DICO. A2D Technologies, Inc. : DIGITIZING COMPANY
~Other -----------------------------------------------------
~ASCII -----------------------------------------------------
# ...
 7500.00000   80.08150   11.84630  -78.37790   10.97400   12.56170   72.20850    -999.25    -999.25    -999.25    4.19460
 7550.00000   53.47350   19.29880  -72.30340   13.33720   12.20340   71.27530    -999.25    -999.25    -999.25    4.85790
 7600.00000   23.21980   48.08450  -86.33460   26.68660   12.48350   70.51150    -999.25    -999.25    -999.25    2.40950
 7650.00000   29.20180   39.30370  -59.12960   22.44470   10.38150   66.29470    -999.25    -999.25    -999.25    4.04160
 7700.00000   80.66770   10.14150  -39.51470   13.75270   14.80050   66.48540    -999.25    -999.25    -999.25    4.36020
 7750.00000   76.04620   12.36170  -88.79520   11.53710   12.20270   82.19120    -999.25    -999.25    -999.25    3.32160
 7800.00000   61.31680   14.86120  -46.84230   15.69940   14.83970   81.31860    -999.25    -999.25    -999.25    5.59160
 7850.00000   90.63660   10.15130  -48.74070    8.19770   14.80750   92.07030    -999.25    -999.25    -999.25    5.25770
 7900.00000  138.47900    6.79890  -43.63950    6.29880   14.87580  112.92270    -999.25    -999.25    -999.25    4.60140
 7950.00000   10.00610   95.19530  -41.04300   14.32040   10.85380  114.05070    -999.25    -999.25    -999.25    7.83020
 8000.00000    6.26040  397.13020  -57.55760   64.00940    9.38270   56.87510    -999.25    -999.25    -999.25    3.10280
 8050.00000    2.41030  346.58710  -56.27740   58.41980    9.17670   68.39790    -999.25    -999.25    -999.25    5.72060
 8100.00000   26.55700   37.45910  -62.45950   30.33030   10.45010   62.70510    -999.25    -999.25    -999.25    4.14340
 8150.00000   21.31310   50.11750  -66.40370   30.81990    9.53800   61.24620    -999.25    -999.25    -999.25    4.13560
 8200.00000   70.87610   13.02530  -95.51780   17.63690    9.57980   57.14260    -999.25    -999.25    -999.25    6.05100
 8250.00000   37.58000   28.70270  -63.87580   26.43510   10.95080   57.89150    -999.25    -999.25    -999.25    3.83950
 8300.00000   12.88860   72.87190 -101.48090   26.40740   11.92070   53.32410    -999.25    -999.25    -999.25    3.99280
 8350.00000   66.01280   15.37340 -114.56430   22.55160   10.16580   54.63250    -999.25    -999.25    -999.25    2.34710
 8400.00000   16.64590   83.62790 -102.03290   29.76400    9.55720   54.06010    -999.25    -999.25    -999.25    2.08220
 8450.00000    7.21600  301.07830 -103.70660   95.95090   10.89820   54.43260    -999.25    -999.25    -999.25    1.03660
 8500.00000  217.94470    4.50380 -162.83480   18.23320    7.81760   53.92650    -999.25    -999.25    -999.25    1.09680
 8550.00000   24.50590   42.93670 -163.28140   35.89650    9.44690   51.83800    -999.25    -999.25    -999.25    0.85760
 8600.00000   61.23970   16.14720 -119.79420   17.67180    9.01650   61.73490    -999.25    -999.25    -999.25    5.35210
 8650.00000   74.04010   12.58410 -119.54380   17.63720    9.02320   59.63060    -999.25    -999.25    -999.25    6.53790
 8700.00000   83.66320   11.97860  -94.02540   17.13230    9.14020   56.96360   57.12720    -999.25    -999.25    2.16940
 8750.00000    9.56060  133.36160  -63.14070   42.72320   10.96880   48.09270   59.63390    -999.25    -999.25    1.70810
 8800.00000    8.26860  175.74110  -76.81870   57.14120   12.00590   46.72400   56.25360    -999.25    -999.25    1.11570
 8850.00000   25.58490   47.93830  -92.11240   35.73200   10.32570   46.50070   56.23350    -999.25    -999.25    1.53000
 8900.00000    5.59930  210.60690  -98.69750   61.33150    9.78560   46.09850   54.75130    -999.25    -999.25    1.15790
 8950.00000   15.81220   80.95230  -85.31460   43.68200   10.00160   46.82070   56.53090    -999.25    -999.25    1.40640
 9000.00000   21.82190   53.83270  -92.27850   34.32100   10.39890   47.99460   59.53540    -999.25    -999.25    1.44200
 9050.00000   15.78800   77.10930 -102.16290   40.37980    9.61470   46.91410   56.80130    -999.25    -999.25    1.70540
 9100.00000   13.92500   89.73970  -90.26370   49.50860    9.31750   46.86790   56.68090    -999.25    -999.25    1.83070
 9150.00000   18.68650   67.09980  -84.28660   44.07800   10.20440   48.00970   59.81930    -999.25    -999.25    2.74960
 9200.00000    5.81420  209.25190  -84.70300   89.59820   11.06190   45.55640   53.33090    -999.25    -999.25    1.02940
 9250.00000    3.41520  417.30930 -116.17930   97.60710    9.56000   45.17370   52.46540    -999.25    -999.25    0.57200
 9300.00000    4.10000  319.44950 -108.63150  111.27090    9.77360   44.98050   52.03640    -999.25    -999.25    0.43750
 9350.00000    3.50190  501.04140 -110.19190  113.37780    9.82370   44.16010   50.13400    -999.25    -999.25    0.41940
 9400.00000    6.00080  243.46410 -115.43120   99.01480   11.44360   44.42830   50.64710    -999.25    -999.25    0.45250
 9450.00000    2.41770  501.69370 -125.90740  120.97460   10.47590   45.85090   54.20170    -999.25    -999.25    0.48390
 9500.00000    1.73980  501.50290 -124.29270   79.27030   11.14640   44.60020   51.53620    -999.25    -999.25    0.33680
 9550.00000    6.69180  188.32800 -135.62260  101.40520   11.51180   44.61120   51.31120    -999.25    -999.25    0.42520
 9600.00000    3.64520  457.41060 -135.50690  110.33860   11.60780   44.59230   51.05870    -999.25    -999.25    0.30900
 9650.00000    3.46350  475.26780 -124.98920   99.19850   11.59880   44.14820   50.39990    -999.25    -999.25    0.50990
 9700.00000    6.91190  294.80350 -112.32490   92.12090   12.78120   44.71320   51.60150    -999.25    -999.25    0.65720
 9750.00000    4.57540  499.70340 -130.71940   96.61680   12.11290   44.60880   51.35000    -999.25    -999.25    0.37620
 9800.00000    3.70890  500.48570 -126.91270   71.98020   12.35590   44.53760   50.99320    -999.25    -999.25    0.41630
 9850.00000    4.64570  379.97370 -114.46700   94.63080   12.29590   44.46810   50.80410    -999.25    -999.25    0.43750
 9900.00000    1.51540  500.98310 -125.15890   72.66660    9.52710   44.55100   51.09920    -999.25    -999.25    0.54520
 9950.00000   43.64700   25.58310 -122.20350   34.28250   11.04420   49.65710   63.85430    -999.25    -999.25    4.20550
 10000.00000    3.78430  492.10970 -131.13350   91.41390    9.16340   44.31900   50.40530    -999.25    -999.25    0.49860
 10050.00000   35.24180   41.40340 -154.50710   24.75040   13.11980   44.91820   52.23110    -999.25    -999.25    0.97020
 10100.00000    7.94700  178.31730 -169.19640   49.89840   13.28260   47.34150   55.67970    -999.25    -999.25    0.99750
 10150.00000    6.06030  210.47530 -129.77610   68.73140   11.01570   45.77590   54.06400    -999.25    -999.25    0.93190
 10200.00000    9.85610  119.67190  -96.96980   57.02910    9.55800   46.30900   55.35040    -999.25    -999.25    1.31470
 10250.00000    9.68640  115.31670 -124.86220   50.40430    9.82210   47.20280   57.73600    -999.25    -999.25    1.32770
 10300.00000   16.36290   74.26120 -129.03160   40.31430    9.45870   46.90390   57.00230    -999.25    -999.25    1.44280
 10350.00000   11.54100  103.48680  -76.51060   41.94700   10.28440   46.40410   55.80720    -999.25    -999.25    1.31680
 10400.00000   13.30460   90.62980  -93.25500   41.46090    9.11980   46.37220   55.59570    -999.25    -999.25    1.04280
 10450.00000   31.49250   35.06490  -88.82650   24.99390    9.39690   47.87760   59.39900    -999.25    -999.25    1.64320
 10500.00000   49.76770   21.64450  -75.22570   18.21310   10.57320   49.30720   62.99880    -999.25    -999.25    2.12030
 10550.00000   88.24570   11.67980  -72.26460   10.11060   13.54320   51.30810   68.09490    -999.25    -999.25    2.55000
 10600.00000   30.21530   34.86470  -99.81660   21.60020   10.25000   56.73970   79.94270    -999.25    -999.25    2.95220
 10650.00000  103.48880    9.80850 -112.07950   10.76250   12.90250   50.11690   64.29410    -999.25    -999.25    2.65470
 10700.00000   91.98560   11.37950  -84.55440   10.75300   14.96860   57.26950   77.62680    -999.25    -999.25    3.24330
 10750.00000   96.81360   10.21480 -103.32790    9.06690   14.08800   55.67450   78.79550    -999.25    -999.25    2.73490
