~Version ---------------------------------------------------
VERS.      2.0 : CWLS log ASCII Standard -VERSION 2.0
WRAP.       NO : One line per depth step
CREA. 09/19/13 : LAS Creation Date
~Well ------------------------------------------------------
STRT.M                           450.0 : START DEPTH
STOP.M                          3650.0 : STOP DEPTH
STEP.M                        50.00000 : STEP LENGTH
NULL.                          -999.25 : NULL VALUE
COMP. CANADA OCCIDENTAL PETROLEUM LTD. : COMPANY
WELL.     CDNOXY ANTE CREEK 7-13-65-26 : WELL
FLD .                                  : FIELD
LOC .                                  : LOCATION
CTRY.                           CANADA : COUNTRY
SRVC.                          Unknown : SERVICE COMPANY
DATE.                      02-Feb-1981 : LOGDATE
PROV.                          Alberta : PROVINCE
UWI .                 100071306526W500 : UNIQUE WELL ID
SLAT.WGS84                    54.62402 : SURFACE LATITUDE
SLON.WGS84                   -117.7905 : SURFACE LONGITUDE
~Curve Information -----------------------------------------
DEPT    .M      : DEPTH METERS
CALDED  .MM     : CALIPER FROM DENSITY LOG [DEP ADJ TO GRSED]
CALSED  .MM     : CALIPER FROM SONIC LOG
CALWS   .MM     : CALIPER [CALDED]
CONDWS  .MMHO   : CONDUCTIVITY [1000/DRESWS]
CORRED  .KG/M3  : DENSITY CORRECTION FROM DENSITY LOG [DEP ADJ TO GRSED]
DCORWS  .KG/M3  : DENSITY CORRECTION [CORRED]
DENWS   .KG/M3  : BULK DENSITY [M=2710 F=1000] [RHOBED]
DPHILSED.V/V    : DENSITY POROSITY [M=2710 F=1000] FROM DENSITY LOG [DEP ADJ TO GRSED]
DPHISSED.V/V    : DENSITY POROSITY [M=2650 F=1000] FROM DENSITY LOG [DEP ADJ TO GRSED]
DPOLSWS .V/V    : DENSITY POROSITY [M=2710 F=1000] [CAL FR DENWS]
DRESWS  .OHMM   : DEEP RESISTIVITY [ILDED] [FILLED GAPS BY 2000 OHMM]
DTED    .US/M   : DELTA TIME FROM SONIC LOG
DTWS    .US/M   : DELTA TIME [DTED]
GRDED   .GAPI   : GAMMA RAY FROM DENSITY LOG [DEP ADJ TO GRSED]
GRNED   .CPS    : GAMMA RAY FROM NEUTRON LOG [CASEDHOLE][DEP ADJ TO GRSED]
GRSED   .GAPI   : GAMMA RAY FROM SONIC LOG
GRWS    .GAPI   : GAMMA RAY [440 GRSED 460 GRDED]
ILDED   .OHMM   : INDUCTION LOG DEEP RESISTIVITY
ILMED   .OHMM   : INDUCTION LOG MEDIUM RESISTIVITY
MRESWS  .OHMM   : MEDIUM RESISTIVITY [ILMED][FILLED GAPS BY 2000 OHMM]
NEUTED  .NAPI   : NEUTRON FROM NEUTRON LOG [UNIT IS ASSUMED][CASEDHOLE][DEP ADJ TO GRSED]
NEUTWS  .NAPI   : NEUTRON [NEUTED]
NPHILSED.V/V    : NEUTRON POROSITY LIMESTONE FROM DENSITY LOG [DEP ADJ TO GRSED]
NPHISSED.V/V    : NEUTRON POROSITY SANDSTONE FROM DENSITY LOG [DEP ADJ TO GRSED]
NPOLSWS .V/V    : NEUTRON POROSITY LIMESTONE [445 NPOLSCAL [BY CONVERTING NPHISSED] 2198 NPHILSED]
RHOBED  .KG/M3  : BULK DENSITY FROM DENSITY LOG [DEP ADJ TO GRSED]
SFLED   .OHMM   : SPHERICALLY FOCUSED LOG RESISTIVITY
SPRED   .MV     : SPONTANEOUS POTENTIAL FROM RESISTIVITY LOG
SPWS    .MV     : SPONTANEOUS POTENTIAL [BASELINE 0 MV] [SPRED]
SRESWS  .OHMM   : SHALLOW RESISTIVITY [SFLED][FILLED GAPS BY 2000 OHMM]
~Params ----------------------------------------------------
PD  .                         GL : PERMANENT DATUM
EPD .M                     803.9 : ELEVATION PERMANENT DATUM
LMF .                         KB : LOG MEASURED FROM
DAPD.M                       7.1 : FEET ABOVE PERMANENT DATUM
DMF .                         KB : DRILLING MEASURED FROM
EKB .M                       811 : KELLY BUSHING
EGL .M                     803.9 : GROUND LEVEL
DATE.                   02/02/81 : RUN DATE
RUN .                          1 : RUN NUMBER
DD  .M                      3655 : DEPTH DRILLER
DL  .M                      3653 : DEPTH LOGGER
BLI .M                    3652.1 : BOTTOM LOG INTERVAL
TLI .M                     459.2 : TOP LOG INTERVAL
CS  .MM                    244.5 : CASING SIZE
CBD .M                       459 : CASING BOTTOM DRILLER
CBL .M                     459.2 : CASING BOTTOM LOGGER
BS  .MM                      216 : BIT SIZE
BSD .M                      3655 : BIT SIZE AT DEPTH
DFT .                   GEL CHEM : DRILLING FLUID TYPE
DFD .                       1070 : DRILLING FLUID DENSITY
DFV .                        120 : DRILLING FLUID VISCOSITY
DFPH.                        9.5 : DRILLING FLUID PH
DFL .                        9.4 : DRILLING FLUID LOSS
MSS .                CIRCULATION : MUD SAMPLE SOURCE
RMS .OHMM                   1.17 : RESISTIVITY MUD SAMPLE
MST .DEGC                     15 : MUD SAMPLE TEMPERATURE
RMF .OHMM                   0.94 : RESISTIVITY MUD FILTRATE SAMPLE
MFST.DEGC                     15 : MUD FILTRATE SAMPLE TEMPERATURE
MFSS.                      PRESS : MUD FILTRATE SAMPLE SOURCE
RMB .OHMM                    0.5 : RESISTIVITY MUD AT BHT
TCS .HRS                    1000 : TIME CIRCULATED STOPPED
TLAB.HRS                    1630 : TIME LOGGER AT BOTTOM
LUN .                       8108 : LOGGING UNIT NUMBER
LUL .                      EDSON : LOGGING UNIT LOCATION
ENGI.                  CROCKFORD : RECORDING ENGINEER
WITN.                      SKOKO : WITNESSED BY
CLNT.                    A2DTECH : CLIENT CODE
ORIG. 6.5"/100M 16.5"/100M PRINT : ORIGIN OF DATA
UWI .           100071306526W500 : UNIQUE WELL ID
DICO.     A2D Technologies, Inc. : DIGITIZING COMPANY
~Other -----------------------------------------------------
~ASCII -----------------------------------------------------
# ...
 2850.00000  239.45390  216.54220  239.45390    0.52630   16.17660   16.17660 2709.86670   -0.00090    -999.25    0.00010 1900.01640  171.17950  171.17950   28.24520    -999.25   31.35390   28.24520 1900.01640 1528.60050 1528.60050    -999.25    -999.25    0.00750    -999.25    0.00750 2709.86670  547.14410 -129.80010  -68.90560  547.14410
 2900.00000  225.38270  221.75620  225.38270    0.50000   11.89160   11.89160 2688.08620    0.01270    -999.25    0.01280 2000.00000  162.48250  162.48250   13.02750    -999.25   14.97590   13.02750    -999.25    -999.25 2000.00000    -999.25    -999.25    0.00600    -999.25    0.00600 2688.08620 1916.39380 -156.07240  -98.07920 1916.39380
 2950.00000  225.10570  231.19990  225.10570    0.50000   11.28080   11.28080 2717.31010   -0.00250    -999.25   -0.00430 2000.00000  158.40670  158.40670    9.29150    -999.25   11.48020    9.29150    -999.25 1216.44650 1216.44650    -999.25    -999.25    0.00820    -999.25    0.00820 2717.31010    -999.25 -163.85940 -108.76760 2000.00000
 3000.00000  218.31550  222.93430  218.31550    0.50000    7.75420    7.75420 2691.89450    0.01080    -999.25    0.01060 2000.00000  161.42140  161.42140   10.94370    -999.25   10.25820   10.94370    -999.25  836.84470  836.84470    -999.25    -999.25    0.00360    -999.25    0.00360 2691.89450  545.80010 -174.54970 -122.35920  545.80010
 3050.00000  220.37300  224.62990  220.37300    0.50000   -8.09550   -8.09550 2702.83500    0.00340    -999.25    0.00420 2000.00000  159.73740  159.73740   10.49210    -999.25   12.11870   10.49210    -999.25    -999.25 2000.00000    -999.25    -999.25    0.00240    -999.25    0.00240 2702.83500 1924.94820 -158.85710 -109.56800 1924.94820
 3100.00000  223.84870  222.17800  223.84870    0.50000    8.11580    8.11580 2719.63380   -0.00540    -999.25   -0.00560 2000.00000  158.52080  158.52080   11.24970    -999.25   12.37480   11.24970    -999.25 1977.47220 1977.47220    -999.25    -999.25   -0.00050    -999.25   -0.00050 2719.63380 1235.15990 -149.13000 -102.74220 1235.15990
 3150.00000  228.97220  216.51270  228.97220    0.50000   24.44620   24.44620 2946.72920   -0.14120    -999.25   -0.13840 2000.00000  165.47780  165.47780    8.72710    -999.25    8.13500    8.72710    -999.25    -999.25 2000.00000    -999.25    -999.25   -0.00440    -999.25   -0.00440 2946.72920    -999.25 -147.04780 -103.56140 2000.00000
 3200.00000  231.97440  223.10540  231.97440    0.50000   30.04470   30.04470 2919.46950   -0.11940    -999.25   -0.12250 2000.00000  165.37930  165.37930   11.03510    -999.25    9.44270   11.03510    -999.25    -999.25 2000.00000    -999.25    -999.25   -0.00550    -999.25   -0.00550 2919.46950    -999.25 -150.52600 -109.94090 2000.00000
 3250.00000  240.70040  221.60100  240.70040    0.50000  171.27370  171.27370 2690.85640    0.01710    -999.25    0.01120 2000.00000  173.00360  173.00360   36.08850    -999.25   31.89130   36.08850    -999.25 1925.18600 1925.18600    -999.25    -999.25    0.02320    -999.25    0.02320 2690.85640  508.57930  -78.38470  -40.70100  508.57930
 3300.00000  268.44140  224.30220  268.44140    0.49870  251.85810  251.85810 2653.97530    0.03280    -999.25    0.03280 2005.19860  167.71710  167.71710   22.30220    -999.25   22.16800   22.30220 2005.19860    -999.25 2000.00000    -999.25    -999.25    0.01240    -999.25    0.01240 2653.97530 1394.73570  -63.41210  -28.62980 1394.73570
 3350.00000  354.04290  311.73530  354.04290  102.96860  128.60670  128.60670 2002.85620    0.41190    -999.25    0.41350    9.71170  269.92730  269.92730   94.49870    -999.25   98.19570   94.49870    9.71170    6.83030    6.83030    -999.25    -999.25    0.39560    -999.25    0.39560 2002.85620    8.43210  -91.86300  -66.01090    8.43210
 3400.00000  256.50310  232.41560  256.50310   95.91870  179.47360  179.47360 2654.54080    0.03170    -999.25    0.03240   10.42550  210.91490  210.91490   63.80800    -999.25   73.99280   63.80800   10.42550   11.13630   11.13630    -999.25    -999.25    0.20810    -999.25    0.20810 2654.54080   12.55840  -20.88150   -6.69340   12.55840
 3450.00000  263.43770  233.78300  263.43770   91.13440  235.13420  235.13420 2647.35400    0.03960    -999.25    0.03660   10.97280  226.65120  226.65120   77.30610    -999.25   82.10790   77.30610   10.97280   11.68590   11.68590    -999.25    -999.25    0.17710    -999.25    0.17710 2647.35400   14.65130  -19.56730   -7.20380   14.65130
 3500.00000  271.01090  236.57410  271.01090  103.28340  212.66290  212.66290 2627.23610    0.04920    -999.25    0.04840    9.68210  228.72920  228.72920   80.95610    -999.25   81.94350   80.95610    9.68210    9.93140    9.93140    -999.25    -999.25    0.18460    -999.25    0.18460 2627.23610   12.41630  -80.44200  -69.90310   12.41630
 3550.00000  328.81530  279.03240  328.81530   20.04140  181.50930  181.50930 2481.80050    0.13720    -999.25    0.13350   49.89660  251.26210  251.26210  103.60910    -999.25   95.14040  103.60910   49.89660   28.95270   28.95270    -999.25    -999.25    0.24500    -999.25    0.24500 2481.80050   40.83210 -136.40480 -127.69040   40.83210
 3600.00000  227.64250  213.26460  227.64250    0.50000   14.68310   14.68310 2722.00290   -0.00590    -999.25   -0.00700 2000.00000  161.96230  161.96230   22.23840    -999.25   20.35930   22.23840    -999.25    -999.25 2000.00000    -999.25    -999.25    0.00430    -999.25    0.00430 2722.00290 1968.29650 -137.69520 -107.82130 1968.29650
 3650.00000  335.35770    -999.25  335.35770   17.97540  227.66720  227.66720 2373.02610    0.20940    -999.25    0.19710   55.63150    -999.25    -999.25    -999.25    -999.25    -999.25    -999.25   55.63150   15.92170   15.92170    -999.25    -999.25    -999.25    -999.25    -999.25 2373.02610   41.99870  -96.24400  -22.69810   41.99870
