~Version ---------------------------------------------------
VERS. 2.0 : CWLS log ASCII Standard -VERSION 2.0
WRAP.  NO : ONE LINE PER DEPTH STEP
~Well ------------------------------------------------------
STRT.F                  1500.0 : START DEPTH
STOP.F                 10050.0 : STOP DEPTH
STEP.F                50.00000 : STEP LENGTH
NULL.                  -999.25 : NULL VALUE
COMP.     CHEVRON STANDARD LTD : COMPANY
WELL. CHEVRON PEMBINA 6-3-51-7 : WELL
FLD .                          : FIELD
LOC .                          : LOCATION
CTRY.                   CANADA : COUNTRY
SRVC.             Schlumberger : SERVICE COMPANY
DATE.              05-Jul-1978 : LOGDATE
PROV.                  Alberta : PROVINCE
UWI .         100060305107W500 : UNIQUE WELL ID
SLAT.WGS84            53.37366 : SURFACE LATITUDE
SLON.WGS84           -114.9508 : SURFACE LONGITUDE
~Curve Information -----------------------------------------
DEPT   .F    0   1   0  0 : 1 MEASURED DEPTH
GRD    .GAPI 45 310 01 00 : GAMMA RAY FROM DENSITY LOG
RHOB   .G/C3 45 350 01 00 : BULK DENSITY
DCOR   .G/C3 45 356 01 00 : DENSITY CORRECTION
TEND   .LB   45 635 00 00 : TENSION FROM DENSITY LOG
NPHI_SS.DEC  42 890 03 00 : NEUTRON POROSITY SANDSTONE
CALD   .IN   45 280 60 00 : CALIPER FROM DENSITY LOG
DPHI_SS.DEC  45 890 12 00 : DENSITY POROSITY SANDSTONE
NPHI_LS.DEC  42 890 01 00 : NEUTRON POROSITY LIMESTONE
DPHI_LS.DEC  45 890 10 00 : DENSITY POROSITY LIMESTONE
GRS    .GAPI 60 310 01 00 : GAMMA RAY FROM SONIC LOG
DT     .US/F 60 500 00 00 : DELTA-T (INTERVAL TRANSIT TIME)
CALS   .IN   60 280 50 00 : CALIPER FROM SONIC LOG
TENS   .LB   60 635 00 00 : TENSION FROM SONIC LOG
SPR    .MV   07 010 01 00 : SPONTANEOUS POTENTIAL FROM RESISTIVITY LOG
ILD    .OHMM 07 120 46 00 : INDUCTION DEEP RESISTIVITY
ILM    .OHMM 07 120 44 00 : INDUCTION MEDIUM RESISTIVITY
SFL    .OHMM 07 220 01 00 : SPHERICALLY FOCUSED LOG
~Params ----------------------------------------------------
PD  .                     GL : PERMANENT DATUM
EPD .FT               2688.6 : ELEVATION PERMANENT DATUM
LMF .                     KB : LOG MEASURED FROM
DAPD.FT                 17.4 : FEET ABOVE PERMANENT DATUM
EKB .FT                 2706 : KELLY BUSHING
EGL .FT               2688.6 : GROUND LEVEL
DATE.                0705/78 : RUN DATE
RUN .                      1 : RUN NUMBER
DD  .FT              3066.28 : DEPTH DRILLER
DL  .FT              3065.67 : DEPTH LOGGER
BLI .FT              3064.76 : BOTTOM LOG INTERVAL
TLI .FT               473.96 : TOP LOG INTERVAL
CBD .FT               473.96 : CASING BOTTOM DRILLER
CBL .FT               472.44 : CASING BOTTOM LOGGER
BS  .IN                 8.75 : BIT SIZE
BSD .FT              3066.28 : BIT SIZE AT DEPTH
DFT .                    GEL : DRILLING FLUID TYPE
DFD .                    110 : DRILLING FLUID DENSITY
DFV .                     75 : DRILLING FLUID VISCOSITY
DFPH.                    9.5 : DRILLING FLUID PH
MSS .            CIRCULATION : MUD SAMPLE SOURCE
RMS .OHMM               0.33 : RESISTIVITY MUD SAMPLE
MST .DEGF                 58 : MUD SAMPLE TEMPERATURE
RMF .OHMM               0.14 : RESISTIVITY MUD FILTRATE SAMPLE
MFST.DEGF                 68 : MUD FILTRATE SAMPLE TEMPERATURE
RMC .OHMM               0.15 : RESISTIVITY MUD CAKE
MCST.DEGF                 68 : MUD CAKE SAMPLE TEMPERATURE
TCS .HRS                   8 : TIME CIRCULATED STOPPED
LUN .                   7738 : LOGGING UNIT NUMBER
LUL .                    EDM : LOGGING UNIT LOCATION
ENGI.                ALVAREZ : RECORDING ENGINEER
WITN.                SPRAGUE : WITNESSED BY
CLNT.                A2DTECH : CLIENT CODE
ORIG.            2" 5" PRINT : ORIGIN OF DATA
UWI .       100060305107W500 : UNIQUE WELL ID
DICO. A2D Technologies, Inc. : DIGITIZING COMPANY
~Other -----------------------------------------------------
~ASCII -----------------------------------------------------
# ...
 3550.00000   90.75270    2.10980    0.01160 9021.28220    0.39880   10.13070    0.34630    -999.25    -999.25  101.12060   90.19880    8.52210 9158.92680  -36.05850    7.77170    7.30440    6.90880
 3600.00000   95.15960    2.29060    0.10570 8956.25590    0.38640    9.08930    0.18580    -999.25    -999.25   96.80960   84.63650    8.27280 9284.76270  -37.30520    8.93730    8.52950    7.80810
 3650.00000  103.90680    2.42340   -0.00250 8792.84960    0.35650   10.25950    0.13910    -999.25    -999.25  103.43680   87.08270    8.66790 8885.71000  -37.34960    8.43240    7.51610    7.94450
 3700.00000  107.33330    2.45870   -0.00760 8706.13280    0.37310   11.00960    0.12370    -999.25    -999.25  120.76040   90.92190    8.76960 8718.84080  -35.57600    6.87140    7.11880    7.34350
 3750.00000  129.44720    2.47630   -0.02140 8679.29690    0.35540   12.15570    0.11910    -999.25    -999.25  131.68950   91.36370   10.02270 8535.58590  -34.75450    8.11450    8.43860    9.14870
 3800.00000  125.84230    2.49180   -0.05160 8492.92680    0.35580   12.67640    0.09080    -999.25    -999.25  138.63770   92.48540    9.73170 8359.50000  -34.86810    8.35110    8.62930    9.70020
 3850.00000  120.69180    2.49710   -0.01580 8500.74320    0.33260   12.46620    0.09460    -999.25    -999.25  117.44120   89.15610    9.94360 8292.36040  -35.04550    7.58430    8.19770    8.34230
 3900.00000  107.53950    2.49940   -0.01870 8277.08500    0.29780   13.11810    0.10040    -999.25    -999.25  112.24980   84.80060    8.93130 8184.90820  -35.94970    8.00910    7.96600    8.36680
 3950.00000   96.62930    2.56740   -0.02760 8180.32230    0.29950   13.59580    0.05760    -999.25    -999.25  111.44870   85.77140    9.31220 8173.16160  -34.86950    7.28770    6.72790    7.54270
 4000.00000  103.79190    2.52960   -0.01660 8215.43460    0.28310   13.32820    0.04590    -999.25    -999.25  109.65690   82.63730    9.33580 7893.70360  -33.77210    7.87610    7.44880    7.07780
 4050.00000  103.71850    2.48580   -0.03270 8093.37940    0.28770   13.06460    0.09340    -999.25    -999.25  105.24130   85.88710    8.61360 7559.85350  -34.07950    8.00310    7.70920    7.48050
 4100.00000  120.15740    2.47940   -0.02120 7845.93460    0.34540   13.49280    0.11330    -999.25    -999.25  119.82860   90.23060   10.16810 7705.29740  -33.58140    7.79700    8.09630    8.68470
 4150.00000  115.81310    2.47500   -0.05070 7763.89940    0.26130   13.90280    0.11450    -999.25    -999.25  121.79120   83.14470    8.86050 7401.97900  -34.35910    8.32340    7.66850    7.97040
 4200.00000  113.05660    2.44080   -0.02820 7746.10400    0.33030   12.82950    0.12370    -999.25    -999.25  117.83250   90.68060    8.91670 7526.67870  -34.95280    6.91930    6.28060    6.48320
 4250.00000  108.13360    2.44810   -0.02130 7708.57570    0.31700   11.72780    0.12760    -999.25    -999.25  113.30300   85.18620    9.22320 7688.60640  -34.94610    8.29640    8.00390    7.85440
 4300.00000  113.19310    2.45030   -0.02350 7626.34130    0.32400   10.75400    0.13510    -999.25    -999.25  117.79440   85.90410    8.36450 7752.19780  -34.64220    6.95550    6.23810    6.63310
 4350.00000   98.06650    2.33770   -0.00340 7393.16360    0.29610   11.37900    0.19310    -999.25    -999.25  108.98920   77.13070    8.71520 9664.69040  -33.76370   10.35950   10.10050    8.97720
 4400.00000  101.32240    2.44750   -0.01020 9127.47750    0.27790   10.64780    0.11450    -999.25    -999.25  104.59980   78.96350    8.67140 9610.97270  -33.18190    9.64440    9.42830   10.24740
 4450.00000  102.25940    2.43430    0.04520 8726.44340    0.28720   10.37540    0.15620    -999.25    -999.25  110.09870   76.05290    8.45260 8993.03810  -32.56460    9.36890    8.60830    8.97360
 4500.00000  103.41330    2.44760    0.03180 8888.39650    0.26450   10.64410    0.11770    -999.25    -999.25  110.27770   81.59750    8.75370 8845.05470  -32.72670    8.80190    9.25180   10.55640
 4550.00000  115.02670    2.35430   -0.01530 8947.12110    0.37560   11.47770    0.17380    -999.25    -999.25  123.29800   93.78620    9.00370 9015.98440  -30.35160    6.12980    6.44930    6.77880
 4600.00000  120.58110    2.39390    0.00360 8716.67290    0.34450   11.88710    0.16440    -999.25    -999.25  130.34980   90.88400    8.69700 8845.13770  -31.15610    8.96480    9.46280   10.50690
 4650.00000  111.96370    2.45530   -0.00290 8684.16500    0.35340   11.39110    0.12730    -999.25    -999.25  117.25050   80.58040    8.60940 8483.30080  -30.38880   11.39760   13.65000   14.86970
 4700.00000  120.38660    2.25770    0.09670 8572.47660    0.35040   10.79990    0.22780    -999.25    -999.25  132.96380   90.75060    8.52730 8674.11520  -31.08230    9.77130   10.11900   11.90850
 4750.00000  121.67500    2.36570    0.01740 8510.62300    0.35230   11.01130    0.18420    -999.25    -999.25  127.99670   89.52970    8.39580 8483.41890  -30.50830   12.04910   13.38550   15.26360
 4800.00000  125.48590    2.25790    0.13520 8325.76660    0.35750   10.14790    0.22980    -999.25    -999.25  136.46360   91.34050    8.35790 8433.13380  -29.40250    8.98770    9.61600   12.83790
 4850.00000  119.66170    2.37870    0.02870 8276.52050    0.42480    9.15480    0.16590    -999.25    -999.25  126.83820   90.03380    8.53170 8530.72560  -29.55930    7.20230    7.60590    9.71260
 4900.00000  117.94770    2.32690    0.02180 8197.84670    0.37530   10.14170    0.20110    -999.25    -999.25  136.62720   88.16380    8.74370 8069.82710  -28.92530    7.30050    7.72100   10.42720
 4950.00000  114.76700    2.40440    0.04680 7750.49950    0.31450    9.20340    0.16390    -999.25    -999.25  132.00010   81.65650    8.81040 8127.68410  -29.34070   10.66180   12.03910   19.60320
 5000.00000  115.67820    2.30690   -0.00170 8200.99020    0.39000   10.90630    0.21550    -999.25    -999.25  130.51790   84.34650    9.12410 7966.19970  -28.27750    7.37810    7.89680    9.91600
 5050.00000  117.57450    2.22160    0.00680 8173.44680    0.39180   10.87000    0.27040    -999.25    -999.25  130.91070   96.00980    9.08860 8021.61130  -26.87100    3.67190    3.91190    4.48260
 5100.00000  101.54210    2.15040    0.02340 8198.46480    0.44890   10.67980    0.28430    -999.25    -999.25  118.53680   98.45570    8.62520 7914.76860  -35.09260    2.81160    3.05230    3.51780
 5150.00000  102.58830    2.08920    0.01380 7990.22020    0.38480   12.15500    0.32340    -999.25    -999.25  116.57780   92.16570    9.20550 7674.59520  -26.25280    3.61700    3.76460    3.98000
 5200.00000   64.82600    2.54370   -0.02850 7401.48880    0.15530    9.57190    0.07520    -999.25    -999.25   67.40920   71.64210    8.31050 9174.72460  -35.35960   12.20920   13.51330   14.31690
 5250.00000   77.91790    2.53680   -0.03990 9026.58980    0.17290    9.79060    0.07440    -999.25    -999.25   82.94670   70.68210    8.46970 9120.84080  -28.30740   13.42300   14.71520   15.26720
 5300.00000   82.09040    2.24090    0.03760 8947.13090    0.23220   12.68200    0.24290    -999.25    -999.25   87.89950   77.92700    9.28140 9687.98140  -26.02350    7.56510    7.98560    7.86300
 5350.00000  102.81200    2.28180   -0.02330 8764.91890    0.44370   11.68150    0.22350    -999.25    -999.25  104.20010  111.47150    8.66440 9557.72660  -26.13150    2.14760    2.42480    2.30230
 5400.00000   60.28480    2.33080   -0.09690 8811.79490    0.31580   13.32060    0.23180    -999.25    -999.25   72.70420   80.08850    9.28600 7818.46090  -32.02940    8.21800    7.66830    7.87420
 5450.00000   86.90580    2.49820   -0.01440 8773.87700    0.26930   11.38220    0.09010    -999.25    -999.25   96.51210   72.27820    9.15470 8914.63480  -29.09060   11.13150    9.84290   10.19610
 5500.00000   86.64370    2.08100    0.00160 8705.13090    0.38810   10.97590    0.43810    -999.25    -999.25   88.22530   77.29070    9.15100 8959.42380  -32.19520   14.86280   16.39460   17.05080
 5550.00000   55.02060    2.48210   -0.02810 8513.16410    0.25860   10.27270    0.08660    -999.25    -999.25   60.68710   69.32760    8.86900 9001.55470  -53.45270   13.61330   15.70980   15.97660
