~Version ---------------------------------------------------
VERS.      2.0 : CWLS log ASCII Standard -VERSION 2.0
WRAP.       NO : One line per depth step
CREA. 08/01/17 : LAS Creation Date
~Well ------------------------------------------------------
STRT.FT           1100.0 : START DEPTH
STOP.FT          11400.0 : STOP DEPTH
STEP.FT         50.00000 : STEP LENGTH
NULL.            -999.25 : NULL VALUE
COMP.    SUN OIL COMPANY : COMPANY
WELL. SUN TONY 2-2-63-22 : WELL
FLD .                 WC : FIELD
LOC .                    : LOCATION
CTRY.             CANADA : COUNTRY
SRVC.       Schlumberger : SERVICE COMPANY
DATE.        01-Apr-1963 : LOGDATE
PROV.            Alberta : PROVINCE
UWI .   100020206322W500 : UNIQUE WELL ID
SLAT.WGS84      54.41639 : SURFACE LATITUDE
SLON.WGS84     -117.2104 : SURFACE LONGITUDE
~Curve Information -----------------------------------------
DEPT  .FT    : Depth Curve
CALSED.IN    : CALIPER FROM SL-GR-CAL LOG
CALWS .IN    : CALIPER [CALSED]
CILDED.MMHO  : DEEP INDUCTION CONDUCTIVITY FROM EL LOG
CONDWS.MMHO  : CONDUCTIVITY [CILDED]
DRESWS.OHMM  : DEEP RESISTIVITY [CALCULATED FROM 1000/CILDED, IF ILDED<1, ILDED]
DTED  .US/F  : DELTA-T (INTERVAL TRANSIT TIME) FROM EL LOG
DTWS  .US/F  : COMPRESSIONAL  SONIC [DTED]
GRSED .GAPI  : GAMMA RAY FROM SL-GR-CAL LOG
GRWS  .GAPI  : GAMMA RAY [GRSED]
ILDED .OHMM  : DEEP INDUCTION RESISTIVITY FROM EL LOG
SNED  .OHMM  : SHORT NORMAL RESISTIVITY FROM EL LOG
SPRED .MV    : SPONTANEOUS POTENTIAL FROM RESISTIVITY LOG
SPWS  .MV    : SPONTANEOUS POTENTIAL [BASELINE 0 MV, SPRED]
SRESWS.OHMM  : SHALLOW RESISTIVITY [SNED]
~Params ----------------------------------------------------
PD  .                     GL : PERMANENT DATUM
EPD .FT                 2843 : ELEVATION PERMANENT DATUM
LMF .                     KB : LOG MEASURED FROM
DAPD.FT                   13 : FEET ABOVE PERMANENT DATUM
EKB .FT                 2856 : KELLY BUSHING
EGL .FT                 2843 : GROUND LEVEL
DATE.               04/01/63 : RUN DATE
RUN .                      1 : RUN NUMBER
DD  .FT                11440 : DEPTH DRILLER
DL  .FT                11443 : DEPTH LOGGER
BLI .FT                11442 : BOTTOM LOG INTERVAL
TLI .FT                 1189 : TOP LOG INTERVAL
CBD .FT                 1189 : CASING BOTTOM DRILLER
CBL .FT                 1189 : CASING BOTTOM LOGGER
BS  .IN                 8.75 : BIT SIZE
BSD .FT                11440 : BIT SIZE AT DEPTH
DFT .                    GEL : DRILLING FLUID TYPE
DFD .                    9.8 : DRILLING FLUID DENSITY
DFV .                    135 : DRILLING FLUID VISCOSITY
DFPH.                    9.5 : DRILLING FLUID PH
DFL .                    9.2 : DRILLING FLUID LOSS
RMS .OHMM               2.04 : RESISTIVITY MUD SAMPLE
MST .DEGF                 64 : MUD SAMPLE TEMPERATURE
RMF .OHMM               1.36 : RESISTIVITY MUD FILTRATE SAMPLE
MFST.DEGF                 74 : MUD FILTRATE SAMPLE TEMPERATURE
RMC .OHMM               2.43 : RESISTIVITY MUD CAKE
MCST.DEGF                 74 : MUD CAKE SAMPLE TEMPERATURE
RMB .OHMM                0.7 : RESISTIVITY MUD AT BHT
TCS .HRS                   3 : TIME CIRCULATED STOPPED
LUN .                   1534 : LOGGING UNIT NUMBER
LUL .                     VV : LOGGING UNIT LOCATION
ENGI.                  KEOWN : RECORDING ENGINEER
WITN.                 FENTON : WITNESSED BY
CLNT.                A2DTECH : CLIENT CODE
ORIG.            2" 5" PRINT : ORIGIN OF DATA
UWI .       100020206322W500 : UNIQUE WELL ID
DICO. A2D Technologies, Inc. : DIGITIZING COMPANY
~Other -----------------------------------------------------
ALL CURVES HAVE BEEN TAKEN IN 1"SECTION @CSG. TO 6980'.
~ASCII -----------------------------------------------------
# ...
 3550.00000   11.05920   11.05920  200.06810  200.06810    5.51640  101.11910  101.11910   73.74830   73.74830    5.51640    6.55660 -151.74930  -21.51550    6.55660
 3600.00000   10.16850   10.16850   94.80830   94.80830   10.94410   83.90690   83.90690   66.65680   66.65680   10.94410   10.84580 -152.25610  -19.01010   10.84580
 3650.00000   10.59900   10.59900  136.94280  136.94280    7.86090   90.39360   90.39360   75.34680   75.34680    7.86090    8.63020 -146.82030  -11.58780    8.63020
 3700.00000   10.78900   10.78900  136.03030  136.03030    7.80200   91.34570   91.34570   88.51700   88.51700    7.80200    8.40030 -149.98170  -15.27380    8.40030
 3750.00000   10.31690   10.31690  103.73240  103.73240    9.35120   87.07500   87.07500   98.06580   98.06580    9.35120   10.08160 -152.12430  -17.94090   10.08160
 3800.00000   10.17410   10.17410  107.76940  107.76940    9.12180   88.05860   88.05860  109.61210  109.61210    9.12180    9.69590 -153.40640  -19.74760    9.69590
 3850.00000   10.08060   10.08060   97.77620   97.77620    9.82390   96.94270   96.94270  108.47240  108.47240    9.82390   10.98410 -151.59790  -18.46370   10.98410
 3900.00000   10.34020   10.34020   86.22850   86.22850   11.09840   98.47660   98.47660  110.40430  110.40430   11.09840   14.01510 -151.67280  -19.06310   14.01510
 3950.00000   10.63070   10.63070   88.91590   88.91590   10.85490   96.86920   96.86920  108.24270  108.24270   10.85490   12.30370 -152.92440  -20.83930   12.30370
 4000.00000   10.82300   10.82300   90.43030   90.43030   10.55100   86.02860   86.02860  110.66770  110.66770   10.55100   11.56470 -150.53760  -18.97700   11.56470
 4050.00000   10.58320   10.58320  131.82090  131.82090    8.00840   91.13190   91.13190  109.41160  109.41160    8.00840    8.56950 -151.31110  -20.27510    8.56950
 4100.00000   12.13560   12.13560  109.16600  109.16600    9.13250   88.51810   88.51810  103.87810  103.87810    9.13250    9.63390 -151.16460  -20.65320    9.63390
 4150.00000   11.77740   11.77740   97.98930   97.98930    9.96620   84.40920   84.40920  108.62930  108.62930    9.96620   10.55910 -152.62210  -22.63520   10.55910
 4200.00000   11.06100   11.06100   72.66670   72.66670   12.79990   75.91050   75.91050   84.29650   84.29650   12.79990   12.97990 -153.26340  -23.80110   12.97990
 4250.00000   12.53180   12.53180  101.05200  101.05200    9.38240   82.60660   82.60660  103.29180  103.29180    9.38240   10.58020 -146.91310  -17.97530   10.58020
 4300.00000   11.93480   11.93480  114.78050  114.78050    8.89740   83.71450   83.71450  103.74700  103.74700    8.89740    9.70260 -152.65960  -24.24640    9.70260
 4350.00000   11.26760   11.26760  133.72810  133.72810    7.61200   90.14060   90.14060  104.56320  104.56320    7.61200    8.51660 -150.40320  -22.51460    8.51660
 4400.00000   10.99880   10.99880  109.12640  109.12640    9.00530   84.60690   84.60690  107.62060  107.62060    9.00530    9.83550 -144.67780  -17.31370    9.83550
 4450.00000   10.40640   10.40640   55.12180   55.12180   16.60780   82.73520   82.73520   95.63070   95.63070   16.60780   17.53110 -155.99480  -29.15530   17.53110
 4500.00000   10.53890   10.53890   61.75700   61.75700   15.41960   83.03600   83.03600   95.62010   95.62010   15.41960   14.93780 -148.26740  -21.95240   14.93780
 4550.00000   10.53670   10.53670   65.53790   65.53790   14.23120   92.88770   92.88770  104.78540  104.78540   14.23120   15.19230 -149.65790  -23.86750   15.19230
 4600.00000   10.22170   10.22170   74.68000   74.68000   12.74700   98.88590   98.88590   97.21860   97.21860   12.74700   13.57850 -150.59570  -25.32980   13.57850
 4650.00000   10.45130   10.45130   83.74570   83.74570   11.79600  101.35670  101.35670  106.23840  106.23840   11.79600   12.54670 -148.61330  -23.87200   12.54670
 4700.00000   11.31100   11.31100  106.59810  106.59810    9.49980  106.82270  106.82270  107.68370  107.68370    9.49980   10.16300 -145.48590  -21.26920   10.16300
 4750.00000   11.45560   11.45560  109.56850  109.56850    9.08340   89.49050   89.49050  109.80290  109.80290    9.08340   10.69610 -148.30750  -24.61530   10.69610
 4800.00000   11.37890   11.37890  110.85940  110.85940    9.19290   93.80210   93.80210  118.55190  118.55190    9.19290   10.43740 -144.15280  -20.98520   10.43740
 4850.00000   11.35370   11.35370   94.50140   94.50140   10.71810   94.96810   94.96810  116.91770  116.91770   10.71810   12.76400 -144.79120  -22.14810   12.76400
 4900.00000   11.57300   11.57300   93.05760   93.05760   10.61060  100.65610  100.65610  115.95360  115.95360   10.61060   12.59530 -143.90800  -21.78950   12.59530
 4950.00000   11.37680   11.37680   69.75160   69.75160   12.82780  100.09410  100.09410  127.41110  127.41110   12.82780   17.52190 -138.75200  -17.15810   17.52190
 5000.00000   11.92620   11.92620  105.99210  105.99210    9.36970   89.67550   89.67550  113.11350  113.11350    9.36970   11.68520 -141.00300  -19.93360   11.68520
 5050.00000   10.07350   10.07350   39.07310   39.07310   24.61320   76.82740   76.82740  119.08460  119.08460   24.61320   27.73660 -138.55630  -18.01150   27.73660
 5100.00000   11.25130   11.25130  104.15130  104.15130    9.25250   97.39690   97.39690  112.09620  112.09620    9.25250   12.57850 -128.95780   -8.93750   12.57850
 5150.00000   10.34950   10.34950   66.24230   66.24230   14.15520   98.36410   98.36410  188.04610  188.04610   14.15520   20.52730 -137.47160  -17.97590   20.52730
 5200.00000   10.92690   10.92690  140.90130  140.90130    7.50600   82.64060   82.64060  100.92990  100.92990    7.50600    8.81590 -134.08080  -15.10970    8.81590
 5250.00000   11.38280   11.38280  157.26670  157.26670    6.73110   98.65340   98.65340  106.80900  106.80900    6.73110    7.92460 -139.79370  -21.34710    7.92460
 5300.00000   10.72510   10.72510   76.21220   76.21220   12.55890   80.52350   80.52350   96.77880   96.77880   12.55890   13.15510 -134.97520  -17.05320   13.15510
 5350.00000   11.09960   11.09960  111.87410  111.87410    8.96720   91.45580   91.45580  108.50690  108.50690    8.96720   10.39950 -130.31270  -12.91520   10.39950
 5400.00000   10.50420   10.50420  113.49420  113.49420    9.09410  103.64020  103.64020  107.41460  107.41460    9.09410   10.10750 -136.80690  -19.93400   10.10750
 5450.00000   11.37150   11.37150  138.31680  138.31680    7.44510   82.78420   82.78420   97.42150   97.42150    7.44510    8.77400 -133.32660  -16.97830    8.77400
 5500.00000   11.23220   11.23220  174.57530  174.57530    6.24180   80.12250   80.12250   99.33810   99.33810    6.24180    7.80790 -126.94260  -11.11880    7.80790
 5550.00000   10.04260   10.04260  150.71660  150.71660    7.07290   81.20910   81.20910  105.25340  105.25340    7.07290    8.64730 -132.78530  -17.48610    8.64730
 5600.00000   10.32820   10.32820  197.12090  197.12090    5.58120   94.67380   94.67380  132.25540  132.25540    5.58120    7.23880 -131.16580  -16.39110    7.23880
 5650.00000   10.79380   10.79380  325.58700  325.58700    3.91770  102.26370  102.26370   88.08460   88.08460    3.91770    5.49150 -128.69450  -14.44440    5.49150
 5700.00000   11.05590   11.05590  242.47110  242.47110    4.79760  111.95180  111.95180  104.60310  104.60310    4.79760    5.84160 -130.41050  -17.68760    5.84160
 5750.00000   11.00040   11.00040  194.28390  194.28390    5.65970   95.00680   95.00680  100.98770  100.98770    5.65970    6.84860 -128.66840  -20.82950    6.84860
 5800.00000   10.79200   10.79200  152.40090  152.40090    7.00650   89.73800   89.73800  101.02160  101.02160    7.00650    8.96220 -120.56070  -17.60580    8.96220
 5850.00000    9.97070    9.97070   50.52030   50.52030   18.67630   68.07700   68.07700   63.61130   63.61130   18.67630   21.03770 -111.21840  -13.14750   21.03770
 5900.00000    8.53090    8.53090   64.18270   64.18270   14.71100   78.60410   78.60410   43.60710   43.60710   14.71100   20.03110 -153.35890  -60.17200   20.03110
 5950.00000   11.95320   11.95320  114.38750  114.38750    9.82470  108.75520  108.75520   77.08340   77.08340    9.82470    9.18770 -104.31470  -14.41850    9.18770
