~Version ---------------------------------------------------
VERS.      2.0 : CWLS log ASCII Standard -VERSION 2.0
WRAP.       NO : One line per depth step
CREA. 12/21/17 : LAS Creation Date
~Well ------------------------------------------------------
STRT.FT                       650.0 : START DEPTH
STOP.FT                     10100.0 : STOP DEPTH
STEP.FT                    50.00000 : STEP LENGTH
NULL.                       -999.25 : NULL VALUE
COMP.        CALIFORNIA STANDARD CO : COMPANY
WELL. CALSTAN B A KAYBOB 2-27-63-19 : WELL
FLD .                               : FIELD
LOC .                               : LOCATION
CTRY.                        CANADA : COUNTRY
SRVC.                       Unknown : SERVICE COMPANY
DATE.                   05-Jul-1959 : LOGDATE
PROV.                       Alberta : PROVINCE
UWI .              100022706319W500 : UNIQUE WELL ID
SLAT.WGS84                  54.4744 : SURFACE LATITUDE
SLON.WGS84                -116.7821 : SURFACE LONGITUDE
~Curve Information -----------------------------------------
DEPT  .FT    : Depth Curve
CALWS .IN    : CALIPER [MCALED]
CILDED.MMHO  : CONDUCTIVITY FROM IE RESISTIVITY LOG
CONDWS.MMHO  : CONDUCTIVITY [1000/DRESWS]
DRESWS.OHMM  : DEEP RESISTIVITY [ILDED]
GRED  .CU    : GAMMA RAY FROM CASED HOLE GAMMA RAY LOG
GRNED .CU    : GAMMA RAY FROM CASED HOLE NEUTRON GAMMA RAY LOG
GRWS  .GAPI  : GAMMA RAY [GRNED, IN PSEUDO API UNIT]
ILDED .OHMM  : INDUCTION LOG DEEP RESISTIVITY FROM IEL
MCALED.IN    : CALIPER MICROLOG
NEUTED.CU    : NEUTRON FROM CASED HOLE NEUTRON GAMMA RAY LOG
NEUTWS.CU    : NEUTRON [NEUTED]
SNED  .OHMM  : 16 INCH SHORT NORMAL RESISTIVITY FROM IEL
SPRED .MV    : SPONTANEOUS POTENTIAL FROM RESISTIVITY LOG
SPWS  .MV    : SPONTANEOUS POTENTIAL [BASELINE 0 MV] [SPRED]
SRESWS.OHMM  : SHALLOW RESISTIVITY [SNED]
~Params ----------------------------------------------------
PD  .                     GL : PERMANENT DATUM
LMF .                     KB : LOG MEASURED FROM
DAPD.FT                   11 : FEET ABOVE PERMANENT DATUM
DMF .                     KB : DRILLING MEASURED FROM
EKB .FT                 2611 : KELLY BUSHING
EGL .FT                 2600 : GROUND LEVEL
DATE.               07/05/59 : RUN DATE
RUN .                      1 : RUN NUMBER
DD  .FT                10111 : DEPTH DRILLER
DL  .FT                10113 : DEPTH LOGGER
BLI .FT                10108 : BOTTOM LOG INTERVAL
TLI .FT                  633 : TOP LOG INTERVAL
CBD .FT                636.6 : CASING BOTTOM DRILLER
CBL .FT                  633 : CASING BOTTOM LOGGER
BS  .IN                6.125 : BIT SIZE
BSD .FT                10111 : BIT SIZE AT DEPTH
DFT .       GEL OIL EMULSION : DRILLING FLUID TYPE
DFD .                   10.4 : DRILLING FLUID DENSITY
DFV .                    122 : DRILLING FLUID VISCOSITY
DFPH.                    9.5 : DRILLING FLUID PH
DFL .                      7 : DRILLING FLUID LOSS
RMS .OHMM               2.13 : RESISTIVITY MUD SAMPLE
MST .DEGF                 83 : MUD SAMPLE TEMPERATURE
RMF .OHMM               1.99 : RESISTIVITY MUD FILTRATE SAMPLE
MFST.DEGF                 73 : MUD FILTRATE SAMPLE TEMPERATURE
RMC .OHMM               2.87 : RESISTIVITY MUD CAKE
MCST.DEGF                 72 : MUD CAKE SAMPLE TEMPERATURE
TCS .HRS                 3.5 : TIME CIRCULATED STOPPED
LUN .                  1573C : LOGGING UNIT NUMBER
LUL .                     WC : LOGGING UNIT LOCATION
ENGI.              HAUSEGGER : RECORDING ENGINEER
WITN.                  SMITH : WITNESSED BY
CLNT.                A2DTECH : CLIENT CODE
ORIG.            2" 5" PRINT : ORIGIN OF DATA
UWI .       100022706319W500 : UNIQUE WELL ID
DICO. A2D Technologies, Inc. : DIGITIZING COMPANY
~Other -----------------------------------------------------
ALL CURVES FROM IEL ARE FROM THE LINEAR SCALE OF 5" LOG IMAGE
CU=COMPANY UNIT (NO UNIT FOR GR & GRN CURVES IN THE LOG)
~ASCII -----------------------------------------------------
# ...
 2950.00000    -999.25  237.35200  237.44510    4.21150    -999.25    -999.25    -999.25    4.21150    -999.25    -999.25    -999.25    5.66830 -185.83700   -0.74010    5.66830
 3000.00000    -999.25  168.10120  168.00790    5.95210    -999.25    -999.25    -999.25    5.95210    -999.25    -999.25    -999.25    7.49470 -187.61890   -2.87690    7.49470
 3050.00000    -999.25  143.26320  143.32400    6.97720    -999.25    -999.25    -999.25    6.97720    -999.25    -999.25    -999.25    8.80850 -190.76510   -6.37790    8.80850
 3100.00000    -999.25  165.25530  165.13370    6.05570    -999.25    -999.25    -999.25    6.05570    -999.25    -999.25    -999.25    7.74040 -190.80460   -6.77230    7.74040
 3150.00000    -999.25  166.16490  165.96410    6.02540    -999.25    -999.25    -999.25    6.02540    -999.25    -999.25    -999.25    8.26300 -189.09920   -5.42170    8.26300
 3200.00000    -999.25  104.62530  104.57410    9.56260    -999.25    -999.25    -999.25    9.56260    -999.25    -999.25    -999.25   12.95310 -190.27560   -6.95300   12.95310
 3250.00000    -999.25  164.52110  160.12810    6.24500    -999.25    -999.25    -999.25    6.24500    -999.25    -999.25    -999.25    8.65150 -187.67760   -4.70980    8.65150
 3300.00000    -999.25  151.10710  151.00490    6.62230    -999.25    -999.25    -999.25    6.62230    -999.25    -999.25    -999.25    8.23530 -189.86400   -7.25110    8.23530
 3350.00000    -999.25  170.45400  170.42450    5.86770    -999.25    -999.25    -999.25    5.86770    -999.25    -999.25    -999.25    7.27390 -190.73890   -8.48090    7.27390
 3400.00000    -999.25  124.57310  124.57330    8.02740    -999.25    -999.25    -999.25    8.02740    -999.25    -999.25    -999.25    9.60560 -190.15450   -8.25130    9.60560
 3450.00000    -999.25  106.45620  105.78430    9.45320    -999.25    -999.25    -999.25    9.45320    -999.25    -999.25    -999.25   10.50550 -191.53550   -9.98720   10.50550
 3500.00000    -999.25  146.54650  145.62610    6.86690    -999.25    -999.25    -999.25    6.86690    -999.25    -999.25    -999.25    8.09880 -187.95860   -6.76510    8.09880
 3550.00000    -999.25  174.05990  172.03410    5.81280    -999.25    -999.25    -999.25    5.81280    -999.25    -999.25    -999.25    7.25740 -187.31040   -6.47180    7.25740
 3600.00000   14.15700  185.31390  184.84970    5.40980    -999.25    -999.25    -999.25    5.40980   14.15700    -999.25    -999.25    6.70660 -186.92280   -6.43900    6.70660
 3650.00000   13.91220  143.78490  145.14840    6.88950    -999.25    -999.25    -999.25    6.88950   13.91220    -999.25    -999.25    8.29460 -187.01350   -6.88460    8.29460
 3700.00000   13.79800  173.15670  173.06130    5.77830    -999.25    -999.25    -999.25    5.77830   13.79800    -999.25    -999.25    7.30900 -185.42180   -5.64780    7.30900
 3750.00000   13.17090  128.64740  129.76060    7.70650    -999.25    -999.25    -999.25    7.70650   13.17090    -999.25    -999.25    9.24430 -186.29150   -6.87230    9.24430
 3800.00000    -999.25  140.13330  141.56690    7.06380    -999.25    -999.25    -999.25    7.06380    -999.25    -999.25    -999.25    8.58790 -184.63210   -5.56780    8.58790
 3850.00000    -999.25  143.89090  142.36500    7.02420    -999.25    -999.25    -999.25    7.02420    -999.25    -999.25    -999.25    8.71000 -184.31770   -5.60820    8.71000
 3900.00000    -999.25  130.98210  134.39230    7.44090    -999.25    -999.25    -999.25    7.44090    -999.25    -999.25    -999.25    9.26820 -184.08400   -5.72940    9.26820
 3950.00000    -999.25  165.47600  161.62660    6.18710    -999.25    -999.25    -999.25    6.18710    -999.25    -999.25    -999.25    8.06820 -181.92430   -3.92460    8.06820
 4000.00000    -999.25  164.80850  161.38920    6.19620    -999.25    -999.25    -999.25    6.19620    -999.25    -999.25    -999.25    8.45080 -180.58340   -3.14820    8.45080
 4050.00000    -999.25  136.63130  136.32340    7.33550    -999.25    -999.25    -999.25    7.33550    -999.25    -999.25    -999.25    9.88900 -180.25640   -3.51420    9.88900
 4100.00000    -999.25  143.94260  143.37950    6.97450    -999.25    -999.25    -999.25    6.97450    -999.25    -999.25    -999.25    9.93850 -179.26090   -3.21170    9.93850
 4150.00000    -999.25  115.50530  113.96790    8.77440    -999.25    -999.25    -999.25    8.77440    -999.25    -999.25    -999.25   13.23000 -178.19780   -2.84160   13.23000
 4200.00000    -999.25  149.93060  148.17230    6.74890    -999.25    -999.25    -999.25    6.74890    -999.25    -999.25    -999.25    9.66780 -177.93670   -3.27350    9.66780
 4250.00000    -999.25   79.58690   75.20950   13.29620    -999.25    -999.25    -999.25   13.29620    -999.25    -999.25    -999.25   20.22100 -177.13890   -3.16870   20.22100
 4300.00000    -999.25  166.23310  162.33240    6.16020    -999.25    -999.25    -999.25    6.16020    -999.25    -999.25    -999.25    9.00560 -176.23900   -2.96180    9.00560
 4350.00000    -999.25  175.15420  203.21490    4.92090    -999.25    -999.25    -999.25    4.92090    -999.25    -999.25    -999.25    7.02340 -178.75240   -6.16820    7.02340
 4400.00000    -999.25  185.60460  189.72810    5.27070    -999.25    -999.25    -999.25    5.27070    -999.25    -999.25    -999.25    6.88670 -176.86410   -4.97290    6.88670
 4450.00000    -999.25  152.94110  147.04800    6.80050    -999.25    -999.25    -999.25    6.80050    -999.25    -999.25    -999.25    8.38390 -175.58440   -4.38620    8.38390
 4500.00000   12.08550  185.10900  187.71590    5.32720    -999.25    -999.25    -999.25    5.32720   12.08550    -999.25    -999.25    6.91350 -173.88560   -3.38040    6.91350
 4550.00000   12.46080  134.67300  133.76140    7.47600    -999.25    -999.25    -999.25    7.47600   12.46080    -999.25    -999.25    9.33040 -176.40640   -6.59420    9.33040
 4600.00000   12.97170  215.63960  206.97080    4.83160    -999.25    -999.25    -999.25    4.83160   12.97170    -999.25    -999.25    6.09450 -171.82190   -2.70270    6.09450
 4650.00000   13.05710  229.97120  224.97190    4.44500    -999.25    -999.25    -999.25    4.44500   13.05710    -999.25    -999.25    6.10860 -170.65210   -2.22590    6.10860
 4700.00000   13.05560  186.79310  198.88230    5.02810    -999.25    -999.25    -999.25    5.02810   13.05560    -999.25    -999.25    7.15360 -170.32140   -2.58820    7.15360
 4750.00000   12.79990  289.22970  291.23100    3.43370    -999.25    -999.25    -999.25    3.43370   12.79990    -999.25    -999.25    4.88510 -167.75650   -0.94610    4.88510
 4800.00000   11.84600  412.25110  413.17190    2.42030    -999.25    -999.25    -999.25    2.42030   11.84600    -999.25    -999.25    3.63970 -167.45410   -1.64290    3.63970
 4850.00000   10.28140  202.50800  200.40880    4.98980    -999.25    -999.25    -999.25    4.98980   10.28140    -999.25    -999.25    6.35090 -168.68190   -3.87000    6.35090
 4900.00000   10.31780  172.69770  173.21420    5.77320    -999.25    -999.25    -999.25    5.77320   10.31780    -999.25    -999.25    7.66370 -168.36040   -4.54780    7.66370
 4950.00000    9.90010   94.87630   95.62510   10.45750    -999.25    -999.25    -999.25   10.45750    9.90010    -999.25    -999.25   15.08180 -171.47480  -10.12980   15.08180
 5000.00000   11.01290  554.80940  603.57320    1.65680    -999.25    -999.25    -999.25    1.65680   11.01290    -999.25    -999.25    2.84160 -166.93420   -8.05690    2.84160
 5050.00000    9.94590   88.56590   83.66030   11.95310    -999.25    -999.25    -999.25   11.95310    9.94590    -999.25    -999.25   17.06250 -182.67840  -26.26870   17.06250
 5100.00000   10.25060  119.38250  115.26710    8.67550    -999.25    -999.25    -999.25    8.67550   10.25060    -999.25    -999.25   11.85840 -164.50930  -10.56720   11.85840
 5150.00000   10.75290  116.68890  119.65300    8.35750    -999.25    -999.25    -999.25    8.35750   10.75290    -999.25    -999.25   10.92430 -168.62460  -17.15010   10.92430
 5200.00000   10.51980   83.41830   81.11880   12.32760    -999.25    -999.25    -999.25   12.32760   10.51980    -999.25    -999.25   19.78150 -180.67860  -31.67180   19.78150
