~Version ---------------------------------------------------
VERS.      2.0 : CWLS log ASCII Standard -VERSION 2.0
WRAP.       NO : One line per depth step
CREA. 11/16/17 : LAS Creation Date
~Well ------------------------------------------------------
STRT.FT                   1000.0 : START DEPTH
STOP.FT                  10100.0 : STOP DEPTH
STEP.FT                 50.00000 : STEP LENGTH
NULL.                    -999.25 : NULL VALUE
COMP.     CALIFORNIA STANDARD CO : COMPANY
WELL. CALSTAN MEEKWAP 4-11-65-19 : WELL
FLD .                            : FIELD
LOC .                            : LOCATION
CTRY.                     CANADA : COUNTRY
SRVC.               Schlumberger : SERVICE COMPANY
DATE.                22-Sep-1960 : LOGDATE
PROV.                    Alberta : PROVINCE
UWI .           100041106519W500 : UNIQUE WELL ID
SLAT.WGS84              54.60522 : SURFACE LATITUDE
SLON.WGS84             -116.7693 : SURFACE LONGITUDE
~Curve Information -----------------------------------------
DEPT  .FT         : Depth Curve
CALWS .IN         : CALIPER [MCALED]
CILDED.MMHO       : DEEP INDUCTION CONDUCTIVITY FROM RESISTIVITY LOG
CONDWS.MMHO       : CONDUCTIVITY [1000/DRESWS]
DRESWS.OHMM       : DEEP RESISTIVITY [1000/CILDED,IF ILDED <1,ILDED]
DT1ED .US/F       : DELTA-T FROM SONIC LOG
DTED  .US/F       : DELTA-T FROM SONIC LOG
DTWS  .US/F       : COMPRESSIONAL SONIC [DTED]
GRED  .GAPI       : GAMMA RAY (CASING & COLLARS) FROM GRN LOG [ADJ. TO RESISTIVITY]
GRSED .UgRa-Eq/T  : GAMMA RAY FROM SONIC LOG [ADJ. TO RESISTIVITY]
GRWS  .GAPI       : GAMMA RAY [GRSED*16.5]
ILDED .OHMM       : DEEP INDUCTION RESISTIVITY FROM RESISTIVITY LOG
MCALED.IN         : CALIPER FROM MICROLOG
SNED  .OHMM       : SHORT NORMAL RESISTIVITY FROM RESISTIVITY LOG
SPRED .MV         : SPONTANEOUS POTENTIAL FROM RESISTIVITY LOG
SPWS  .MV         : SPONTANEOUS POTENTIAL [BASELINE 0 MV,SPRED]
SRESWS.OHMM       : SHALLOW RESISTIVITY [SNED]
TENRED.LBF        : TENSION FROM GRN LOG
~Params ----------------------------------------------------
LMF .                     KB : LOG MEASURED FROM
DMF .                     KB : DRILLING MEASURED FROM
EKB .FT                 2604 : KELLY BUSHING
EGL .FT                 2592 : GROUND LEVEL
DATE.               09/22/60 : RUN DATE
RUN .                      2 : RUN NUMBER
DD  .FT                10120 : DEPTH DRILLER
DL  .FT                10126 : DEPTH LOGGER
BLI .FT                10122 : BOTTOM LOG INTERVAL
TLI .FT                 5400 : TOP LOG INTERVAL
BS  .IN                    9 : BIT SIZE
BSD .FT                10120 : BIT SIZE AT DEPTH
DFT .               OIL EMUL : DRILLING FLUID TYPE
DFD .                   10.5 : DRILLING FLUID DENSITY
DFV .                    108 : DRILLING FLUID VISCOSITY
DFPH.                    9.5 : DRILLING FLUID PH
DFL .                    7.6 : DRILLING FLUID LOSS
RMS .OHMM                2.6 : RESISTIVITY MUD SAMPLE
MST .DEGF                 75 : MUD SAMPLE TEMPERATURE
RMF .OHMM                  2 : RESISTIVITY MUD FILTRATE SAMPLE
MFST.DEGF                 79 : MUD FILTRATE SAMPLE TEMPERATURE
RMC .OHMM                2.7 : RESISTIVITY MUD CAKE
MCST.DEGF                 79 : MUD CAKE SAMPLE TEMPERATURE
RMB .OHMM                1.0 : RESISTIVITY MUD AT BHT
TCS .HRS                   3 : TIME CIRCULATED STOPPED
LUN .                   1534 : LOGGING UNIT NUMBER
LUL .                    SKW : LOGGING UNIT LOCATION
ENGI.                  GOETZ : RECORDING ENGINEER
WITN.                 FARKAS : WITNESSED BY
CLNT.                A2DTECH : CLIENT CODE
ORIG.            2" 5" PRINT : ORIGIN OF DATA
UWI .       100041106519W500 : UNIQUE WELL ID
DICO. A2D Technologies, Inc. : DIGITIZING COMPANY
~Other -----------------------------------------------------
~ASCII -----------------------------------------------------
# ...
 5100.00000    9.91140  128.12300  132.35040    7.55570    -999.25   87.06930   87.06930    -999.25    5.33390   88.01020    7.55570    9.91140   13.67420 -181.12520  -12.96440   13.67420    -999.25
 5150.00000    9.55420  107.67700  113.39030    8.81910    -999.25   76.98430   76.98430    -999.25    4.98440   82.24260    8.81910    9.55420   13.07810 -183.78070  -16.20030   13.07810    -999.25
 5200.00000    9.53780   99.92910  104.22960    9.59420    -999.25   75.49080   75.49080    -999.25    4.37020   72.10830    9.59420    9.53780   14.10190 -194.37920  -27.38290   14.10190    -999.25
 5250.00000    9.55560  131.23770  138.95260    7.19670    -999.25   78.40430   78.40430    -999.25    4.55300   75.12450    7.19670    9.55560   10.55710 -182.28030  -15.86430   10.55710    -999.25
 5300.00000    9.64130   98.34890  103.50150    9.66170    -999.25   78.01210   78.01210    -999.25    4.96330   81.89530    9.66170    9.64130   12.96330 -175.31160   -9.47600   12.96330    -999.25
 5350.00000    9.75510   89.66120   95.11310   10.51380   74.79120   75.05350   75.05350    -999.25    4.10840   67.78860   10.51380    9.75510   14.69340 -172.52570   -7.27420   14.69340    -999.25
 5400.00000    9.94060  111.32430  117.28280    8.52640   66.78340   67.01530   67.01530    -999.25    6.70340  110.60610    8.52640    9.94060   12.33780 -169.35250   -4.68140   12.33780    -999.25
 5450.00000    9.50730   97.94220  105.91310    9.44170   77.46240   77.28330   77.28330    -999.25    3.09070   50.99650    9.44170    9.50730   19.16630 -198.83340  -34.74640   19.16630    -999.25
 5500.00000    9.77620   34.76630   31.41780   31.82910   72.03750   71.81000   71.81000    -999.25    4.03740   66.61710   31.82910    9.77620   43.68330 -173.65560  -10.14890   43.68330    -999.25
 5550.00000    9.68240   37.34860   31.68340   31.56220   64.48100   64.73750   64.73750    -999.25    3.99640   65.94140   31.56220    9.68240   42.07420 -172.27180   -9.34550   42.07420    -999.25
 5600.00000   12.09620  195.18680  194.05040    5.15330   80.12260   92.66350   92.66350    -999.25    6.10410  100.71760    5.15330   12.09620    7.19770 -163.45060   -1.10840    7.19770    -999.25
 5650.00000   11.64780  330.61670  282.39020    3.54120   80.12260   97.04450   97.04450    -999.25    6.32980  104.44170    3.54120   11.64780    3.94620 -166.76640   -5.00460    3.94620    -999.25
 5700.00000   10.93630  259.90620  244.72020    4.08630   80.12260   91.76580   91.76580    -999.25    5.37940   88.76010    4.08630   10.93630    5.59630 -165.24960   -4.07190    5.59630    -999.25
 5750.00000    9.73480   94.40590   94.45010   10.58760   80.12260  109.22100  109.22100    -999.25    7.44540  122.84910   10.58760    9.73480   24.59990 -160.92870   -0.33140   24.59990    -999.25
 5800.00000    9.69290   96.06240   96.65940   10.34560   80.12260   98.91370   98.91370    -999.25    6.21960  102.62340   10.34560    9.69290   25.94530 -161.81500   -2.00540   25.94530    -999.25
 5850.00000    9.18780    6.25100    1.88140  531.51720   71.47420   71.68000   71.68000    -999.25    9.59830  158.37200  531.51720    9.18780  304.68230 -193.19370  -34.41520  304.68230    -999.25
 5900.00000    9.62730  111.04600  117.81060    8.48820   65.18290   65.74580   65.74580    -999.25    4.48270   73.96460    8.48820    9.62730   12.00340 -174.47340  -16.71930   12.00340    -999.25
 5950.00000    9.97280   73.96920   76.34700   13.09810   66.92720   68.03530   68.03530    -999.25    5.25680   86.73720   13.09810    9.97280   18.06180 -176.97210  -20.24910   18.06180    -999.25
 6000.00000    9.53720   57.49490   53.49450   18.69350   68.67940   69.07300   69.07300    -999.25    4.93690   81.45880   18.69350    9.53720   24.77560 -178.72790  -23.02920   24.77560    -999.25
 6050.00000    9.14160   43.80150   41.01350   24.38220   61.22860   61.80460   61.80460    -999.25    1.72010   28.38080   24.38220    9.14160   38.53310 -216.85850  -61.94260   38.53310    -999.25
 6100.00000    8.97440   32.39400   26.45990   37.79310   58.22950   58.42970   58.42970    -999.25    2.25240   37.16460   37.79310    8.97440   58.05030 -206.79630  -52.10820   58.05030    -999.25
 6150.00000   10.91910   31.62830   25.48930   39.23210   60.03100   58.50020   58.50020    -999.25    2.37990   39.26840   39.23210   10.91910   55.31310 -256.98170 -102.51980   55.31310    -999.25
 6200.00000    9.96700   65.67650   62.01360   16.12550   61.64830   61.57330   61.57330    -999.25    7.88330  130.07360   16.12550    9.96700   29.89390 -164.58010  -10.34600   29.89390    -999.25
 6250.00000    9.89160   16.09160   12.33640   81.06060   57.87740   58.48900   58.48900    -999.25    2.78130   45.89140   81.06060    9.89160   57.43070 -161.41660   -8.67680   57.43070    -999.25
 6300.00000   12.68800    7.07490    4.83560  206.79840   57.76700   58.55100   58.55100    -999.25    1.62280   26.77580  206.79840   12.68800  102.04210 -204.86210  -58.01730  102.04210    -999.25
 6350.00000    9.37170  222.15770  233.84150    4.27640   60.75630   61.97030   61.97030    -999.25    2.45120   40.44480    4.27640    9.37170   21.22900 -247.60490 -106.69390   21.22900    -999.25
 6400.00000   10.63890   31.31170   27.80610   35.96330   56.54500   56.98930   56.98930    -999.25    2.48860   41.06110   35.96330   10.63890   45.08850 -189.39270  -54.37670   45.08850    -999.25
 6450.00000   11.08730   33.26130   30.25140   33.05630   58.84370   58.45650   58.45650    -999.25    2.58070   42.58160   33.05630   11.08730   42.55500 -177.97150  -48.88930   42.55500    -999.25
 6500.00000   10.80470   22.07470   14.91660   67.03940   53.50650   53.90350   53.90350    -999.25    1.26150   20.81480   67.03940   10.80470   79.27030 -259.84980 -136.66260   79.27030    -999.25
 6550.00000   10.52940   16.01690   11.77300   84.94020   56.90100   57.44830   57.44830    -999.25    1.35680   22.38720   84.94020   10.52940   88.93440 -270.49560 -153.20340   88.93440    -999.25
 6600.00000   10.15440   21.79870   15.98880   62.54360   54.24840   53.79020   53.79020    -999.25    1.41560   23.35740   62.54360   10.15440   90.58380 -243.81940 -132.46100   90.58380    -999.25
 6650.00000    9.37340  194.26450  199.25480    5.01870   75.30740   75.25770   75.25770    -999.25    5.65350   93.28280    5.01870    9.37340   11.57700 -145.60440  -40.14100   11.57700    -999.25
 6700.00000    9.84230  198.22540  203.43810    4.91550   67.14370   68.09880   68.09880    -999.25    4.38720   72.38880    4.91550    9.84230   16.04960 -150.00790  -50.47830   16.04960    -999.25
 6750.00000   12.06930  310.98810  309.29110    3.23320   69.21530   75.50100   75.50100    -999.25    3.05980   50.48670    3.23320   12.06930    5.68620 -135.59970  -41.96510    5.68620    -999.25
 6800.00000   12.23290   57.01600   58.85070   16.99210   62.22920   62.85900   62.85900    -999.25    2.77820   45.84030   16.99210   12.23290   21.72850  -94.50260   -6.76300   21.72850    -999.25
 6850.00000   11.32190    9.51380    5.20720  192.04010   56.23510   56.51630   56.51630    -999.25    1.21370   20.02610  192.04010   11.32190   75.34670 -102.85580  -21.20580   75.34670    -999.25
 6900.00000    9.80470   26.35690   19.54680   51.15930   59.45310   60.11030   60.11030    -999.25    3.48560   57.51240   51.15930    9.80470   56.55740  -88.79370  -10.72960   56.55740    -999.25
 6950.00000    9.24140    9.48990    5.79660  172.51450   58.53140   58.95300   58.95300    -999.25    2.07490   34.23580  172.51450    9.24140   89.70330 -111.76970  -34.08480   89.70330    -999.25
 7000.00000    9.18220   10.82270    7.59050  131.74300   60.86940   61.10530   61.10530    -999.25    2.03410   33.56260  131.74300    9.18220   79.86150 -108.85740  -31.54920   79.86150    -999.25
 7050.00000   10.13150   16.51430   11.92670   83.84570   59.73210   60.26270   60.26270    -999.25    2.43600   40.19320   83.84570   10.13150   55.18010  -99.04660  -22.11500   55.18010    -999.25
 7100.00000    9.36760   12.54080    9.12760  109.55820   61.73500   62.30630   62.30630    -999.25    2.88480   47.59840  109.55820    9.36760   63.66500  -89.43230  -12.87990   63.66500    -999.25
