~Version ---------------------------------------------------
VERS.      2.0 : CWLS log ASCII Standard -VERSION 2.0
WRAP.       NO : One line per depth step
CREA. 10/27/17 : LAS Creation Date
~Well ------------------------------------------------------
STRT.FT                           900.0 : START DEPTH
STOP.FT                          9800.0 : STOP DEPTH
STEP.FT                        50.00000 : STEP LENGTH
NULL.                           -999.25 : NULL VALUE
COMP.      CANADIAN HOMESTEAD OILS LTD. : COMPANY
WELL. HOMESTEAD SHELL SNIPE 12-29-68-18 : WELL
FLD .                                   : FIELD
LOC .                                   : LOCATION
CTRY.                            CANADA : COUNTRY
SRVC.                      Schlumberger : SERVICE COMPANY
DATE.                       11-Apr-1970 : LOGDATE
PROV.                           Alberta : PROVINCE
UWI .                  100122906818W500 : UNIQUE WELL ID
SLAT.WGS84                     54.91763 : SURFACE LATITUDE
SLON.WGS84                    -116.7151 : SURFACE LONGITUDE
~Curve Information -----------------------------------------
DEPT    .FT    : Depth Curve
CALSED  .IN    : CALIPER FROM SONIC LOG [ADJ. TO RESISTIVITY LOG]
CALWS   .IN    : CALIPER [CALSED]
CONDWS  .MMHO  : CONDUCTIVITY [1000/DRESWS]
DRESWS  .OHMM  : DEEP RESISTIVITY [ILDED]
DTED    .US/F  : DELTA TIME FROM SONIC LOG [ADJ. TO RESISTIVITY LOG]
DTWS    .US/F  : COMPRESSIONAL SONIC [DTED]
GRSED   .GAPI  : GAMMA RAY FROM SONIC LOG [ADJ. TO RESISTIVITY LOG]
GRWS    .GAPI  : GAMMA RAY [GRSED]
ILDED   .OHMM  : DEEP INDUCTION RESISTIVITY FROM RESISTIVITY LOG
ILMED   .OHMM  : MEDIUM INDUCTION RESISTIVITY FROM RESISTIVITY LOG
LL8ED   .OHMM  : LATEROLOG 8 FROM RESISTIVITY LOG
MRESWS  .OHMM  : MEDIUM RESISTIVITY [ILMED]
SPHILSED.V/V   : SONIC POROSITY LIMESTONE [DTM=47.6,DTF=189.0] FROM SONIC LOG [ADJ. TO RESISTIVITY LOG]
SPHISSED.V/V   : SONIC POROSITY SANDSTONE [DTM=55.6,DTF=189.0] FROM SONIC LOG [ADJ. TO RESISTIVITY LOG]
SPOWS   .V/V   : SONIC POROSITY [SPHISSED SPL. TO SPHILSED @ 5500']
SPRED   .MV    : SPONTANEOUS POTENTIAL FROM RESISTIVITY LOG
SPWS    .MV    : SPONTANEOUS POTENTIAL [BASELINE 0 MV, SPRED]
SRESWS  .OHMM  : SHALLOW RESISTIVITY [LL8ED]
~Params ----------------------------------------------------
PD  .                     GL : PERMANENT DATUM
EPD .FT                 2869 : ELEVATION PERMANENT DATUM
LMF .                     KB : LOG MEASURED FROM
DAPD.FT                   14 : FEET ABOVE PERMANENT DATUM
EKB .FT                 2883 : KELLY BUSHING
EGL .FT                 2869 : GROUND LEVEL
DATE.               04/11/70 : RUN DATE
RUN .                      1 : RUN NUMBER
DD  .FT                 9835 : DEPTH DRILLER
DL  .FT                 9820 : DEPTH LOGGER
BLI .FT                 9816 : BOTTOM LOG INTERVAL
TLI .FT                 1012 : TOP LOG INTERVAL
CBD .FT                 1008 : CASING BOTTOM DRILLER
CBL .FT                 1012 : CASING BOTTOM LOGGER
BS  .IN                7.875 : BIT SIZE
BSD .FT                 9835 : BIT SIZE AT DEPTH
DFT .               CHEM GEL : DRILLING FLUID TYPE
DFD .                     93 : DRILLING FLUID DENSITY
DFV .                     75 : DRILLING FLUID VISCOSITY
DFPH.                   10.5 : DRILLING FLUID PH
DFL .                    9.2 : DRILLING FLUID LOSS
MSS .               FLOWLINE : MUD SAMPLE SOURCE
RMS .OHMM               2.03 : RESISTIVITY MUD SAMPLE
MST .DEGF                 73 : MUD SAMPLE TEMPERATURE
RMF .OHMM               1.92 : RESISTIVITY MUD FILTRATE SAMPLE
MFST.DEGF                 71 : MUD FILTRATE SAMPLE TEMPERATURE
RMC .OHMM               2.16 : RESISTIVITY MUD CAKE
MCST.DEGF                 73 : MUD CAKE SAMPLE TEMPERATURE
TCS .HRS                   3 : TIME CIRCULATED STOPPED
LUN .                   5630 : LOGGING UNIT NUMBER
LUL .                    EDM : LOGGING UNIT LOCATION
ENGI.                 SLADEN : RECORDING ENGINEER
WITN.           SLOAN ELFORD : WITNESSED BY
CLNT.                A2DTECH : CLIENT CODE
ORIG.            2" 5" PRINT : ORIGIN OF DATA
UWI .       100122906818W500 : UNIQUE WELL ID
DICO. A2D Technologies, Inc. : DIGITIZING COMPANY
~Other -----------------------------------------------------
DIL-BCS TOOL RUN
~ASCII -----------------------------------------------------
# ...
 2850.00000   14.99890   14.99890  143.95120    6.94680  105.30130  105.30130   73.77580   73.77580    6.94680    5.60720    6.66760    5.60720    -999.25    0.35920    0.35920 -101.29700   -5.23610    6.66760
 2900.00000   13.62990   13.62990  122.46320    8.16580  102.85480  102.85480   75.96590   75.96590    8.16580    5.99820    6.19040    5.99820    -999.25    0.34350    0.34350  -99.35420   -4.16260    6.19040
 2950.00000   13.32760   13.32760  156.34770    6.39600   96.66790   96.66790   82.99020   82.99020    6.39600    5.51370    6.07800    5.51370    -999.25    0.30510    0.30510  -99.37700   -5.33940    6.07800
 3000.00000   11.46660   11.46660  123.18760    8.11770   93.14430   93.14430   80.05150   80.05150    8.11770    7.27850    7.69870    7.27850    -999.25    0.27370    0.27370  -99.11110   -6.22000    7.69870
 3050.00000   11.49440   11.49440  191.81410    5.21340  110.29740  110.29740   83.60980   83.60980    5.21340    4.66160    5.51750    4.66160    -999.25    0.39680    0.39680  -98.04420   -6.29960    5.51750
 3100.00000   10.61770   10.61770  202.07740    4.94860  110.17840  110.17840   97.75430   97.75430    4.94860    4.62830    5.39120    4.62830    -999.25    0.39840    0.39840  -92.86980   -2.13570    5.39120
 3150.00000   10.91600   10.91600  177.30020    5.64020  113.86230  113.86230   97.07880   97.07880    5.64020    5.32110    6.19070    5.32110    -999.25    0.42040    0.42040  -95.33590   -5.15850    6.19070
 3200.00000   11.71310   11.71310  190.81780    5.24060  113.08410  113.08410   91.97210   91.97210    5.24060    5.04750    6.12600    5.04750    -999.25    0.41700    0.41700  -95.05720   -5.44020    6.12600
 3250.00000    9.27030    9.27030  160.14090    6.24450  112.41050  112.41050  118.90070  118.90070    6.24450    6.00460    7.59570    6.00460    -999.25    0.41080    0.41080  -93.21660   -4.14320    7.59570
 3300.00000   10.14100   10.14100  161.66710    6.18740  113.80100  113.80100  111.21570  111.21570    6.18740    6.00460    7.40880    6.00460    -999.25    0.42010    0.42010  -93.74610   -5.03150    7.40880
 3350.00000    9.25680    9.25680  235.65450    4.24350  102.14470  102.14470   78.51460   78.51460    4.24350    3.77930    4.52870    3.77930    -999.25    0.33680    0.33680  -97.22180   -8.86830    4.52870
 3400.00000   10.47850   10.47850  241.36340    4.14320  106.88030  106.88030   87.51990   87.51990    4.14320    3.92960    4.69420    3.92960    -999.25    0.37380    0.37380  -94.97340   -6.97870    4.69420
 3450.00000   10.12460   10.12460  197.51530    5.06290   97.53210   97.53210   87.49500   87.49500    5.06290    4.89140    5.54070    4.89140    -999.25    0.30590    0.30590  -91.26040   -3.62680    5.54070
 3500.00000   10.45650   10.45650  203.98590    4.90230   94.76810   94.76810   86.12960   86.12960    4.90230    5.19280    5.76460    5.19280    -999.25    0.29110    0.29110  -93.26030   -6.06840    5.76460
 3550.00000    9.87300    9.87300  208.43040    4.79820   95.84730   95.84730   88.78870   88.78870    4.79820    4.87820    5.77040    4.87820    -999.25    0.29300    0.29300  -92.55010   -6.31700    5.77040
 3600.00000   10.29110   10.29110  269.30950    3.71320   99.33280   99.33280   89.43910   89.43910    3.71320    3.59440    4.30950    3.59440    -999.25    0.31880    0.31880  -89.18890   -3.92090    4.30950
 3650.00000   10.32740   10.32740  255.14770    3.91930   97.11070   97.11070   86.11430   86.11430    3.91930    3.72940    4.43110    3.72940    -999.25    0.30370    0.30370  -89.40390   -5.09480    4.43110
 3700.00000   10.60370   10.60370  256.48920    3.89880  105.00050  105.00050   87.54810   87.54810    3.89880    3.71540    4.16370    3.71540    -999.25    0.35930    0.35930  -87.25370   -3.90970    4.16370
 3750.00000   10.42550   10.42550  340.83160    2.93400  111.24810  111.24810  157.42270  157.42270    2.93400    2.80170    3.68930    2.80170    -999.25    0.40210    0.40210  -86.86360   -4.47840    3.68930
 3800.00000   10.47400   10.47400  473.14890    2.11350  112.67620  112.67620   87.71860   87.71860    2.11350    2.03290    2.87460    2.03290    -999.25    0.41350    0.41350  -87.03180   -4.87080    2.87460
 3850.00000   10.01240   10.01240  533.16270    1.87560  123.30660  123.30660   98.20700   98.20700    1.87560    1.76040    2.65400    1.76040    -999.25    0.45000    0.45000  -87.38580   -4.96820    2.65400
 3900.00000   10.50940   10.50940  330.73780    3.02380  105.18310  105.18310   90.44710   90.44710    3.02380    2.84880    3.44330    2.84880    -999.25    0.35990    0.35990  -89.23090   -6.55840    3.44330
 3950.00000    9.57750    9.57750  231.37440    4.32200   93.29700   93.29700   75.50780   75.50780    4.32200    4.15430    4.85500    4.15430    -999.25    0.27540    0.27540  -88.85490   -5.92580    4.85500
 4000.00000    9.12900    9.12900  134.39420    7.44080   82.67650   82.67650   56.10000   56.10000    7.44080    6.98160   10.01420    6.98160    -999.25    0.19430    0.19430  -94.69180  -11.50780   10.01420
 4050.00000   10.25350   10.25350  465.66230    2.15390  106.52210  106.52210   80.65810   80.65810    2.15390    1.99330    3.54990    1.99330    -999.25    0.34900    0.34900  -88.14350   -4.70460    3.54990
 4100.00000    9.79560    9.79560  223.69360    4.47040   88.45910   88.45910   78.82160   78.82160    4.47040    4.70720    8.01820    4.70720    -999.25    0.23500    0.23500  -90.69500   -6.99960    8.01820
 4150.00000    9.25840    9.25840  169.05760    5.92430   86.86810   86.86810   58.61520   58.61520    5.92430    6.68410    8.14870    6.68410    -999.25    0.22320    0.22320 -103.39060  -19.07960    8.14870
 4200.00000    9.48700    9.48700  228.22710    4.38160   84.67330   84.67330   59.53560   59.53560    4.38160    4.75000    6.92660    4.75000    -999.25    0.21020    0.21020  -94.11740   -9.00870    6.92660
 4250.00000    9.08530    9.08530  324.44360    3.08220   91.01690   91.01690   85.03010   85.03010    3.08220    3.32490    6.70470    3.32490    -999.25    0.25640    0.25640  -63.22850   -2.48250    6.70470
 4300.00000    7.97950    7.97950  177.83880    5.62310   87.63340   87.63340   29.99750   29.99750    5.62310    9.26900   13.98730    9.26900    -999.25    0.23350    0.23350 -152.58630  -90.28960   13.98730
 4350.00000    9.35160    9.35160  244.65430    4.08740   85.19400   85.19400   52.13130   52.13130    4.08740    4.29600    5.85630    4.29600    -999.25    0.21260    0.21260  -75.43070  -11.57310    5.85630
 4400.00000    9.45970    9.45970  239.44120    4.17680   95.88650   95.88650   69.05410   69.05410    4.17680    4.38210    4.61660    4.38210    -999.25    0.28880    0.28880  -74.51060   -9.10240    4.61660
 4450.00000    8.82540    8.82540  201.30850    4.96750   79.67420   79.67420   61.71260   61.71260    4.96750    5.75590    6.87700    5.75590    -999.25    0.17050    0.17050  -82.17680  -15.20770    6.87700
 4500.00000    8.90700    8.90700  230.53690    4.33770   85.36650   85.36650   69.67270   69.67270    4.33770    4.80960    7.42150    4.80960    -999.25    0.22130    0.22130  -83.54310  -14.85960    7.42150
 4550.00000    8.14220    8.14220  134.91980    7.41570   86.34480   86.34480   42.85880   42.85880    7.41570   11.63710   16.83930   11.63710    -999.25    0.22220    0.22220 -152.20420  -81.60400   16.83930
 4600.00000    9.18680    9.18680  234.24140    4.26910   90.22100   90.22100   73.21210   73.21210    4.26910    5.58750    9.85580    5.58750    -999.25    0.25230    0.25230 -107.81520  -35.28570    9.85580
 4650.00000    9.35940    9.35940  313.04980    3.19450   85.53580   85.53580   60.03060   60.03060    3.19450    3.68500    4.81290    3.68500    -999.25    0.21490    0.21490  -92.22180  -17.77560    4.81290
 4700.00000    9.27850    9.27850  230.14430    4.34510   86.59090   86.59090   65.81930   65.81930    4.34510    5.09640    7.36230    5.09640    -999.25    0.22380    0.22380 -101.95530  -25.57980    7.36230
 4750.00000    8.48690    8.48690  176.97860    5.65040   82.58440   82.58440   52.12360   52.12360    5.65040    9.46700   16.31420    9.46700    -999.25    0.19390    0.19390 -151.44010  -73.14790   16.31420
