~Version ---------------------------------------------------
VERS.      2.0 : CWLS log ASCII Standard -VERSION 2.0
WRAP.       NO : One line per depth step
CREA. 11/07/17 : LAS Creation Date
~Well ------------------------------------------------------
STRT.FT                  650.0 : START DEPTH
STOP.FT                 5800.0 : STOP DEPTH
STEP.FT               50.00000 : STEP LENGTH
NULL.                  -999.25 : NULL VALUE
COMP. VERMILION RESOURCES LTD. : COMPANY
WELL.  764031 NIPISI 4-21-81-8 : WELL
FLD .                   NIPISI : FIELD
LOC .                          : LOCATION
CTRY.                   CANADA : COUNTRY
SRVC.             Schlumberger : SERVICE COMPANY
DATE.              21-Jul-1967 : LOGDATE
PROV.                  Alberta : PROVINCE
UWI .         100042108108W500 : UNIQUE WELL ID
SLAT.WGS84       56.0303344727 : SURFACE LATITUDE
SLON.WGS84     -115.1986160278 : SURFACE LONGITUDE
~Curve Information -----------------------------------------
DEPT  .FT    : Depth Curve
CALWS .IN    : CALIPER [MCALED]
CILDED.MMHO  : CONDUCTIVITY FROM RESISTIVITY LOG
CONDWS.MMHO  : CONDUCTIVITY [1000/DRESWS]
DRESWS.OHMM  : DEEP RESISTIVITY [ILDED]
DTED  .US/F  : DELTA TIME FROM SONIC LOG
DTWS  .US/F  : DELTA TIME [DTED]
GRSED .GAPI  : GAMMA RAY FROM SONIC LOG
GRWS  .GAPI  : GAMMA RAY [GRSED]
ILDED .OHMM  : INDUCTION LOG DEEP RESISTIVITY
MCALED.IN    : CALIPER FROM MICROLOG
SNED  .OHMM  : 16 INCH SHORT NORMAL RESISTIVITY FROM IEL [NULLED FROM FROM 4016' TO 4122']
SPRED .MV    : SPONTANEOUS POTENTIAL FROM RESISTIVITY LOG
SPWS  .MV    : SPONTANEOUS POTENTIAL [BASELINE 0 MV] [SPRED]
SRESWS.OHMM  : SHALLOW RESISTIVITY [SNED]
~Params ----------------------------------------------------
PD  .                     GL : PERMANENT DATUM
EPD .FT               2146.5 : ELEVATION PERMANENT DATUM
LMF .                     KB : LOG MEASURED FROM
DAPD.FT                 13.5 : FEET ABOVE PERMANENT DATUM
EKB .FT                 2160 : KELLY BUSHING
EGL .FT               2146.5 : GROUND LEVEL
DATE.              7-21-1967 : RUN DATE
RUN .                      1 : RUN NUMBER
DD  .FT                 5807 : DEPTH DRILLER
DL  .FT                 5805 : DEPTH LOGGER
BLI .FT                 5804 : BOTTOM LOG INTERVAL
TLI .FT                  618 : TOP LOG INTERVAL
CBD .FT                  618 : CASING BOTTOM DRILLER
CBL .FT                  618 : CASING BOTTOM LOGGER
BS  .IN                 8.75 : BIT SIZE
BSD .FT                 5807 : BIT SIZE AT DEPTH
DFT .               CHEM GEL : DRILLING FLUID TYPE
DFD .                    9.8 : DRILLING FLUID DENSITY
DFV .                     68 : DRILLING FLUID VISCOSITY
DFPH.                   10.5 : DRILLING FLUID PH
DFL .                      8 : DRILLING FLUID LOSS
RMS .OHMM               0.78 : RESISTIVITY MUD SAMPLE
MST .DEGF                 70 : MUD SAMPLE TEMPERATURE
RMF .OHMM               0.67 : RESISTIVITY MUD FILTRATE SAMPLE
MFST.DEGF                 76 : MUD FILTRATE SAMPLE TEMPERATURE
RMC .OHMM               1.91 : RESISTIVITY MUD CAKE
MCST.DEGF                 62 : MUD CAKE SAMPLE TEMPERATURE
RMB .OHMM               0.44 : RESISTIVITY MUD AT BHT
TCS .HRS                1715 : TIME CIRCULATED STOPPED
TLAB.HRS                2200 : TIME LOGGER AT BOTTOM
LUN .                   7501 : LOGGING UNIT NUMBER
LUL .                     SL : LOGGING UNIT LOCATION
ENGI.                 WILSON : RECORDING ENGINEER
WITN.        MCKELVIE TOBMAN : WITNESSED BY
CLNT.                A2DTECH : CLIENT CODE
ORIG.            2" 5" PRINT : ORIGIN OF DATA
UWI .       100042108108W500 : UNIQUE WELL ID
DICO. A2D Technologies, Inc. : DIGITIZING COMPANY
~Other -----------------------------------------------------
~ASCII -----------------------------------------------------
# ...
 3100.00000    -999.25   21.36550   21.36550   46.80470    -999.25    -999.25    -999.25    -999.25   46.80470    -999.25   49.75360 -110.10390  -35.75400   49.75360
 3150.00000    -999.25   13.07860   13.07860   84.67330    -999.25    -999.25    -999.25    -999.25   84.67330    -999.25   60.37450 -103.57280  -29.20990   60.37450
 3200.00000    -999.25   13.54310   13.54310   76.00630    -999.25    -999.25    -999.25    -999.25   76.00630    -999.25   63.51210 -113.54310  -39.16710   63.51210
 3250.00000    -999.25    9.54510    9.54510  104.78990    -999.25    -999.25    -999.25    -999.25  104.78990    -999.25   66.15080 -103.65170  -29.26290   66.15080
 3300.00000    -999.25   18.23210   18.23210   56.99570    -999.25    -999.25    -999.25    -999.25   56.99570    -999.25   60.79170 -107.15160  -32.74980   60.79170
 3350.00000    -999.25   21.76110   21.76110   45.95930    -999.25    -999.25    -999.25    -999.25   45.95930    -999.25   48.96140 -104.33330  -29.91850   48.96140
 3400.00000    -999.25   78.88060   78.88060   12.49760    -999.25    -999.25    -999.25    -999.25   12.49760    -999.25   26.22710 -100.64450  -26.21670   26.22710
 3450.00000    -999.25   79.58040   79.58040   12.94310    -999.25    -999.25    -999.25    -999.25   12.94310    -999.25   29.97450 -106.34420  -31.90330   29.97450
 3500.00000    -999.25   77.82620   77.82620   14.41400    -999.25    -999.25    -999.25    -999.25   14.41400    -999.25   14.74650  -83.79070   -9.33700   14.74650
 3550.00000    -999.25   40.04980   40.04980   23.92180    -999.25    -999.25    -999.25    -999.25   23.92180    -999.25   33.93020 -119.86670  -45.40000   33.93020
 3600.00000    -999.25  189.74420  189.74420    5.43090    -999.25    -999.25    -999.25    -999.25    5.43090    -999.25    8.93190  -88.63220  -14.15250    8.93190
 3650.00000    -999.25   70.51570   70.51570   14.64860    -999.25    -999.25    -999.25    -999.25   14.64860    -999.25   19.66580  -82.15140   -9.69740   19.66580
 3700.00000    -999.25   14.24250   14.24250   73.82950    -999.25    -999.25    -999.25    -999.25   73.82950    -999.25   64.39120 -113.68910  -43.47370   64.39120
 3750.00000    -999.25   30.52870   30.52870   33.34450    -999.25    -999.25    -999.25    -999.25   33.34450    -999.25   43.82980 -127.47100  -59.47180   43.82980
 3800.00000    -999.25    6.03990    6.03990  142.08440    -999.25    -999.25    -999.25    -999.25  142.08440    -999.25   73.12590  -78.95330  -13.18140   73.12590
 3850.00000    -999.25   32.63450   32.63450   30.96710    -999.25    -999.25    -999.25    -999.25   30.96710    -999.25   29.09280  -65.73920   -2.19470   29.09280
 3900.00000    -999.25  117.72750  117.72750    8.07520    -999.25    -999.25    -999.25    -999.25    8.07520    -999.25    8.56970  -67.24790   -5.42240    8.56970
 3950.00000    -999.25  176.72340  176.72340    5.82350    -999.25    -999.25    -999.25    -999.25    5.82350    -999.25    6.29490  -66.44400   -5.54690    6.29490
 4000.00000    -999.25  202.69960  202.69960    4.93250    -999.25    -999.25    -999.25    -999.25    4.93250    -999.25    5.41370  -70.43410  -10.45620    5.41370
 4050.00000    -999.25  238.87080  238.87080    4.51260    -999.25    -999.25    -999.25    -999.25    4.51260    -999.25    -999.25  -69.72970  -10.67560    -999.25
 4100.00000    -999.25  344.92430  344.92430    3.27320    -999.25    -999.25    -999.25    -999.25    3.27320    -999.25    -999.25  -76.77730  -18.64700    -999.25
 4150.00000    -999.25  402.40880  402.40880    2.77330    -999.25    -999.25    -999.25    -999.25    2.77330    -999.25    3.07400  -74.30150  -17.09500    3.07400
 4200.00000    -999.25  529.44840  529.44840    2.17920    -999.25    -999.25    -999.25    -999.25    2.17920    -999.25    2.64310  -78.41740  -22.13940    2.64310
 4250.00000    -999.25  341.48260  341.48260    3.27590    -999.25    -999.25    -999.25    -999.25    3.27590    -999.25    3.51710  -73.61050  -18.25170    3.51710
 4300.00000    -999.25   55.68640   55.68640   17.99830    -999.25    -999.25    -999.25    -999.25   17.99830    -999.25   22.67560  -78.67760  -24.24260   22.67560
 4350.00000    -999.25   82.84190   82.84190   12.11170    -999.25    -999.25    -999.25    -999.25   12.11170    -999.25   13.56770  -58.87270   -5.36150   13.56770
 4400.00000    -999.25  161.37340  161.37340    6.36910    -999.25    -999.25    -999.25    -999.25    6.36910    -999.25    7.27130  -65.11790  -11.94850    7.27130
 4450.00000    -999.25   64.30820   64.30820   15.81480    -999.25    -999.25    -999.25    -999.25   15.81480    -999.25   16.93450  -75.21150  -22.04210   16.93450
 4500.00000    -999.25  100.23390  100.23390    9.91500    -999.25    -999.25    -999.25    -999.25    9.91500    -999.25   11.43250  -56.91600   -3.74660   11.43250
 4550.00000    -999.25  119.38010  119.38010    8.49260    -999.25    -999.25    -999.25    -999.25    8.49260    -999.25   10.35270  -59.20320   -6.03380   10.35270
 4600.00000    -999.25  159.29490  159.29490    6.61980    -999.25    -999.25    -999.25    -999.25    6.61980    -999.25    7.52890  -62.53640   -9.86540    7.52890
 4650.00000    -999.25  361.13400  361.13400    3.07520    -999.25    -999.25    -999.25    -999.25    3.07520    -999.25    3.36230  -68.84790  -16.83260    3.36230
 4700.00000    -999.25  197.76120  197.76120    5.20760    -999.25    -999.25    -999.25    -999.25    5.20760    -999.25    5.70540  -62.67970  -11.32340    5.70540
 4750.00000    -999.25  420.41060  420.41060    2.75100    -999.25    -999.25    -999.25    -999.25    2.75100    -999.25    3.21520  -70.05200  -19.34680    3.21520
 4800.00000    -999.25  119.27440  119.27440    8.48110    -999.25    -999.25    -999.25    -999.25    8.48110    -999.25    9.76320  -55.66390   -5.47620    9.76320
 4850.00000    -999.25  353.19220  353.19220    3.25560    -999.25    -999.25    -999.25    -999.25    3.25560    -999.25    3.77410  -70.03190  -20.36160    3.77410
 4900.00000    -999.25   71.51030   71.51030   13.63190    -999.25    -999.25    -999.25    -999.25   13.63190    -999.25   16.47520  -62.21980  -13.06700   16.47520
 4950.00000    -999.25  193.49840  193.49840    5.20560    -999.25    -999.25    -999.25    -999.25    5.20560    -999.25    6.66100  -68.42160  -19.78890    6.66100
 5000.00000    -999.25  215.24440  215.24440    4.64590    -999.25    -999.25    -999.25    -999.25    4.64590    -999.25    6.40260  -59.42860  -11.31070    6.40260
 5050.00000    -999.25   72.52250   72.52250   13.65890    -999.25    -999.25    -999.25    -999.25   13.65890    -999.25   12.61690  -51.71410   -5.24530   12.61690
 5100.00000    -999.25   83.09110   83.09110   11.73640    -999.25    -999.25    -999.25    -999.25   11.73640    -999.25   13.30110  -50.08870   -5.68760   13.30110
 5150.00000    -999.25  128.10940  128.10940    8.34900    -999.25    -999.25    -999.25    -999.25    8.34900    -999.25    9.11040  -50.59490   -8.26140    9.11040
 5200.00000    -999.25   28.54110   28.54110   34.12030    -999.25    -999.25    -999.25    -999.25   34.12030    -999.25   28.96780  -56.03120  -15.81380   28.96780
 5250.00000    -999.25  164.50920  164.50920    6.35330   79.51000   79.51000   64.18950   64.18950    6.35330    -999.25    7.87600  -41.22380   -4.14790    7.87600
 5300.00000    -999.25  145.32000  145.32000    7.38250   78.84340   78.84340   56.31320   56.31320    7.38250    -999.25    9.02920  -36.77860   -2.86000    9.02920
 5350.00000    -999.25   34.41300   34.41300   41.38360   55.72850   55.72850   25.53650   25.53650   41.38360    -999.25   37.87580  -41.32440   -9.69870   37.87580
 5400.00000    9.57200    5.99500    5.99500  115.87750   49.78530   49.78530   11.01160   11.01160  115.87750    9.57200  102.65000  -32.04810   -2.47160  102.65000
 5450.00000   11.17910  227.51700  227.51700    4.67510   80.37980   80.37980   68.84810   68.84810    4.67510   11.17910    6.07430  -45.14400  -16.01820    6.07430
 5500.00000    9.55990   20.79310   20.79310  107.56770   54.09550   54.09550   15.98010   15.98010  107.56770    9.55990   92.14640  -39.50980  -10.38410   92.14640
