~Version ---------------------------------------------------
VERS.      2.0 : CWLS log ASCII Standard -VERSION 2.0
WRAP.       NO : One line per depth step
CREA. 12/18/17 : LAS Creation Date
~Well ------------------------------------------------------
STRT.FT                         300.0 : START DEPTH
STOP.FT                       11750.0 : STOP DEPTH
STEP.FT                      50.00000 : STEP LENGTH
NULL.                         -999.25 : NULL VALUE
COMP.            MOBIL OIL CANADA LTD : COMPANY
WELL. MOBIL OIL LESLIEVILLE 4-19-39-5 : WELL
FLD .                                 : FIELD
LOC .                                 : LOCATION
CTRY.                          CANADA : COUNTRY
SRVC.          Schlumberger of Canada : SERVICE COMPANY
DATE.                     02-Feb-1958 : LOGDATE
PROV.                         Alberta : PROVINCE
UWI .                100041903905W500 : UNIQUE WELL ID
SLAT.WGS84                   52.36478 : SURFACE LATITUDE
SLON.WGS84                  -114.7174 : SURFACE LONGITUDE
~Curve Information -----------------------------------------
DEPT  .FT     : Depth Curve
CALMED.IN     : CALIPER FROM MICRO LATEROLOG [ADJ. TO IEL LOG]
CALWS .IN     : CALIPER [MCALED SPL. TO CALMED @ 8500']
CILDED.MMHO   : CONDUCTIVITY INDUCTION LOG FROM IEL LOG
CONDWS.MMHO   : CONDUCTIVITY [1000/DRESWS]
DRESWS.OHMM   : DEEP RESISTIVITY [1000/CILDED,IF ILDED<2,ILDED]
GR1ED .GAPI   : GAMMA RAY FROM GR LOG [ADJ. TO IEL LOG]
GRED  .GAPI   : GAMMA RAY FROM GR-CCL LOG [ADJ. TO IEL LOG]
GRNED .UR/HR  : GAMMA RAY FROM GRN LOG [ADJ. TO IEL & LATEROLOG LOG]
GRWS  .GAPI   : GAMMA RAY [GRNED*10.4 SPL. TO GR1ED @ 7038'-7122']
ILDED .OHMM   : INDUCTION LOG RESISTIVITY FROM IEL LOG
LL7ED .OHMM   : LATEROLOG-7 RES. FROM LATEROLOG [ADJ. TO IEL LOG]
MCALED.IN     : MLT CALIPER FROM MICROLOG [ADJ. TO IEL LOG]
MLLED .OHMM   : MICRO-LATEROLOG RESISTIVITY FROM MICRO LATEROLOG [ADJ. TO IEL LOG]
MRESWS.OHMM   : MEDIUM RESISTIVITY [LL7ED]
NEUTED.NAPI   : NEUTRON FROM GRN LOG [ADJ. TO IEL & LATEROLOG LOG]
NEUTWS.NAPI   : NEUTRON [NEUTED]
SNED  .OHMM   : SHORT NORMAL 16" FROM IEL LOG
SPMED .MV     : SPONTAEOUS POTENTIAL FROM MICRO LATEROLOG [ADJ. TO IEL LOG]
SPR1ED.MV     : SPONTANEOUS POTENTIAL FROM LATEROLOG [ADJ. TO IEL LOG]
SPRED .MV     : SPONTANEOUS POTENTIAL FROM IEL LOG
SPWS  .MV     : SPONTANEOUS POTENTIAL [BASELINE 0MV, SPRED SPL. TO SPR1ED @ 7480']
SRESWS.OHMM   : SHALLOW RESISTIVITY [SNED]
TENED .LBF    : TENSION FROM GR LOG [ADJ. TO IEL LOG]
~Params ----------------------------------------------------
PD  .           GROUND LEVEL : PERMANENT DATUM
EPD .FT                 3169 : ELEVATION PERMANENT DATUM
LMF .                     KB : LOG MEASURED FROM
DMF .                     KB : DRILLING MEASURED FROM
EKB .FT                 3181 : KELLY BUSHING
EGL .FT                 3169 : GROUND LEVEL
DATE.             02/02/1958 : RUN DATE
RUN .                      1 : RUN NUMBER
DD  .FT                11765 : DEPTH DRILLER
DL  .FT                11766 : DEPTH LOGGER
BLI .FT                11762 : BOTTOM LOG INTERVAL
TLI .FT                 6000 : TOP LOG INTERVAL
CBD .FT                  886 : CASING BOTTOM DRILLER
CBL .FT                  885 : CASING BOTTOM LOGGER
BS  .IN                    9 : BIT SIZE
BSD .FT                11766 : BIT SIZE AT DEPTH
DFT .              LIME BASE : DRILLING FLUID TYPE
DFD .                   11.4 : DRILLING FLUID DENSITY
DFV .                    100 : DRILLING FLUID VISCOSITY
DFPH.                   13.0 : DRILLING FLUID PH
DFL .                    4.6 : DRILLING FLUID LOSS
RMS .OHMM                0.5 : RESISTIVITY MUD SAMPLE
MST .DEGF                 47 : MUD SAMPLE TEMPERATURE
RMF .OHMM                0.2 : RESISTIVITY MUD FILTRATE SAMPLE
MFST.DEGF                 70 : MUD FILTRATE SAMPLE TEMPERATURE
RMC .OHMM                0.6 : RESISTIVITY MUD CAKE
MCST.DEGF                 66 : MUD CAKE SAMPLE TEMPERATURE
RMB .OHMM               0.14 : RESISTIVITY MUD AT BHT
MRT .DEGF                212 : MAXIMUM RECORDED TEMPERATURE
LUN .                  1729C : LOGGING UNIT NUMBER
LUL .                     RD : LOGGING UNIT LOCATION
ENGI.                  CHASE : RECORDING ENGINEER
WITN.                 CARSON : WITNESSED BY
CLNT.                A2DTECH : CLIENT CODE
ORIG.           2", 5" PRINT : ORIGIN OF DATA
UWI .       100041903905W500 : UNIQUE WELL ID
DICO. A2D Technologies, Inc. : DIGITIZING COMPANY
~Other -----------------------------------------------------
~ASCII -----------------------------------------------------
# ...
 6500.00000   12.94120   12.14230  139.69610  132.16670    7.56620    -999.25    -999.25   11.04720  114.89090    7.56620    9.27650   12.14230    3.28910    9.27650  643.93890  643.93890    8.19070  -78.72570  -77.02950 -198.53100  -16.08860    8.19070    -999.25
 6550.00000   12.83370   12.76700   97.18330   96.73710   10.33730    -999.25    -999.25   10.92940  113.66580   10.33730   13.22940   12.76700    4.24080   13.22940  707.28860  707.28860   10.14860  -78.82360  -77.67290 -200.23390  -18.15390   10.14860    -999.25
 6600.00000   11.59340   10.05100   62.21510   62.76870   15.93150   71.68390    -999.25   11.16190  116.08380   15.93150   19.22050   10.05100    4.12600   19.22050  712.55640  712.55640   14.97950  -78.23080  -78.43370 -198.36410  -16.64890   14.97950 1517.55740
 6650.00000   12.60400   11.76420   86.91090   85.03260   11.76020   68.82300    -999.25    9.61340   99.97940   11.76020   14.60020   11.76420    2.94880   14.60020  713.22670  713.22670   11.38190  -77.40500  -76.49770 -198.43960  -17.08680   11.38190 1524.54740
 6700.00000   13.16050   12.47110   71.59990   70.00790   14.28410   58.53490    -999.25    9.45180   98.29870   14.28410   17.88520   12.47110    3.38570   17.88520  765.48050  765.48050   12.82090  -83.85560  -76.70960 -203.91340  -22.92550   12.82090 1552.12130
 6750.00000   11.74270   10.12910   56.11050   56.93460   17.56400   50.77090    -999.25    9.93870  103.36250   17.56400   25.75330   10.12910    3.71480   25.75330  807.25770  807.25770   20.11750  -93.09670  -78.02710 -213.23280  -32.60730   20.11750 1543.60130
 6800.00000   12.81200   10.45130   69.57040   67.86930   14.73420   70.23500    -999.25   11.78790  122.59420   14.73420   26.89720   10.45130   17.71140   26.89720  757.73410  757.73410   16.27390  -97.75890  -78.01520 -212.84400  -32.58090   16.27390 1543.81800
 6850.00000   15.33680   11.95050   97.20980  100.72830    9.92770   55.87430    -999.25    8.76930   91.20070    9.92770   13.26070   11.95050    5.85610   13.26070  677.24260  677.24260   10.22050  -91.28850  -76.99270 -207.07220  -27.17390   10.22050 1570.71510
 6900.00000   15.30030   13.07020  121.68420  114.88840    8.70410   63.19150    -999.25    9.48430   98.63670    8.70410   10.80930   13.07020    2.89190   10.80930  642.68690  642.68690    9.25800  -80.88160  -75.86630 -202.08610  -22.55030    9.25800 1563.77800
 6950.00000   14.95740   10.80190   75.47500   72.59000   13.77600   86.03720    -999.25   11.65940  121.25780   13.77600   20.13450   10.80190    7.98060   20.13450  708.13410  708.13410   16.64770  -78.60470  -77.15200 -199.88660  -20.71560   16.64770 1569.66990
 7000.00000   11.09550    9.83050   45.73860   40.88740   24.45740   43.32270    -999.25    7.95900   82.77360   24.45740   34.12290    9.83050   13.38640   34.12290 1087.00430 1087.00430   15.18110  -83.95370  -76.48870 -205.81340  -27.00480   15.18110 1577.49650
 7050.00000   12.37650   12.29240  113.27050  109.61430    9.12290   73.36990    -999.25   10.88270   73.36990    9.12290   11.22840   12.29240    3.96310   11.22840  719.50590  719.50590    9.56330  -85.76590  -74.68330 -207.53430  -29.08810    9.56330 1568.04820
 7100.00000   11.94230   10.11360   80.55340   79.74290   12.54030   98.39790    -999.25    -999.25   98.39790   12.54030   15.52070   10.11360   10.83640   15.52070  921.98970  921.98970   15.07980  -86.25510  -78.77390 -211.60090  -33.51960   15.07980 1586.99690
 7150.00000   13.84440   12.18490  237.07830  207.53780    4.81840   62.86650    -999.25   10.60230  110.26390    4.81840    5.65780   12.18490    3.79730    5.65780  708.12040  708.12040    5.12570  -82.26170  -73.99490 -204.24650  -26.52760    5.12570 1592.01570
 7200.00000   15.08520    -999.25  367.89470  300.07500    3.33250   50.15530    -999.25   10.03670  104.38170    3.33250    3.67830    -999.25    2.53960    3.67830  669.22970  669.22970    3.68000  -78.23440  -73.21330 -204.25790  -26.90380    3.68000 1594.17210
 7250.00000   10.21390    9.38470   94.07670   91.82570   10.89020   58.59370    -999.25   10.99160  114.31260   10.89020   12.52980    9.38470   10.53900   12.52980  909.54480  909.54480   12.48470  -84.92160  -82.07720 -208.17730  -31.18560   12.48470 1619.87530
 7300.00000   11.39770   10.40690  116.08980  113.63510    8.80010   52.48300    -999.25    9.30150   96.73560    8.80010   11.80740   10.40690    6.55580   11.80740  968.68550  968.68550   10.00710  -85.07990  -80.00410 -209.42300  -32.79380   10.00710 1628.89380
 7350.00000   12.06420   10.79550  291.30920  243.63500    4.10450   61.46910    -999.25    9.74550  101.35320    4.10450    4.77120   10.79550    3.63590    4.77120  774.63070  774.63070    4.98120  -80.55660  -76.11050 -202.86770  -26.60330    4.98120 1632.12620
 7400.00000   11.05980    9.25270   44.27050   44.15010   22.65000   35.29740   35.01680    7.48840   77.87940   22.65000   22.54620    9.25270   13.75100   22.54620 1226.19450 1226.19450   18.80470  -91.11840  -84.86890 -213.06340  -37.16140   18.80470 1640.24340
 7450.00000   10.18440    9.26960   74.47860   74.67370   13.39160   58.59910   57.87970    9.34430   97.18070   13.39160   20.00420    9.26960   12.45720   20.00420 1077.59830 1077.59830   15.15480  -87.92890  -86.91770 -207.31120  -31.77400   15.15480 1632.33870
 7500.00000    9.44760    9.44720   66.08850   63.64600   15.71190   53.51530   39.71450    8.19380   85.21550   15.71190   24.91530    9.44720    8.25990   24.91530  982.23570  982.23570   14.95870  -83.61590  -83.28420 -203.40900  -28.10950   14.95870 1638.50220
 7550.00000    9.77550    9.29350   61.16870   62.34060   16.04090   41.41870   37.83690    8.36360   86.98140   16.04090   26.85560    9.29350   17.27940   26.85560  728.41830  728.41830   12.89340  -87.35440  -83.93170 -204.91200  -29.11940   12.89340 1631.82790
 7600.00000   10.37070    9.44500   68.55020   69.21850   14.44700   45.29830   39.10220    7.43360   77.30940   14.44700   17.24710    9.44500   13.06750   17.24710  764.88890  764.88890   14.50350  -89.99250  -81.77470 -202.66940  -27.32720   14.50350 1629.73880
 7650.00000    9.99640    9.28940   66.35530   64.93460   15.40010    -999.25   68.87270    8.22280   85.51710   15.40010   20.46830    9.28940   19.04140   20.46830  606.67610  606.67610   17.51100  -92.56970  -82.70240 -202.97570  -28.61740   17.51100    -999.25
 7700.00000   10.27440    9.17700   42.51890   41.65830   24.00480    -999.25   45.08970    7.76300   80.73520   24.00480   43.30920    9.17700   34.13940   43.30920  817.72840  817.72840   21.34850  -93.12910  -81.70310 -216.47390  -27.98290   21.34850    -999.25
 7750.00000   11.40890    9.96560   23.23070   20.56640   48.62300    -999.25    -999.25    7.33550   76.28920   48.62300   88.45200    9.96560    4.66300   88.45200  893.58810  893.58810   33.87440  -96.74800  -82.13860 -227.52780  -28.78080   33.87440    -999.25
 7800.00000   10.46920    9.64020   14.68800   16.80880   59.49260    -999.25    -999.25    7.99830   83.18230   59.49260  117.05370    9.64020   44.21560  117.05370  763.47230  763.47230   27.99330  -88.46690  -70.65910 -204.71470  -17.66370   27.99330    -999.25
 7850.00000   11.65400    9.82870    7.83520    8.41300  118.86420    -999.25    -999.25    8.62640   89.71460  118.86420  258.00100    9.82870   18.60550  258.00100  900.14780  900.14780   61.06300 -108.07960  -90.30310 -305.04450  -37.67250   61.06300    -999.25
 7900.00000   10.30920    9.14370   20.24340   20.93230   47.77300    -999.25    -999.25    9.35710   97.31380   47.77300   90.24360    9.14370    9.26840   90.24360  514.44730  514.44730   27.48060 -100.35650  -77.06990 -299.67880  -24.80180   27.48060    -999.25
 7950.00000    9.93230    9.14340    3.66460    3.21970  310.58900    -999.25    -999.25    5.84170   60.75370  310.58900 2480.03150    9.14340  964.54490 2480.03150 1499.57680 1499.57680   70.87250 -112.14880  -89.38600 -147.86030  -37.48270   70.87250    -999.25
 8000.00000   12.71470   10.18900   72.47290   69.67910   14.35150    -999.25    -999.25    6.69690   69.64780   14.35150   32.41530   10.18900    4.42940   32.41530  173.70020  173.70020   16.84750 -106.52480  -84.17540  -96.35270  -32.63450   16.84750    -999.25
