~Version ---------------------------------------------------
VERS.      2.0 : CWLS log ASCII Standard -VERSION 2.0
WRAP.       NO : One line per depth step
CREA. 01/05/18 : LAS Creation Date
~Well ------------------------------------------------------
STRT.FT                      650.0 : START DEPTH
STOP.FT                    10650.0 : STOP DEPTH
STEP.FT                   50.00000 : STEP LENGTH
NULL.                      -999.25 : NULL VALUE
COMP.              SUN OIL COMPANY : COMPANY
WELL. SUN SHELL ROSEVEAR 6-6-55-14 : WELL
FLD .                              : FIELD
LOC .                              : LOCATION
CTRY.                       CANADA : COUNTRY
SRVC.       Schlumberger of Canada : SERVICE COMPANY
DATE.                  23-Jun-1971 : LOGDATE
PROV.                      Alberta : PROVINCE
UWI .             100060605514W500 : UNIQUE WELL ID
SLAT.WGS84                53.72017 : SURFACE LATITUDE
SLON.WGS84                -116.074 : SURFACE LONGITUDE
~Curve Information -----------------------------------------
DEPT    .FT    : Depth Curve
CALDED  .IN    : CALIPER FROM DENSITY LOG [ADJ. TO RESISTIVITY LOG]
CALNED  .IN    : CALIPER FROM SNP LOG [ADJ. TO RESISTIVITY LOG]
CALSED  .IN    : CALIPER FROM SONIC LOG [ADJ. TO RESISTIVITY LOG]
CALWS   .IN    : CALIPER [CALSED SPL. TO CALDED @ 10676']
CILDED  .MMHO  : CONDUCTIVITY FROM RESISTIVITY LOG
CONDWS  .MMHO  : CONDUCTIVITY [1000/DRESWS]
CORRED  .G/C3  : DENSITY CORRECTION FROM DENSITY LOG [ADJ. TO RESISTIVITY LOG]
DCORWS  .G/C3  : DENSITY CORRECTION [CORRED]
DENWS   .G/C3  : FORMATION BULK DENSITY  [RHOBED]
DPHILSED.V/V   : DENSITY POROSITY LIMESTONE [M=2.71 F=1.00] FROM DENSITY LOG [ADJ. TO RESISTIVITY LOG]
DPHISSED.V/V   : DENSITY POROSITY SANDSTONE [M=2.65 F=1.00] FROM DENSITY LOG [ADJ. TO RESISTIVITY LOG]
DPOLSWS .V/V   : DENSITY POROSITY LIMESTONE [CALC. FROM DENWS, M=2.71 F=1.00]
DRESWS  .OHMM  : DEEP RESISTIVITY [1000/CILDED IF ILDED<4, ILDED & SPL. TO ILDED @ 664'-3750' & 5083'-6070']
DTED    .US/F  : DELTA TIME FROM SONIC LOG [ADJ. TO RESISTIVITY LOG]
DTWS    .US/F  : COMPRESSIONAL SONIC [DTED]
GRNED   .GAPI  : GAMMA RAY FROM SNP LOG [ADJ. TO RESISTIVITY LOG]
GRSED   .GAPI  : GAMMA RAY FROM SONIC LOG [ADJ. TO RESISTIVITY LOG]
GRWS    .GAPI  : GAMMA RAY [GRSED SPL. TO GRNED @ 10658'] GRWS IN CSG. FROM 5023'-5078' ADDED 40 API
ILDED   .OHMM  : DEEP INDUCTIONRESISTIVITY FROM RESISTIVITY LOG
ILMED   .OHMM  : MEDIUM INDUCTIONRESISTIVITY FROM RESISTIVITY LOG
LL8ED   .OHMM  : 8 INCH LATEROLOG RESISTIVITY FROM RESISTIVITY LOG
MRESWS  .OHMM  : MEDIUM RESISTIVITY [ILMED]
NPOLSWS .V/V   : SIDEWALL NEUTRON POROSITY LIMESTONE [SNPLSED]
RHOBED  .G/C3  : FORMATION BULK DENSITY FROM DENSITY LOG [ADJ. TO RESISTIVITY LOG]
SNP1LSED.V/V   : SIDEWALL NEUTRON POROSITY FROM SNP LOG [ADJ. TO RESISTIVITY LOG]
SNPLSED .V/V   : SIDEWALL NEUTRON POROSITY LIMESTONE FROM SNP LOG [ADJ. TO RESISTIVITY LOG]
SPRED   .MV    : SPONTANEOUS POTENTIAL FROM RESISTIVITY LOG
SPWS    .MV    : SPONTANEOUS POTENTIAL  [BASELINE 0 MV. SPRED]
SRESWS  .OHMM  : SHALLOW RESISTIVITY [LL8ED]
~Params ----------------------------------------------------
PD  .                     GL : PERMANENT DATUM
EPD .FT                 2803 : ELEVATION PERMANENT DATUM
LMF .                     KB : LOG MEASURED FROM
DAPD.FT                   13 : FEET ABOVE PERMANENT DATUM
EKB .FT                 2816 : KELLY BUSHING
EGL .FT                 2803 : GROUND LEVEL
DATE.               07/14/71 : RUN DATE
RUN .                      2 : RUN NUMBER
DD  .FT                10687 : DEPTH DRILLER
DL  .FT                10692 : DEPTH LOGGER
BLI .FT                10686 : BOTTOM LOG INTERVAL
TLI .FT                 5078 : TOP LOG INTERVAL
CBD .FT                 5077 : CASING BOTTOM DRILLER
CBL .FT                 5078 : CASING BOTTOM LOGGER
BS  .IN                 8.75 : BIT SIZE
BSD .FT                10687 : BIT SIZE AT DEPTH
DFT .               GEL CHEM : DRILLING FLUID TYPE
DFD .                    9.8 : DRILLING FLUID DENSITY
DFV .                     80 : DRILLING FLUID VISCOSITY
DFPH.                     10 : DRILLING FLUID PH
DFL .                   10.2 : DRILLING FLUID LOSS
MSS .               FLOWLINE : MUD SAMPLE SOURCE
RMS .OHMM               2.12 : RESISTIVITY MUD SAMPLE
MST .DEGF                 76 : MUD SAMPLE TEMPERATURE
RMF .OHMM               1.66 : RESISTIVITY MUD FILTRATE SAMPLE
MFST.DEGF                 76 : MUD FILTRATE SAMPLE TEMPERATURE
RMB .OHMM               0.62 : RESISTIVITY MUD AT BHT
TCS .HRS                 3.5 : TIME CIRCULATED STOPPED
LUN .                   5628 : LOGGING UNIT NUMBER
LUL .                    EDM : LOGGING UNIT LOCATION
ENGI.                 HUTZAL : RECORDING ENGINEER
WITN.                   HERB : WITNESSED BY
CLNT.                A2DTECH : CLIENT CODE
ORIG.            2" 5" PRINT : ORIGIN OF DATA
UWI .       100060605514W500 : UNIQUE WELL ID
DICO. A2D Technologies, Inc. : DIGITIZING COMPANY
~Other -----------------------------------------------------
~ASCII -----------------------------------------------------
# ...
 8150.00000   10.97160   11.11220    9.18610    9.18610    -999.25   10.14150    0.25000    0.25000    2.46840    0.13770    -999.25    0.14130   98.60520   52.97720   52.97720   13.18580   13.29820   13.29820   98.60520  110.06870  134.90230  110.06870    0.10640    2.46840   -0.00670    0.10640 -122.76390  -96.99600  134.90230
 8200.00000   11.18630   11.30730    9.43940    9.43940    -999.25    6.17860    0.24770    0.24770    2.69240    0.00890    -999.25    0.01030  161.84860   49.36400   49.36400   10.17340    9.99700    9.99700  161.84860  174.22440  125.58370  174.22440    0.02350    2.69240   -0.09440    0.02350 -137.06670 -111.94960  125.58370
 8250.00000   10.14830   10.24300    8.91300    8.91300    -999.25   93.83770    0.15830    0.15830    2.70380   -0.00290    -999.25    0.00360   10.65670   56.69380   56.69380   12.50890   12.61440   12.61440   10.65670   15.95820   60.60770   15.95820    0.17510    2.70380    0.05660    0.17510 -141.32460 -116.85410   60.60770
 8300.00000   13.48200   13.70460    9.48620    9.48620    -999.25    3.28080    0.19100    0.19100    2.55920    0.07860    -999.25    0.08820  304.80420   53.00400   53.00400   11.28480   10.23560   10.23560  304.80420 1660.46590  502.02630 1660.46590    0.05470    2.55920   -0.06060    0.05470 -139.26290 -115.43890  502.02630
 8350.00000   10.51480   10.70880    9.60620    9.60620    -999.25    3.88650    0.18490    0.18490    2.65590    0.02730    -999.25    0.03170  257.30230   51.07940   51.07940   10.38850   11.00780   11.00780  257.30230  251.58650  182.18480  251.58650    0.03990    2.65590   -0.07670    0.03990 -133.47900 -110.30580  182.18480
 8400.00000    8.73330    8.98000    8.37790    8.37790    -999.25   18.53280    0.08910    0.08910    2.79770   -0.05080    -999.25   -0.05130   53.95830   49.90940   49.90940    9.87150   13.92570   13.92570   53.95830   77.08110  269.90620   77.08110    0.04940    2.79770   -0.06640    0.04940 -142.65440 -120.12780  269.90620
 8450.00000   11.25940   11.11720    9.35810    9.35810    -999.25    8.91970    0.24840    0.24840    2.68070    0.01380    -999.25    0.01720  112.11090   49.78410   49.78410   11.10800   11.15870   11.15870  112.11090  109.11820  101.01330  109.11820    0.04890    2.68070   -0.06690    0.04890 -119.96520  -98.08940  101.01330
 8500.00000    9.85460   10.08650    8.94550    8.94550    -999.25   10.39880    0.12440    0.12440    2.79720   -0.04670    -999.25   -0.05100   96.16500   49.07870   49.07870    8.79930    9.61210    9.61210   96.16500  108.56460  124.07670  108.56460    0.01210    2.79720   -0.10620    0.01210 -115.54550  -94.31620  124.07670
 8550.00000    8.82880    9.11510    9.05550    9.05550    -999.25   20.83000    0.04400    0.04400    2.69060    0.00320    -999.25    0.01130   48.00770   50.75450   50.75450    9.69240   34.03650   34.03650   48.00770   59.29590   92.93810   59.29590    0.02700    2.69060   -0.08900    0.02700 -122.66240 -102.07970   92.93810
 8600.00000   12.18210   12.27290    9.67880    9.67880    -999.25    1.16760    0.24760    0.24760    2.50380    0.11970    -999.25    0.12060  856.45850   59.18120   59.18120    8.44630   10.62400   10.62400  856.45850 1571.92250 1262.43420 1571.92250    0.10790    2.50380   -0.00770    0.10790 -111.39210  -91.46020 1262.43420
 8650.00000    9.06090    9.24870    8.66470    8.66470    -999.25   17.76370    0.21780    0.21780    2.78640   -0.04380    -999.25   -0.04470   56.29460   48.97770   48.97770   10.57610   14.37020   14.37020   56.29460   94.31850  251.72470   94.31850    0.12190    2.78640    0.00620    0.12190 -135.00920 -115.72380  251.72470
 8700.00000    8.75420   10.06380    9.08590    9.08590    -999.25    9.73570    0.03520    0.03520    2.85510   -0.08920    -999.25   -0.08480  102.71440   48.72970   48.72970   14.39290   15.04280   15.04280  102.71440  153.45540  487.86360  153.45540    0.04020    2.85510   -0.07400    0.04020 -114.74390  -96.10930  487.86360
 8750.00000    8.98550    9.25500    8.97740    8.97740    -999.25   53.05720    0.02400    0.02400    2.68620    0.00630    -999.25    0.01390   18.84760   57.91530   57.91530   61.47460   60.03620   60.03620   18.84760   22.12400   25.32880   22.12400    0.03770    2.68620   -0.07830    0.03770  -22.64980   -4.66180   25.32880
 8800.00000   14.96610   13.82330    8.88080    8.88080    -999.25   26.90760    0.18920    0.18920    2.14340    0.29970    -999.25    0.33130   37.16420   52.52240   52.52240   20.57120   25.49990   25.49990   37.16420   40.55760   46.05700   40.55760    0.22860    2.14340    0.11260    0.22860 -100.39320  -87.55360   46.05700
 8850.00000   12.94080   13.13610    9.00440    9.00440    -999.25   12.53730    0.21800    0.21800    2.27390    0.22870    -999.25    0.25500   79.76200   51.98640   51.98640   38.56070   40.82660   40.82660   79.76200   77.75510   51.13010   77.75510    0.13920    2.27390    0.02330    0.13920  -94.46120  -86.92640   51.13010
 8900.00000   12.30580   11.62830    9.59370    9.59370    -999.25    8.19120    0.25000    0.25000    2.56680    0.08210    -999.25    0.08370  122.08150   53.05380   53.05380   26.70460   24.20170   24.20170  122.08150  110.10720   87.88110  110.10720    0.15140    2.56680    0.03600    0.15140  -81.85170  -79.58690   87.88110
 8950.00000    9.15920    9.01690    8.92250    8.92250    -999.25    8.33110    0.05100    0.05100    2.81120   -0.06290    -999.25   -0.05920  120.03240   52.75640   52.75640   30.20050   29.54070   29.54070  120.03240  210.35440  210.01760  210.35440    0.02940    2.81120   -0.08800    0.02940   -3.28060   -6.32060  210.01760
 9000.00000    9.10110    9.10370    8.96430    8.96430    -999.25   24.85530    0.04090    0.04090    2.72400   -0.00880    -999.25   -0.00820   40.23280   55.83140   55.83140   37.61260   35.74310   35.74310   40.23280   50.36280   59.81020   50.36280    0.03800    2.72400   -0.08010    0.03800   -6.19840   -7.82120   59.81020
 9050.00000    9.42850    9.52310    9.31540    9.31540    -999.25   91.46700    0.04990    0.04990    2.74270   -0.02220    -999.25   -0.01910   10.93290   65.09860   65.09860   58.90640   60.07780   60.07780   10.93290   11.94430   14.63150   11.94430    0.07630    2.74270   -0.04110    0.07630   -5.66400   -4.79770   14.63150
 9100.00000    9.10090    9.20890    9.22150    9.22150    -999.25   24.08930    0.04900    0.04900    2.76510   -0.03410    -999.25   -0.03220   41.51220   60.40680   60.40680   47.11380   51.08500   51.08500   41.51220   51.80660   25.68630   51.80660    0.06270    2.76510   -0.05430    0.06270  -10.57660   -6.48850   25.68630
 9150.00000    9.08210    9.19150    8.77860    8.77860    -999.25   41.93750    0.01500    0.01500    2.73890   -0.01700    -999.25   -0.01690   23.84500   61.63050   61.63050   50.24350   43.90300   43.90300   23.84500   28.33280   32.45300   28.33280    0.06970    2.73890   -0.04720    0.06970  -18.00400  -10.09900   32.45300
 9200.00000   14.44600   14.71000   10.32260   10.32260    -999.25  186.73440    0.22010    0.22010    2.44880    0.12610    -999.25    0.15270    5.35520   82.37410   82.37410   80.70240   83.20530   83.20530    5.35520    5.98090    8.32860    5.98090    0.29940    2.44880    0.20670    0.29940  -15.04970   -3.30270    8.32860
 9250.00000    9.03320    9.18620    8.97120    8.97120    -999.25   22.34730    0.01860    0.01860    2.68350    0.01710    -999.25    0.01550   44.74810   67.29930   67.29930   72.97850   72.64260   72.64260   44.74810   60.69790   72.63710   60.69790    0.12160    2.68350    0.00680    0.12160  -19.47190   -6.22890   72.63710
 9300.00000   10.76030   11.08370    9.65380    9.65380    -999.25   98.17400    0.19640    0.19640    2.46400    0.14570    -999.25    0.14390   10.18600   73.80350   73.80350   78.07180   67.55690   67.55690   10.18600    9.00390   13.51780    9.00390    0.22410    2.46400    0.10500    0.22410  -30.24340  -15.79660   13.51780
 9350.00000   13.88550   13.94550   11.26960   11.26960    -999.25  164.85600    0.24080    0.24080    2.42490    0.16460    -999.25    0.16670    6.06590   79.03590   79.03590   83.10200   81.29190   81.29190    6.06590    6.25430    8.57130    6.25430    0.30000    2.42490    0.21470    0.30000  -30.28730  -14.62880    8.57130
