~Version ---------------------------------------------------
VERS.      2.0 : CWLS log ASCII Standard -VERSION 2.0
WRAP.       NO : One line per depth step
CREA. 08/04/17 : LAS Creation Date
~Well ------------------------------------------------------
STRT.FT                             1100.0 : START DEPTH
STOP.FT                            11250.0 : STOP DEPTH
STEP.FT                           50.00000 : STEP LENGTH
NULL.                              -999.25 : NULL VALUE
COMP.                 PETROFINA CANADA LTD : COMPANY
WELL. FINA AMOCO HB SAKWATAMAU 10-21-62-15 : WELL
FLD .                                   WC : FIELD
LOC .                                      : LOCATION
CTRY.                               CANADA : COUNTRY
SRVC.                         Schlumberger : SERVICE COMPANY
DATE.                          21-Aug-1976 : LOGDATE
PROV.                              Alberta : PROVINCE
UWI .                     100102106215W500 : UNIQUE WELL ID
SLAT.WGS84                        54.37886 : SURFACE LATITUDE
SLON.WGS84                       -116.1857 : SURFACE LONGITUDE
~Curve Information -----------------------------------------
DEPT    .FT    : Depth Curve
CALDED  .IN    : CALIPER FROM CND LOG [ADJ. TO ILDED]
CALSED  .IN    : CALIPER FROM BCS LOG [ADJ. TO GRDED]
CALWS   .IN    : CALIPER [CALSED]
CILDED  .MMHO  : DEEP INDUCTION CONDUCTIVITY FROM DIL-LAT LOG
CONDWS  .MMHO  : CONDUCTIVITY [CILDED]
DCORWS  .G/C3  : DENSITY CORRECTION [DRHOED]
DENWS   .G/C3  : FROMATION BILK DENSITY [RHOBED]
DPHILSED.V/V   : DENSITY POROSITY LIMESTONE [M=2.71, F=1000] FROM CND LOG [ADJ. TO RHOBED]
DPHISSED.V/V   : DENSITY POROSITY SANDSTONE [M=2.65, F=1.00] FROM CND LOG [ADJ. TO RHOBED]
DPOLSWS .V/V   : DENSITY POROSITY LIMESTONE [CALCULATED FROM DENWS, M=2.71, F=1.00]
DRESWS  .OHMM  : DEEP RESISTIVITY [spl. 1000/CONDWS, IF ILDED <=1, ILDED/ILDED at 4490']
DRHOED  .G/C3  : BULK DENSITY CORRECTION FROM CND LOG [ADJ. TO ILDED]
DTED    .US/F  : DELTA-T (INTERVAL TRANSIT TIME) FROM BCS LOG  [ADJ. TO GRDED]
DTWS    .US/F  : COMPRESSIONA L SONIC [DTED]
GRDED   .GAPI  : GAMMA RAY FROM CND LOG [ADJ. TO ILDED]
GRSED   .GAPI  : GAMMA RAY FROM BCS LOG  [ADJ. TO GRDED]
GRWS    .GAPI  : GAMMA RAY [GRSED SPL. TO GRDED @ 11233.5']
ILDED   .OHMM  : DEEP INDUCTION RESISTIVITY FROM DIL-LAT LOG
ILMED   .OHMM  : MEDIUM INDUCTION  RESISTIVITY FROM DIL-LAT LOG
LL8ED   .OHMM  : LATEROLOG 8 FROM DIL-LAT LOG
MRESWS  .OHMM  : MEDIUM RESISTIVITY [ILMED]
NPHILSED.V/V   : NEUTRON POROSITY LIMESTONE FROM CND LOG [ADJ. TO RHOBED]
NPHISSED.V/V   : NEUTRON POROSITY SANDSTONE FROM CND LOG [ADJ. TO RHOBED]
NPOLSWS .V/V   : NEUTRON POROSITY LIMESTONE [NPHISSED MATRIX CONVERSION FRO LIMESTONE,SPL TO NPHILSED @ 6345']
RHOBED  .G/C3  : BULK DENSITY FROM CND LOG [ADJ. TO ILDED]
SPRED   .MV    : SPONTANEOUS POTENTIAL FROM DIL-LAT LOG
SPWS    .MV    : SPONTANEOUS POTENTIAL [BASELINE 0 MV, SPRED]
SRESWS  .OHMM  : SHALLOW RESISTIVITY [LL8ED]
~Params ----------------------------------------------------
PD  .                     GL : PERMANENT DATUM
EPD .FT               3315.9 : ELEVATION PERMANENT DATUM
LMF .                     KB : LOG MEASURED FROM
DAPD.FT                 15.1 : FEET ABOVE PERMANENT DATUM
EKB .FT                 3331 : KELLY BUSHING
EGL .FT               3315.9 : GROUND LEVEL
DATE.               08/21/76 : RUN DATE
RUN .                      1 : RUN NUMBER
DD  .FT                11275 : DEPTH DRILLER
DL  .FT                11270 : DEPTH LOGGER
BLI .FT                11267 : BOTTOM LOG INTERVAL
TLI .FT                 1134 : TOP LOG INTERVAL
CBD .FT                 1134 : CASING BOTTOM DRILLER
CBL .FT                 1134 : CASING BOTTOM LOGGER
BS  .IN                 8.75 : BIT SIZE
BSD .FT                11275 : BIT SIZE AT DEPTH
DFT .               GEL CHEM : DRILLING FLUID TYPE
DFD .                    9.5 : DRILLING FLUID DENSITY
DFV .                     95 : DRILLING FLUID VISCOSITY
DFPH.                   10.5 : DRILLING FLUID PH
DFL .                      7 : DRILLING FLUID LOSS
MSS .               FLOWLINE : MUD SAMPLE SOURCE
RMS .OHMM                2.7 : RESISTIVITY MUD SAMPLE
MST .DEGF                 55 : MUD SAMPLE TEMPERATURE
RMF .OHMM               2.65 : RESISTIVITY MUD FILTRATE SAMPLE
MFST.DEGF                 56 : MUD FILTRATE SAMPLE TEMPERATURE
RMB .OHMM               0.56 : RESISTIVITY MUD AT BHT
TCS .HRS                 3.5 : TIME CIRCULATED STOPPED
LUN .                   7691 : LOGGING UNIT NUMBER
LUL .                    WCT : LOGGING UNIT LOCATION
ENGI.                GOODMAN : RECORDING ENGINEER
WITN.                 TIFFIN : WITNESSED BY
CLNT.                A2DTECH : CLIENT CODE
ORIG.            2" 5" PRINT : ORIGIN OF DATA
UWI .       100102106215W500 : UNIQUE WELL ID
DICO. A2D Technologies, Inc. : DIGITIZING COMPANY
~Other -----------------------------------------------------
~ASCII -----------------------------------------------------
# ...
 2350.00000    -999.25    9.11230    9.11230  311.95070  297.28280    -999.25    -999.25    -999.25    -999.25    -999.25    3.36380    -999.25  120.30260  120.30260    -999.25   80.41900   80.41900    3.36380    -999.25    2.98550    -999.25    -999.25    -999.25    -999.25    -999.25  -55.12390   -3.52830    2.98550
 2400.00000    -999.25    9.34220    9.34220  318.13400  353.60680    -999.25    -999.25    -999.25    -999.25    -999.25    2.82800    -999.25  121.86190  121.86190    -999.25   76.32420   76.32420    2.82800    -999.25    3.16670    -999.25    -999.25    -999.25    -999.25    -999.25  -56.33820   -5.30670    3.16670
 2450.00000    -999.25    9.06050    9.06050  279.51370  308.21390    -999.25    -999.25    -999.25    -999.25    -999.25    3.24450    -999.25   98.28570   98.28570    -999.25   74.01560   74.01560    3.24450    -999.25    3.74730    -999.25    -999.25    -999.25    -999.25    -999.25  -54.53720   -4.46800    3.74730
 2500.00000    -999.25    8.53280    8.53280  145.22290  164.63340    -999.25    -999.25    -999.25    -999.25    -999.25    6.07410    -999.25  101.63470  101.63470    -999.25   56.78970   56.78970    6.07410    -999.25    6.89390    -999.25    -999.25    -999.25    -999.25    -999.25  -59.62750  -11.75680    6.89390
 2550.00000    -999.25    9.22070    9.22070  320.63560  340.80840    -999.25    -999.25    -999.25    -999.25    -999.25    2.93420    -999.25   96.25200   96.25200    -999.25   82.92300   82.92300    2.93420    -999.25    3.37550    -999.25    -999.25    -999.25    -999.25    -999.25  -50.94030   -5.26810    3.37550
 2600.00000    -999.25    8.62410    8.62410  163.22020  174.36490    -999.25    -999.25    -999.25    -999.25    -999.25    5.73510    -999.25   99.07990   99.07990    -999.25   60.89980   60.89980    5.73510    -999.25    6.06180    -999.25    -999.25    -999.25    -999.25    -999.25  -48.26130   -4.79350    6.06180
 2650.00000    -999.25    8.44560    8.44560  103.80840  103.08320    -999.25    -999.25    -999.25    -999.25    -999.25    9.70090    -999.25   96.68570   96.68570    -999.25   55.87410   55.87410    9.70090    -999.25   10.52390    -999.25    -999.25    -999.25    -999.25    -999.25  -60.52390  -18.28020   10.52390
 2700.00000    -999.25    9.01260    9.01260  100.21540   88.45490    -999.25    -999.25    -999.25    -999.25    -999.25   11.30520    -999.25   74.43690   74.43690    -999.25   54.30110   54.30110   11.30520    -999.25   18.78300    -999.25    -999.25    -999.25    -999.25    -999.25  -48.89270   -7.26540   18.78300
 2750.00000    -999.25    9.45890    9.45890  284.74750  315.36790    -999.25    -999.25    -999.25    -999.25    -999.25    3.17090    -999.25  122.95040  122.95040    -999.25   76.10880   76.10880    3.17090    -999.25    3.48870    -999.25    -999.25    -999.25    -999.25    -999.25  -47.38910   -6.37420    3.48870
 2800.00000    -999.25    9.50950    9.50950  260.71500  282.55770    -999.25    -999.25    -999.25    -999.25    -999.25    3.53910    -999.25   95.79830   95.79830    -999.25   66.36570   66.36570    3.53910    -999.25    3.93520    -999.25    -999.25    -999.25    -999.25    -999.25  -45.04240   -4.63980    3.93520
 2850.00000    -999.25    9.06470    9.06470  285.49510  312.75410    -999.25    -999.25    -999.25    -999.25    -999.25    3.19740    -999.25  109.23590  109.23590    -999.25   64.20240   64.20240    3.19740    -999.25    3.40450    -999.25    -999.25    -999.25    -999.25    -999.25  -41.45570   -1.66950    3.40450
 2900.00000    -999.25    9.66260    9.66260  284.00810  319.89760    -999.25    -999.25    -999.25    -999.25    -999.25    3.12600    -999.25  103.27410  103.27410    -999.25   61.35790   61.35790    3.12600    -999.25    3.56210    -999.25    -999.25    -999.25    -999.25    -999.25  -44.24120   -4.50260    3.56210
 2950.00000    -999.25    9.38700    9.38700  162.31270  154.40440    -999.25    -999.25    -999.25    -999.25    -999.25    6.47650    -999.25   92.15450   92.15450    -999.25   59.63020   59.63020    6.47650    -999.25    6.02320    -999.25    -999.25    -999.25    -999.25    -999.25  -43.59070   -3.83030    6.02320
 3000.00000    -999.25    9.78290    9.78290  189.11430  179.23070    -999.25    -999.25    -999.25    -999.25    -999.25    5.57940    -999.25   98.01220   98.01220    -999.25   55.71800   55.71800    5.57940    -999.25    5.47040    -999.25    -999.25    -999.25    -999.25    -999.25  -49.12930   -9.34730    5.47040
 3050.00000    -999.25    9.55060    9.55060  264.26990  291.59620    -999.25    -999.25    -999.25    -999.25    -999.25    3.42940    -999.25  102.32940  102.32940    -999.25   66.25790   66.25790    3.42940    -999.25    3.83760    -999.25    -999.25    -999.25    -999.25    -999.25  -42.59270   -2.78900    3.83760
 3100.00000    -999.25    8.64230    8.64230   79.49680   69.71460    -999.25    -999.25    -999.25    -999.25    -999.25   14.34420    -999.25   91.39270   91.39270    -999.25   51.08590   51.08590   14.34420    -999.25   15.64810    -999.25    -999.25    -999.25    -999.25    -999.25  -63.09140  -23.26600   15.64810
 3150.00000    -999.25    9.06900    9.06900  203.17270  206.81240    -999.25    -999.25    -999.25    -999.25    -999.25    4.83530    -999.25  103.88230  103.88230    -999.25   56.91550   56.91550    4.83530    -999.25    5.05590    -999.25    -999.25    -999.25    -999.25    -999.25  -42.65950   -2.81250    5.05590
 3200.00000    -999.25    8.49810    8.49810  121.15030  130.70870    -999.25    -999.25    -999.25    -999.25    -999.25    7.65060    -999.25   86.90200   86.90200    -999.25   57.27940   57.27940    7.65060    -999.25    8.74630    -999.25    -999.25    -999.25    -999.25    -999.25  -51.03800  -11.16920    8.74630
 3250.00000    -999.25    9.07420    9.07420  161.86380  160.94250    -999.25    -999.25    -999.25    -999.25    -999.25    6.21340    -999.25   94.84250   94.84250    -999.25   59.02730   59.02730    6.21340    -999.25    7.18090    -999.25    -999.25    -999.25    -999.25    -999.25  -42.45130   -2.67470    7.18090
 3300.00000    -999.25    8.95520    8.95520  123.38070  120.17060    -999.25    -999.25    -999.25    -999.25    -999.25    8.32150    -999.25   95.17430   95.17430    -999.25   59.40500   59.40500    8.32150    -999.25    8.68810    -999.25    -999.25    -999.25    -999.25    -999.25  -66.68130  -27.37660    8.68810
 3350.00000    -999.25    9.03730    9.03730  136.40850  136.18970    -999.25    -999.25    -999.25    -999.25    -999.25    7.34270    -999.25   91.85780   91.85780    -999.25   59.17780   59.17780    7.34270    -999.25    8.26240    -999.25    -999.25    -999.25    -999.25    -999.25  -53.25580  -14.42610    8.26240
 3400.00000    -999.25    9.02590    9.02590  122.04030  117.10970    -999.25    -999.25    -999.25    -999.25    -999.25    8.53900    -999.25   92.97490   92.97490    -999.25   47.96930   47.96930    8.53900    -999.25    9.13480    -999.25    -999.25    -999.25    -999.25    -999.25  -61.16490  -22.80720    9.13480
 3450.00000    -999.25   10.06810   10.06810  249.03730  275.51250    -999.25    -999.25    -999.25    -999.25    -999.25    3.62960    -999.25  111.82440  111.82440    -999.25   67.20860   67.20860    3.62960    -999.25    3.96170    -999.25    -999.25    -999.25    -999.25    -999.25  -46.84900   -8.96630    3.96170
 3500.00000    -999.25    9.79260    9.79260  249.80070  257.11570    -999.25    -999.25    -999.25    -999.25    -999.25    3.88930    -999.25   97.33170   97.33170    -999.25   77.28400   77.28400    3.88930    -999.25    4.05440    -999.25    -999.25    -999.25    -999.25    -999.25  -41.93660   -3.34630    4.05440
 3550.00000    -999.25   10.19380   10.19380  186.47890  200.17210    -999.25    -999.25    -999.25    -999.25    -999.25    4.99570    -999.25   95.40570   95.40570    -999.25   96.19170   96.19170    4.99570    -999.25    5.31040    -999.25    -999.25    -999.25    -999.25    -999.25  -50.91730  -11.23420    5.31040
