~Version ---------------------------------------------------
VERS.      2.0 : CWLS log ASCII Standard -VERSION 2.0
WRAP.       NO : One line per depth step
CREA. 08/31/17 : LAS Creation Date
~Well ------------------------------------------------------
STRT.FT                        1200.0 : START DEPTH
STOP.FT                       12200.0 : STOP DEPTH
STEP.FT                      50.00000 : STEP LENGTH
NULL.                         -999.25 : NULL VALUE
COMP.                SULPETRO LIMITED : COMPANY
WELL. CAN DELHI ET AL WOLF 6-10-52-16 : WELL
FLD .                                 : FIELD
LOC .                                 : LOCATION
CTRY.                          CANADA : COUNTRY
SRVC.                    Schlumberger : SERVICE COMPANY
DATE.                     19-Apr-1969 : LOGDATE
PROV.                         Alberta : PROVINCE
UWI .                100061005216W500 : UNIQUE WELL ID
SLAT.WGS84              53.4730048794 : SURFACE LATITUDE
SLON.WGS84            -116.2792429971 : SURFACE LONGITUDE
~Curve Information -----------------------------------------
DEPT  .FT    : Depth Curve
CALSED.IN    : CALIPER FROM SLC-GR LOG
CALWS .IN    : CALIPER [CALSED]
CONDWS.MMHO  : CONDUCTIVITY [1000/DRESWS]
DRESWS.OHMM  : DEEP RESISTIVITY [ILDED]
DTED  .US/F  : DELTA-T (INTERVAL TRANSIT TIME) FROM SLC-GR LOG
DTWS  .US/F  : COMPRESSIONAL  SONIC [DTED]
GRSED .GAPI  : GAMMA RAY FROM SLC-GR LOG
GRWS  .GAPI  : GAMMA RAY [GRSED]
ILDED .OHMM  : DEEP INDUCTION RESISTIVITY FROM DIL LOG
ILMED .OHMM  : MEDIUM INDUCTION RESISTIVITY FROM DIL LOG
LL8ED .OHMM  : LATEROLOG 8 FROM DIL LOG
MRESWS.OHMM  : MEDIUM RESISTIVITY [ILMED]
SPRED .MV    : SPONTANEOUS POTENTIAL FROM DIL LOG
SPWS  .MV    : SPONTANEOUS POTENTIAL [BASELINE 0 MV, SPRED]
SRESWS.OHMM  : SHALLOW RESISTIVITY [LL8ED]
~Params ----------------------------------------------------
PD  .                     GL : PERMANENT DATUM
EPD .FT                 3113 : ELEVATION PERMANENT DATUM
LMF .                     KB : LOG MEASURED FROM
DAPD.FT                   14 : FEET ABOVE PERMANENT DATUM
EKB .FT                 3127 : KELLY BUSHING
EGL .FT                 3113 : GROUND LEVEL
DATE.               04/19/69 : RUN DATE
RUN .                      1 : RUN NUMBER
DD  .FT                12226 : DEPTH DRILLER
DL  .FT                12210 : DEPTH LOGGER
BLI .FT                12206 : BOTTOM LOG INTERVAL
TLI .FT                 1240 : TOP LOG INTERVAL
CBD .FT                 1240 : CASING BOTTOM DRILLER
CBL .FT                 1240 : CASING BOTTOM LOGGER
BS  .IN                 8.75 : BIT SIZE
BSD .FT                12226 : BIT SIZE AT DEPTH
DFT .                    GEL : DRILLING FLUID TYPE
DFD .                    9.3 : DRILLING FLUID DENSITY
DFV .                    118 : DRILLING FLUID VISCOSITY
DFPH.                     11 : DRILLING FLUID PH
DFL .                    6.2 : DRILLING FLUID LOSS
MSS .    CIRCULATED FLOWLINE : MUD SAMPLE SOURCE
RMS .OHMM               1.35 : RESISTIVITY MUD SAMPLE
MST .DEGF                 59 : MUD SAMPLE TEMPERATURE
RMF .OHMM               0.95 : RESISTIVITY MUD FILTRATE SAMPLE
MFST.DEGF                 61 : MUD FILTRATE SAMPLE TEMPERATURE
RMC .OHMM               1.16 : RESISTIVITY MUD CAKE
MCST.DEGF                 61 : MUD CAKE SAMPLE TEMPERATURE
TCS .HRS                 330 : TIME CIRCULATED STOPPED
LUN .                   7501 : LOGGING UNIT NUMBER
LUL .                    EDM : LOGGING UNIT LOCATION
ENGI.               CHADDOCK : RECORDING ENGINEER
WITN.                   HALL : WITNESSED BY
CLNT.                A2DTECH : CLIENT CODE
ORIG.            2" 5" PRINT : ORIGIN OF DATA
UWI .       100061005216W500 : UNIQUE WELL ID
DICO. A2D Technologies, Inc. : DIGITIZING COMPANY
~Other -----------------------------------------------------
~ASCII -----------------------------------------------------
# ...
 10400.00000    8.72840    8.72840    8.28600  120.80250   48.33590   48.33590    9.24460    9.24460  120.80250  496.65140  725.47410  496.65140 -129.31740  -72.53040  725.47410
 10450.00000    8.71140    8.71140   10.60660   94.28110   54.87220   54.87220    9.69460    9.69460   94.28110  136.08700  143.78150  136.08700 -152.08460  -95.99040  143.78150
 10500.00000    9.27990    9.27990   14.91980   67.02520   52.40200   52.40200   26.92370   26.92370   67.02520   58.27000  225.39490   58.27000 -155.08730  -99.68150  225.39490
 10550.00000    9.23300    9.23300    9.11940  109.67640   52.42610   52.42610   31.72070   31.72070  109.67640  153.59160  501.65780  153.59160  -84.18140  -29.46390  501.65780
 10600.00000    8.92330    8.92330   14.76710   67.71800   53.95800   53.95800   42.61960   42.61960   67.71800   87.56120  181.59190   87.56120  -80.72420  -29.06530  181.59190
 10650.00000    9.15550    9.15550   34.68150   28.83490   58.20670   58.20670   48.39320   48.39320   28.83490   33.18830   52.36220   33.18830  -88.96860  -41.12490   52.36220
 10700.00000    9.00670    9.00670   28.95280   34.53900   56.43190   56.43190   50.09730   50.09730   34.53900   42.96090   58.51520   42.96090  -86.03220  -42.02880   58.51520
 10750.00000   10.00970   10.00970   82.88990   12.06420   66.70650   66.70650   65.32180   65.32180   12.06420   13.08690   19.58090   13.08690  -83.77660  -43.58850   19.58090
 10800.00000   12.48900   12.48900   77.73380   12.86640   78.15540   78.15540   77.72290   77.72290   12.86640   11.24160   22.72930   11.24160  -92.78040  -56.40750   22.72930
 10850.00000    9.32140    9.32140   28.31070   35.32230   67.31740   67.31740   80.01780   80.01780   35.32230   36.97620   49.34390   36.97620  -94.66900  -62.13640   49.34390
 10900.00000    9.39560    9.39560   61.13870   16.35660   63.95570   63.95570   57.47190   57.47190   16.35660   22.62430   37.13030   22.62430  -90.09710  -61.37980   37.13030
 10950.00000    8.90990    8.90990   39.26970   25.46490   60.48020   60.48020   62.75740   62.75740   25.46490   26.49220   46.61750   26.49220  -95.30750  -70.43050   46.61750
 11000.00000    9.63720    9.63720   78.61200   12.72070   68.58520   68.58520   81.20480   81.20480   12.72070   14.52100   20.68460   14.52100  -63.35670  -42.29490   20.68460
 11050.00000    9.14250    9.14250   76.49440   13.07310   66.14810   66.14810   77.32250   77.32250   13.07310   13.76550   21.35860   13.76550  -50.79810  -33.55150   21.35860
 11100.00000    8.86620    8.86620   47.61630   21.00120   61.27480   61.27480   66.76090   66.76090   21.00120   23.08330   34.94990   23.08330  -61.23800  -47.83180   34.94990
 11150.00000    9.68630    9.68630   69.06770   14.48030   69.12070   69.12070   92.54110   92.54110   14.48030   13.37850   23.45220   13.37850  -13.78290   -3.84080   23.45220
 11200.00000    9.56240    9.56240   75.04520   13.32530   67.10770   67.10770   76.06180   76.06180   13.32530   13.70680   21.30220   13.70680  -41.07630  -28.25980   21.30220
 11250.00000    9.94730    9.94730  105.58100    9.47140   70.62510   70.62510   86.28820   86.28820    9.47140   10.05270   14.28560   10.05270  -52.04860  -36.37650   14.28560
 11300.00000    9.78700    9.78700   84.87680   11.78180   68.20250   68.20250   83.61000   83.61000   11.78180   12.36460   20.08300   12.36460  -56.89600  -38.36820   20.08300
 11350.00000   10.15940   10.15940   90.96620   10.99310   67.85100   67.85100   84.40100   84.40100   10.99310   11.74210   18.09900   11.74210  -26.10950   -4.70730   18.09900
 11400.00000    9.94410    9.94410   94.42160   10.59080   71.95150   71.95150   90.57640   90.57640   10.59080   10.93360   17.60650   10.93360  -52.18500  -30.80130   17.60650
 11450.00000    9.30530    9.30530   86.99740   11.49460   68.81010   68.81010   81.62270   81.62270   11.49460   10.98320   19.31630   10.98320  -51.91770  -30.84620   19.31630
 11500.00000    8.82700    8.82700   47.27890   21.15110   59.34780   59.34780   53.80290   53.80290   21.15110   23.86120   43.72310   23.86120  -42.15580  -21.39440   43.72310
 11550.00000    9.15360    9.15360   37.27830   26.84050   72.33370   72.33370   72.22860   72.22860   26.84050   28.31310   47.57730   28.31310  -51.18040  -30.72910   47.57730
 11600.00000    8.76240    8.76240    5.89550  169.61950   69.56400   69.56400  101.79830  101.79830  169.61950 1467.53690 1136.23350 1467.53690  -78.92730  -58.78810 1136.23350
 11650.00000    8.79970    8.79970   20.46090   50.64550   71.78080   71.78080  131.83950  131.83950   50.64550   67.35060  581.78150   67.35060  -72.09470  -52.26560  581.78150
 11700.00000   10.82850   10.82850   33.43150   29.91190   75.03120   75.03120   86.17140   86.17140   29.91190   18.36710   47.93080   18.36710  -64.73290  -45.21600   47.93080
 11750.00000    8.78240    8.78240    8.61840  116.03110   55.15820   55.15820   44.83980   44.83980  116.03110  192.96810  538.35990  192.96810  -39.22010  -20.01330  538.35990
 11800.00000    8.94680    8.94680   42.36950   23.60590   62.34270   62.34270   73.27170   73.27170   23.60590   24.98290   38.98040   24.98290  -21.46280   -2.00710   38.98040
 11850.00000    9.14490    9.14490    2.46560  405.58650   49.39200   49.39200    5.65280    5.65280  405.58650 1463.69010 1149.13530 1463.69010  -90.67960  -65.42650 1149.13530
 11900.00000    9.87010    9.87010    7.70070  129.86270   50.59500   50.59500   13.25730   13.25730  129.86270  206.14450 1177.50570  206.14450 -103.54890  -72.53630 1177.50570
 11950.00000    8.61770    8.61770   61.18570   16.34370   55.97480   55.97480    9.19260    9.19260   16.34370   24.19120   64.36380   24.19120 -128.13900  -91.32900   64.36380
 12000.00000    9.44190    9.44190    4.48920  222.75780   49.14280   49.14280   13.17310   13.17310  222.75780 1610.86940 1160.46150 1610.86940 -164.71120 -122.14180 1160.46150
 12050.00000    9.16420    9.16420    4.46860  223.80000   49.67570   49.67570    9.07480    9.07480  223.80000 1695.21470 1148.58860 1695.21470 -129.74540  -81.41650 1148.58860
 12100.00000    8.80830    8.80830    4.61580  216.64900   51.04940   51.04940   34.67110   34.67110  216.64900 1703.32500 1174.19580 1703.32500  -84.17110  -30.04480 1174.19580
 12150.00000    8.81990    8.81990  489.03180    2.05470   66.05500   66.05500   68.36510   68.36510    2.05470    2.23580    4.72190    2.23580  -91.80360  -31.91790    4.72190
 12200.00000    8.77930    8.77930   31.55760   31.68810    -999.25    -999.25    -999.25    -999.25   31.68810   54.06550    -999.25   54.06550    -999.25    -999.25    -999.25
