~Version ---------------------------------------------------
VERS.      2.0 : CWLS log ASCII Standard -VERSION 2.0
WRAP.       NO : One line per depth step
CREA. 12/14/17 : LAS Creation Date
~Well ------------------------------------------------------
STRT.FT                          1300.0 : START DEPTH
STOP.FT                         13000.0 : STOP DEPTH
STEP.FT                        50.00000 : STEP LENGTH
NULL.                           -999.25 : NULL VALUE
COMP.            AMERADA PETROLEUM CORP : COMPANY
WELL. AMERADA HB CR DR SUNDRE 4-16-33-5 : WELL
FLD .                           WILDCAL : FIELD
LOC .                                   : LOCATION
CTRY.                            CANADA : COUNTRY
SRVC.                      Schlumberger : SERVICE COMPANY
DATE.                       14-Sep-1963 : LOGDATE
PROV.                           Alberta : PROVINCE
UWI .                  100041603305W500 : UNIQUE WELL ID
SLAT.WGS84                     51.82557 : SURFACE LATITUDE
SLON.WGS84                    -114.6593 : SURFACE LONGITUDE
~Curve Information -----------------------------------------
DEPT  .FT    : Depth Curve
CALSED.IN    : CALIPER FROM SONIC LOG, DEPTH ADJUSTED WITH [ILDED]
CALWS .IN    : CALIPER [CALSED]
CILDED.MMHO  : CONDUCTIVITY FROM RESISTIVITY LOG
CONDWS.MMHO  : CONDUCTIVITY [1000/DRESWS]
DRESWS.OHMM  : DEEP RESISTIVITY [ILDED] IF DRESWS<1;1000/CONDWS
DTED  .US/F  : DELTA TIME FROM SONIC LOG, DEPTH ADJUSTED WITH [ILDED]
DTWS  .US/F  : DELTA TIME [DTED]
GRSED .GAPI  : GAMMA RAY FROM SONIC LOG, DEPTH ADJUSTED WITH [ILDED]
GRWS  .GAPI  : GAMMA RAY [GRSED]
ILDED .OHMM  : INDUCTION LOG DEEP RESISTIVITY
SNED  .OHMM  : 16 INCH SHORT NORMAL RESISTIVITY FROM IEL
SPRED .MV    : SPONTANEOUS POTENTIAL FROM RESISTIVITY LOG
SPWS  .MV    : SPONTANEOUS POTENTIAL [BASELINE 0 MV] [SPRED]
SRESWS.OHMM  : SHALLOW RESISTIVITY [SNED]
~Params ----------------------------------------------------
PD  .                     GL : PERMANENT DATUM
EPD .FT                 3748 : ELEVATION PERMANENT DATUM
LMF .                     KB : LOG MEASURED FROM
DAPD.FT                   15 : FEET ABOVE PERMANENT DATUM
EKB .FT                 3763 : KELLY BUSHING
EGL .FT                 3748 : GROUND LEVEL
DATE.               09/14/63 : RUN DATE
RUN .                      3 : RUN NUMBER
DD  .FT                13033 : DEPTH DRILLER
DL  .FT                13033 : DEPTH LOGGER
BLI .FT                13032 : BOTTOM LOG INTERVAL
TLI .FT                12190 : TOP LOG INTERVAL
BS  .IN                 8.75 : BIT SIZE
BSD .FT                13033 : BIT SIZE AT DEPTH
DFT .                    GEL : DRILLING FLUID TYPE
DFD .                     10 : DRILLING FLUID DENSITY
DFV .                    255 : DRILLING FLUID VISCOSITY
DFPH.                     11 : DRILLING FLUID PH
DFL .                    5.8 : DRILLING FLUID LOSS
RMS .OHMM               1.42 : RESISTIVITY MUD SAMPLE
MST .DEGF                 56 : MUD SAMPLE TEMPERATURE
RMF .OHMM               0.91 : RESISTIVITY MUD FILTRATE SAMPLE
MFST.DEGF                 57 : MUD FILTRATE SAMPLE TEMPERATURE
RMC .OHMM               1.56 : RESISTIVITY MUD CAKE
MCST.DEGF                 58 : MUD CAKE SAMPLE TEMPERATURE
RMB .OHMM               0.42 : RESISTIVITY MUD AT BHT
TCS .HRS                   2 : TIME CIRCULATED STOPPED
LUN .                   4508 : LOGGING UNIT NUMBER
LUL .                     RD : LOGGING UNIT LOCATION
ENGI.                   LYNN : RECORDING ENGINEER
WITN.                MERRETT : WITNESSED BY
CLNT.                A2DTECH : CLIENT CODE
ORIG.            2" 5" PRINT : ORIGIN OF DATA
UWI .       100041603305W500 : UNIQUE WELL ID
DICO. A2D Technologies, Inc. : DIGITIZING COMPANY
~Other -----------------------------------------------------
~ASCII -----------------------------------------------------
# ...
 8650.00000   11.83150   11.83150   78.96630   76.25670   13.11360   61.98450   61.98450  132.60420  132.60420   13.11360   16.22720  -13.60070  -10.80760   16.22720
 8700.00000   11.96670   11.96670   59.00290   57.06360   17.52430   64.98730   64.98730  103.51510  103.51510   17.52430   22.70300  -18.21730  -15.61690   22.70300
 8750.00000   12.26690   12.26690   50.74890   47.38780   21.10250   66.44970   66.44970  119.07590  119.07590   21.10250   22.69940  -17.30050  -14.89290   22.69940
 8800.00000   11.79170   11.79170   55.43700   53.00180   18.86730   66.63710   66.63710  106.35800  106.35800   18.86730   21.52850  -18.07610  -15.86120   21.52850
 8850.00000   11.83860   11.83860   40.35330   36.81360   27.16390   59.17460   59.17460  114.04560  114.04560   27.16390   29.44680  -17.01000  -14.98780   29.44680
 8900.00000   12.88850   12.88850   59.04590   56.65560   17.65050   64.65910   64.65910  122.89470  122.89470   17.65050   21.57830  -19.09460  -17.26510   21.57830
 8950.00000   13.55450   13.55450   77.98340   71.16930   14.05100  105.76570  105.76570   84.51630   84.51630   14.05100   16.33830  -19.95240  -18.31560   16.33830
 9000.00000   12.44650   12.44650   52.88060   53.38600   18.73150   68.48500   68.48500  109.08090  109.08090   18.73150   24.33640  -14.42280  -12.97870   24.33640
 9050.00000   13.02570   13.02570   55.29380   53.84570   18.57160   69.79320   69.79320  113.14870  113.14870   18.57160   24.78520  -17.94320  -16.69180   24.78520
 9100.00000   10.94490   10.94490   14.75690   10.20340   98.00670   44.27370   44.27370  113.94550  113.94550   98.00670   61.67500  -29.00770  -27.94910   61.67500
 9150.00000   10.86900   10.86900   66.98140   64.02130   15.61980   54.63680   54.63680  112.75590  112.75590   15.61980   23.96220  -23.75530  -22.88940   23.96220
 9200.00000   10.14930   10.14930   27.25980   23.94050   41.77020   60.67330   60.67330  116.65650  116.65650   41.77020   49.39030  -26.86510  -26.19190   49.39030
 9250.00000   10.50730   10.50730   19.15940   15.21120   65.74100   60.75480   60.75480  100.30770  100.30770   65.74100   70.07840  -24.20530  -23.72480   70.07840
 9300.00000   11.27890   11.27890   25.92680   21.60600   46.28340   66.01010   66.01010  102.40620  102.40620   46.28340   36.64350  -35.03190  -34.74410   36.64350
 9350.00000   10.89800   10.89800   15.97410   11.64500   85.87400   69.90160   69.90160  124.48550  124.48550   85.87400   77.30250  -28.01610  -27.92100   77.30250
 9400.00000   11.02640   11.02640   69.85780   70.87780   14.10880   74.54450   74.54450  149.05420  149.05420   14.10880   23.39120   -5.37580   -5.47350   23.39120
 9450.00000    9.76340    9.76340   51.29730   45.24600   22.10140   50.27170   50.27170   79.69500   79.69500   22.10140   38.13020  -33.46090  -31.28830   38.13020
 9500.00000    9.37900    9.37900   42.49610   39.12560   25.55870   52.33820   52.33820   69.49240   69.49240   25.55870   46.36790 -108.36510 -102.81570   46.36790
 9550.00000    9.72450    9.72450   17.22370   12.89830   77.52960   49.65340   49.65340   60.25890   60.25890   77.52960  175.81080 -178.82500 -169.89870  175.81080
 9600.00000   10.97680   10.97680   14.27530    9.76270  102.43030   54.01460   54.01460   71.98560   71.98560  102.43030   91.47970  -85.98880  -73.68570   91.47970
 9650.00000    9.58150    9.58150    7.54910    1.73420  576.62060   59.20560   59.20560   80.01300   80.01300  576.62060  159.61410  -60.98860  -45.30870  159.61410
 9700.00000    9.48710    9.48710    7.85490    3.16310  316.15050   51.20970   51.20970   83.78160   83.78160  316.15050  281.62300  -41.63400  -22.57730  281.62300
 9750.00000    8.51150    8.51150    7.20320    2.71510  368.30660   50.69340   50.69340   59.73540   59.73540  368.30660   96.80600 -168.24570 -145.81210   96.80600
 9800.00000    8.01750    8.01750  154.37200  156.25980    6.39960   56.97780   56.97780   63.87210   63.87210    6.39960   38.59910 -161.65630 -135.84590   38.59910
 9850.00000    9.31550    9.31550   17.22670   12.44930   80.32560   49.65730   49.65730   65.26750   65.26750   80.32560  194.61420 -136.74930 -107.56210  194.61420
 9900.00000    9.70580    9.70580   80.55950   80.04290   12.49330   68.66740   68.66740   84.03120   84.03120   12.49330   43.68450  -98.94770  -66.38360   43.68450
 9950.00000    9.79060    9.79060    4.87480    1.54320  648.01810   50.52150   50.52150   63.28820   63.28820  648.01810  155.67150  -70.03810  -34.09720  155.67150
 10000.00000    9.39380    9.39380    6.09860    2.05460  486.70440   51.47860   51.47860   80.94660   80.94660  486.70440   94.92870 -142.24790   -3.93920   94.92870
 10050.00000    9.58440    9.58440    4.06620    1.58540  630.76940   49.03070   49.03070   79.19240   79.19240  630.76940  125.42300 -144.28360   -6.24170  125.42300
 10100.00000    9.28670    9.28670   14.56700   10.56000   94.69720   60.83150   60.83150  164.14230  164.14230   94.69720  100.96200 -144.30510   -6.53010  100.96200
 10150.00000    9.38560    9.38560    3.29880    1.58310  631.66780   51.13570   51.13570   61.31160   61.31160  631.66780  178.94220 -151.56720  -14.05910  178.94220
 10200.00000    9.36680    9.36680    5.02080    1.58200  632.12950   52.06400   52.06400   63.63090   63.63090  632.12950  161.91530 -156.58480  -19.34350  161.91530
 10250.00000    9.72270    9.72270    5.30720    1.84170  542.96230   52.51360   52.51360   66.12280   66.12280  542.96230  134.55220 -151.56420  -14.58980  134.55220
 10300.00000    9.28290    9.28290    6.52250    1.59260  627.91780   51.89030   51.89030   66.20230   66.20230  627.91780  134.50090 -153.50740  -16.79980  134.50090
 10350.00000    9.31720    9.31720    5.71470    1.58050  632.72530   52.22270   52.22270   65.18960   65.18960  632.72530  147.28090 -156.77540  -20.33470  147.28090
 10400.00000    9.81390    9.81390    6.40640    1.60030  624.86380   54.16320   54.16320   62.54660   62.54660  624.86380  148.92360 -159.27820  -23.10430  148.92360
 10450.00000    9.39920    9.39920    4.23890    1.57920  633.24190   54.74430   54.74430   71.12150   71.12150  633.24190  162.28930 -152.23840  -16.33140  162.28930
 10500.00000    9.18080    9.18080    6.56030    1.57950  633.09360   62.72630   62.72630  108.79820  108.79820  633.09360  140.45800 -150.52290  -14.88280  140.45800
 10550.00000    9.31480    9.31480    3.41800    1.58190  632.17050   51.10260   51.10260   54.80650   54.80650  632.17050  117.05200 -161.36180  -25.98850  117.05200
 10600.00000    9.15880    9.15880   28.72320   24.72300   40.44820   52.63720   52.63720   53.97050   53.97050   40.44820   59.63320 -147.43060  -12.32420   59.63320
 10650.00000    9.50810    9.50810   13.40800   10.16010   98.42400   51.28160   51.28160   41.56390   41.56390   98.42400   56.90270 -151.64850  -16.80890   56.90270
 10700.00000    9.74260    9.74260    6.84530    3.49840  285.84530   53.82900   53.82900   53.51250   53.51250  285.84530   93.28180 -160.71350  -26.14080   93.28180
 10750.00000    9.26070    9.26070    0.93470    1.65170  605.45420   50.50120   50.50120   55.81580   55.81580  605.45420   91.58540 -164.61320  -30.30730   91.58540
 10800.00000    9.40650    9.40650    1.76330    1.57740  633.96580   51.85460   51.85460   48.83930   48.83930  633.96580  116.21720 -197.45940  -63.42040  116.21720
 10850.00000   10.06140   10.06140    2.15900    1.62420  615.69530   53.41320   53.41320   53.21740   53.21740  615.69530  131.67080 -220.91910  -87.14690  131.67080
 10900.00000    8.86390    8.86390    9.40480    6.02070  166.09420   48.82990   48.82990   43.67450   43.67450  166.09420   86.50020 -239.33690 -105.83160   86.50020
 10950.00000    8.51470    8.51470   12.63340   10.05910   99.41240   55.74360   55.74360   47.13670   47.13670   99.41240   81.46960 -239.87150 -106.63310   81.46960
 11000.00000    9.30730    9.30730    2.21170    1.60120  624.53650   46.47780   46.47780   43.82420   43.82420  624.53650  123.08170 -221.22580  -88.25420  123.08170
 11050.00000   10.43350   10.43350    2.68080    2.17660  459.44080   53.09710   53.09710   55.88980   55.88980  459.44080  166.66580 -193.22340  -60.51870  166.66580
