~Version ---------------------------------------------------
VERS. 2.0 : CWLS log ASCII Standard -VERSION 2.0
WRAP.  NO : ONE LINE PER DEPTH STEP
~Well ------------------------------------------------------
STRT.M                           300.0 : START DEPTH
STOP.M                          1700.0 : STOP DEPTH
STEP.M                        50.00000 : STEP LENGTH
NULL.                          -999.25 : NULL VALUE
COMP.             TALISMAN ENERGY INC. : COMPANY
WELL. INVERNESS ET AL NIPISI 2-17-80-7 : WELL
FLD .                           NIPISI : FIELD
LOC .                                  : LOCATION
CTRY.                           CANADA : COUNTRY
SRVC.                   Atlas Wireline : SERVICE COMPANY
DATE.                      13-Feb-1990 : LOGDATE
PROV.                          Alberta : PROVINCE
UWI .                 100021708007W500 : UNIQUE WELL ID
SLAT.WGS84                55.928604126 : SURFACE LATITUDE
SLON.WGS84             -115.0550994873 : SURFACE LONGITUDE
~Curve Information -----------------------------------------
DEPT    .M                      : DEPTH METERS
ACED    .US/M                   : DELTA TIME (ACOUSTIC) FROM SONIC LOG
C24DED  .MM                     : CALIPER 2-4 FROM DENSITY LOG
C24SED  .MM                     : CALIPER 2-4 FROM SONIC LOG
CALWS   .MM :   CALIPER [SPLICE : C24SED/C24DED @1677.8]
CNCSSED .V/V                    : NEUTRON POROSITY SANDSTONE FROM DENSITY LOG
CONDWS  .MMHO                   : CONDUCTIVITY [1000/DRESWS]
DCORWS  .KG/M3                  : DENSITY CORRECTION [ZCORED]
DENWS   .KG/M3                  : BULK DENSITY [M=2650 F=1000] [CALCULATED FROM PORZSSED]
DPOLSWS .V/V                    : DENSITY POROSITY [M=2710 F=1000] [CALCULATED FROM DENWS]
DRESWS  .OHMM                   : DEEP RESISTIVITY [RILDED]
DTWS    .US/M                   : DELTA TIME [ACED]
GRRED   .GAPI                   : GAMMA RAY FROM RESISTIVITY LOG
GRWS    .GAPI                   : GAMMA RAY [GRRED] CSG @ 191.5M
MRESWS  .OHMM                   : MEDIUM RESISTIVITY [RILMED]
NPOLSWS .V/V                    : NEUTRON POROSITY LIMESTONE [SEE OTHER INFORMATION SECTION BELOW FOR ALGORITHM USED]
PEFED   .B/E                    : PHOTOELECTRIC FACTOR FROM DENSITY LOG
PEFWS   .B/E                    : PHOTOELECTRIC FACTOR [PEFED]
PORZSSED.V/V                    : DENSITY POROSITY [M=2650 F=1000] FROM DENSITY LOG
RFOCED  .OHMM                   : FOCUSED RESISTIVITY
RILDED  .OHMM                   : INDUCTION LOG DEEP RESISTIVITY
RILMED  .OHMM                   : INDUCTION LOG MEDIUM RESISTIVITY
SPRED   .MV                     : SPONTANEOUS POTENTIAL FROM RESISTIVITY LOG
SPWS    .MV                     : SPONTANEOUS POTENTIAL [BASELINE 0 MV] [SPRED]
SRESWS  .OHMM                   : SHALLOW RESISTIVITY [RFOCED]
ZCORED  .KG/M3                  : DENSITY CORRECTION FROM DENSITY LOG
ZDENED  .KG/M3                  : BULK DENSITY FROM DENSITY LOG
~Params ----------------------------------------------------
PD  .                         GL : PERMANENT DATUM
EPD .M                    662.08 : ELEVATION PERMANENT DATUM
LMF .                         KB : LOG MEASURED FROM
DAPD.M                      4.95 : FEET ABOVE PERMANENT DATUM
DMF .                         KB : DRILLING MEASURED FROM
EKB .M                    667.03 : KELLY BUSHING
EGL .M                    662.08 : GROUND LEVEL
DATE.                   02/13/90 : RUN DATE
RUN .                          1 : RUN NUMBER
DD  .M                      1708 : DEPTH DRILLER
DL  .M                    1706.7 : DEPTH LOGGER
BLI .M                    1706.0 : BOTTOM LOG INTERVAL
TLI .M                     191.5 : TOP LOG INTERVAL
CS  .MM                      219 : CASING SIZE
CBD .M                       192 : CASING BOTTOM DRILLER
CBL .M                     191.5 : CASING BOTTOM LOGGER
BS  .MM                      200 : BIT SIZE
BSD .M                      1708 : BIT SIZE AT DEPTH
DFT .                   CHEM GEL : DRILLING FLUID TYPE
DFD .                       1130 : DRILLING FLUID DENSITY
DFV .                         56 : DRILLING FLUID VISCOSITY
DFPH.                         10 : DRILLING FLUID PH
DFL .                        7.5 : DRILLING FLUID LOSS
MSS .                   FLOWLINE : MUD SAMPLE SOURCE
RMS .OHMM                   0.78 : RESISTIVITY MUD SAMPLE
MST .DEGC                   20.4 : MUD SAMPLE TEMPERATURE
RMF .OHMM                   0.65 : RESISTIVITY MUD FILTRATE SAMPLE
MFST.DEGC                   20.4 : MUD FILTRATE SAMPLE TEMPERATURE
RMC .OHMM                   0.71 : RESISTIVITY MUD CAKE
MCST.DEGC                   20.4 : MUD CAKE SAMPLE TEMPERATURE
MFSS.                       MEAS : MUD FILTRATE SAMPLE SOURCE
MCSS.                       MEAS : MUD CAKE SAMPLE SOURCE
RMB .OHMM                   0.55 : RESISTIVITY MUD AT BHT
TCS .HRS                       8 : TIME CIRCULATED STOPPED
LUN .                    HL 6444 : LOGGING UNIT NUMBER
LUL .                        G P : LOGGING UNIT LOCATION
ENGI.                        GEE : RECORDING ENGINEER
WITN.                    THACKER : WITNESSED BY
CLNT.                    A2DTECH : CLIENT CODE
ORIG. 6.5"/100M 16.5"/100M PRINT : ORIGIN OF DATA
UWI .           100021708007W500 : UNIQUE WELL ID
DICO.     A2D Technologies, Inc. : DIGITIZING COMPANY
~Other -----------------------------------------------------
1. NEUTRON POROSITY CONVERTED FROM SANDSTONE TO LIMESTONE USING FOLLOWING PARMS: INPUT CURVE: CNCSSED. OUTPUT CURVE: NPOLSWS. COMPANY: WESTERN ATLAS. TOOL TYPE: CNL(2435). INPUT MATRIX: QUARTZ. OUTPUT MATRIX: LIMESTONE. INTERVAL: ENTIRE WELL.
~ASCII -----------------------------------------------------
  300.00000  531.16670    -999.25  290.16670  290.16670    -999.25  416.57990    -999.25    -999.25    -999.25    2.40050  531.16670   82.21590   82.21590    2.28510    -999.25    -999.25    -999.25    -999.25    2.65220    2.40050    2.28510  -19.55800   -4.06510    2.65220    -999.25    -999.25
  350.00000  451.97060    -999.25  221.37730  221.37730    -999.25  255.88540    -999.25    -999.25    -999.25    3.90800  451.97060   67.40790   67.40790    4.04530    -999.25    -999.25    -999.25    -999.25    3.49710    3.90800    4.04530  -20.34950   -8.11020    3.49710    -999.25    -999.25
  400.00000  398.36580    -999.25  208.71350  208.71350    -999.25   99.70390    -999.25    -999.25    -999.25   10.02970  398.36580   61.71560   61.71560   10.27460    -999.25    -999.25    -999.25    -999.25    7.71620   10.02970   10.27460  -24.89720  -15.91140    7.71620    -999.25    -999.25
  450.00000  371.28830    -999.25  255.24360  255.24360    -999.25  146.65550    -999.25    -999.25    -999.25    6.81870  371.28830   59.90070   59.90070    8.26250    -999.25    -999.25    -999.25    -999.25    8.29150    6.81870    8.26250  -28.19720  -11.86950    8.29150    -999.25    -999.25
  500.00000  351.35620    -999.25  254.88520  254.88520    -999.25  157.61430    -999.25    -999.25    -999.25    6.34460  351.35620   56.36090   56.36090    7.67850    -999.25    -999.25    -999.25    -999.25    7.28340    6.34460    7.67850  -26.33820   -1.61640    7.28340    -999.25    -999.25
  550.00000  354.71450    -999.25  271.60580  271.60580    -999.25  166.58060    -999.25    -999.25    -999.25    6.00310  354.71450   64.86500   64.86500    6.45100    -999.25    -999.25    -999.25    -999.25    6.96330    6.00310    6.45100  -27.14880   -1.04280    6.96330    -999.25    -999.25
  600.00000  208.06080    -999.25  272.81010  272.81010    -999.25    8.81310    -999.25    -999.25    -999.25  113.46750  208.06080   16.08230   16.08230  203.33120    -999.25    -999.25    -999.25    -999.25  103.53630  113.46750  203.33120  -59.88070  -25.35450  103.53630    -999.25    -999.25
  650.00000  257.01460    -999.25  276.84500  276.84500    -999.25  113.47390    -999.25    -999.25    -999.25    8.81260  257.01460   35.40250   35.40250    8.91230    -999.25    -999.25    -999.25    -999.25   11.12500    8.81260    8.91230  -31.51470   -1.13350   11.12500    -999.25    -999.25
  700.00000  220.09660    -999.25  227.65290  227.65290    -999.25   76.18470    -999.25    -999.25    -999.25   13.12600  220.09660   24.78640   24.78640   13.28040    -999.25    -999.25    -999.25    -999.25   17.65920   13.12600   13.28040  -58.74760  -25.65980   17.65920    -999.25    -999.25
  750.00000  216.31560    -999.25  231.40420  231.40420    -999.25   69.78030    -999.25    -999.25    -999.25   14.33070  216.31560   21.32840   21.32840   15.89310    -999.25    -999.25    -999.25    -999.25   19.02800   14.33070   15.89310  -58.15560  -22.36120   19.02800    -999.25    -999.25
  800.00000  184.16870    -999.25  239.52440  239.52440    -999.25   24.28480    -999.25    -999.25    -999.25   41.17810  184.16870   18.66660   18.66660   61.77740    -999.25    -999.25    -999.25    -999.25   77.08380   41.17810   61.77740  -87.02710  -48.52600   77.08380    -999.25    -999.25
  850.00000  187.88890    -999.25  236.42080  236.42080    -999.25   46.85680    -999.25    -999.25    -999.25   21.34160  187.88890   18.41090   18.41090   27.25600    -999.25    -999.25    -999.25    -999.25   52.26120   21.34160   27.25600  -96.78880  -55.58110   52.26120    -999.25    -999.25
  900.00000  203.57080    -999.25  250.12640  250.12640    -999.25   67.25720    -999.25    -999.25    -999.25   14.86830  203.57080   14.23510   14.23510   27.02940    -999.25    -999.25    -999.25    -999.25   48.20620   14.86830   27.02940 -106.53740  -62.62310   48.20620    -999.25    -999.25
  950.00000  173.94650    -999.25  235.04690  235.04690    -999.25   14.56140    -999.25    -999.25    -999.25   68.67470  173.94650   15.35110   15.35110   97.18460    -999.25    -999.25    -999.25    -999.25  110.33490   68.67470   97.18460 -101.73330  -55.11240  110.33490    -999.25    -999.25
 1000.00000  166.23140    -999.25  222.12580  222.12580    -999.25   13.48360    -999.25    -999.25    -999.25   74.16440  166.23140   13.55590   13.55590  118.17000    -999.25    -999.25    -999.25    -999.25  162.62210   74.16440  118.17000 -112.87010  -63.54260  162.62210    -999.25    -999.25
 1050.00000  290.67490    -999.25  278.52100  278.52100    -999.25  327.30010    -999.25    -999.25    -999.25    3.05530  290.67490   62.62220   62.62220    4.47030    -999.25    -999.25    -999.25    -999.25    8.79540    3.05530    4.47030 -100.74330  -48.70920    8.79540    -999.25    -999.25
 1100.00000  177.34940    -999.25  235.66960  235.66960    -999.25   54.36760    -999.25    -999.25    -999.25   18.39330  177.34940   29.42140   29.42140   22.46120    -999.25    -999.25    -999.25    -999.25   36.39180   18.39330   22.46120  -80.78080  -26.04010   36.39180    -999.25    -999.25
 1150.00000  207.46650    -999.25  228.09900  228.09900    -999.25  122.85470    -999.25    -999.25    -999.25    8.13970  207.46650   37.62120   37.62120   14.15040    -999.25    -999.25    -999.25    -999.25   22.09080    8.13970   14.15040 -109.90290  -52.45560   22.09080    -999.25    -999.25
 1200.00000  247.46650    -999.25  241.15960  241.15960    -999.25  136.23610    -999.25    -999.25    -999.25    7.34020  247.46650   61.93480   61.93480    6.77470    -999.25    -999.25    -999.25    -999.25    7.07940    7.34020    6.77470  -64.43910   -4.28520    7.07940    -999.25    -999.25
 1250.00000  253.94990    -999.25  271.02470  271.02470    -999.25  210.61500    -999.25    -999.25    -999.25    4.74800  253.94990   84.78460   84.78460    4.82460    -999.25    -999.25    -999.25    -999.25    5.31240    4.74800    4.82460  -63.49390   -0.63340    5.31240    -999.25    -999.25
 1300.00000  242.09120    -999.25  241.10440  241.10440    -999.25  114.83690    -999.25    -999.25    -999.25    8.70800  242.09120   59.25750   59.25750    9.36430    -999.25    -999.25    -999.25    -999.25    9.49580    8.70800    9.36430  -59.30830   -1.50970    9.49580    -999.25    -999.25
 1350.00000  200.60130  237.55680  222.11900  222.11900    0.13680   68.28460    3.80000 2663.20000    0.02740   14.64460  200.60130   31.45020   31.45020   14.83360    0.08930    4.54390    4.54390   -0.00800   17.66980   14.64460   14.83360  -60.74940   -4.95940   17.66980    3.80000 2664.80000
 1400.00000  258.89830  239.50960  220.63390  220.63390    0.23290  176.01610   98.70000 2606.30000    0.06060    5.68130  258.89830   56.77700   56.77700    5.82830    0.18060    3.96780    3.96780    0.02650    5.84570    5.68130    5.82830  -54.90480    0.33900    5.84570   98.70000 2622.60010
 1450.00000  321.22600  388.35310  309.41320  309.41320    0.50610  249.05360  114.30000 2377.70020    0.19430    4.01520  321.22600   74.54050   74.54050    3.39920    0.45680    2.52160    2.52160    0.16500    3.39880    4.01520    3.39920  -62.84210    5.95560    3.39880  114.30000 2349.50000
 1500.00000  203.33270  224.03900  208.95010  208.95010    0.16390   55.21200    3.00000 2665.00000    0.02630   18.11200  203.33270   35.47190   35.47190   22.16080    0.11460    4.14780    4.14780   -0.00910   19.47660   18.11200   22.16080  -61.79040   -0.19180   19.47660    3.00000 2667.39990
 1550.00000  234.38260  230.56510  219.87130  219.87130    0.19200  119.11140   78.50000 2659.70000    0.02940    8.39550  234.38260   46.31800   46.31800   10.30680    0.14100    4.14790    4.14790   -0.00590    8.51420    8.39550   10.30680  -55.36770   -2.80420    8.51420   78.50000 2658.70000
 1600.00000  267.49080  233.94320  229.26880  229.26880    0.28290  187.65950  288.40000 2726.09990   -0.00940    5.32880  267.49080   79.64700   79.64700    5.84350    0.23010    3.35400    3.35400   -0.04610    6.17580    5.32880    5.84350  -55.86990   -8.58500    6.17580  288.40000 2710.59990
