~Version ---------------------------------------------------
VERS.      2.0 : CWLS log ASCII Standard -VERSION 2.0
WRAP.       NO : One line per depth step
CREA. 12/11/17 : LAS Creation Date
~Well ------------------------------------------------------
STRT.FT                         300.0 : START DEPTH
STOP.FT                        7450.0 : STOP DEPTH
STEP.FT                      50.00000 : STEP LENGTH
NULL.                         -999.25 : NULL VALUE
COMP.         BRALORNE RESOURCES LTD. : COMPANY
WELL. BRALORNE ET AL HEARTR 9-1-77-16 : WELL
FLD .                                 : FIELD
LOC .                                 : LOCATION
CTRY.                          CANADA : COUNTRY
SRVC.                         Unknown : SERVICE COMPANY
DATE.                     01-Apr-1977 : LOGDATE
PROV.                         Alberta : PROVINCE
UWI .                100090107716W500 : UNIQUE WELL ID
SLAT.WGS84                   55.64558 : SURFACE LATITUDE
SLON.WGS84                  -116.3326 : SURFACE LONGITUDE
~Curve Information -----------------------------------------
DEPT    .FT    : Depth Curve
CALDED  .IN    : CALIPER FROM DENSITY LOG [ADJ. TO RESISTIVITY LOG]
CALWS   .IN    : CALIPER [CALDED]
CONDWS  .MMHO  : CONDUCTIVITY [1000/DRESWS]
DCORWS  .G/C3  : DENSITY CORRECTION [DRHOED]
DENWS   .G/C3  : FORMATION BULK DENSITY [CALC. FROM DPOLSWS M=2.71, F=1.00]
DPHILSED.V/V   : DENSITY POROSITY LIMESTONE  [M=2.71, F=1.00]  FROM DENSITY LOG [ADJ. TO RESISTIVITY LOG]
DPHISSED.V/V   : DENSITY POROSITY SANDSTONE [M=2.65, F=1.00] FROM DENSITY LOG [ADJ. TO RESISTIVITY LOG]
DPOLSWS .V/V   : DENSITY POROSITY SANDSTONE [DPHISSED CONVERTED TO LIMESTONE MATRIX, M=2.71, F=1.00, SPL. TO DPHILSED @ 2694']
DRESWS  .OHMM  : DEEP RESISTIVITY [ILDED]
DRHOED  .G/C3  : BULK DENSITY CORRECTION FROM DENSITY LOG [ADJ. TO RESISTIVITY LOG/DPHISSED/DPHILSED] [DRHOED*1000]
GRDED   .GAPI  : GAMMA RAY FROM DENSITY LOG [ADJ. TO RESISTIVITY LOG]
GRWS    .GAPI  : GAMMA RAY [GRDED]
ILDED   .OHMM  : DEEP INDUCTION FROM RESISTIVITY LOG
ILMED   .OHMM  : MEDIUM INDUCTION FROM RESISTIVITY LOG
LL8ED   .OHMM  : LATEROLOG 8 FROM RESISTIVITY LOG
MRESWS  .OHMM  : MEDIUM RESISTIVITY [ILMED]
NPHILSED.V/V   : NEUTRON POROSITY LIMESTONE FROM DENSITY LOG [ADJ. TO RESISTIVITY LOG]
NPHISSED.V/V   : NEUTRON POROSITY SANDSTONE FROM DENSITY LOG [ADJ. TO RESISTIVITY LOG]
NPOLSWS .V/V   : NEUTRON POROSITY LIMESTONE [NPHISSED MATRIX CONVERSION FOR LIMESTONE FROM SCHLUMBERGER (CNL), SPL. TP NPHILSED @ 2694']
RHOBED  .G/C3  : BULK DENSITY FROM DENSITY LOG [ADJ. TO RESISTIVITY LOG/DPHISSED/DPHILSED]
SPRED   .MV    : SPONTANEOUS POTENTIAL FROM RESISTIVITY LOG
SPWS    .MV    : SPONTANEOUS POTENTIAL [BASELINE 0 MV, SPRED]
SRESWS  .OHMM  : SHALLOW RESISTIVITY [LL8ED]
~Params ----------------------------------------------------
PD  .                     GL : PERMANENT DATUM
EPD .FT               2310.5 : ELEVATION PERMANENT DATUM
LMF .                     KB : LOG MEASURED FROM
DAPD.FT                 14.4 : FEET ABOVE PERMANENT DATUM
EKB .FT               2324.9 : KELLY BUSHING
EGL .FT               2310.5 : GROUND LEVEL
DATE.               04/01/77 : RUN DATE
RUN .                      1 : RUN NUMBER
DD  .FT                 7520 : DEPTH DRILLER
DL  .FT                 7486 : DEPTH LOGGER
BLI .FT                 7480 : BOTTOM LOG INTERVAL
TLI .FT                  796 : TOP LOG INTERVAL
CBD .FT                  796 : CASING BOTTOM DRILLER
CBL .FT                  796 : CASING BOTTOM LOGGER
BS  .IN                7.875 : BIT SIZE
BSD .FT                 7520 : BIT SIZE AT DEPTH
DFT .              GEL BENEX : DRILLING FLUID TYPE
DFD .                    9.2 : DRILLING FLUID DENSITY
DFV .                     80 : DRILLING FLUID VISCOSITY
DFPH.                   10.5 : DRILLING FLUID PH
DFL .                     12 : DRILLING FLUID LOSS
MSS .             CIRCULATED : MUD SAMPLE SOURCE
RMS .OHMM               0.49 : RESISTIVITY MUD SAMPLE
MST .DEGF                 64 : MUD SAMPLE TEMPERATURE
RMF .OHMM               0.35 : RESISTIVITY MUD FILTRATE SAMPLE
MFST.DEGF                 66 : MUD FILTRATE SAMPLE TEMPERATURE
RMB .OHMM               0.17 : RESISTIVITY MUD AT BHT
TCS .HRS                 2.5 : TIME CIRCULATED STOPPED
LUN .                   7809 : LOGGING UNIT NUMBER
LUL .                    EDM : LOGGING UNIT LOCATION
ENGI.      CROCKFORD BUSHMAN : RECORDING ENGINEER
WITN.      KIRKPATRICK MOORE : WITNESSED BY
CLNT.                A2DTECH : CLIENT CODE
ORIG.            2" 5" PRINT : ORIGIN OF DATA
UWI .       100090107716W500 : UNIQUE WELL ID
DICO. A2D Technologies, Inc. : DIGITIZING COMPANY
~Other -----------------------------------------------------
DIL-CNFD LOG RUN
RHOBED & DRHOED VERIFY FROM 2" SCALE
~ASCII -----------------------------------------------------
# ...
 3400.00000    8.83170    8.83170   92.91350    0.01440    2.66210    0.02800    -999.25    0.02800   10.76270    0.01440   63.29570   63.29570   10.76270   12.34340   17.32080   12.34340    0.11830    -999.25    0.11830    2.65560  -74.05270  -16.69980   17.32080
 3450.00000    9.31170    9.31170   72.73460   -0.01330    2.48630    0.13080    -999.25    0.13080   13.89000   -0.01330   52.96120   52.96120   13.89000   12.91630   36.60880   12.91630    0.19160    -999.25    0.19160    2.49700  -75.80030  -18.68010   36.60880
 3500.00000    8.74940    8.74940   78.79850    0.03700    2.63470    0.04400    -999.25    0.04400   12.69060    0.03700   46.30890   46.30890   12.69060   11.39320   11.89470   11.39320    0.17710    -999.25    0.17710    2.63040  -80.81180  -23.92280   11.89470
 3550.00000    8.33090    8.33090   47.79540    0.04820    2.64130    0.04020    -999.25    0.04020   20.92250    0.04820   44.72700   44.72700   20.92250   16.60280   16.43900   16.60280    0.17320    -999.25    0.17320    2.63270  -74.01390  -17.35610   16.43900
 3600.00000    8.59100    8.59100  108.34870   -0.00030    2.58690    0.07200    -999.25    0.07200    9.23970   -0.00030   26.91270   26.91270    9.23970   12.74710   13.51100   12.74710    0.14370    -999.25    0.14370    2.58760  -77.98960  -21.56450   13.51100
 3650.00000    9.14030    9.14030  211.80610    0.07270    2.63030    0.04660    -999.25    0.04660    4.72130    0.07270   50.32140   50.32140    4.72130    4.88490    4.98640    4.88490    0.24350    -999.25    0.24350    2.63170  -66.64450  -10.45060    4.98640
 3700.00000   10.50850   10.50850  328.54010    0.18480    2.28640    0.24770    -999.25    0.24770    3.04380    0.18480   75.84670   75.84670    3.04380    2.88010    3.14560    2.88010    0.29660    -999.25    0.29660    2.33090  -66.83980  -10.87860    3.14560
 3750.00000    8.53520    8.53520  114.45710   -0.00110    2.63010    0.04670    -999.25    0.04670    8.73690   -0.00110   37.67390   37.67390    8.73690    9.57880   12.21480    9.57880    0.15190    -999.25    0.15190    2.65770  -58.95180   -3.22180   12.21480
 3800.00000    9.49160    9.49160  180.67500    0.12940    2.55640    0.08980    -999.25    0.08980    5.53480    0.12940   75.58000   75.58000    5.53480    5.25940    6.04270    5.25940    0.21420    -999.25    0.21420    2.55320  -60.54600   -5.04720    6.04270
 3850.00000    8.16960    8.16960   53.62870    0.03300    2.64220    0.03970    -999.25    0.03970   18.65520    0.03300   24.10190   24.10190   18.65520   21.13380   25.64130   21.13380    0.07870    -999.25    0.07870    2.63520  -74.36820  -19.10210   25.64130
 3900.00000    7.98440    7.98440  107.68320    0.02270    2.57180    0.08080    -999.25    0.08080    9.28650    0.02270   15.92700   15.92700    9.28650   14.11550   38.86290   14.11550    0.10750    -999.25    0.10750    2.57520 -106.72200  -51.68710   38.86290
 3950.00000    8.23870    8.23870   16.56100   -0.00590    2.67470    0.02070    -999.25    0.02070   60.43380   -0.00590   15.01580   15.01580   60.43380   71.58420  200.64750   71.58420    0.03420    -999.25    0.03420    2.66590  -90.58160  -35.77940  200.64750
 4000.00000   10.00900   10.00900  579.03880    0.10630    2.30660    0.23590    -999.25    0.23590    1.72700    0.10630  109.88840  109.88840    1.72700    1.83560    1.94830    1.83560    0.38170    -999.25    0.38170    2.29120  -70.37510  -15.80410    1.94830
 4050.00000    9.45950    9.45950  303.46250    0.08180    2.57680    0.07790    -999.25    0.07790    3.29530    0.08180   70.53070   70.53070    3.29530    3.16090    3.65880    3.16090    0.25340    -999.25    0.25340    2.56970  -67.92990  -13.59010    3.65880
 4100.00000    8.54990    8.54990  201.48440    0.00250    2.64930    0.03550    -999.25    0.03550    4.97710    0.00250   57.13620   57.13620    4.97710    4.34540    8.76550    4.34540    0.18980    -999.25    0.18980    2.65800  -66.34460  -12.23750    8.76550
 4150.00000    9.31150    9.31150  185.43240    0.18540    2.57230    0.08050    -999.25    0.08050    5.39280    0.18540   72.86940   72.86940    5.39280    4.50540    8.43000    4.50540    0.17500    -999.25    0.17500    2.56510  -61.44400   -7.56810    8.43000
 4200.00000    8.56530    8.56530   92.43940    0.00230    2.63330    0.04490    -999.25    0.04490   10.82170    0.00230   32.15890   32.15890   10.82170   10.44010   21.29670   10.44010    0.12680    -999.25    0.12680    2.63450  -73.03040  -19.38720   21.29670
 4250.00000    8.85440    8.85440   86.19950    0.02960    2.68020    0.01740    -999.25    0.01740   11.60100    0.02960   37.96740   37.96740   11.60100   12.57300   18.56950   12.57300    0.07980    -999.25    0.07980    2.68490  -57.35210   -3.94010   18.56950
 4300.00000    8.94850    8.94850  127.74660    0.01000    2.67960    0.01780    -999.25    0.01780    7.82800    0.01000   53.25440   53.25440    7.82800    8.92920   10.54980    8.92920    0.11940    -999.25    0.11940    2.67340  -68.87370  -15.69290   10.54980
 4350.00000    8.46500    8.46500  295.86730    0.00890    2.52020    0.11100    -999.25    0.11100    3.37990    0.00890   70.38230   70.38230    3.37990    3.51340    4.40510    3.51340    0.20300    -999.25    0.20300    2.52580  -72.55210  -19.60400    4.40510
 4400.00000    9.01930    9.01930  301.75020    0.02940    2.59290    0.06850    -999.25    0.06850    3.31400    0.02940   86.59550   86.59550    3.31400    3.44080    3.93010    3.44080    0.20310    -999.25    0.20310    2.59050  -65.68960  -12.97270    3.93010
 4450.00000    8.96610    8.96610  299.77370   -0.00200    2.52560    0.10790    -999.25    0.10790    3.33580   -0.00200   86.74950   86.74950    3.33580    3.42700    3.78610    3.42700    0.21200    -999.25    0.21200    2.52860  -63.84100  -11.35680    3.78610
 4500.00000    9.08050    9.08050  269.20800    0.00900    2.55100    0.09300    -999.25    0.09300    3.71460    0.00900   91.32230   91.32230    3.71460    3.82710    4.49930    3.82710    0.21730    -999.25    0.21730    2.55190  -59.16980   -6.91680    4.49930
 4550.00000    8.52520    8.52520  222.10380    0.01520    2.57490    0.07900    -999.25    0.07900    4.50240    0.01520   69.09820   69.09820    4.50240    4.32800    7.20590    4.32800    0.18010    -999.25    0.18010    2.57030  -63.78040  -11.75860    7.20590
 4600.00000    8.80710    8.80710  134.24970    0.00390    2.63890    0.04160    -999.25    0.04160    7.45090    0.00390   69.20720   69.20720    7.45090    7.68220    8.65000    7.68220    0.14190    -999.25    0.14190    2.64670  -63.77480  -11.98570    8.65000
 4650.00000    8.39780    8.39780   39.63140   -0.01300    2.69070    0.01130    -999.25    0.01130   25.23250   -0.01300   24.80810   24.80810   25.23250   24.00980   42.88660   24.00980    0.03200    -999.25    0.03200    2.68070  -56.87140   -5.31350   42.88660
 4700.00000   10.25690   10.25690  270.01400    0.10900    2.39590    0.18370    -999.25    0.18370    3.70530    0.10900   80.64380   80.64380    3.70530    3.40260    3.75830    3.40260    0.27510    -999.25    0.27510    2.39330  -53.75150   -2.35730    3.75830
 4750.00000   11.50290   11.50290  452.98060    0.13670    2.30640    0.23600    -999.25    0.23600    2.20760    0.13670  138.68060  138.68060    2.20760    2.16640    2.98470    2.16640    0.41350    -999.25    0.41350    2.31380  -60.45880   -9.14370    2.98470
 4800.00000    8.55940    8.55940   28.35750   -0.01930    2.71410   -0.00240    -999.25   -0.00240   35.26410   -0.01930   31.44630   31.44630   35.26410   40.91430   40.96420   40.91430    0.03060    -999.25    0.03060    2.70640  -64.35570  -13.11970   40.96420
 4850.00000    8.61910    8.61910   38.91970   -0.01460    2.61230    0.05710    -999.25    0.05710   25.69680   -0.01460   17.73570   17.73570   25.69680   32.55630   87.45760   32.55630    0.05890    -999.25    0.05890    2.60260 -101.73460  -50.57820   87.45760
 4900.00000    8.35730    8.35730   17.22660    0.00120    2.72420   -0.00830    -999.25   -0.00830   58.04980    0.00120   16.25860   16.25860   58.04980   51.48600   64.41470   51.48600    0.02440    -999.25    0.02440    2.71480  -96.00400  -44.92660   64.41470
