~Version ---------------------------------------------------
VERS.      2.0 : CWLS log ASCII Standard -VERSION 2.0
WRAP.       NO : One line per depth step
CREA. 11/14/17 : LAS Creation Date
~Well ------------------------------------------------------
STRT.FT                       1050.0 : START DEPTH
STOP.FT                      10150.0 : STOP DEPTH
STEP.FT                     50.00000 : STEP LENGTH
NULL.                        -999.25 : NULL VALUE
COMP.           CHEVRON STANDARD LTD : COMPANY
WELL. CHEVRON GULF FOXCK 12-35-61-18 : WELL
FLD .                      FOX CREEK : FIELD
LOC .                                : LOCATION
CTRY.                         CANADA : COUNTRY
SRVC.                   Schlumberger : SERVICE COMPANY
DATE.                    30-Mar-1976 : LOGDATE
PROV.                        Alberta : PROVINCE
UWI .               100123506118W500 : UNIQUE WELL ID
SLAT.WGS84                  54.32239 : SURFACE LATITUDE
SLON.WGS84                 -116.5968 : SURFACE LONGITUDE
~Curve Information -----------------------------------------
DEPT    .FT    : Depth Curve
CALDED  .IN    : CALIPER FROM DENSITY LOG [ADJ. TO SONIC LOG]
CALSED  .IN    : CALIPER FROM SONIC LOG
CALWS   .IN    : CALIPER [CALSED]
CONDWS  .OHMM  : CONDUCTIVITY [1000/DRESWS]
DCORED  .G/C3  : DENSITY CORRECTION FROM DENSITY LOG [ADJ. TO SONIC LOG]
DCORWS  .G/C3  : DENSITY CORRECTION [DCORED]
DENWS   .G/C3  : FORMATION BULK DENSITY [RHOBED]
DPHILSED.V/V   : DENSITY POROSITY LIME FROM DENSITY LOG [ADJ. TO RHOBED]
DPHISSED.V/V   : DENSITY POROSITY SAND FROM DENSITY LOG [ADJ. TO RHOBED]
DPOWS   .V/V   : DENSITY POROSITY LIME [CALC. FROM DENWS M=2710, F=1000]
DRESWS  .OHMM  : DEEP RESISTIVITY [ILDED]
DTED    .US/F  : DELTA-T FROM SONIC LOG
DTWS    .US/F  : COMPRESSIONAL SONIC [DTED]
GRDED   .GAPI  : GAMMA RAY FROM DENSITY LOG [ADJ. TO SONIC LOG]
GRSED   .GAPI  : GAMMA RAY FROM SONIC LOG
GRWS    .GAPI  : GAMMA RAY [GRSED]
ILDED   .OHMM  : DEEP INDUCTION FROM RESISTIVITY LOG
ILMED   .OHMM  : MEDIUM INDUCTION FROM RESISTIVITY LOG
LL8ED   .OHMM  : LATEROLOG 8 FROM RESISTIVITY LOG
MRESWS  .OHMM  : MEDIUM RESISTIVITY [ILMED]
NPHILSED.V/V   : NEUTRON POROSITY LIME FROM DENSITY LOG [ADJ. TO RHOBED]
NPHISSED.V/V   : NEUTRON POROSITY SAND FROM DENSITY LOG [ADJ. TO RHOBED]
NPOWS   .V/V   : NEUTRON POROSITY LIME [SS MATRIX CONVERTED FOR LS, SPL. TO NPHISSED @ 6719']
RHOBED  .G/C3  : BULK DENSITY FROM DENSITY LOG [ADJ. TO SONIC LOG]
SPRED   .MV    : SPONTANEOUS POTENTIAL FROM RESISTIVITY LOG
SPWS    .MV    : SPONTANEOUS POTENTIAL [BASELINE 0 MV, SPRED]
SRESWS  .OHMM  : SHALLOW RESISTIVITY [LL8ED]
TENDED  .LBF   : TENSION FROM DENSITY LOG [ADJ. TO GRSED]
TENSED  .LBF   : TENSION FROM SONIC LOG
~Params ----------------------------------------------------
PD  .                     GL : PERMANENT DATUM
EPD .FT               2712.6 : ELEVATION PERMANENT DATUM
LMF .                     KB : LOG MEASURED FROM
DAPD.FT                 16.4 : FEET ABOVE PERMANENT DATUM
DMF .                     KB : DRILLING MEASURED FROM
EKB .FT                 2729 : KELLY BUSHING
EDF .FT               2712.6 : DRILLING FLOOR
DATE.               03/30/76 : RUN DATE
RUN .                      1 : RUN NUMBER
DD  .FT                10180 : DEPTH DRILLER
DL  .FT                10178 : DEPTH LOGGER
BLI .FT                10176 : BOTTOM LOG INTERVAL
TLI .FT                 1117 : TOP LOG INTERVAL
CBD .FT                 1117 : CASING BOTTOM DRILLER
CBL .FT              1116.91 : CASING BOTTOM LOGGER
BS  .IN                 8.75 : BIT SIZE
BSD .FT                10180 : BIT SIZE AT DEPTH
DFT .               GEL CHEM : DRILLING FLUID TYPE
DFD .                    9.6 : DRILLING FLUID DENSITY
DFV .                    110 : DRILLING FLUID VISCOSITY
DFPH.                   10.5 : DRILLING FLUID PH
DFL .                      9 : DRILLING FLUID LOSS
RMF .OHMM               1.22 : RESISTIVITY MUD FILTRATE SAMPLE
MFST.DEGF                 68 : MUD FILTRATE SAMPLE TEMPERATURE
TCS .HRS                   3 : TIME CIRCULATED STOPPED
LUN .                   7691 : LOGGING UNIT NUMBER
LUL .                    WCT : LOGGING UNIT LOCATION
ENGI.                 KOVACS : RECORDING ENGINEER
WITN.            WONG MCLEOD : WITNESSED BY
CLNT.                A2DTECH : CLIENT CODE
ORIG.            2" 5" PRINT : ORIGIN OF DATA
UWI .       100123506118W500 : UNIQUE WELL ID
DICO. A2D Technologies, Inc. : DIGITIZING COMPANY
~Other -----------------------------------------------------
~ASCII -----------------------------------------------------
# ...
 8550.00000   13.26450    9.73530    9.73530   11.26270    0.20240    0.20240    2.19870    0.29690    -999.25    0.29900   88.81210   53.33060   53.33060   20.52150   16.90500   16.90500   88.81210  176.96140  141.11850  176.96140    0.05360    -999.25    0.05360    2.19870 -115.29200  -98.65960  141.11850 5601.20460 2949.87830
 8600.00000    9.54810    9.31950    9.31950   14.21760    0.00960    0.00960    2.72810   -0.00140    -999.25   -0.01060   70.33560   53.12850   53.12850   35.03400   36.07750   36.07750   70.33560   78.27190   93.42960   78.27190    0.01730    -999.25    0.01730    2.72810  -45.79610  -29.95260   93.42960 -891.81480 2289.86240
 8650.00000    9.63970    9.33250    9.33250   10.16850   -0.00290   -0.00290    2.69290    0.01170    -999.25    0.01000   98.34490   51.93900   51.93900   35.99370   29.85670   29.85670   98.34490   92.86530  135.55760   92.86530    0.01540    -999.25    0.01540    2.69290  -38.42840  -23.36610  135.55760  264.37370 3031.04150
 8700.00000    9.60890    9.31950    9.31950    3.06210   -0.00210   -0.00210    2.67530    0.02670    -999.25    0.02030  326.57170   50.42090   50.42090   27.35490   27.35780   27.35780  326.57170  291.91550  411.37270  291.91550    0.00530    -999.25    0.00530    2.67530  -47.78610  -33.51260  411.37270  785.11730 1481.01410
 8750.00000    9.64140    9.44980    9.44980    1.65670   -0.00400   -0.00400    2.71400   -0.00450    -999.25   -0.00230  603.62530   49.86200   49.86200   25.48620   22.34650   22.34650  603.62530  371.19490  679.70160  371.19490    0.00400    -999.25    0.00400    2.71400  -49.96080  -36.47230  679.70160 1700.45450 1782.81720
 8800.00000    9.91560    9.43420    9.43420    9.08720    0.01330    0.01330    2.73020   -0.01440    -999.25   -0.01180  110.05230   51.98970   51.98970   27.65340   24.00400   24.00400  110.05230  100.63770  123.24790  100.63770    0.00830    -999.25    0.00830    2.73020  -36.21840  -23.51110  123.24790 1538.45640 2150.53090
 8850.00000    9.97160    9.50470    9.50470   39.13630    0.01140    0.01140    2.71340   -0.00160    -999.25   -0.00200   25.55170   56.32740   56.32740   42.67470   34.60000   34.60000   25.55170   27.07750   35.74670   27.07750    0.05760    -999.25    0.05760    2.71340  -23.33300  -11.41450   35.74670 2134.44000 2092.11990
 8900.00000   10.82310   10.35240   10.35240  115.28910    0.12440    0.12440    2.57090    0.07800    -999.25    0.08140    8.67400   66.35510   66.35510   68.03280   63.05680   63.05680    8.67400    8.94890   10.85800    8.94890    0.11450    -999.25    0.11450    2.57090  -12.28770   -1.15030   10.85800 2871.91440 1948.89510
 8950.00000   10.48450   10.27460   10.27460   82.82120   -0.01350   -0.01350    2.65550    0.03380    -999.25    0.03190   12.07420   62.93260   62.93260   57.81690   55.78000   55.78000   12.07420   12.68290   16.29470   12.68290    0.08000    -999.25    0.08000    2.65550  -14.46510   -4.03030   16.29470 2913.12470   39.30860
 9000.00000   11.05800   10.83210   10.83210  136.98070    0.20010    0.20010    2.60220    0.07310    -999.25    0.06300    7.30030   69.30740   69.30740   75.39360   76.84080   76.84080    7.30030    7.52820    9.33960    7.52820    0.15160    -999.25    0.15160    2.60220  -14.30920   -3.87440    9.33960 5402.98040 1176.22210
 9050.00000    -999.25    9.59770    9.59770   67.41870    -999.25    -999.25    -999.25    -999.25    -999.25    -999.25   14.83340   64.97710   64.97710    -999.25   59.26700   59.26700   14.83340   15.59830   18.70950   15.59830    -999.25    -999.25    -999.25    -999.25  -13.39190   -2.95710   18.70950    -999.25 2847.01890
 9100.00000    -999.25    9.74980    9.74980   21.16220    -999.25    -999.25    -999.25    -999.25    -999.25    -999.25   47.25410   65.55250   65.55250    -999.25   81.60410   81.60410   47.25410   49.99620   89.17980   49.99620    -999.25    -999.25    -999.25    -999.25  -24.37810  -13.94330   89.17980    -999.25 3069.09820
 9150.00000    -999.25   10.34990   10.34990  105.77120    -999.25    -999.25    -999.25    -999.25    -999.25    -999.25    9.45770   68.89980   68.89980    -999.25   73.56180   73.56180    9.45770    9.83600   13.03930    9.83600    -999.25    -999.25    -999.25    -999.25  -27.13330  -16.69840   13.03930    -999.25 2801.31200
 9200.00000    -999.25   10.24640   10.24640  101.06930    -999.25    -999.25    -999.25    -999.25    -999.25    -999.25    9.89420   65.10370   65.10370    -999.25   87.04590   87.04590    9.89420    8.88630   18.88140    8.88630    -999.25    -999.25    -999.25    -999.25  -33.81030  -23.37550   18.88140    -999.25   10.15710
 9250.00000    -999.25    9.90360    9.90360   84.39250    -999.25    -999.25    -999.25    -999.25    -999.25    -999.25   11.84940   71.74490   71.74490    -999.25   78.55340   78.55340   11.84940   13.25810   17.07510   13.25810    -999.25    -999.25    -999.25    -999.25  -25.86700  -15.43220   17.07510    -999.25   -2.13290
 9300.00000    -999.25    9.74040    9.74040   57.64530    -999.25    -999.25    -999.25    -999.25    -999.25    -999.25   17.37510   59.26380   59.26380    -999.25   65.43540   65.43540   17.37510   19.46660   37.17020   19.46660    -999.25    -999.25    -999.25    -999.25  -25.31460  -14.87970   37.17020    -999.25 2864.71410
 9350.00000    -999.25    9.90690    9.90690   85.37090    -999.25    -999.25    -999.25    -999.25    -999.25    -999.25   11.71360   66.66620   66.66620    -999.25   85.53290   85.53290   11.71360   12.08170   15.07960   12.08170    -999.25    -999.25    -999.25    -999.25  -27.85930  -17.42450   15.07960    -999.25 4321.21640
 9400.00000    -999.25    9.36820    9.36820   71.20830    -999.25    -999.25    -999.25    -999.25    -999.25    -999.25   14.04330   64.65650   64.65650    -999.25   78.68330   78.68330   14.04330   14.47830   19.80850   14.47830    -999.25    -999.25    -999.25    -999.25  -29.76420  -19.32940   19.80850    -999.25 4029.41890
 9450.00000    -999.25   10.22170   10.22170  122.89990    -999.25    -999.25    -999.25    -999.25    -999.25    -999.25    8.13670   72.63690   72.63690    -999.25   97.49540   97.49540    8.13670    8.38860   11.10690    8.38860    -999.25    -999.25    -999.25    -999.25  -29.46350  -19.02870   11.10690    -999.25 2125.12310
 9500.00000   10.16780    9.59690    9.59690   99.70590    0.21530    0.21530    2.70110    0.01340    -999.25    0.00520   10.02950   66.39760   66.39760   96.24930   89.06170   89.06170   10.02950   10.61600   13.04500   10.61600    0.18020    -999.25    0.18020    2.70110  -25.64510  -15.21030   13.04500 4293.85950 1378.28100
 9550.00000    9.36800    9.26320    9.26320   66.22660   -0.00580   -0.00580    2.69900    0.00700    -999.25    0.00650   15.10610   64.47210   64.47210   84.43520   78.69170   78.69170   15.10610   16.42940   24.56530   16.42940    0.13780    -999.25    0.13780    2.69900  -21.60650  -11.17170   24.56530 5191.09660 1698.26010
 9600.00000    9.03680    9.03040    9.03040    9.65630    0.03430    0.03430    2.61130    0.06200    -999.25    0.05770  103.55910   68.35510   68.35510  127.74980  114.52880  114.52880  103.55910  117.17130  163.18380  117.17130    0.11400    -999.25    0.11400    2.61130  -12.93930   -2.50450  163.18380 5040.90850 1811.92920
 9650.00000    9.02320    8.91020    8.91020    0.75250    0.02720    0.02720    2.49830    0.12860    -999.25    0.12380 1328.88290   71.24210   71.24210  203.57450  207.40800  207.40800 1328.88290 1399.30810 1717.00480 1399.30810    0.15460    -999.25    0.15460    2.49830  -23.63400  -13.19920 1717.00480 3859.79300 3155.89170
 9700.00000    9.06200    8.97120    8.97120    0.80530   -0.00460   -0.00460    2.58020    0.08170    -999.25    0.07590 1241.80600   63.62390   63.62390  126.73410  124.94430  124.94430 1241.80600 1238.87190 1655.34230 1238.87190    0.14180    -999.25    0.14180    2.58020  -28.21800  -17.78320 1655.34230 6796.07010 3666.14570
 9750.00000    9.21700    8.83990    8.83990   21.04140    0.01150    0.01150    2.69550    0.00670    -999.25    0.00850   47.52530   59.70670   59.70670   58.12610   57.59000   57.59000   47.52530   49.28820   56.68230   49.28820    0.09760    -999.25    0.09760    2.69550  -11.84750   -1.41270   56.68230 3620.26990 3453.66810
