~Version ---------------------------------------------------
VERS.      2.0 : CWLS log ASCII Standard -VERSION 2.0
WRAP.       NO : One line per depth step
CREA. 07/24/13 : LAS Creation Date
~Well ------------------------------------------------------
STRT.FT                        300.0 : START DEPTH
STOP.FT                      12850.0 : STOP DEPTH
STEP.FT                     50.00000 : STEP LENGTH
NULL.                        -999.25 : NULL VALUE
COMP.  WESTERN DECALTA PETROLEUM LTD : COMPANY
WELL. DECALTA ET AL BRAZR 6-31-47-13 : WELL
FLD .                  BRAZEAU RIVER : FIELD
LOC .                                : LOCATION
CTRY.                         CANADA : COUNTRY
SRVC.                   Schlumberger : SERVICE COMPANY
DATE.                    15-Mar-1978 : LOGDATE
PROV.                        Alberta : PROVINCE
UWI .               100063104713W500 : UNIQUE WELL ID
SLAT.WGS84                  53.09535 : SURFACE LATITUDE
SLON.WGS84                 -115.8946 : SURFACE LONGITUDE
~Curve Information -----------------------------------------
DEPT   .FT    : DEPTH FEET
CALD   .IN    : CALIPER FROM DENSITY LOG
CALS   .IN    : DENSITY POROSITY LIMESTONE [M=2.71, F=1.0] FROM DENSITY LOG
DPHI_LS.DEC   : DENSITY POROSITY LIMESTONE [M=2.71, F=1.0] FROM DENSITY LOG
DPHI_SS.DEC   : DENSITY POROSITY SANDSTONE [M=2.65, F=1.0] FROM DENSITY LOG
DRHO   .G/C3  : DENSITY CORRECTION FROM DENSITY LOG
DT     .US/F  : DELTA TIME FROM SONIC LOG
GRD    .GAPI  : GAMMA RAY FROM DENSITY LOG
GRS    .GAPI  : GAMMA RAY FROM SONIC LOG
ILD    .OHMM  : DEEP INDUCTION RESISTIVITY FROM RESISTIVITY LOG
ILM    .OHMM  : MEDIUM INDUCTION RESISTIVITY FROM RESISTIVITY LOG
LL8    .OHMM  : 8 INCH LATEROLOG RESISTIVITY FROM RESISTIVITY LOG
NPHI_LS.DEC   : NEUTRON POROSITY LIMESTONE FROM DENSITY LOG
NPHI_SS.DEC   : NEUTRON POROSITY SANDSTONE FROM DENSITY LOG
RHOB   .G/C3  : BULK DENSITY FROM DENSITY LOG
SPR    .MV    : SPONTANEOUS POTENTIAL FROM RESISTIVITY LOG
~Params ----------------------------------------------------
PD  .                     GL : PERMANENT DATUM
EPD .FT                 3420 : ELEVATION PERMANENT DATUM
LMF .                     KB : LOG MEASURED FROM
DAPD.FT                   27 : FEET ABOVE PERMANENT DATUM
DMF .                     KB : DRILLING MEASURED FROM
EGL .FT                 3420 : GROUND LEVEL
DATE.               03/15/78 : RUN DATE
RUN .                      2 : RUN NUMBER
DD  .FT                12857 : DEPTH DRILLER
DL  .FT                12856 : DEPTH LOGGER
BLI .FT                12850 : BOTTOM LOG INTERVAL
TLI .FT                10390 : TOP LOG INTERVAL
CS  .IN                9.625 : CASING SIZE
CBD .FT                10395 : CASING BOTTOM DRILLER
CBL .FT                10390 : CASING BOTTOM LOGGER
BS  .IN                6.125 : BIT SIZE
BSD .FT                12857 : BIT SIZE AT DEPTH
DFT .                    GEL : DRILLING FLUID TYPE
DFD .                   10.3 : DRILLING FLUID DENSITY
DFV .                     44 : DRILLING FLUID VISCOSITY
DFPH.                   11.5 : DRILLING FLUID PH
DFL .                    8.8 : DRILLING FLUID LOSS
MSS .               FLOWLINE : MUD SAMPLE SOURCE
RMS .OHMM               0.89 : RESISTIVITY MUD SAMPLE
MST .DEGF                 62 : MUD SAMPLE TEMPERATURE
TCS .HRS                 2.5 : TIME CIRCULATED STOPPED
LUN .                   7687 : LOGGING UNIT NUMBER
LUL .                    EDA : LOGGING UNIT LOCATION
ENGI.               BERNISKY : RECORDING ENGINEER
WITN.                  COWAN : WITNESSED BY
CLNT.                A2DTECH : CLIENT CODE
ORIG.            2" 5" PRINT : ORIGIN OF DATA
UWI .       100063104713W500 : UNIQUE WELL ID
DICO. A2D Technologies, Inc. : DIGITIZING COMPANY
~Other -----------------------------------------------------
~ASCII -----------------------------------------------------
# ...
 9500.00000    8.64810    8.63230    0.02710    0.00290    0.01890   57.57260   39.42990   34.19380 1458.39720  585.66710 1220.78030    0.03890    0.08640    2.66000 -101.11250
 9550.00000   10.46550    8.65750    0.05650    -999.25    0.15650   60.35490   21.80980   22.58910   37.25560   46.74960   80.92880    0.07820    -999.25    2.50290 -115.37550
 9600.00000    8.74930    8.67040   -0.02170    -999.25    0.02870   56.40040   32.81390   39.03470   29.01630   27.53890   87.37400    0.08250    -999.25    2.75650 -108.93680
 9650.00000    8.92200    8.73000   -0.15040    -999.25    0.00860   50.76460   15.72770    6.36110 1374.85080  252.30930 1510.40890    0.00220    -999.25    2.91810 -108.26040
 9700.00000    8.90250    8.78700   -0.09560    -999.25    0.03600   54.73410   41.11240   40.48870   44.94600   40.12630  129.18150    0.05080    -999.25    2.89470  -96.35120
 9750.00000   10.86060    9.11120   -0.07850    -999.25    0.26690   49.99960   18.78270    9.22170   89.25210   60.20460  184.33160    0.03050    -999.25    2.66770 -117.28390
 9800.00000   11.73410    8.50270    0.04850    -999.25    0.24010   49.76990   13.79240   11.59630   38.71280   52.69940  100.50610    0.07700    -999.25    2.52180 -134.02460
 9850.00000    8.74350    9.26160   -0.04100    -999.25    0.03540   54.27880   69.38130   44.84940   38.22520   50.27430   62.21690    0.10510    -999.25    2.74470 -102.26850
 9900.00000    8.86840    9.02500   -0.04320    -999.25    0.00550   53.85270   49.46740   35.56600   20.30210   22.05190   23.42320    0.07270    -999.25    2.76090 -102.21550
 9950.00000    8.87670    8.87450    0.00750    -999.25    0.03090   55.11000   23.48280   22.66930    5.11420    4.11810  137.78340    0.03610    -999.25    2.76850 -133.37770
 10000.00000    8.79760    8.65040   -0.03360    -999.25    0.01280   55.44930   57.78260   45.62860   47.76600   46.34390   63.21500    0.06060    -999.25    2.77600  -97.22780
 10050.00000    8.81130    8.71160    0.02010    -999.25   -0.00810   50.84390    7.61150    8.35060 1611.09750 1435.86950 1538.41490    0.00730    -999.25    2.68730 -135.00150
 10100.00000    8.86410    8.68430   -0.02140    -999.25    0.02720   55.85020   43.91060   48.50320   60.36560   54.27470   96.63690    0.05560    -999.25    2.76690 -127.21990
 10150.00000    8.89160    8.70910    0.00110    -999.25    0.00670   59.47590   55.02320   71.60060   41.93080   38.06530   67.72730    0.07430    -999.25    2.69900  -92.75560
 10200.00000    8.88400    8.73130   -0.00010    -999.25    0.00990   56.43070   47.41060   42.93120   54.54030   51.66130   71.14990    0.06480    -999.25    2.71860  -58.18850
 10250.00000    8.90730    8.74600    0.00720    -999.25    0.00530   60.61860   64.93590   60.22220   24.74550   23.10160   35.95670    0.08240    -999.25    2.71150  -45.03980
 10300.00000    8.88370    8.71880    0.00050    -999.25    0.00640   58.29970   74.78980   56.06360  120.34980  112.23620  134.31690    0.08360    -999.25    2.72280    3.29130
 10350.00000    8.82960    8.68410    0.00410    -999.25    0.00640   57.07550   86.87030   77.76730   36.96040   34.78820   42.06260    0.04880    -999.25    2.70250  -74.17370
 10400.00000    9.75450    8.74660   -0.03940    -999.25    0.24290   49.73230   24.73130   23.54400  424.90060 1722.22340 1233.12540    0.03940    -999.25    2.68900 -313.36990
 10450.00000    7.68500    6.39250   -0.07200    -999.25    0.24960   49.06800   12.56220    6.80610  710.59060 1562.05480 1449.50850    0.00550    -999.25    2.80690  -35.11120
 10500.00000    9.94630    7.00860    0.08150    -999.25    0.23580   49.54140   14.46870   11.49450   96.65880  204.12790  876.37730    0.02220    -999.25    2.55680 -102.56290
 10550.00000    7.51300    5.99870   -0.02140    -999.25    0.21220   49.32800   11.85130    7.98180   25.34680   48.54370  205.84970    0.04150    -999.25    2.79990 -110.43130
 10600.00000    8.16450    6.52850   -0.03650    -999.25    0.21100   48.57840   11.66800    8.57540 1280.65140 1840.84720 1448.36880    0.00600    -999.25    2.78700 -116.57540
 10650.00000   10.28250    7.22970    0.02130    -999.25    0.19030   50.51500   12.19840    9.85480  134.61670  290.78660  472.60500    0.01500    -999.25    2.68330 -107.97130
 10700.00000    8.67890    6.44210   -0.05670    -999.25    0.26650   48.77820   11.72460    9.43690 1751.31910  229.12310  613.67900    0.00770    -999.25    2.78290 -131.71390
 10750.00000    6.40350    6.29330   -0.05300    -999.25    0.13730   51.38610   11.54460    9.93270   31.88980   48.53360  143.58250    0.05340    -999.25    2.78780 -131.92730
 10800.00000    9.08130    6.67710   -0.03340    -999.25    0.12610   49.59480   11.92360    8.95460  306.15870 1867.49230  466.80000    0.00620    -999.25    2.74210  -62.91100
 10850.00000    9.42990    6.74700   -0.01600    -999.25    0.23960   48.82410   12.99260    9.27920  154.98890  680.65750  600.49010    0.01260    -999.25    2.74760  -53.29580
 10900.00000    6.78100    6.27000   -0.01490    -999.25    0.09360   49.60910    9.96570    8.48290   59.42310  644.86320  322.73690    0.04700    -999.25    2.78920 -134.53400
 10950.00000    7.31980    6.35070   -0.09390    -999.25    0.16610   48.36060   12.06970    8.62700  165.10300  371.97440 1003.95390    0.02810    -999.25    2.87130 -151.91870
 11000.00000    7.62580    6.70280   -0.12050    -999.25    0.12760   48.69550   10.16170    9.08730 2195.03590 1776.42260 1565.24630    0.00280    -999.25    3.00650 -161.01500
 11050.00000    7.19920    6.44570   -0.10820    -999.25    0.20400   47.32840   14.60800   12.80730 1671.82030 1529.75730 1536.60440    0.01200    -999.25    2.94820 -115.54780
 11100.00000    6.74000    6.28830   -0.03710    -999.25    0.12330   57.28910   11.76150    7.51170   35.35960   75.27420   84.67080    0.08200    -999.25    2.74150 -238.62460
 11150.00000    9.14600    6.45270    0.05680    -999.25    0.24760   49.79550   29.51610   24.55450  151.75290 2024.08340  821.33530    0.02130    -999.25    2.56660 -205.39480
 11200.00000   10.80270    6.51330    0.17200    -999.25    -999.25   55.01430   32.07220   25.08500  154.70690   78.41370  350.06980    0.07190    -999.25    2.41890 -151.14740
 11250.00000    9.70440    6.61660   -0.07560    -999.25    0.24830   49.88920   18.50010   13.13050 1321.44020 1315.90580  425.89540    0.04880    -999.25    2.84770 -182.45300
 11300.00000    8.99260    6.45270    0.05670    -999.25    0.24920   67.81790  112.07360   96.21820   18.20400   20.81320   36.20950    0.15460    -999.25    2.64150  -90.52180
 11350.00000    7.30610    6.53570   -0.05690    -999.25    0.05870   53.52770   57.92720   56.89540   43.43650   40.34930   47.66610    0.07610    -999.25    2.78160  -41.82370
 11400.00000    7.68610    6.80480   -0.05230    -999.25    0.07920   58.04940   81.05750   74.91900   13.93560   14.81550   25.97140    0.09480    -999.25    2.78050 -118.37900
 11450.00000    8.61340    6.94710   -0.04230    -999.25    0.06430   52.85850   39.61840   35.66940  119.17490   63.30560  133.71850    0.01510    -999.25    2.80260 -172.39500
 11500.00000    8.26890    6.98850   -0.05900    -999.25    0.07830   53.91780   36.86540   35.45440   29.91070   30.97780   40.09580    0.03710    -999.25    2.80630 -187.95250
 11550.00000    8.10080    7.17170   -0.01850    -999.25    0.02120   59.52380   78.24820   49.51230    7.96720    9.20330   19.72700    0.08140    -999.25    2.71840 -154.92430
 11600.00000    7.93640    7.49530   -0.03460    -999.25    0.05180   68.69790   95.62690   83.33360    6.19320    5.72050    9.45630    0.15030    -999.25    2.76620 -180.51550
 11650.00000    7.99500    7.34330   -0.11400    -999.25    0.19070   68.99450   84.66580   69.71030    5.50590    5.21730    7.80080    0.15670    -999.25    2.83680 -187.13210
 11700.00000    9.71950    7.42140    0.19280    -999.25    0.17740   72.57680   89.29370   84.13230    4.60510    4.78850    7.03010    0.20230    -999.25    2.41600 -179.80180
