~Version ---------------------------------------------------
VERS.      2.0 : CWLS log ASCII Standard -VERSION 2.0
WRAP.       NO : One line per depth step
CREA. 11/10/17 : LAS Creation Date
~Well ------------------------------------------------------
STRT.FT                          1150.0 : START DEPTH
STOP.FT                         11400.0 : STOP DEPTH
STEP.FT                        50.00000 : STEP LENGTH
NULL.                           -999.25 : NULL VALUE
COMP.              PETROFINA CANADA LTD : COMPANY
WELL. FINA AMOCO HB KAYBOBS 11-33-60-20 : WELL
FLD .                                   : FIELD
LOC .                                   : LOCATION
CTRY.                            CANADA : COUNTRY
SRVC.                      Schlumberger : SERVICE COMPANY
DATE.                       07-Apr-1977 : LOGDATE
PROV.                           Alberta : PROVINCE
UWI .                  100113306020W500 : UNIQUE WELL ID
SLAT.WGS84                     54.23446 : SURFACE LATITUDE
SLON.WGS84                    -116.9427 : SURFACE LONGITUDE
~Curve Information -----------------------------------------
DEPT    .FT    : Depth Curve
CALDED  .IN    : CALIPER CNFD LOG
CALSED  .IN    : CALIPER FROM BCS LOG [ADJ. TO GRDED]
CALWS   .IN    : CALIPER [CALSED]
CONDWS  .MMHO  : CONDUCTIVITY [1000/DRESWS]
DCORWS  .G/C3  : DENSITY CORRECTION [DRHOED]
DENWS   .G/C3  : FORMATION BULK DENSITY [RHOBED]
DPHILSED.V/V   : DENSITY POROSITY LIMESTONE [M=2.71, F=1.00] FROM CNFD LOG [ADJ. TO RHOBED]
DPHISSED.V/V   : DENSITY POROSITY SANDSTONE [M=2.65, F=1.00] FROM CNFD LOG [ADJ. TO RHOBED]
DPOLSWS .V/V   : DENSITY POROSITY LIMESTONE [CALCULATED FROM DENWS, M=2.71, F=1.00]
DRESWS  .OHMM  : DEEP RESISTIVITY [ILDED]
DRHOED  .G/C3  : DENSITY CORRECTION FROM CNFD LOG
DTED    .US/F  : INTERVAL TRANSIT TIME FROM BCS LOG [ADJ. TO GRDED]
DTWS    .US/F  : COMPRESSIONAL SONIC [DTWS]
GRDED   .GAPI  : GAMMA RAY FROM CNFD LOG
GRSED   .GAPI  : GAMMA RAY FROM BCS LOG [ADJ. TO GRDED]
GRWS    .GAPI  : GAMMA RAY [GRSED]
ILDED   .OHMM  : DEEP INDUCTION FROM DILL LOG
ILMED   .OHMM  : MEDIUM INDUCTION FROM DILL LOG
LL8ED   .OHMM  : LATEROLOG FROM DILL LOG
MRESWS  .OHMM  : MEDIUM RESISTIVITY [ILMED]
NPHILSED.V/V   : NEUTRON POROSITY LIMESTONE FROM CNFD LOG [ADJ. TO RHOBED]
NPHISSED.V/V   : NEUTRON POROSITY SANDSTONE FROM CNFD LOG [ADJ. TO RHOBED]
NPOLSWS .V/V   : NEUTRON POROSITY LIMESTONE [NPHISSED MATRIX CONVERSION FOR LIMESTONE, SPL. TO NPHILSED @ 7450']
RHOBED  .G/C3  : BULK DENSITY FROM CNFD LOG
SPRED   .MV    : SPONTANEOUS POTENTIAL FROM DILL LOG
SPWS    .MV    : SPONTANEOUS POTENTIAL [BASELINE 0 MV, SPRED]
SRESWS  .OHMM  : SHALLOW RESISTIVITY [LL8ED]
~Params ----------------------------------------------------
PD  .                     GL : PERMANENT DATUM
EPD .FT                 2961 : ELEVATION PERMANENT DATUM
LMF .                     KB : LOG MEASURED FROM
DAPD.FT                   18 : FEET ABOVE PERMANENT DATUM
EKB .FT                 2979 : KELLY BUSHING
EGL .FT                 2961 : GROUND LEVEL
DATE.               04/07/77 : RUN DATE
RUN .                      1 : RUN NUMBER
DD  .FT                11429 : DEPTH DRILLER
DL  .FT                11423 : DEPTH LOGGER
BLI .FT                11417 : BOTTOM LOG INTERVAL
TLI .FT                 1195 : TOP LOG INTERVAL
CBD .FT                 1195 : CASING BOTTOM DRILLER
CBL .FT                 1195 : CASING BOTTOM LOGGER
BS  .IN                 8.75 : BIT SIZE
BSD .FT                11429 : BIT SIZE AT DEPTH
DFT .               GEL CHEM : DRILLING FLUID TYPE
DFD .                      9 : DRILLING FLUID DENSITY
DFV .                     98 : DRILLING FLUID VISCOSITY
DFPH.                    9.5 : DRILLING FLUID PH
MSS .               FLOWLINE : MUD SAMPLE SOURCE
RMS .OHMM               1.54 : RESISTIVITY MUD SAMPLE
MST .DEGF                 65 : MUD SAMPLE TEMPERATURE
RMB .OHMM               0.51 : RESISTIVITY MUD AT BHT
TCS .HRS                   4 : TIME CIRCULATED STOPPED
LUN .             OSU C 3704 : LOGGING UNIT NUMBER
LUL .                    EDM : LOGGING UNIT LOCATION
ENGI.               MCDONALD : RECORDING ENGINEER
WITN.               BOLEANTU : WITNESSED BY
CLNT.                A2DTECH : CLIENT CODE
ORIG.            2" 5" PRINT : ORIGIN OF DATA
UWI .       100113306020W500 : UNIQUE WELL ID
DICO. A2D Technologies, Inc. : DIGITIZING COMPANY
~Other -----------------------------------------------------
~ASCII -----------------------------------------------------
# ...
 8950.00000    9.11230    9.42780    9.42780    2.47780    0.25770    2.55830    0.23180    -999.25    0.08870  403.57970    0.25770   52.40610   52.40610   17.48870   15.46480   14.08320  403.57970  464.18220 1420.01900  464.18220    0.19390    -999.25    0.19390    2.55830 -287.92660 -111.02600 1420.01900
 9000.00000    9.19710    9.52260    9.52260    5.10140    0.26210    2.54640    0.24100    -999.25    0.09570  196.02650    0.26210   51.56660   51.56660   10.89720    9.33080   10.26260  196.02650  170.17250  358.89620  170.17250    0.19470    -999.25    0.19470    2.54640 -293.86980 -118.86090  358.89620
 9050.00000    9.19430    9.50630    9.50630    2.61130    0.24350    2.39660    0.33420    -999.25    0.18330  382.95560    0.24350   52.15340   52.15340   14.31470    8.77320    8.77320  382.95560 1394.10870  358.89050 1394.10870    0.19540    -999.25    0.19540    2.39660 -289.54920 -116.42250  358.89050
 9100.00000    9.18400    9.60040    9.60040    2.58750    0.14630    2.41110    0.30480    -999.25    0.17480  386.48020    0.14630   52.02980   52.02980   12.13530    9.61370    9.61370  386.48020  303.38270  560.58940  303.38270    0.19490    -999.25    0.19490    2.41110 -287.39480 -116.16920  560.58940
 9150.00000    9.00640    9.30890    9.30890   12.19660    0.08280    2.71110    0.13930    -999.25   -0.00060   81.98980    0.08280   55.14360   55.14360    8.46000    6.97380    6.97380   81.98980   84.57410  163.60300   84.57410    0.17070    -999.25    0.17070    2.71110 -306.28590 -136.95200  163.60300
 9200.00000    9.12330    9.53660    9.53660    3.30750    0.25980    2.40070    0.33230    -999.25    0.18090  302.34440    0.25980   52.43680   52.43680   11.26770   10.09480   10.09480  302.34440  322.50310  217.67410  322.50310    0.19270    -999.25    0.19270    2.40070 -257.77650  -90.33430  217.67410
 9250.00000    9.18250    9.55500    9.55500    2.08350    0.21170    2.53960    0.23910    -999.25    0.09960  479.97050    0.21170   53.17350   53.17350   12.73210   12.05590   12.05590  479.97050  255.09380  329.50200  255.09380    0.19750    -999.25    0.19750    2.53960 -253.45490  -87.90430  329.50200
 9300.00000    9.21720    9.49030    9.49030    4.30870    0.22440    2.36470    0.34740    -999.25    0.20190  232.23740    0.22440   53.67500   53.67500   13.93550    9.40810   10.86970  232.23740  230.62520  213.49740  230.62520    0.19350    -999.25    0.19350    2.36470 -276.00210 -112.33370  213.49740
 9350.00000    9.12860    9.35400    9.35400    4.51580    0.26140    2.42980    0.32550    -999.25    0.16390  221.44310    0.26140   54.71250   54.71250   12.43970   11.02260   13.34390  221.44310  174.74920  250.02510  174.74920    0.18210    -999.25    0.18210    2.42980 -280.79030 -119.02310  250.02510
 9400.00000    9.23290    9.52210    9.52210    6.07400    0.21750    2.34890    0.33630    -999.25    0.21120  164.63530    0.21750   54.30610   54.30610   13.65160   11.79480   11.52930  164.63530  141.08720  213.31810  141.08720    0.18150    -999.25    0.18150    2.34890 -306.80630 -146.93080  213.31810
 9450.00000    9.02900    9.16470    9.16470   24.43600    0.05060    2.80720    0.08600    -999.25   -0.05680   40.92320    0.05060   54.60310   54.60310    8.43010    9.32200    8.01980   40.92320   45.86980   82.46040   45.86980    0.16060    -999.25    0.16060    2.80720 -328.65790 -170.67400   82.46040
 9500.00000    9.25900    9.33520    9.33520    2.61920    0.17170    2.59070    0.21580    -999.25    0.06980  381.78890    0.17170   54.89160   54.89160   16.12610   13.45220   14.07280  381.78890  346.26660  344.50530  346.26660    0.18220    -999.25    0.18220    2.59070 -308.30460 -152.21240  344.50530
 9550.00000    9.07850    9.37310    9.37310   20.29370    0.12100    2.71000    0.13660    -999.25   -0.00000   49.59740    0.12100   53.53270   53.53270   10.75620    9.24160    9.25130   49.59740   45.01970   60.84970   45.01970    0.17640    -999.25    0.17640    2.71000 -276.60100 -122.39100   60.84970
 9600.00000    9.26680    9.08010    9.08010   49.04340    0.21170    2.23460    0.37360    -999.25    0.27800   20.39010    0.21170   54.23310   54.23310   22.59310   26.55300   20.67660   20.39010   22.84850   36.07840   22.84850    0.21290    -999.25    0.21290    2.23460 -278.60990 -126.30100   36.07840
 9650.00000    9.06220    9.01860    9.01860   38.62180    0.24780    2.34610    0.31070    -999.25    0.21280   25.89210    0.24780   52.65780   52.65780   19.13830   10.70600   15.00150   25.89210   20.47580   53.39490   20.47580    0.22700    -999.25    0.22700    2.34610 -328.89730 -178.48010   53.39490
 9700.00000    9.33620    9.56270    9.56270    8.12240    0.25530    2.24190    0.41160    -999.25    0.27370  123.11650    0.25530   56.68920   56.68920   26.31900   23.41080   24.85260  123.11650   61.36750   65.11890   61.36750    0.26080    -999.25    0.26080    2.24190 -294.25390 -145.72840   65.11890
 9750.00000    8.96100    9.37330    9.37330    3.08300    0.01990    2.75910    0.11240    -999.25   -0.02870  324.35560    0.01990   56.25670   56.25670   26.37300   22.10700   25.19540  324.35560  274.04140  686.64450  274.04140    0.16420    -999.25    0.16420    2.75910 -233.13230  -86.49850  686.64450
 9800.00000    8.98340    9.11220    9.11220   12.30220    0.02560    2.74270    0.12180    -999.25   -0.01910   81.33090    0.02560   59.27630   59.27630   38.42840   29.20620   30.49610   81.33090   77.58230  103.33050   77.58230    0.18330    -999.25    0.18330    2.74270 -240.67520  -95.92350  103.33050
 9850.00000    8.96990    9.12620    9.12620   17.38390    0.13220    2.79340    0.07900    -999.25   -0.04880   57.52460    0.13220   58.92210   58.92210   35.73510   31.55930   28.95030   57.52460   60.15550   77.57970   60.15550    0.18200    -999.25    0.18200    2.79340 -195.73080  -52.88030   77.57970
 9900.00000    8.56370    8.99490    8.99490    3.63060    0.04610    2.80060    0.08360    -999.25   -0.05300  275.43300    0.04610   56.08510   56.08510   26.05300   21.68980   22.29760  275.43300  308.17940  494.54520  308.17940    0.16120    -999.25    0.16120    2.80060 -217.38960  -76.43080  494.54520
 9950.00000    8.58950    8.92440    8.92440    7.44140    0.02900    2.77480    0.09910    -999.25   -0.03790  134.38410    0.02900   57.46150   57.46150   31.87780   23.59320   26.10340  134.38410  124.45660  202.48660  124.45660    0.16680    -999.25    0.16680    2.77480 -206.93470  -67.86760  202.48660
 10000.00000    8.58550    8.89460    8.89460    8.71290    0.00080    2.71710    0.14010    -999.25   -0.00420  114.77190    0.00080   56.71790   56.71790   30.48720   24.57410   25.97590  114.77190  108.97690  147.14620  108.97690    0.17980    -999.25    0.17980    2.71710 -160.98340  -23.80790  147.14620
 10050.00000    8.64380    8.89570    8.89570   13.97190    0.02130    2.75110    0.11240    -999.25   -0.02410   71.58000    0.02130   57.91960   57.91960   31.29380   23.49640   24.98530   71.58000   67.98810   93.38300   67.98810    0.18060    -999.25    0.18060    2.75110 -138.92120   -3.62790   93.38300
 10100.00000    8.63450    8.94490    8.94490   12.51580    0.04690    2.79860    0.08340    -999.25   -0.05180   79.89870    0.04690   60.01130   60.01130   34.48900   28.12680   25.92410   79.89870   77.73590  100.97970   77.73590    0.19110    -999.25    0.19110    2.79860 -147.51390  -14.59870  100.97970
 10150.00000    8.71950    8.89730    8.89730    9.87330    0.04280    2.78950    0.09110    -999.25   -0.04650  101.28340    0.04280   60.06400   60.06400   31.48210   22.85230   24.53370  101.28340  107.57870  155.26280  107.57870    0.18830    -999.25    0.18830    2.78950 -175.71160  -45.24920  155.26280
 10200.00000    8.86150    8.92030    8.92030   53.09630    0.01920    2.75030    0.11940    -999.25   -0.02360   18.83370    0.01920   68.26320   68.26320   54.02880   48.75210   48.75210   18.83370   19.60950   24.80780   19.60950    0.24490    -999.25    0.24490    2.75030 -176.00880  -47.99920   24.80780
