~Version ---------------------------------------------------
VERS. 2.0 : CWLS log ASCII Standard -VERSION 2.0
WRAP. YES : MULTIPLE LINES PER DEPTH STEP
~Well ------------------------------------------------------
STRT.FT                      2000.0 : START DEPTH
STOP.FT                     17600.0 : STOP DEPTH
STEP.FT                    50.00000 : STEP LENGTH
NULL.                      -99925.0 : NULL VALUE
COMP.        SEAFORT PETROLEUM LTD. : COMPANY
WELL. SEAFORT ET AL KAKWA 2-20-61-7 : WELL
FLD .                               : FIELD
LOC .                               : LOCATION
CTRY.                        CANADA : COUNTRY
SRVC.        Schlumberger of Canada : SERVICE COMPANY
DATE.                   12-Aug-1975 : LOGDATE
PROV.                       Alberta : PROVINCE
UWI .              100022006107W600 : UNIQUE WELL ID
SLAT.WGS84                 54.28609 : SURFACE LATITUDE
SLON.WGS84                -119.0081 : SURFACE LONGITUDE
~Curve Information -----------------------------------------
DEPT    .FT    : DEPTH FEET
CALDED  .IN    : CALIPER FROM DENSITY LOG [ADJ TO GRRED]
CALSED  .IN    : CALIPER FROM SONIC LOG
CALWS   .IN    : CALIPER [CALSED]
CONDWS  .MMHO  : CONDUCTIVITY [1000/DRESWS]
DCORED  .G/C3  : DENSITY CORRECTION FROM DENSITY LOG [ADJ TO GRRED]
DCORWS  .G/C3  : DENSITY CORRECTION [DCORED]
DENWS   .G/C3  : BULK DENSITY [M=2.65 F=1.0] <14590> [M=2.71 F=1.0] [RHOBED]
DPHILSED.V/V   : DENSITY POROSITY [M=2.71 F=1.0] FROM DENSITY LOG [ADJ TO GRRED]
DPHISSED.V/V   : DENSITY POROSITY [M=2.65 F=1.0] FROM DENSITY LOG [ADJ TO GRRED]
DPOWS   .V/V   : DENSITY POROSITY [M=2.71 F=1.0] [CALCULATED FROM DENWS]
DRESWS  .OHMM  : DEEP RESISTIVITY [SPL ILDED <14590> LLDED]
DTED    .US/F  : DELTA TIME FROM SONIC LOG
DTWS    .US/F  : DELTA TIME [DTED]
GRDED   .GAPI  : GAMMA RAY FROM DENSITY LOG [ADJ TO GRRED]
GRRED   .GAPI  : GAMMA RAY FROM RESISTIVITY LOG
GRSED   .GAPI  : GAMMA RAY FROM SONIC LOG
GRWS    .GAPI  : GAMMA RAY [GRSED, CSG ABOVE 2005F]
ILDED   .OHMM  : INDUCTION LOG DEEP RESISTIVITY
ILMED   .OHMM  : INDUCTION LOG MEDIUM RESISTIVITY
LL8ED   .OHMM  : 8 INCH LATEROLOG RESISTIVITY
LLDED   .OHMM  : LATEROLOG DEEP RESISTIVITY
LLSED   .OHMM  : LATEROLOG SHALLOW RESISTIVITY
MRESWS  .OHMM  : MEDIUM RESISTIVITY [ILMED]
NPHILSED.V/V   : NEUTRON POROSITY LIMESTONE FROM DENSITY LOG [ADJ TO GRRED]
NPHISSED.V/V   : NEUTRON POROSITY SANDSTONE FROM DENSITY LOG [ADJ TO GRRED]
NPOWS   .V/V   : NEUTRON POROSITY LIMESTONE [CONVERTED NPHISSED TO LIMESTONE SPL WITH NPHILSED @14516F]
RHOBED  .G/C3  : BULK DENSITY FROM DENSITY LOG [ADJ TO GRRED]
SPRED   .MV    : SPONTANEOUS POTENTIAL FROM RESISTIVITY LOG
SPWS    .MV    : SPONTANEOUS POTENTIAL [BASELINE 0 MV] [SPRED]
SRESWS  .OHMM  : SHALLOW RESISTIVITY [SPL LL8ED <14590> LLSED]
~Params ----------------------------------------------------
PD  .                     GL : PERMANENT DATUM
EPD .FT                 3465 : ELEVATION PERMANENT DATUM
LMF .                     KB : LOG MEASURED FROM
DAPD.FT                   21 : FEET ABOVE PERMANENT DATUM
EKB .FT                 3486 : KELLY BUSHING
EGL .FT                 3465 : GROUND LEVEL
DATE.               10/06/75 : RUN DATE
RUN .                      2 : RUN NUMBER
DD  .FT                17618 : DEPTH DRILLER
DL  .FT                17600 : DEPTH LOGGER
BLI .FT                17600 : BOTTOM LOG INTERVAL
TLI .FT                14577 : TOP LOG INTERVAL
CBD .FT                14590 : CASING BOTTOM DRILLER
CBL .FT                14577 : CASING BOTTOM LOGGER
BS  .IN                  9.5 : BIT SIZE
BSD .FT                17618 : BIT SIZE AT DEPTH
DFT .                    GEL : DRILLING FLUID TYPE
DFD .                   13.8 : DRILLING FLUID DENSITY
DFV .                    115 : DRILLING FLUID VISCOSITY
DFPH.                     11 : DRILLING FLUID PH
DFL .                      7 : DRILLING FLUID LOSS
RMS .OHMM              0.809 : RESISTIVITY MUD SAMPLE
MST .DEGF                 75 : MUD SAMPLE TEMPERATURE
WITN.                  BROWN : WITNESSED BY
CLNT.                A2DTECH : CLIENT CODE
ORIG.               5" PRINT : ORIGIN OF DATA
UWI .       100022006107W600 : UNIQUE WELL ID
DICO. A2D Technologies, Inc. : DIGITIZING COMPANY
~Other -----------------------------------------------------
~ASCII -----------------------------------------------------
# ...
 4400.00000   -99925.0   13.59470   13.59470   87.29810   -99925.0   -99925.0   -99925.0   -99925.0   -99925.0   -99925.0   11.45500   80.76040   80.76040   -99925.0   51.44390   77.56540   77.56540   11.45500   11.11910    6.24630   29.47160   14.04730   11.11910   -99925.0   -99925.0   -99925.0   -99925.0  -70.20900   -4.46340    6.24630
 4450.00000   -99925.0   12.86570   12.86570  205.92230   -99925.0   -99925.0   -99925.0   -99925.0   -99925.0   -99925.0    4.85620   84.88900   84.88900   -99925.0   62.74490   77.32580   77.32580    4.85620   55.87500    2.83420   17.74840    3.80680   55.87500   -99925.0   -99925.0   -99925.0   -99925.0  -70.00280   -3.99760    2.83420
 4500.00000   -99925.0   12.62760   12.62760   90.67580   -99925.0   -99925.0   -99925.0   -99925.0   -99925.0   -99925.0   11.02830   73.48920   73.48920   -99925.0   41.03680   53.27270   53.27270   11.02830   14.14020    9.72150   42.33260   28.64020   14.14020   -99925.0   -99925.0   -99925.0   -99925.0  -72.18380   -5.91890    9.72150
 4550.00000   -99925.0   10.58390   10.58390   81.26510   -99925.0   -99925.0   -99925.0   -99925.0   -99925.0   -99925.0   12.30540   71.05080   71.05080   -99925.0   52.17640   70.54550   70.54550   12.30540   22.68540   14.69820   29.24460   21.20620   22.68540   -99925.0   -99925.0   -99925.0   -99925.0  -74.52920   -8.00470   14.69820
 4600.00000   -99925.0   11.09920   11.09920  226.62890   -99925.0   -99925.0   -99925.0   -99925.0   -99925.0   -99925.0    4.41250   84.03230   84.03230   -99925.0   62.59270   81.97850   81.97850    4.41250   17.27820    7.91800   18.28480    8.64140   17.27820   -99925.0   -99925.0   -99925.0   -99925.0  -72.88440   -6.10030    7.91800
 4650.00000   -99925.0   10.98470   10.98470   58.72470   -99925.0   -99925.0   -99925.0   -99925.0   -99925.0   -99925.0   17.02860   69.34670   69.34670   -99925.0   42.30110   48.34950   48.34950   17.02860   39.09330   16.20970   48.04760   36.94860   39.09330   -99925.0   -99925.0   -99925.0   -99925.0  -70.87570   -3.83200   16.20970
 4700.00000   -99925.0   13.26430   13.26430  214.98440   -99925.0   -99925.0   -99925.0   -99925.0   -99925.0   -99925.0    4.65150   76.48340   76.48340   -99925.0   69.29350   92.48210   92.48210    4.65150    9.67810    3.05560   12.89440    4.48720    9.67810   -99925.0   -99925.0   -99925.0   -99925.0  -67.52450   -0.17650    3.05560
 4750.00000   -99925.0   11.68190   11.68190  176.43220   -99925.0   -99925.0   -99925.0   -99925.0   -99925.0   -99925.0    5.66790   88.11080   88.11080   -99925.0   71.63950   95.99110   95.99110    5.66790   10.12430    6.63550   16.37650    8.62410   10.12430   -99925.0   -99925.0   -99925.0   -99925.0  -71.01630   -3.16040    6.63550
 4800.00000   -99925.0   10.87450   10.87450   88.73350   -99925.0   -99925.0   -99925.0   -99925.0   -99925.0   -99925.0   11.26970   69.32470   69.32470   -99925.0   34.71650   46.02840   46.02840   11.26970   50.11790    9.92690   61.94150   32.01870   50.11790   -99925.0   -99925.0   -99925.0   -99925.0  -68.50430   -0.14060    9.92690
 4850.00000   -99925.0   10.89590   10.89590  193.21800   -99925.0   -99925.0   -99925.0   -99925.0   -99925.0   -99925.0    5.17550   90.42600   90.42600   -99925.0   70.22710   92.06410   92.06410    5.17550   11.06910    4.12760   15.93990    5.92880   11.06910   -99925.0   -99925.0   -99925.0   -99925.0  -69.84310   -0.97160    4.12760
 4900.00000   -99925.0   13.44260   13.44260  175.36470   -99925.0   -99925.0   -99925.0   -99925.0   -99925.0   -99925.0    5.70240   86.96200   86.96200   -99925.0   62.04480   84.48100   84.48100    5.70240   13.20780    5.19460   16.48130    7.23570   13.20780   -99925.0   -99925.0   -99925.0   -99925.0  -69.95540   -0.57610    5.19460
 4950.00000   -99925.0   11.84130   11.84130  170.26200   -99925.0   -99925.0   -99925.0   -99925.0   -99925.0   -99925.0    5.87330  105.08950  105.08950   -99925.0   63.70100   81.04870   81.04870    5.87330   14.14140    4.92600   15.88860    6.07290   14.14140   -99925.0   -99925.0   -99925.0   -99925.0  -71.59900   -1.71190    4.92600
 5000.00000   -99925.0   11.52410   11.52410  346.21240   -99925.0   -99925.0   -99925.0   -99925.0   -99925.0   -99925.0    2.88840  108.75810  108.75810   -99925.0   63.85660   83.19210   83.19210    2.88840    3.96420    5.07920   17.14700    6.78260    3.96420   -99925.0   -99925.0   -99925.0   -99925.0  -69.94460    0.45030    5.07920
 5050.00000   -99925.0   13.16660   13.16660  624.41460   -99925.0   -99925.0   -99925.0   -99925.0   -99925.0   -99925.0    1.60150  105.61570  105.61570   -99925.0   61.22230   78.73640   78.73640    1.60150   18.58870    3.79430   19.78080    3.63530   18.58870   -99925.0   -99925.0   -99925.0   -99925.0  -71.25700   -0.35420    3.79430
 5100.00000   -99925.0   11.69350   11.69350    0.63290   -99925.0   -99925.0   -99925.0   -99925.0   -99925.0   -99925.0 1579.95730   71.14180   71.14180   -99925.0   46.15410   61.92110   61.92110 1579.95730 1975.46170    5.72970   44.39420   10.20430 1975.46170   -99925.0   -99925.0   -99925.0   -99925.0  -70.16270    1.24790    5.72970
 5150.00000   -99925.0   11.77690   11.77690   88.68240   -99925.0   -99925.0   -99925.0   -99925.0   -99925.0   -99925.0   11.27620   79.85120   79.85120   -99925.0   62.78070   80.67160   80.67160   11.27620   11.98030   10.32360   25.72730   16.09790   11.98030   -99925.0   -99925.0   -99925.0   -99925.0  -70.66510    1.25330   10.32360
 5200.00000   -99925.0   13.51560   13.51560  404.46530   -99925.0   -99925.0   -99925.0   -99925.0   -99925.0   -99925.0    2.47240   92.85310   92.85310   -99925.0   58.86750   81.94040   81.94040    2.47240    7.46780    4.99100   18.52540    5.82790    7.46780   -99925.0   -99925.0   -99925.0   -99925.0  -74.78760   -2.36140    4.99100
 5250.00000   -99925.0   11.34100   11.34100   45.67230   -99925.0   -99925.0   -99925.0   -99925.0   -99925.0   -99925.0   21.89510   67.23950   67.23950   -99925.0   43.86920   49.21160   49.21160   21.89510   22.81760   19.99200   58.92640   36.57400   22.81760   -99925.0   -99925.0   -99925.0   -99925.0  -74.65630   -1.72230   19.99200
 5300.00000   -99925.0   11.35930   11.35930  162.35610   -99925.0   -99925.0   -99925.0   -99925.0   -99925.0   -99925.0    6.15930   83.71480   83.71480   -99925.0   64.42280   93.68210   93.68210    6.15930   19.30920    8.03030   27.52880   13.33440   19.30920   -99925.0   -99925.0   -99925.0   -99925.0  -75.29240   -1.85050    8.03030
 5350.00000   -99925.0   11.12000   11.12000   16.82430   -99925.0   -99925.0   -99925.0   -99925.0   -99925.0   -99925.0   59.43780   63.69450   63.69450   -99925.0   67.36730   90.41080   90.41080   59.43780   35.22750   17.80620  142.15990   63.81530   35.22750   -99925.0   -99925.0   -99925.0   -99925.0  -76.28930   -2.38160   17.80620
 5400.00000   -99925.0   10.27260   10.27260   71.23420   -99925.0   -99925.0   -99925.0   -99925.0   -99925.0   -99925.0   14.03820   67.32430   67.32430   -99925.0   47.45020   58.10650   58.10650   14.03820   40.35700   20.84870   51.97400   37.47050   40.35700   -99925.0   -99925.0   -99925.0   -99925.0  -78.39370   -4.35960   20.84870
 5450.00000   -99925.0   10.66380   10.66380   93.07520   -99925.0   -99925.0   -99925.0   -99925.0   -99925.0   -99925.0   10.74400   71.82490   71.82490   -99925.0   58.44940   75.04920   75.04920   10.74400   18.63950   17.88000   51.64280   38.21330   18.63950   -99925.0   -99925.0   -99925.0   -99925.0  -76.72590   -2.56550   17.88000
 5500.00000   -99925.0   11.46110   11.46110   49.51280   -99925.0   -99925.0   -99925.0   -99925.0   -99925.0   -99925.0   20.19680   66.39580   66.39580   -99925.0   64.81220   93.39260   93.39260   20.19680   23.17680   14.52000   86.53440   49.74760   23.17680   -99925.0   -99925.0   -99925.0   -99925.0  -78.79610   -4.50930   14.52000
 5550.00000   -99925.0   11.14300   11.14300  106.02770   -99925.0   -99925.0   -99925.0   -99925.0   -99925.0   -99925.0    9.43150   75.00090   75.00090   -99925.0   85.95660  125.37640  125.37640    9.43150   14.07870    9.20210   20.12670   16.97320   14.07870   -99925.0   -99925.0   -99925.0   -99925.0  -81.55190   -7.13870    9.20210
