~Version ---------------------------------------------------
VERS.      2.0 : CWLS log ASCII Standard -VERSION 2.0
WRAP.       NO : One line per depth step
CREA. 11/15/17 : LAS Creation Date
~Well ------------------------------------------------------
STRT.FT                            1100.0 : START DEPTH
STOP.FT                           11050.0 : STOP DEPTH
STEP.FT                          50.00000 : STEP LENGTH
NULL.                             -999.25 : NULL VALUE
COMP.        CANADIAN HOMESTEAD OILS LTD. : COMPANY
WELL. HOMESTEAD ET AL ROSEVEAR 9-34-53-15 : WELL
FLD .                                     : FIELD
LOC .                                     : LOCATION
CTRY.                              CANADA : COUNTRY
SRVC.              Schlumberger of Canada : SERVICE COMPANY
DATE.                         06-May-1975 : LOGDATE
PROV.                             Alberta : PROVINCE
UWI .                    100093405315W500 : UNIQUE WELL ID
SLAT.WGS84                       53.62182 : SURFACE LATITUDE
SLON.WGS84                      -116.1151 : SURFACE LONGITUDE
~Curve Information -----------------------------------------
DEPT    .FT    : Depth Curve
CALDED  .IN    : CALIPER FROM CND LOG[DSH TO GRSED/ILDED]
CALSED  .IN    : CALIPER FROM SONIC LOG
CALWS   .IN    : CALIPER [CALSED]
CONDWS  .MMHO  : CONDUCTIVITY [1000/DRESWS]
DCORED  .G/C3  : DENSITY CORRECTION FROM CND LOG[DSH TO GRSED/ILDED]
DCORWS  .G/C3  : DENSITY CORRECTION DCORED]
DENWS   .G/C3  : BULK FORMATION DENSITY[RHOBED]
DPHILSED.V/V   : DENSITY POROSITY LIMESTONE[M=2.71, F=1.00]FROM CND LOG[DSH TO GRSED/ILDED]
DPHISSED.V/V   : DENSITY POROSITY SANDSTONE[M=2.65, F=1.00]FROM CND LOG[DSH TO GRSED/ILDED]
DPOLSWS .V/V   : DENSITY POROSITY LIMESTONE[M=2.71, F=1.00][CALCULATED FROM DENWS]
DRESWS  .OHMM  : DEEP RESISTIVITY [ILDED]
DTED    .US/F  : ACOUSTIC TRANSIT TIME SLOWNESS, DELTA T
DTWS    .US/F  : ACOUSTIC TRANSIT TIME SLOWNESS[DTED]
GRDED   .GAPI  : GAMMA RAY FROM DENSITY LOG[DSH TO GRSED/ILDED]
GRSED   .GAPI  : GAMMA RAY FROM SONIC LOG
GRWS    .GAPI  : GAMMA RAY [GRSED]
ILDED   .OHMM  : INDUCTION LOG DEEP RESISTIVITY
ILMED   .OHMM  : INDUCTION LOG MEDIUM RESISTIVITY
LL8ED   .OHMM  : 8 INCH LATEROLOG RESISTIVITY
MRESWS  .OHMM  : MEDIUM RESISTIVITY [ILMED]
NPHILSED.V/V   : NEUTRON POROSITY LIMESTONE FROM CND LOG[DSH TO GRSED/ILDED]
NPHISSED.V/V   : NEUTRON POROSITY SANDSTONE FROM CND LOG[DSH TO GRSED/ILDED]
NPOLSWS .V/V   : NEUTRON POROSITY LIMESTONE[ NPHSSED CONVERTED TO LIMESTONE AND SPLICED TO NPHILSED AT 7521']
RHOBED  .G/C3  : BULK FORMATION DENSITY FROM CND LOG[DSH TO GRSED/ILDED]
SPHIED  .V/V   : SONIC POROSITY [DTM=55.6, DF=189<7520' and 47.6 DF=189>7520']FROM SONIC LOG
SPOWS   .V/V   : SONIC POROSITY [SPHIED]
SPRED   .MV    : SPONTANEOUS POTENTIAL FROM RESISTIVITY LOG
SPWS    .MV    : SPONTANEOUS POTENTIAL [BASELINE 0 MV] [SPRED]
SRESWS  .OHMM  : SHALLOW RESISTIVITY [LL8ED]
~Params ----------------------------------------------------
PD  .                     GL : PERMANENT DATUM
EPD .FT               2932.7 : ELEVATION PERMANENT DATUM
LMF .                     KB : LOG MEASURED FROM
DAPD.FT                 18.3 : FEET ABOVE PERMANENT DATUM
EKB .FT                 2951 : KELLY BUSHING
EGL .FT               2932.7 : GROUND LEVEL
DATE.               05/06/75 : RUN DATE
RUN .                      1 : RUN NUMBER
DD  .FT                11081 : DEPTH DRILLER
DL  .FT                11087 : DEPTH LOGGER
BLI .FT                11081 : BOTTOM LOG INTERVAL
TLI .FT                 1136 : TOP LOG INTERVAL
CBD .FT                 1136 : CASING BOTTOM DRILLER
CBL .FT                 1134 : CASING BOTTOM LOGGER
BS  .IN                 8.75 : BIT SIZE
BSD .FT                11081 : BIT SIZE AT DEPTH
DFT .               CHEM GEL : DRILLING FLUID TYPE
DFD .                    9.2 : DRILLING FLUID DENSITY
DFV .                     90 : DRILLING FLUID VISCOSITY
DFPH.                     11 : DRILLING FLUID PH
DFL .                    8.4 : DRILLING FLUID LOSS
MSS .              CIRULATED : MUD SAMPLE SOURCE
RMS .OHMM               1.22 : RESISTIVITY MUD SAMPLE
MST .DEGF                 72 : MUD SAMPLE TEMPERATURE
RMF .OHMM               0.98 : RESISTIVITY MUD FILTRATE SAMPLE
MFST.DEGF                 70 : MUD FILTRATE SAMPLE TEMPERATURE
LUN .                   7690 : LOGGING UNIT NUMBER
LUL .                    EDM : LOGGING UNIT LOCATION
ENGI.                  BORLE : RECORDING ENGINEER
WITN.                   KING : WITNESSED BY
CLNT.                A2DTECH : CLIENT CODE
ORIG.            2" 5" PRINT : ORIGIN OF DATA
UWI .       100093405315W500 : UNIQUE WELL ID
DICO. A2D Technologies, Inc. : DIGITIZING COMPANY
~Other -----------------------------------------------------
~ASCII -----------------------------------------------------
# ...
 6100.00000    -999.25    9.93250    9.93250   49.18140    -999.25    -999.25    -999.25    -999.25    -999.25    -999.25   20.33290   93.22550   93.22550    -999.25  127.51880  127.51880   20.33290   21.78650   32.80410   21.78650    -999.25    -999.25    -999.25    -999.25    0.29670    0.29670  -96.27480   -2.20770   32.80410
 6150.00000    -999.25   10.98170   10.98170  111.12100    -999.25    -999.25    -999.25    -999.25    -999.25    -999.25    8.99920   77.76720   77.76720    -999.25   84.16450   84.16450    8.99920    9.45630    9.88640    9.45630    -999.25    -999.25    -999.25    -999.25    0.17190    0.17190  -97.39870   -3.63550    9.88640
 6200.00000    -999.25   11.10040   11.10040  113.38900    -999.25    -999.25    -999.25    -999.25    -999.25    -999.25    8.81920   84.82030   84.82030    -999.25  103.84620  103.84620    8.81920    9.16340   10.17220    9.16340    -999.25    -999.25    -999.25    -999.25    0.23160    0.23160  -96.12630   -2.66710   10.17220
 6250.00000    -999.25   10.43470   10.43470  106.56780    -999.25    -999.25    -999.25    -999.25    -999.25    -999.25    9.38370   76.34350   76.34350    -999.25   97.83670   97.83670    9.38370    9.78210   11.25040    9.78210    -999.25    -999.25    -999.25    -999.25    0.16380    0.16380  -96.13090   -2.97560   11.25040
 6300.00000    -999.25   10.56850   10.56850   91.22670    -999.25    -999.25    -999.25    -999.25    -999.25    -999.25   10.96170   75.52000   75.52000    -999.25   95.34380   95.34380   10.96170   11.60790   14.31930   11.60790    -999.25    -999.25    -999.25    -999.25    0.16080    0.16080  -95.51880   -2.66740   14.31930
 6350.00000    -999.25   10.65510   10.65510   96.27510    -999.25    -999.25    -999.25    -999.25    -999.25    -999.25   10.38690   80.06450   80.06450    -999.25  111.70900  111.70900   10.38690   10.76610   11.68580   10.76610    -999.25    -999.25    -999.25    -999.25    0.19800    0.19800  -94.95120   -2.75180   11.68580
 6400.00000    -999.25   10.35870   10.35870  105.70040    -999.25    -999.25    -999.25    -999.25    -999.25    -999.25    9.46070   87.91630   87.91630    -999.25  135.36940  135.36940    9.46070   10.00540   13.08790   10.00540    -999.25    -999.25    -999.25    -999.25    0.25750    0.25750  -93.82310   -3.05060   13.08790
 6450.00000    -999.25   11.64410   11.64410  355.31550    -999.25    -999.25    -999.25    -999.25    -999.25    -999.25    2.81440   85.80450   85.80450    -999.25   86.06250   86.06250    2.81440    3.01000    5.19730    3.01000    -999.25    -999.25    -999.25    -999.25    0.24150    0.24150  -93.02780   -3.68210    5.19730
 6500.00000    -999.25   11.42230   11.42230  141.00590    -999.25    -999.25    2.06650    -999.25    0.36150    0.37630    7.09190   88.25350   88.25350   94.04950   94.39450   94.39450    7.09190    7.53240    7.90870    7.53240    -999.25    0.35440    0.31080    2.06650    0.25810    0.25810  -93.89080   -5.97200    7.90870
 6550.00000    9.61500   10.07490   10.07490   24.09800    0.06350    0.06350    2.48540    -999.25    0.10050    0.13130   41.49730   69.96470   69.96470   26.45680   30.40720   30.40720   41.49730   43.16600   43.16370   43.16600    -999.25    0.11550    0.07340    2.48540    0.11180    0.11180 -124.09590  -37.60390   43.16370
 6600.00000   11.21230   10.51770   10.51770   46.38220    0.04280    0.04280    2.60850    -999.25    0.03220    0.05940   21.56000   66.57990   66.57990   72.91470   69.04530   69.04530   21.56000   22.91820   25.81300   22.91820    -999.25    0.14830    0.10580    2.60850    0.09080    0.09080  -95.87370  -10.80860   25.81300
 6650.00000   11.22160   11.94360   11.94360  273.20170    0.09660    0.09660    2.36570    -999.25    0.17630    0.20130    3.66030   98.69210   98.69210  104.20440  101.82980  101.82980    3.66030    3.03150    4.44530    3.03150    -999.25    0.46480    0.42310    2.36570    0.34560    0.34560  -94.58840  -10.95020    4.44530
 6700.00000   10.04600   10.16100   10.16100   60.96970    0.00660    0.00660    2.61790    -999.25    0.02470    0.05390   16.40160   68.97620   68.97620   79.33460   77.43250   77.43250   16.40160   16.97680   21.32240   16.97680    -999.25    0.25380    0.20990    2.61790    0.10800    0.10800  -97.73230  -15.52090   21.32240
 6750.00000   10.60100   10.18460   10.18460   65.13300    0.03160    0.03160    2.52880    -999.25    0.07000    0.10600   15.35320   66.68390   66.68390   55.95930   55.78670   55.78670   15.35320   16.02310   16.96440   16.02310    -999.25    0.18930    0.14600    2.52880    0.08750    0.08750 -103.52860  -22.74410   16.96440
 6800.00000   10.88430   10.44480   10.44480   64.23720    0.05340    0.05340    2.56940    -999.25    0.04990    0.08220   15.56730   68.88100   68.88100   44.07950   47.20780   47.20780   15.56730   16.27570   16.13610   16.27570    -999.25    0.17020    0.12720    2.56940    0.10740    0.10740 -103.83710  -24.47940   16.13610
 6850.00000   10.72270   10.38290   10.38290   90.07060    0.06090    0.06090    2.54760    -999.25    0.05710    0.09500   11.10240   69.17260   69.17260   51.92620   53.50780   53.50780   11.10240   12.17270   13.07470   12.17270    -999.25    0.20230    0.15880    2.54760    0.10740    0.10740 -107.55730  -29.62650   13.07470
 6900.00000   13.11700   11.93270   11.93270  122.92110    0.11850    0.11850    2.40980    -999.25    0.12010    0.17560    8.13530   95.77820   95.77820   89.43920   85.82450   85.82450    8.13530    8.05450    9.84110    8.05450    -999.25    0.47710    0.43540    2.40980    0.34190    0.34190  -91.29910  -14.79510    9.84110
 6950.00000   10.30590   10.59800   10.59800   64.21290    0.15690    0.15690    2.60560    -999.25    0.02570    0.06110   15.57320   70.10780   70.10780   71.32490   70.90180   70.90180   15.57320   16.14630   17.89460   16.14630    -999.25    0.21710    0.17350    2.60560    0.11330    0.11330  -88.86800  -13.79090   17.89460
 7000.00000   11.89040   10.63030   10.63030   59.30880    0.26050    0.26050    2.23830    -999.25    0.24580    0.27580   16.86090   75.69560   75.69560   87.94340   88.04260   88.04260   16.86090   19.17340   22.95120   19.17340    -999.25    0.33420    0.29040    2.23830    0.16620    0.16620  -87.65160  -14.00130   22.95120
 7050.00000    9.78060   10.37740   10.37740   56.63570    0.00980    0.00980    2.33300    -999.25    0.25540    0.22050   17.65670   68.22930   68.22930   79.36040   78.55900   78.55900   17.65670   22.81780   29.49090   22.81780    -999.25    0.29310    0.24910    2.33300    0.11370    0.11370  -77.05680   -4.83340   29.49090
 7100.00000    9.94670   10.17340   10.17340   45.65040    0.11780    0.11780    2.58280    -999.25    0.04410    0.07440   21.90560   65.54520   65.54520   48.31900   48.95020   48.95020   21.90560   23.05630   31.24110   23.05630    -999.25    0.14220    0.09980    2.58280    0.07860    0.07860  -89.57670  -18.78020   31.24110
 7150.00000   10.48580   10.32860   10.32860   50.87170    0.13810    0.13810    2.64420    -999.25    0.01070    0.03850   19.65730   62.92530   62.92530   54.68610   54.15040   54.15040   19.65730   21.08110   26.42740   21.08110    -999.25    0.16630    0.12340    2.64420    0.06770    0.06770  -85.64030  -16.27060   26.42740
 7200.00000    9.42140   10.37160   10.37160   58.76170    0.12260    0.12260    2.45920    -999.25    0.11780    0.14670   17.01790   70.76440   70.76440   85.50900   77.00590   77.00590   17.01790   18.16830   22.49330   18.16830    -999.25    0.24980    0.20590    2.45920    0.12220    0.12220  -72.30580   -4.36300   22.49330
 7250.00000    9.55450   10.75230   10.75230   48.56090   -0.01590   -0.01590    2.47200    -999.25    0.14330    0.13920   20.59270   59.58660   59.58660   55.30140   45.27190   45.27190   20.59270   31.56120  127.75510   31.56120    -999.25    0.18400    0.14080    2.47200    0.02710    0.02710  -72.48560   -5.96960  127.75510
 7300.00000    9.38120    9.82160    9.82160   28.92780    0.01260    0.01260    2.47960    -999.25    0.10990    0.13470   34.56880   67.92040   67.92040   37.76910   36.35810   36.35810   34.56880   37.45900   30.15180   37.45900    -999.25    0.11440    0.07230    2.47960    0.07720    0.07720  -93.74270  -29.05800   30.15180
