~Version ---------------------------------------------------
VERS.      2.0 : CWLS log ASCII Standard -VERSION 2.0
WRAP.       NO : One line per depth step
CREA. 10/05/17 : LAS Creation Date
~Well ------------------------------------------------------
STRT.FT                  900.0 : START DEPTH
STOP.FT                11100.0 : STOP DEPTH
STEP.FT               50.00000 : STEP LENGTH
NULL.                   -999.0 : NULL VALUE
COMP.     CHEVRON STANDARD LTD : COMPANY
WELL. CHEVRON CLARK 10-2-59-18 : WELL
FLD .             KAYBOB SOUTH : FIELD
LOC .                          : LOCATION
CTRY.                   CANADA : COUNTRY
SRVC.             Schlumberger : SERVICE COMPANY
DATE.              17-Jul-1968 : LOGDATE
PROV.                  Alberta : PROVINCE
UWI .         100100205918W500 : UNIQUE WELL ID
SLAT.WGS84            54.07468 : SURFACE LATITUDE
SLON.WGS84           -116.5832 : SURFACE LONGITUDE
~Curve Information -----------------------------------------
DEPT    .FT    : Depth Curve
CALDED  .IN    : CALIPER FROM DENSITY LOG
CALNED  .IN    : CALIPER FROM NEUTRON LOG [ADJ. TO RESISTIVITY LOG]
CALSED  .IN    : CALIPER FROM SONIC LOG [ADJ. TO RESISTIVITY LOG]
CALWS   .IN    : CALIPER [CALSED SPL. TO CALDED @ 10654']
CONDWS  .MMHO  : CONDUCTIVITY [1000/DRESWS]
DCORWS  .G/C3  : DENSITY CORRECTION [DRHOED]
DENWS   .G/C3  : FORMATION BULK DENSITY [RHOBED]
DPHIDLED.V/V   : DENSITY POROSITY DOLOMITE [M=2.85, F=1.00] FROM DENSITY LOG [ADJ. TO RESISTIVITY LOG]
DPHILSED.V/V   : DENSITY POROSITY LIMESTONE [M=2.71,F=1.0] FROM DENSITY LOG [ADJ. TO RESISTIVITY LOG]
DPOLSWS .V/V   : DENSITY POROSITY LIMESTONE [CALC FROM DENWS,M=2.71, F=1.00]
DRESWS  .OHMM  : DEEP RESISTIVITY [ILDED]
DRHOED  .G/C3  : BULK DENSITY CORRECTION FROM DENSITY LOG [ADJ. TO RESISTIVITY LOG]
DTED    .US/F  : DELTA-T FROM SONIC LOG [ADJ. TO RESISTIVITY LOG]
DTWS    .US/F  : COMPRESSIONAL SONIC [DTED]
GRSED   .GAPI  : GAMMA RAY FROM SONIC LOG [ADJ. TO RESISTIVITY LOG]
GRWS    .GAPI  : GAMMA RAY [GRSED]
ILDED   .OHMM  : DEEP INDUCTION RESISTIVITY FROM RESISTIVITY LOG
ILMED   .OHMM  : MEDIUM INDUCTION RESISTIVITY FROM RESISTIVITY LOG
LL8ED   .OHMM  : LATEROLOG-8 RESISTIVITY FROM RESISTIVITY LOG
MRESWS  .OHMM  : MEDIUM RESISTIVITY [ILMED]
NPOLSWS .V/V   : NEUTRON POROSITY [SNPLSED]
RHOBED  .G/C3  : BULK DENSITY FROM DENSITY LOG
SNPLSED .V/V   : SIDEWALL NEUTRON POROSITY LIMESONTE FROM SNP LOG [ADJ. TO RESISTIVITY LOG]
SPRED   .MV    : SPONTANEOUS POTENTIAL FROM RESISTIVITY LOG
SPWS    .MV    : SPONTANEOUS POTENTIAL [BASELINE 0 MV,SPRED]
SRESWS  .OHMM  : SHALLOW RESISTIVITY [LL8ED]
~Params ----------------------------------------------------
PD  .                     GL : PERMANENT DATUM
EPD .FT                 3126 : ELEVATION PERMANENT DATUM
LMF .                     KB : LOG MEASURED FROM
DAPD.FT                   14 : FEET ABOVE PERMANENT DATUM
EKB .FT                 3140 : KELLY BUSHING
EDF .FT                 3126 : DRILLING FLOOR
DATE.               08/13/68 : RUN DATE
RUN .                      2 : RUN NUMBER
DD  .FT                11108 : DEPTH DRILLER
DL  .FT                11107 : DEPTH LOGGER
BLI .FT                11102 : BOTTOM LOG INTERVAL
TLI .FT                10629 : TOP LOG INTERVAL
CBD .FT                10630 : CASING BOTTOM DRILLER
CBL .FT                10629 : CASING BOTTOM LOGGER
BS  .IN                 6.25 : BIT SIZE
BSD .FT                11108 : BIT SIZE AT DEPTH
DFT .                    GEL : DRILLING FLUID TYPE
DFD .                    9.7 : DRILLING FLUID DENSITY
DFV .                     87 : DRILLING FLUID VISCOSITY
RMS .OHMM               1.52 : RESISTIVITY MUD SAMPLE
MST .DEGF                 70 : MUD SAMPLE TEMPERATURE
RMF .OHMM               1.25 : RESISTIVITY MUD FILTRATE SAMPLE
MFST.DEGF                 75 : MUD FILTRATE SAMPLE TEMPERATURE
RMC .OHMM               1.55 : RESISTIVITY MUD CAKE
MCST.DEGF                 70 : MUD CAKE SAMPLE TEMPERATURE
TCS .HRS                 1.5 : TIME CIRCULATED STOPPED
LUN .                   3702 : LOGGING UNIT NUMBER
LUL .                     DC : LOGGING UNIT LOCATION
ENGI.                   BIGG : RECORDING ENGINEER
WITN.         HOVDEBO GHAZAR : WITNESSED BY
CLNT.                A2DTECH : CLIENT CODE
ORIG.            2" 5" PRINT : ORIGIN OF DATA
UWI .       100100205918W500 : UNIQUE WELL ID
DICO. A2D Technologies, Inc. : DIGITIZING COMPANY
~Other -----------------------------------------------------
DIL-LAT/FDC/SNP/BCS LOG RAN
MATRIX VALUE NOT MENTION
~ASCII -----------------------------------------------------
# ...
 10350.00000     -999.0     -999.0   10.68290   10.68290   69.50240     -999.0     -999.0     -999.0     -999.0     -999.0   14.38800     -999.0   68.35400   68.35400   77.20130   77.20130   14.38800   13.92750   16.70810   13.92750     -999.0     -999.0     -999.0  -82.00060   -3.80150   16.70810
 10400.00000     -999.0     -999.0   10.34400   10.34400   73.94700     -999.0     -999.0     -999.0     -999.0     -999.0   13.52320     -999.0   69.02300   69.02300   78.58020   78.58020   13.52320   12.69550   16.95400   12.69550     -999.0     -999.0     -999.0  -84.06730   -5.80410   16.95400
 10450.00000     -999.0     -999.0   10.01810   10.01810   73.87340     -999.0     -999.0     -999.0     -999.0     -999.0   13.53820     -999.0   67.54640   67.54640   76.64760   76.64760   13.53820   15.88150   22.15720   15.88150     -999.0     -999.0     -999.0  -84.07530   -5.80320   22.15720
 10500.00000     -999.0     -999.0    9.33090    9.33090   12.74970     -999.0     -999.0     -999.0     -999.0     -999.0   78.43340     -999.0   65.70320   65.70320  120.72350  120.72350   78.43340  200.27620  284.61580  200.27620     -999.0     -999.0     -999.0  -92.68930  -14.41720  284.61580
 10550.00000     -999.0     -999.0    9.21470    9.21470    7.37020     -999.0     -999.0     -999.0     -999.0     -999.0  135.68110     -999.0   67.22460   67.22460   92.35750   92.35750  135.68110  311.32180  214.44850  311.32180     -999.0     -999.0     -999.0  -97.97120  -19.69910  214.44850
 10600.00000     -999.0     -999.0    9.01730    9.01730   10.04250     -999.0     -999.0     -999.0     -999.0     -999.0   99.57650     -999.0   61.46910   61.46910  113.03190  113.03190   99.57650 1678.44980 1054.31050 1678.44980     -999.0     -999.0     -999.0 -108.38310  -30.11100 1054.31050
 10650.00000    8.75090    8.32300    8.95120    8.95120    9.12610   -0.00170    2.61990    0.03090    0.07510    0.05270  109.57580   -0.00170   52.66870   52.66870   31.33150   31.33150  109.57580 1687.32910 1390.14150 1687.32910    0.10500    2.61990    0.10500 -177.10600  -98.83390 1390.14150
 10700.00000    6.79650    6.20890    6.04880    6.79650    0.77550    0.14400    2.70460   -0.00770    0.04280    0.00320 1289.57280    0.14400   50.02690   50.02690   29.38320   29.38320 1289.57280 1439.21230 1387.24160 1439.21230    0.07590    2.70460    0.07590 -187.59080 -109.31870 1387.24160
 10750.00000    6.45260    6.03960    6.05170    6.45260    0.76920    0.05330    2.69160    0.00490    0.03210    0.01080 1299.98210    0.05330   50.09830   50.09830   20.64880   20.64880 1299.98210 1492.27590 1378.98270 1492.27590    0.07730    2.69160    0.07730 -176.41490  -98.14280 1378.98270
 10800.00000    6.13430    5.66980    6.05730    6.13430    6.04790    0.07600    2.69030   -0.00740    0.07530    0.01150  165.34700    0.07600   51.03620   51.03620   20.39950   20.39950  165.34700  329.84460 1147.05030  329.84460    0.07500    2.69030    0.07500 -143.47200  -65.19990 1147.05030
 10850.00000    5.66150    5.53630    6.04140    5.66150    3.49000    0.01720    2.62910   -0.03810    0.10160    0.04730  286.53070    0.01720   53.87880   53.87880   21.93440   21.93440  286.53070  516.70290 1020.74570  516.70290    0.08220    2.62910    0.08220 -159.52990  -81.25780 1020.74570
 10900.00000    5.84550    5.70360    6.03690    5.84550    4.88210   -0.00210    2.65370   -0.05280    0.09170    0.03290  204.83180   -0.00210   51.53010   51.53010   20.86320   20.86320  204.83180  349.53650  661.26050  349.53650    0.09300    2.65370    0.09300 -163.92390  -85.65180  661.26050
 10950.00000    5.78380    5.51930    6.04850    5.78380   12.84380    0.02690    2.68090   -0.06230    0.07480    0.01700   77.97740    0.02690   52.24160   52.24160   19.54350   19.54350   77.97740  165.80210  283.72010  165.80210    0.09330    2.68090    0.09330 -161.70000  -83.42790  283.72010
 11000.00000    6.91240    6.01880    6.03830    6.91240    9.33500    0.13180    2.59680    0.14990    0.05170    0.06620  107.12390    0.13180   47.84520   47.84520   17.50440   17.50440  107.12390  146.50060  274.60780  146.50060    0.06950    2.59680    0.06950 -158.45340  -80.18130  274.60780
 11050.00000    6.00130    5.75310    6.05870    6.00130    6.02540    0.03740    2.77270   -0.07950    0.00530   -0.03670  165.96330    0.03740   47.58630   47.58630   23.46010   23.46010  165.96330  317.09310  431.75630  317.09310    0.04150    2.77270    0.04150 -146.20850  -67.93640  431.75630
 11100.00000    6.05150    5.81890    6.03580    6.05150     -999.0    0.01340    2.63640    0.00530    0.07850    0.04300     -999.0    0.01340     -999.0     -999.0     -999.0     -999.0     -999.0     -999.0   32.40460     -999.0    0.09990    2.63640    0.09990 -121.13620  -42.86410   32.40460
