~Version ---------------------------------------------------
VERS.      2.0 : CWLS log ASCII Standard -VERSION 2.0
WRAP.       NO : One line per depth step
CREA. 10/26/17 : LAS Creation Date
~Well ------------------------------------------------------
STRT.FT                          1100.0 : START DEPTH
STOP.FT                         10150.0 : STOP DEPTH
STEP.FT                        50.00000 : STEP LENGTH
NULL.                           -999.25 : NULL VALUE
COMP.              CHEVRON STANDARD LTD : COMPANY
WELL. CHEVRON GULF FOX CREEK 7-14-62-18 : WELL
FLD .                         FOX CREEK : FIELD
LOC .                                   : LOCATION
CTRY.                            CANADA : COUNTRY
SRVC.                      Schlumberger : SERVICE COMPANY
DATE.                       09-Dec-1976 : LOGDATE
PROV.                           Alberta : PROVINCE
UWI .                  100071406218W500 : UNIQUE WELL ID
SLAT.WGS84                     54.36034 : SURFACE LATITUDE
SLON.WGS84                    -116.5836 : SURFACE LONGITUDE
~Curve Information -----------------------------------------
DEPT    .FT    : Depth Curve
CALDED  .IN    : CALIPER FROM DENSITY LOG [ADJ. TO RESISTIVITY LOG]
CALSED  .IN    : CALIPER FROM SONIC LOG [ADJ. TO RESISTIVITY LOG]
CALWS   .IN    : CALIPER [CALSED]
CONDWS  .MMHO  : CONDUCTIVITY [1000/DRESWS]
DCORWS  .G/C3  : DENSITY CORRECTION [DRHOED]
DENWS   .G/C3  : FORMATION BULK DENSITY [CALC. FROM DPOLSWS M=2.71, F=1.00]
DPHILSED.V/V   : DENSITY POROSITY LIMESTONE [M=2.71, F=1.00] FROM DENSITY LOG [ADJ. TO RESISTIVITY LOG]
DPHISSED.V/V   : DENSITY POROSITY SANDSTONE [M=2.65, F=1.00] FROM DENSITY LOG [ADJ. TO RESISTIVITY LOG]
DPOLSWS .V/V   : DENSITY POROSITY LIMESTONE [DPHISSED CONVERTED TO LIMESTONE MATRIX, M=2.71, F=1.00, SPL. TO DPHILSED @ 9636']
DRESWS  .OHMM  : DEEP RESISTIVITY [ILDED]
DRHOED  .G/C3  : DENSITY CORRECTION FROM DENSITY LOG [ADJ. TO RESISTIVITY LOG/DPHISSED/DPHILSED]
DTED    .US/F  : DELTA TIME FROM SONIC LOG [ADJ. TO RESISTIVITY LOG]
DTWS    .US/F  : COMPRESSIONAL SONIC [DTED]
GRDED   .GAPI  : GAMMA RAY FROM DENSITY LOG [ADJ. TO RESISTIVITY LOG]
GRSED   .GAPI  : GAMMA RAY FROM SONIC LOG [ADJ. TO RESISTIVITY LOG]
GRWS    .GAPI  : GAMMA RAY [GRSED]
ILDED   .OHMM  : DEEP INDUCTION FROM RESISTIVITY LOG
ILMED   .OHMM  : MEDIUM INDUCTION FROM RESISTIVITY LOG
LL8ED   .OHMM  : 8 INCH LATEROLOG FROM RESISTIVITY LOG
MRESWS  .OHMM  : MEDIUM RESISTIVITY [ILMED]
NPHILSED.V/V   : NEUTRON POROSITY LIMESTONE FROM DENSITY LOG [ADJ. TO RESISTIVITY LOG]
NPHISSED.V/V   : NEUTRON POROSITY SANDSTONE FROM DENSITY LOG [ADJ. TO RESISTIVITY LOG]
NPOLSWS .V/V   : NEUTRON POROSITY LIMESTONE [NPHISSED MATRIX CONVERSION FOR LIMESTONE FROM SCHLUMBERGER (CNL), SPL. TO NPHILSED @ 9636']
RHOBED  .G/C3  : BULK DENSITY FROM DENSITY LOG [ADJ. TO RESISTIVITY LOG/DPHISSED/DPHILSED]
SPRED   .MV    : SPONTANEOUS POTENTIAL FROM RESISTIVITY LOG
SPWS    .MV    : SPONTANEOUS POTENTIAL [BASELINE 0 MV, SPRED]
SRESWS  .OHMM  : SHALLOW RESISTIVITY [LL8ED]
TENDED  .LBF   : TENSION FROM DENSITY LOG [ADJ. TO RESISTIVITY LOG]
TENSED  .LBF   : TENSION FROM SONIC LOG [ADJ. TO RESISTIVITY LOG]
~Params ----------------------------------------------------
PD  .                     GL : PERMANENT DATUM
EPD .FT               2939.3 : ELEVATION PERMANENT DATUM
LMF .                     KB : LOG MEASURED FROM
DAPD.FT                 14.7 : FEET ABOVE PERMANENT DATUM
EKB .FT                 2954 : KELLY BUSHING
EDF .FT                 2939 : DRILLING FLOOR
DATE.               12/09/76 : RUN DATE
RUN .                      1 : RUN NUMBER
DD  .FT                10196 : DEPTH DRILLER
DL  .FT                10201 : DEPTH LOGGER
BLI .FT                10195 : BOTTOM LOG INTERVAL
TLI .FT                 1133 : TOP LOG INTERVAL
CBD .FT                 1131 : CASING BOTTOM DRILLER
CBL .FT                 1133 : CASING BOTTOM LOGGER
BS  .IN                 8.75 : BIT SIZE
BSD .FT                10196 : BIT SIZE AT DEPTH
DFT .               GEL CHEM : DRILLING FLUID TYPE
DFD .                    8.9 : DRILLING FLUID DENSITY
DFV .                     84 : DRILLING FLUID VISCOSITY
DFPH.                   10.5 : DRILLING FLUID PH
DFL .                      9 : DRILLING FLUID LOSS
MSS .               FLOWLINE : MUD SAMPLE SOURCE
RMS .OHMM               2.18 : RESISTIVITY MUD SAMPLE
MST .DEGF                 95 : MUD SAMPLE TEMPERATURE
RMF .OHMM               2.63 : RESISTIVITY MUD FILTRATE SAMPLE
MFST.DEGF                 66 : MUD FILTRATE SAMPLE TEMPERATURE
RMC .OHMM               2.34 : RESISTIVITY MUD CAKE
MCST.DEGF                 56 : MUD CAKE SAMPLE TEMPERATURE
TCS .HRS                 6.5 : TIME CIRCULATED STOPPED
LUN .                   7691 : LOGGING UNIT NUMBER
LUL .                    WCT : LOGGING UNIT LOCATION
ENGI.                  LEGEE : RECORDING ENGINEER
WITN.             RICHARDSON : WITNESSED BY
CLNT.                A2DTECH : CLIENT CODE
ORIG.            2" 5" PRINT : ORIGIN OF DATA
UWI .       100071406218W500 : UNIQUE WELL ID
DICO. A2D Technologies, Inc. : DIGITIZING COMPANY
~Other -----------------------------------------------------
~ASCII -----------------------------------------------------
 1100.00000    -999.25    -999.25    -999.25    -999.25    -999.25    -999.25    -999.25    -999.25    -999.25    -999.25    -999.25    -999.25    -999.25    -999.25   53.05790   53.05790    -999.25    -999.25    -999.25    -999.25    -999.25    -999.25    -999.25    -999.25    -999.25    -999.25    -999.25    -999.25    -999.25
 1150.00000    -999.25    9.44450    9.44450  302.09470    -999.25    -999.25    -999.25    -999.25    -999.25    3.31670    -999.25  108.31560  108.31560    -999.25  103.91290  103.91290    3.31670    3.88780    5.08520    3.88780    -999.25    -999.25    -999.25    -999.25    7.03620   -4.74080    5.08520    -999.25 1862.37070
 1200.00000    -999.25    9.42110    9.42110  130.25410    -999.25    -999.25    -999.25    -999.25    -999.25    7.67730    -999.25   96.85730   96.85730    -999.25   94.76880   94.76880    7.67730    7.19830    8.48870    7.19830    -999.25    -999.25    -999.25    -999.25    7.94590   -3.42510    8.48870    -999.25 1720.25040
 1250.00000    -999.25   10.30200   10.30200  116.38460    -999.25    -999.25    -999.25    -999.25    -999.25    8.59220    -999.25   99.58160   99.58160    -999.25   94.82740   94.82740    8.59220    8.07740    9.38620    8.07740    -999.25    -999.25    -999.25    -999.25    9.53470   -1.43300    9.38620    -999.25 1619.59650
 1300.00000    -999.25   10.31790   10.31790  267.25410    -999.25    -999.25    -999.25    -999.25    -999.25    3.74180    -999.25  109.15600  109.15600    -999.25   99.69790   99.69790    3.74180    3.50380    4.59220    3.50380    -999.25    -999.25    -999.25    -999.25    7.63840   -2.92600    4.59220    -999.25 1752.56290
 1350.00000    -999.25   10.98100   10.98100  212.00360    -999.25    -999.25    -999.25    -999.25    -999.25    4.71690    -999.25   97.51750   97.51750    -999.25  103.42640  103.42640    4.71690    4.32300    5.02320    4.32300    -999.25    -999.25    -999.25    -999.25    8.72550   -1.60110    5.02320    -999.25 1602.23950
 1400.00000    -999.25   10.09020   10.09020  291.00340    -999.25    -999.25    -999.25    -999.25    -999.25    3.43680    -999.25  129.17800  129.17800    -999.25  113.40810  113.40810    3.43680    2.89260    3.82590    2.89260    -999.25    -999.25    -999.25    -999.25    8.45770   -2.03340    3.82590    -999.25 1507.82190
 1450.00000    -999.25    9.56080    9.56080  159.64490    -999.25    -999.25    -999.25    -999.25    -999.25    6.26390    -999.25   98.54830   98.54830    -999.25   99.14560   99.14560    6.26390    5.66350    6.84890    5.66350    -999.25    -999.25    -999.25    -999.25    7.86540   -2.79120    6.84890    -999.25 1472.65560
 1500.00000    -999.25    9.78100    9.78100  126.30730    -999.25    -999.25    -999.25    -999.25    -999.25    7.91720    -999.25   94.86090   94.86090    -999.25  135.11840  135.11840    7.91720    6.81260    7.44470    6.81260    -999.25    -999.25    -999.25    -999.25    6.99780   -3.82330    7.44470    -999.25 1506.02120
 1550.00000    -999.25    9.37530    9.37530   94.34090    -999.25    -999.25    -999.25    -999.25    -999.25   10.60280    -999.25   93.04030   93.04030    -999.25   67.94810   67.94810   10.60280   10.20110   11.61650   10.20110    -999.25    -999.25    -999.25    -999.25    7.69590   -3.28970   11.61650    -999.25 1470.73980
 1600.00000    -999.25   10.07360   10.07360  176.92230    -999.25    -999.25    -999.25    -999.25    -999.25    5.65220    -999.25  101.08610  101.08610    -999.25   87.64620   87.64620    5.65220    5.27660    6.97120    5.27660    -999.25    -999.25    -999.25    -999.25    5.01440   -6.13670    6.97120    -999.25 1452.86100
 1650.00000    -999.25    9.79090    9.79090  201.34690    -999.25    -999.25    -999.25    -999.25    -999.25    4.96750    -999.25  115.16970  115.16970    -999.25  117.84160  117.84160    4.96750    4.44770    5.43760    4.44770    -999.25    -999.25    -999.25    -999.25    4.33290   -6.98260    5.43760    -999.25 1389.29260
 1700.00000    -999.25    9.32990    9.32990  151.84650    -999.25    -999.25    -999.25    -999.25    -999.25    6.58560    -999.25   88.22140   88.22140    -999.25   73.69330   73.69330    6.58560    6.31440   10.09990    6.31440    -999.25    -999.25    -999.25    -999.25    5.40570   -6.07540   10.09990    -999.25 1459.47430
 1750.00000    -999.25    9.97790    9.97790  108.61540    -999.25    -999.25    -999.25    -999.25    -999.25    9.20680    -999.25   98.40460   98.40460    -999.25   77.11910   77.11910    9.20680    8.35910    9.75480    8.35910    -999.25    -999.25    -999.25    -999.25    7.73800   -3.90760    9.75480    -999.25 1170.76150
 1800.00000    -999.25   10.37230   10.37230  194.49020    -999.25    -999.25    -999.25    -999.25    -999.25    5.14170    -999.25   88.60600   88.60600    -999.25   95.28890   95.28890    5.14170    4.85980    7.19550    4.85980    -999.25    -999.25    -999.25    -999.25   10.00470   -1.80530    7.19550    -999.25 1156.10340
 1850.00000    -999.25   10.70490   10.70490  240.52920    -999.25    -999.25    -999.25    -999.25    -999.25    4.15750    -999.25   81.30200   81.30200    -999.25   95.66390   95.66390    4.15750    3.95790    6.36300    3.95790    -999.25    -999.25    -999.25    -999.25   10.92230   -0.91010    6.36300    -999.25 1814.81240
 1900.00000    -999.25   10.56730   10.56730  182.35050    -999.25    -999.25    -999.25    -999.25    -999.25    5.48900    -999.25   92.16050   92.16050    -999.25   86.80840   86.80840    5.48900    5.23910    6.40710    5.23910    -999.25    -999.25    -999.25    -999.25    9.97830   -1.77140    6.40710    -999.25 1780.24770
 1950.00000    -999.25   11.26220   11.26220  213.80310    -999.25    -999.25    -999.25    -999.25    -999.25    4.67720    -999.25  118.30900  118.30900    -999.25  104.98700  104.98700    4.67720    4.29270    5.56240    4.29270    -999.25    -999.25    -999.25    -999.25    8.92920   -2.73720    5.56240    -999.25 1878.28420
 2000.00000    -999.25   10.27090   10.27090  157.73870    -999.25    -999.25    -999.25    -999.25    -999.25    6.33960    -999.25  101.16320  101.16320    -999.25   93.20190   93.20190    6.33960    6.06810    8.59910    6.06810    -999.25    -999.25    -999.25    -999.25    8.39340   -3.19020    8.59910    -999.25 1579.81250
 2050.00000    -999.25   11.40770   11.40770  216.14240    -999.25    -999.25    -999.25    -999.25    -999.25    4.63260    -999.25  120.25980  120.25980    -999.25   98.95070   98.95070    4.63260    4.29310    3.99230    4.29310    -999.25    -999.25    -999.25    -999.25    8.66770   -2.83310    3.99230    -999.25 1302.50720
 2100.00000    -999.25   11.97540   11.97540  346.93310    -999.25    -999.25    -999.25    -999.25    -999.25    2.88240    -999.25  101.99470  101.99470    -999.25  105.63110  105.63110    2.88240    2.77790    4.62790    2.77790    -999.25    -999.25    -999.25    -999.25    9.56870   -1.84890    4.62790    -999.25 1524.62490
 2150.00000    -999.25   10.91050   10.91050  159.05870    -999.25    -999.25    -999.25    -999.25    -999.25    6.28820    -999.25  100.27230  100.27230    -999.25  109.96750  109.96750    6.28820    5.96980    8.02960    5.96980    -999.25    -999.25    -999.25    -999.25    8.43680   -2.96010    8.02960    -999.25 1298.84500
 2200.00000    -999.25   10.60980   10.60980  309.52090    -999.25    -999.25    -999.25    -999.25    -999.25    3.23080    -999.25  103.83490  103.83490    -999.25  115.58320  115.58320    3.23080    3.09560    3.54570    3.09560    -999.25    -999.25    -999.25    -999.25    9.94000   -1.55380    3.54570    -999.25 1347.86950
 2250.00000    -999.25   11.51240   11.51240  476.41730    -999.25    -999.25    -999.25    -999.25    -999.25    2.09900    -999.25  129.84640  129.84640    -999.25  149.37580  149.37580    2.09900    1.80990    2.48730    1.80990    -999.25    -999.25    -999.25    -999.25    9.12760   -2.46250    2.48730    -999.25 1262.32160
 2300.00000    -999.25    9.93630    9.93630  186.47630    -999.25    -999.25    -999.25    -999.25    -999.25    5.36330    -999.25   97.67060   97.67060    -999.25   96.30660   96.30660    5.36330    5.10760    6.77040    5.10760    -999.25    -999.25    -999.25    -999.25    9.77620   -1.91030    6.77040    -999.25 1723.88170
