~Version ---------------------------------------------------
VERS.      2.0 : CWLS log ASCII Standard -VERSION 2.0
WRAP.       NO : One line per depth step
CREA. 08/02/17 : LAS Creation Date
~Well ------------------------------------------------------
STRT.FT                    300.0 : START DEPTH
STOP.FT                  10400.0 : STOP DEPTH
STEP.FT                 50.00000 : STEP LENGTH
NULL.                    -999.25 : NULL VALUE
COMP.     PHILLIPS PETROLEUM CO. : COMPANY
WELL. PHILLIPS KAYBOB 7-22-64-19 : WELL
FLD .                     KAYBOB : FIELD
LOC .                            : LOCATION
CTRY.                     CANADA : COUNTRY
SRVC.               Schlumberger : SERVICE COMPANY
DATE.                14-Jun-1957 : LOGDATE
PROV.                    Alberta : PROVINCE
UWI .           100072206419W500 : UNIQUE WELL ID
SLAT.WGS84              54.55064 : SURFACE LATITUDE
SLON.WGS84             -116.7821 : SURFACE LONGITUDE
~Curve Information -----------------------------------------
DEPT  .FT    : Depth Curve
CALED .IN    : CALIPER FROM CALIPER LOG
CALWS .IN    : CALIPER [CALED SPL. TO MCALED @ 9798']
CONDWS.MMHO  : CONDUCTIVITY [1000/DRESWS]
DRESWS.OHMM  : DEEP RESISTIVITY [LNED]
GRED  .CPS   : GAMMA RAY FROM RADIOACTIVITY LOG
GRNED .GAPI  : GAMMA RAY FROM GRN LOG
GRWS  .GAPI  : GAMMA RAY [GRED SPL. TO GRNED @ 196.5']
LNED  .OHMM  : LONG NORMAL RESISTIVITY FROM IEL LOG
LT18ED.OHMM  : LATERAL 18' FROM IEL LOG
MCALED.IN    : MLT (MICROLOG) CALIPER FROM MLL-CAL LOG
MLLED .OHMM  : MICRO FOCUSED LATEROLOG RESISTIVITY FROM MLL LOG
NEUTED.NAPI  : NEUTRON FROM GRN LOG
NEUTWS.NAPI  : NEUTRON [NEUTED]
SNED  .OHMM  : SHORT NORMAL RESISTIVITY FROM IEL LOG
SPRED .MV    : SPONTANEOUS POTENTIAL FROM IEL LOG
SPWS  .MV    : SPONTANEOUS POTENTIAL [BASELINE 0 MV, SPRED]
SRESWS.OHMM  : SHALLOW RESISTIVITY [SNED]
~Params ----------------------------------------------------
LMF .                     KB : LOG MEASURED FROM
DMF .                     KB : DRILLING MEASURED FROM
EKB .FT                 2450 : KELLY BUSHING
EGL .FT               2435.4 : GROUND LEVEL
DATE.               06/14/57 : RUN DATE
RUN .                      2 : RUN NUMBER
DD  .FT                10445 : DEPTH DRILLER
DL  .FT                10449 : DEPTH LOGGER
BLI .FT                10448 : BOTTOM LOG INTERVAL
TLI .FT                 9798 : TOP LOG INTERVAL
CBD .FT                 9803 : CASING BOTTOM DRILLER
CBL .FT                 9798 : CASING BOTTOM LOGGER
BS  .IN                    6 : BIT SIZE
BSD .FT                10445 : BIT SIZE AT DEPTH
DFT .                    GEL : DRILLING FLUID TYPE
DFD .                   10.6 : DRILLING FLUID DENSITY
DFV .                     96 : DRILLING FLUID VISCOSITY
DFPH.                    9.5 : DRILLING FLUID PH
DFL .                    4.2 : DRILLING FLUID LOSS
RMS .OHMM                2.3 : RESISTIVITY MUD SAMPLE
MST .DEGF                 62 : MUD SAMPLE TEMPERATURE
RMF .OHMM                2.3 : RESISTIVITY MUD FILTRATE SAMPLE
MFST.DEGF                 62 : MUD FILTRATE SAMPLE TEMPERATURE
RMC .OHMM               0.64 : RESISTIVITY MUD CAKE
MCST.DEGF                219 : MUD CAKE SAMPLE TEMPERATURE
RMB .OHMM               0.66 : RESISTIVITY MUD AT BHT
TCS .HRS                   2 : TIME CIRCULATED STOPPED
LUN .                   1534 : LOGGING UNIT NUMBER
LUL .                    V V : LOGGING UNIT LOCATION
ENGI.               THOMPSON : RECORDING ENGINEER
WITN.                HANKINS : WITNESSED BY
CLNT.                A2DTECH : CLIENT CODE
ORIG.            2" 5" PRINT : ORIGIN OF DATA
UWI .       100072206419W500 : UNIQUE WELL ID
DICO. A2D Technologies, Inc. : DIGITIZING COMPANY
~Other -----------------------------------------------------
~ASCII -----------------------------------------------------
# ...
 8500.00000    8.61650    8.61650   16.21520   61.67040   18.19830   67.54440   67.54440   61.67040   50.98980    9.52260   36.75450  299.22490  299.22490   39.67730  -61.71820   -9.02220   39.67730
 8550.00000    8.66390    8.66390    7.55680  132.34080   16.29610   63.12240   63.12240  132.34080   99.69170    9.56170   88.10770  317.42190  317.42190   72.02080  -65.69790  -13.51260   72.02080
 8600.00000    8.68570    8.68570    3.38650  295.28630   11.30010   36.85940   36.85940  295.28630  117.20210    9.52460 1263.11840  408.19980  408.19980  141.57410  -52.06320   -0.39200  141.57410
 8650.00000   10.30270   10.30270  137.51000    7.27220   47.37680   96.02510   96.02510    7.27220    6.72410   12.38970    2.44920  192.07310  192.07310    6.00420  -68.54460  -16.72160    6.00420
 8700.00000   12.64230   12.64230  148.59950    6.72950   60.47140   94.94930   94.94930    6.72950    6.67980   14.47890    2.92080  193.59260  193.59260    7.38810  -69.67770  -17.68850    7.38810
 8750.00000   10.76480   10.76480  105.31420    9.49540   53.65650   93.68040   93.68040    9.49540    6.36530   10.75350    6.47090  192.30890  192.30890   10.20080  -57.91340   -5.75910   10.20080
 8800.00000   12.95810   12.95810  131.90270    7.58140   73.08370  102.02940  102.02940    7.58140    6.15880   13.44700    2.27610  187.20670  187.20670    6.64960  -72.81100  -20.49150    6.64960
 8850.00000   14.20570   14.20570  128.30710    7.79380   87.29100   92.55020   92.55020    7.79380    6.71560   13.94630    0.70000  193.48540  193.48540    6.72630  -60.20350   -7.71780    6.72630
 8900.00000    8.74460    8.74460   33.72480   29.65180   29.00200   91.82420   91.82420   29.65180   21.15250    9.62610   30.55620  248.89950  248.89950   24.51590  -66.28240  -13.63160   24.51590
 8950.00000    8.71080    8.71080   49.38930   20.24730   21.62960   89.39370   89.39370   20.24730   19.24100    9.63070   21.00340  256.65080  256.65080   22.28560  -79.93990  -27.12290   22.28560
 9000.00000    8.71170    8.71170   61.92370   16.14890   51.60370   97.54140   97.54140   16.14890   14.30610    9.60380   16.00990  225.42980  225.42980   17.17350  -90.62680  -37.64460   17.17350
 9050.00000    8.94030    8.94030   55.04710   18.16680   55.92930   97.39290   97.39290   18.16680   16.12590    9.73770   17.34800  224.86090  224.86090   19.05210  -88.48010  -35.33280   19.05210
 9100.00000    9.49690    9.49690   84.54230   11.82840   48.57620  110.56650  110.56650   11.82840   11.18450   11.32820   12.57430  212.46420  212.46420   12.38370  -84.76630  -31.45280   12.38370
 9150.00000   10.04000   10.04000   82.51510   12.11900   55.03130  103.52270  103.52270   12.11900    9.74780   10.03130   12.83810  219.48840  219.48840   13.39870  -83.56390  -30.08520   13.39870
 9200.00000   10.11950   10.11950   83.21410   12.01720   72.60120  111.60770  111.60770   12.01720   13.64320   11.67850    8.45290  210.22450  210.22450   12.32820  -64.09210   -9.83150   12.32820
 9250.00000    9.27970    9.27970   60.46680   16.53800   26.09800  103.65800  103.65800   16.53800    8.83260   10.44810   12.85670  205.94050  205.94050   16.02730  -72.33060  -16.37050   16.02730
 9300.00000    8.53390    8.53390    2.51200  398.16410   25.78150  108.64180  108.64180  398.16410  674.90450    9.35740  546.87180  253.25810  253.25810  132.13370  -65.85710   -8.19750  132.13370
 9350.00000    8.53130    8.53130    5.80830  172.16870   18.67390   78.47570   78.47570  172.16870  132.10800    9.35890  256.57330  285.86730  285.86730   77.91150  -75.74500  -16.37480   77.91150
 9400.00000    8.65140    8.65140    8.37160  119.45130   41.12420  148.97520  148.97520  119.45130  104.64510    9.39980  111.12330  200.27090  200.27090   64.88080  -89.27380  -28.20410   64.88080
 9450.00000    8.43220    8.43220    5.93000  168.63490   13.71620   72.57850   72.57850  168.63490   54.18750    9.30260  345.88150  295.26520  295.26520   79.08630  -81.98450  -19.20410   79.08630
 9500.00000    8.34740    8.34740    4.50210  222.11870   13.61090   61.38170   61.38170  222.11870  288.55670    9.33640   90.90980  326.57850  326.57850  103.90110  -82.78540  -18.30550  103.90110
 9550.00000    8.47680    8.47680    2.59490  385.42650    9.58880   51.81740   51.81740  385.42650   45.84160    9.31150  934.16010  363.91310  363.91310  164.99230  -85.15400  -18.97470  164.99230
 9600.00000    7.73400    7.73400    3.70190  270.12910    7.19310   41.45630   41.45630  270.12910  453.85440    8.80130  154.13510  279.56560  279.56560  102.82330 -252.37830 -184.48830  102.82330
 9650.00000    7.49780    7.49780    3.20250  312.25650    4.36560   37.37580   37.37580  312.25650  632.00330    8.67690  184.46450  308.97770  308.97770  112.40370 -236.59060 -167.00110  112.40370
 9700.00000    8.33920    8.33920    5.18950  192.69820    5.60280   42.97920   42.97920  192.69820  464.55500    9.10210  471.07430  402.57120  402.57120   84.16410 -212.13070 -140.83060   84.16410
 9750.00000    8.69160    8.69160    0.31230 3201.65550    4.97470   40.37720   40.37720 3201.65550  302.82070    9.04270  813.23170  441.86740  441.86740  344.31460 -145.09810  -72.09850  344.31460
 9800.00000    -999.25    7.44760    0.43700 2288.55470    -999.25   43.05340   43.05340 2288.55470 2851.22800    7.44760   27.74990  427.54230  427.54230  273.16330 -137.29710  -62.59800  273.16330
 9850.00000    -999.25    6.37310    6.50270  153.78120    -999.25   47.00690   47.00690  153.78120 1335.00560    6.37310   62.16450  438.10410  438.10410   88.63680 -108.18660  -31.77680   88.63680
 9900.00000    -999.25    6.34430   11.61260   86.11350    -999.25  128.34030  128.34030   86.11350   21.34430    6.34430   92.98300  350.54920  350.54920   73.48580 -118.75990  -40.65070   73.48580
 9950.00000    -999.25    6.16680   42.10850   23.74820    -999.25  196.10750  196.10750   23.74820   37.60620    6.16680  104.26700  291.21330  291.21330   40.84820 -166.81230  -86.99240   40.84820
 10000.00000    -999.25    5.90990  100.21250    9.97880    -999.25  197.12880  197.12880    9.97880    6.59590    5.90990   39.44880  332.54960  332.54960   28.86450 -263.13490 -181.61550   28.86450
 10050.00000    -999.25    6.24440   11.04730   90.55330    -999.25   65.00590   65.00590   90.55330  226.05310    6.24440  105.90940  434.65540  434.65540   63.97760 -208.67440 -125.45550   63.97760
 10100.00000    -999.25    7.32020   28.73020   34.80660    -999.25  231.43060  231.43060   34.80660   26.98620    7.32020   10.00560  224.53850  224.53850   29.66150 -134.25490  -49.32540   29.66150
 10150.00000    -999.25    6.74960   42.71370   23.41170    -999.25  133.25240  133.25240   23.41170   20.26600    6.74960   23.86760  235.06090  235.06090   25.91290 -126.84570  -40.21670   25.91290
 10200.00000    -999.25    8.53240   38.70300   25.83780    -999.25  200.34800  200.34800   25.83780   14.76230    8.53240    1.59330  173.46520  173.46520   16.29150 -122.68540  -34.34570   16.29150
 10250.00000    -999.25    6.60850   22.58510   44.27690    -999.25  129.00030  129.00030   44.27690   33.76140    6.60850    9.00790  234.54220  234.54220   35.80260 -111.08760  -21.04850   35.80260
 10300.00000    -999.25    5.90920   29.13040   34.37960    -999.25   22.00440   22.00440   34.37960   45.09010    5.90920   48.93950  598.10230  598.10230   44.76320 -217.44450 -125.70590   44.76320
 10350.00000    -999.25    5.88270  584.04390    1.71220    -999.25   32.29550   32.29550    1.71220    2.39910    5.88270   47.45960  341.63570  341.63570    3.94490 -221.79460 -128.34530    3.94490
 10400.00000    -999.25    6.16610  461.14830    2.16850    -999.25   64.09260   64.09260    2.16850    4.90830    6.16610   36.86430  377.85820  377.85820   22.07370 -168.80550  -73.65670   22.07370
