~Version ---------------------------------------------------
VERS.      2.0 : CWLS log ASCII Standard -VERSION 2.0
WRAP.       NO : One line per depth step
CREA. 09/30/14 : LAS Creation Date
~Well ------------------------------------------------------
STRT.M                           450.0 : START DEPTH
STOP.M                          4850.0 : STOP DEPTH
STEP.M                        50.00000 : STEP LENGTH
NULL.                          -999.25 : NULL VALUE
COMP. AQUITAINE COMPANY OF CANADA LTD. : COMPANY
WELL.           AQUIT BRAZR 6-29-45-14 : WELL
FLD .                                  : FIELD
LOC .                                  : LOCATION
CTRY.                           CANADA : COUNTRY
SRVC.                     Schlumberger : SERVICE COMPANY
DATE.                      21-Jun-1979 : LOGDATE
PROV.                          Alberta : PROVINCE
UWI .                 100062904514W500 : UNIQUE WELL ID
SLAT.WGS84                    52.90648 : SURFACE LATITUDE
SLON.WGS84                   -115.9986 : SURFACE LONGITUDE
~Curve Information -----------------------------------------
DEPT    .M      : DEPTH METER
CALDED  .MM     : CALIPER FROM DENSITY LOG [ADJ. TO RESITIVITY LOG]
CALSED  .MM     : CALIPER FROM SONIC LOG
CALWS   .MM     : CALIPER [CALSED SPL. TO CALDED @ 4866M]
CILDED  .MMHO   : CONDUCTIVITY FROM RESISTIVITY LOG
CONDWS  .MMHO   : CONDUCTIVITY [1000/DRESWS]
DCORED  .KG/M3  : DENSITY CORRECTION FROM DENSITY LOG [ADJ. TO DPHILSED/DPHISSED/RESITIVITY LOG]
DCORWS  .KG/M3  : DENSITY CORRECTION [DCORED]
DENWS   .KG/M3  : FORMATION BULK DENSITY [CALC. FROM DPOLSWS, M=2710, F=1000]
DPHILSED.V/V    : DENSITY POROSITY LIMESTONE [M=2710,F=1000] FROM DENSITY LOG [ADJ. TO RESITIVITY LOG]
DPHISSED.V/V    : DENSITY POROSITY SANDSTONE [M=2650,F=1000] FROM DENSITY LOG [ADJ. TO RESITIVITY LOG]
DPOLSWS .V/V    : DENSITY POROSITY LIMESTONE [DPHISSED CONVERTED TO LIMESTONE MATRIX, M=2710 F=1000 SPL.TO DPHILSED @ 3170.2M]
DRESWS  .OHMM   : DEEP RESISTIVITY [ILDED]
DTED    .US/M   : DELTA TIME FROM SONIC LOG
DTWS    .US/M   : COMPRESSIONAL SONIC [DTED]
GRDED   .GAPI   : GAMMA RAY FROM DENSITY LOG [ADJ. TO RESITIVITY LOG]
GRSED   .GAPI   : GAMMA RAY FROM SONIC LOG
GRWS    .GAPI   : GAMM RAY [GRSED SPL. TO GRDED FROM 2911M-2941.8M &  4860.7M-BOTTOM] GRWS (+20 API ) IN CSG. FROM 2927M-2942M
ILDED   .OHMM   : DEEP INDUCTION LOG RESISTIVITY FROM RESISTIVITY LOG
ILMED   .OHMM   : MEDIUM INDUCTION LOG RESISTIVITY FROM RESISTIVITY LOG
MRESWS  .OHMM   : MEDIUM RESISTIVITY [ILMED]
NPHILSED.V/V    : NEUTRON POROSITY LIMESTONE FROM DENSITY LOG [ADJ. TO RESITIVITY LOG]
NPHISSED.V/V    : NEUTRON POROSITY SANDSTONE FROM DENSITY LOG [ADJ. TO RESITIVITY LOG]
NPOLSWS .V/V    : NEUTRON POROSITY LIMESTONE [NPHISSED MATRIX (SLB) CONVERSION FOR LIMESTONE, SPL.TO NPHILSED @ 3170.1M]
RHOBED  .KG/M3  : BULK DENSITY FROM DENSITY LOG [ADJ. TO DPHILSED/DPHISSED/RESITIVITY LOG]
SFLED   .OHMM   : SPHERICALLY FOCUSED LOG RESISTIVITY FROM RESISTIVITY LOG
SPRED   .MV     : SPONTANEOUS POTENTIAL FROM RESISTIVITY LOG
SPWS    .MV     : SPONTANEOUS POTENTIAL [BASELINE 0 MV, SPRED]
SRESWS  .OHMM   : SHALLOW RESISTIVITY [SFLED]
~Params ----------------------------------------------------
PD  .                         GL : PERMANENT DATUM
EPD .M                    1146.6 : ELEVATION PERMANENT DATUM
LMF .                         KB : LOG MEASURED FROM
DAPD.M                       8.7 : FEET ABOVE PERMANENT DATUM
DMF .                         KB : DRILLING MEASURED FROM
EKB .M                    1155.3 : KELLY BUSHING
EGL .M                    1146.6 : GROUND LEVEL
DATE.                   06/21/79 : RUN DATE
RUN .                          2 : RUN NUMBER
DD  .M                    4891.6 : DEPTH DRILLER
DL  .M                      4879 : DEPTH LOGGER
BLI .M                      4881 : BOTTOM LOG INTERVAL
TLI .M                    2941.5 : TOP LOG INTERVAL
CBD .M                      2944 : CASING BOTTOM DRILLER
CBL .M                    2941.5 : CASING BOTTOM LOGGER
BS  .M                     215.9 : BIT SIZE
BSD .M                    4891.6 : BIT SIZE AT DEPTH
DFT .                   GEL CHEM : DRILLING FLUID TYPE
DFD .                       1020 : DRILLING FLUID DENSITY
DFV .                        100 : DRILLING FLUID VISCOSITY
DFPH.                       10.5 : DRILLING FLUID PH
DFL .                          8 : DRILLING FLUID LOSS
MSS .                   FLOWLINE : MUD SAMPLE SOURCE
RMS .OHMM                   1.26 : RESISTIVITY MUD SAMPLE
MST .DEGC                   26.7 : MUD SAMPLE TEMPERATURE
RMF .OHMM                   0.62 : RESISTIVITY MUD FILTRATE SAMPLE
MFST.DEGC                   25.6 : MUD FILTRATE SAMPLE TEMPERATURE
RMC .OHMM                   1.21 : RESISTIVITY MUD CAKE
MCST.DEGC                   17.8 : MUD CAKE SAMPLE TEMPERATURE
MFSS.                      PRESS : MUD FILTRATE SAMPLE SOURCE
MCSS.                      PRESS : MUD CAKE SAMPLE SOURCE
RMB .OHMM                   0.41 : RESISTIVITY MUD AT BHT
TCS .HRS                    1800 : TIME CIRCULATED STOPPED
TLAB.HRS                     600 : TIME LOGGER AT BOTTOM
LUN .                       8123 : LOGGING UNIT NUMBER
LUL .                         RD : LOGGING UNIT LOCATION
ENGI.            PARROTT PIERACC : RECORDING ENGINEER
WITN.                   WILLIAMS : WITNESSED BY
CLNT.                    A2DTECH : CLIENT CODE
ORIG. 6.5"/100M 16.5"/100M PRINT : ORIGIN OF DATA
UWI .           100062904514W500 : UNIQUE WELL ID
DICO.     A2D Technologies, Inc. : DIGITIZING COMPANY
~Other -----------------------------------------------------
DIL-BHC TOOLS RUN IN COMBO. & CNLD TOOLS RUN
ALL DIL-BHC TOOLS FROM TOP TO 1500M FROM 2" SCALE SECTION
~ASCII -----------------------------------------------------
# ...
 2950.00000  262.89410  269.35610  269.35610    -999.25   71.28900  -14.69690  -14.69690 2607.10000    -999.25    0.02600    0.06020   14.02740  217.55360  217.55360   67.07400   58.57330   58.57330   14.02740   15.81800   15.81800    -999.25    0.18890    0.14560 2642.29200   15.34330 -280.43770  -19.14910   15.34330
 3000.00000  251.66330  260.34330  260.34330    -999.25   91.77170  -20.75150  -20.75150 2577.56500    -999.25    0.04390    0.07740   10.89660  222.58080  222.58080   81.08810   72.39890   72.39890   10.89660   11.30280   11.30280    -999.25    0.15070    0.10810 2574.22410   11.68800 -315.67760  -27.82610   11.68800
 3050.00000  271.52220  237.73980  237.73980    -999.25   44.87990  198.89350  198.89350 2325.11500    -999.25    0.19690    0.22510   22.28170  227.57990  227.57990   44.09820   38.70170   38.70170   22.28170   29.83520   29.83520    -999.25    0.09430    0.05340 2333.48170   16.39970 -307.97600  -15.32550   16.39970
 3100.00000  273.84840  255.10120  255.10120    -999.25   59.99740    9.17190    9.17190 2502.65500    -999.25    0.08930    0.12130   16.66740  214.81460  214.81460   97.29870   97.30840   97.30840   16.66740   17.35280   17.35280    -999.25    0.17040    0.12740 2488.38380   19.10150 -320.25080  -23.18940   19.10150
 3150.00000  231.75890  231.94300  231.94300    -999.25   16.75270  130.74510  130.74510 2473.78000    -999.25    0.10680    0.13810   59.69190  196.52140  196.52140   53.62070   56.45450   56.45450   59.69190   88.52920   88.52920    -999.25    0.09100    0.05040 2471.83330  105.31430 -317.67140  -16.19910  105.31430
 3200.00000  292.36900  235.87370  235.87370    -999.25   25.11610  118.87250  118.87250 2086.02100    0.35210    0.34380    0.36490   39.81510  249.95590  249.95590   45.44690   39.92210   39.92210   39.81510   31.54660   31.54660    0.06780    0.11080    0.06780 2076.34350   37.09620 -329.78490  -23.90170   37.09620
 3250.00000  198.14890  216.78880  216.78880    -999.25    0.50000   -8.61870   -8.61870 2600.04700    0.06310    -999.25    0.06430 2000.00000  175.63780  175.63780   24.03810   27.26340   27.26340 2000.00000 1932.44360 1932.44360    0.00720    -999.25    0.00720 2600.97730 2008.83240 -486.83670 -182.78840 2008.83240
 3300.00000  233.26340  220.74740  220.74740    -999.25    5.10280  143.84110  143.84110 2607.74200    0.05090    -999.25    0.05980  195.96930  177.46980  177.46980   51.03420   46.30460   46.30460  195.96930  450.91900  450.91900    0.03770    -999.25    0.03770 2616.79470  156.70280 -386.28410  -89.44990  156.70280
 3350.00000  232.17990  232.17090  232.17090    -999.25    5.79060  -11.95440  -11.95440 2932.64200   -0.14090    -999.25   -0.13020  172.69500  165.73210  165.73210   18.67920   16.66100   16.66100  172.69500  276.02810  276.02810   -0.00630    -999.25   -0.00630 2940.93240  542.22280 -316.39130  -26.77120  542.22280
 3400.00000  290.46400  243.40030  243.40030    -999.25   10.35830  153.61520  153.61520 2033.69500    0.39480    -999.25    0.39550   96.54080  177.90030  177.90030   49.95870   43.63680   43.63680   96.54080   48.10440   48.10440    0.02960    -999.25    0.02960 2034.22550  103.92020 -354.08530  -71.67930  103.92020
 3450.00000  263.80790  238.12360  238.12360    -999.25    5.38200  246.80010  246.80010 2413.14400    0.16820    -999.25    0.17360  185.80590  169.85930  169.85930   22.45270   17.37480   17.37480  185.80590  206.63930  206.63930    0.00730    -999.25    0.00730 2420.63570  395.37590 -370.01400  -94.82210  395.37590
 3500.00000  201.22400  213.87230  213.87230    -999.25    4.30400  -13.04320  -13.04320 2713.07800   -0.00350    -999.25   -0.00180  232.34010  174.25690  174.25690   38.22470   32.10560   32.10560  232.34010  295.80620  295.80620    0.01920    -999.25    0.01920 2715.44290  286.16510 -332.35100  -64.37310  286.16510
 3550.00000  203.62610  214.63660  214.63660    -999.25   30.06340   -8.10740   -8.10740 2673.57700    0.02680    -999.25    0.02130   33.26300  190.20020  190.20020   83.35810   82.34010   82.34010   33.26300   36.38160   36.38160    0.04390    -999.25    0.04390 2661.09010   44.27570 -347.90080  -90.74430   44.27570
 3600.00000  289.73980  255.02710  255.02710    -999.25    0.50260  200.54670  200.54670 2295.32500    0.26260    -999.25    0.24250 1989.56880  166.09970  166.09970   13.87630   13.72300   13.72300 1989.56880  734.99130  734.99130    0.03710    -999.25    0.03710 2264.04910  799.52850 -414.36130 -185.63990  799.52850
 3650.00000  246.91430  230.59090  230.59090    -999.25   32.86640  179.22700  179.22700 2330.72200    0.22690    -999.25    0.22180   30.42620  160.00570  160.00570   13.67340   12.27500   12.27500   30.42620   78.26600   78.26600    0.05250    -999.25    0.05250 2328.85790  131.92210 -364.68840 -164.40220  131.92210
 3700.00000  380.92580  292.86880  292.86880    -999.25    0.97500   64.33640   64.33640 1838.58400    0.49890    -999.25    0.50960 1025.63880  242.58150  242.58150   21.94900   19.78680   19.78680 1025.63880   38.93580   38.93580    0.02300    -999.25    0.02300 1843.56710  700.04110 -429.67280 -257.82170  700.04110
 3750.00000  248.70830  223.95920  223.95920    -999.25   30.37090   74.73540   74.73540 2634.24700    0.03030    -999.25    0.04430   32.92630  167.79210  167.79210   11.52270   14.56700   14.56700   32.92630   36.58350   36.58350    0.05220    -999.25    0.05220 2647.39790  285.19270 -384.71410 -241.29810  285.19270
 3800.00000  352.15870  269.39830  269.39830    -999.25    0.50050  246.23960  246.23960 2507.10850    0.12250    -999.25    0.11870 1997.82030  255.11280  255.11280   17.25410   15.83560   15.83560 1997.82030  114.21350  114.21350    0.01090    -999.25    0.01090 2487.61350  163.10800 -318.92860 -204.62900  163.10800
 3850.00000  298.52690  239.05620  239.05620    -999.25    0.50030  230.55320  230.55320 2676.82600    0.01640    -999.25    0.01940 1998.71660  153.53030  153.53030   10.97580    8.56300    8.56300 1998.71660  245.58400  245.58400    0.00160    -999.25    0.00160 2677.63790 2000.00000 -352.24710 -281.19180 2000.00000
 3900.00000  229.12000  239.46410  239.46410    -999.25    0.61060   -6.79440   -6.79440 2757.19600   -0.03290    -999.25   -0.02760 1637.61190  163.91240  163.91240   29.47040   25.78450   25.78450 1637.61190  315.16000  315.16000   -0.00280    -999.25   -0.00280 2764.96900 1151.90930 -171.08380 -143.27270 1151.90930
 3950.00000  241.80760  229.27560  229.27560    -999.25  117.51710   -9.78260   -9.78260 2737.70200   -0.01990    -999.25   -0.01620    8.50940  208.98380  208.98380   72.73210   69.97810   69.97810    8.50940    9.27940    9.27940    0.11420    -999.25    0.11420 2733.29170   11.30050  -27.93180  -31.28940   11.30050
 4000.00000  258.42660  237.57390  237.57390    -999.25  166.60000  152.07340  152.07340 2412.97300    0.16410    -999.25    0.17370    6.00240  250.39240  250.39240  114.33010  111.66840  111.66840    6.00240    6.46160    6.46160    0.20910    -999.25    0.20910 2413.81640    7.74040  -68.68700  -69.85010    7.74040
 4050.00000  232.37750  222.11360  222.11360    -999.25  127.33500   11.22580   11.22580 2575.59400    0.05790    -999.25    0.07860    7.85330  213.43250  213.43250   85.95530   80.53190   80.53190    7.85330    8.48120    8.48120    0.11140    -999.25    0.11140 2572.16500   11.13880 -203.03420 -204.46290   11.13880
 4100.00000  218.49640  224.05650  224.05650    -999.25  120.09420   10.17340   10.17340 2714.78800   -0.00010    -999.25   -0.00280    8.32680  218.68760  218.68760   76.88120   72.96510   72.96510    8.32680    8.60110    8.60110    0.14610    -999.25    0.14610 2715.20460   11.65030 -347.59420 -349.28840   11.65030
 4150.00000  261.47580  239.03970  239.03970    -999.25   19.81080   -9.24060   -9.24060 2502.57700    0.12140    -999.25    0.12130   50.47760  260.52390  260.52390  156.48540  137.16800  137.16800   50.47760   69.12820   69.12820    0.15120    -999.25    0.15120 2505.21610   87.34640 -562.76780 -564.72750   87.34640
