~Version ---------------------------------------------------
VERS.      2.0 : CWLS log ASCII Standard -VERSION 2.0
WRAP.       NO : One line per depth step
CREA. 01/09/18 : LAS Creation Date
~Well ------------------------------------------------------
STRT.FT                          1150.0 : START DEPTH
STOP.FT                         12100.0 : STOP DEPTH
STEP.FT                        50.00000 : STEP LENGTH
NULL.                           -999.25 : NULL VALUE
COMP. HUDSONS BAY OIL & GAS COMPANY LTD : COMPANY
WELL. HB ET AL EAST MARLBORO 7-15-55-18 : WELL
FLD .                                   : FIELD
LOC .                                   : LOCATION
CTRY.                            CANADA : COUNTRY
SRVC.            Schlumberger of Canada : SERVICE COMPANY
DATE.                       14-Sep-1968 : LOGDATE
PROV.                           Alberta : PROVINCE
UWI .                  100071505518W500 : UNIQUE WELL ID
SLAT.WGS84                     53.74917 : SURFACE LATITUDE
SLON.WGS84                    -116.5848 : SURFACE LONGITUDE
~Curve Information -----------------------------------------
DEPT    .FT    : Depth Curve
CALDED  .IN    : CALIPER FROM DENSITY LOG, DEPTH ADJUSTED WITH [SPRED]
CALSED  .IN    : CALIPER FROM SONIC LOG, DEPTH ADJUSTED WITH [SPRED]
CALWS   .IN    : CALIPER [CALSED]
CONDWS  .MMHO  : CONDUCTIVITY [1000/DRESWS]
DCORED  .G/C3  : DENSITY CORRECTION FROM DENSITY LOG, DEPTH ADJUSTED WITH [SPRED]
DCORWS  .G/C3  : DENSITY CORRECTION [DCORED]
DENWS   .G/C3  : BULK DENSITY [RHOBED]
DPOLSWS .V/V   : DENITY POROSITY LIMESTONE [CALCULATED FROM DENWS]
DRESWS  .OHMM  : DEEP RESISTIVITY [ILDED]
DTED    .US/F  : DELTA TIME FROM SONIC LOG, DEPTH ADJUSTED WITH [SPRED]
DTWS    .US/F  : DELTA TIME [DTED]
GRNED   .GAPI  : GAMMA RAY FROM NEUTRON LOG, DEPTH ADJUSTED WITH [SPRED]
GRSED   .GAPI  : GAMMA RAY FROM SONIC LOG, DEPTH ADJUSTED WITH [SPRED]
GRWS    .GAPI  : GAMMA RAY [GRSED], SPLICED WITH [GRNED] FROM 8632'-8667'
ILDED   .OHMM  : INDUCTION LOG DEEP RESISTIVITY
ILMED   .OHMM  : INDUCTION LOG MEDIUM RESISTIVITY
LL8ED   .OHMM  : 8 INCH LATEROLOG RESISTIVITY
MRESWS  .OHMM  : MEDIUM RESISTIVITY [ILMED]
NEUTED  .NAPI  : NEUTRON FROM NEUTRON LOG, DEPTH ADJUSTED WITH [SPRED]
NEUTWS  .NAPI  : NEUTRON [NEUTED]
NPOLSWS .V/V   : NEITRON POROSITY LIMESTONE [SNPLSED]
PORLSED .V/V   : DENITY POROSITY LIMESTONE FROM DENSITY LOG, DEPTH ADJUSTED WITH [SPRED]
PORSDMED.V/V   : DENITY POROSITY DOLOMITE FROM DENSITY LOG, DEPTH ADJUSTED WITH [SPRED]
RHOBED  .G/C3  : BULK DENSITY FROM DENSITY LOG, DEPTH ADJUSTED WITH [SPRED]
SNPLSED .V/V   : SIDEWALL NEUTRON POROSITY LIMESTONE FROM DENSITY LOG, DEPTH ADJUSTED WITH [SPRED]
SPRED   .MV    : SPONTANEOUS POTENTIAL FROM RESISTIVITY LOG
SPWS    .MV    : SPONTANEOUS POTENTIAL [BASELINE 0 MV] [SPRED]
SRESWS  .OHMM  : SHALLOW RESISTIVITY [LL8ED]
~Params ----------------------------------------------------
PD  .                     GL : PERMANENT DATUM
EPD .FT                 3167 : ELEVATION PERMANENT DATUM
LMF .                     KB : LOG MEASURED FROM
DAPD.FT                   15 : FEET ABOVE PERMANENT DATUM
EKB .FT                 3182 : KELLY BUSHING
EGL .FT                 3167 : GROUND LEVEL
DATE.               09/14/68 : RUN DATE
RUN .                      3 : RUN NUMBER
DD  .FT                12110 : DEPTH DRILLER
DL  .FT                12109 : DEPTH LOGGER
BLI .FT                12105 : BOTTOM LOG INTERVAL
TLI .FT                11350 : TOP LOG INTERVAL
CBD .FT                 1265 : CASING BOTTOM DRILLER
BS  .IN                 8.75 : BIT SIZE
BSD .FT                12110 : BIT SIZE AT DEPTH
DFT .                    GEL : DRILLING FLUID TYPE
DFD .                   11.1 : DRILLING FLUID DENSITY
DFV .                    300 : DRILLING FLUID VISCOSITY
DFPH.                   11.5 : DRILLING FLUID PH
DFL .                    4.2 : DRILLING FLUID LOSS
MSS .             CIRCULATED : MUD SAMPLE SOURCE
RMS .OHMM               1.59 : RESISTIVITY MUD SAMPLE
MST .DEGF                 52 : MUD SAMPLE TEMPERATURE
RMF .OHMM               0.86 : RESISTIVITY MUD FILTRATE SAMPLE
MFST.DEGF                 58 : MUD FILTRATE SAMPLE TEMPERATURE
RMC .OHMM               1.69 : RESISTIVITY MUD CAKE
MCST.DEGF                 56 : MUD CAKE SAMPLE TEMPERATURE
RMB .OHMM               0.25 : RESISTIVITY MUD AT BHT
TCS .HRS                   4 : TIME CIRCULATED STOPPED
LUN .                   7501 : LOGGING UNIT NUMBER
LUL .                    EDM : LOGGING UNIT LOCATION
ENGI.               STUEHMER : RECORDING ENGINEER
WITN.                 WALKER : WITNESSED BY
CLNT.                A2DTECH : CLIENT CODE
ORIG.            2" 5" PRINT : ORIGIN OF DATA
UWI .       100071505518W500 : UNIQUE WELL ID
DICO. A2D Technologies, Inc. : DIGITIZING COMPANY
~Other -----------------------------------------------------
~ASCII -----------------------------------------------------
# ...
 7400.00000    -999.25    9.05220    9.05220   69.68400    -999.25    -999.25    -999.25    -999.25   14.35050   67.64300   67.64300    -999.25   55.19560   55.19560   14.35050   15.15360   21.36030   15.15360    -999.25    -999.25    -999.25    -999.25    -999.25    -999.25    -999.25  -70.48310  -19.98370   21.36030
 7450.00000    -999.25    8.93440    8.93440   57.20290    -999.25    -999.25    -999.25    -999.25   17.48200   72.87990   72.87990    -999.25   52.95210   52.95210   17.48200   19.69810   27.11090   19.69810    -999.25    -999.25    -999.25    -999.25    -999.25    -999.25    -999.25  -64.61120  -14.40730   27.11090
 7500.00000    -999.25    9.03880    9.03880   63.63990    -999.25    -999.25    -999.25    -999.25   15.71340   66.03790   66.03790    -999.25   52.12960   52.12960   15.71340   16.71270   21.60430   16.71270    -999.25    -999.25    -999.25    -999.25    -999.25    -999.25    -999.25  -62.43700  -12.52570   21.60430
 7550.00000    -999.25    8.95310    8.95310   64.72410    -999.25    -999.25    -999.25    -999.25   15.45020   68.86590   68.86590    -999.25   59.03170   59.03170   15.45020   16.27080   19.65310   16.27080    -999.25    -999.25    -999.25    -999.25    -999.25    -999.25    -999.25  -63.00640  -13.38920   19.65310
 7600.00000    -999.25    8.99750    8.99750   70.63790    -999.25    -999.25    -999.25    -999.25   14.15670   69.03970   69.03970    -999.25   64.06640   64.06640   14.15670   15.20180   24.38370   15.20180    -999.25    -999.25    -999.25    -999.25    -999.25    -999.25    -999.25  -62.77670  -13.45350   24.38370
 7650.00000    -999.25    9.17360    9.17360   60.48880    -999.25    -999.25    -999.25    -999.25   16.53200   72.83550   72.83550    -999.25   71.62360   71.62360   16.53200   17.21640   21.93690   17.21640    -999.25    -999.25    -999.25    -999.25    -999.25    -999.25    -999.25  -56.09120   -7.06200   21.93690
 7700.00000    -999.25    8.96080    8.96080   54.07250    -999.25    -999.25    -999.25    -999.25   18.49540   67.37640   67.37640    -999.25   37.29190   37.29190   18.49540   19.71930   23.53220   19.71930    -999.25    -999.25    -999.25    -999.25    -999.25    -999.25    -999.25  -73.31290  -24.57920   23.53220
 7750.00000    -999.25    8.86880    8.86880   53.08050    -999.25    -999.25    -999.25    -999.25   18.83930   70.48150   70.48150    -999.25   71.10220   71.10220   18.83930   19.79700   24.69110   19.79700    -999.25    -999.25    -999.25    -999.25    -999.25    -999.25    -999.25  -52.26060   -3.81950   24.69110
 7800.00000    -999.25    9.33940    9.33940  114.31840    -999.25    -999.25    -999.25    -999.25    8.74750   82.69800   82.69800    -999.25   68.52610   68.52610    8.74750    7.97050    9.92250    7.97050    -999.25    -999.25    -999.25    -999.25    -999.25    -999.25    -999.25  -46.05920    0.23230    9.92250
 7850.00000    -999.25    8.97440    8.97440   49.84130    -999.25    -999.25    -999.25    -999.25   20.06370   74.58660   74.58660    -999.25   74.51200   74.51200   20.06370   21.53890   22.96360   21.53890    -999.25    -999.25    -999.25    -999.25    -999.25    -999.25    -999.25  -56.79660   -8.05370   22.96360
 7900.00000    -999.25    8.93500    8.93500   22.68750    -999.25    -999.25    -999.25    -999.25   44.07720   63.73170   63.73170    -999.25   56.20900   56.20900   44.07720   56.00380   83.90930   56.00380    -999.25    -999.25    -999.25    -999.25    -999.25    -999.25    -999.25  -53.17990   -4.44610   83.90930
 7950.00000    -999.25    9.25950    9.25950   55.01250    -999.25    -999.25    -999.25    -999.25   18.17770   70.06180   70.06180    -999.25   86.50200   86.50200   18.17770   19.30530   20.73340   19.30530    -999.25    -999.25    -999.25    -999.25    -999.25    -999.25    -999.25  -55.27190   -6.54720   20.73340
 8000.00000    -999.25    8.93870    8.93870   26.74920    -999.25    -999.25    -999.25    -999.25   37.38430   80.45100   80.45100    -999.25   77.72830   77.72830   37.38430   41.12770   56.45210   41.12770    -999.25    -999.25    -999.25    -999.25    -999.25    -999.25    -999.25  -58.90350  -10.18780   56.45210
 8050.00000    -999.25    8.89840    8.89840    8.71660    -999.25    -999.25    -999.25    -999.25  114.72350  114.83520  114.83520    -999.25   46.02280   46.02280  114.72350  214.24040 1398.16090  214.24040    -999.25    -999.25    -999.25    -999.25    -999.25    -999.25    -999.25  -68.28720  -19.58060 1398.16090
 8100.00000    -999.25    9.00620    9.00620   34.71260    -999.25    -999.25    -999.25    -999.25   28.80800   74.04930   74.04930    -999.25   76.19070   76.19070   28.80800   31.84280   43.10640   31.84280    -999.25    -999.25    -999.25    -999.25    -999.25    -999.25    -999.25  -56.33960   -7.64210   43.10640
 8150.00000    -999.25    8.91080    8.91080   24.71050    -999.25    -999.25    -999.25    -999.25   40.46870   72.30980   72.30980    -999.25   63.97970   63.97970   40.46870   49.05130  103.29070   49.05130    -999.25    -999.25    -999.25    -999.25    -999.25    -999.25    -999.25  -68.40350  -19.71500  103.29070
 8200.00000    -999.25    9.39810    9.39810  289.51600    -999.25    -999.25    -999.25    -999.25    3.45640   72.68860   72.68860    -999.25   46.03190   46.03190    3.45640    3.19290    3.79400    3.19290    -999.25    -999.25    -999.25    -999.25    -999.25    -999.25    -999.25  -60.52010  -11.84080    3.79400
 8250.00000    -999.25    9.27490    9.27490   78.96090    -999.25    -999.25    -999.25    -999.25   12.66450   77.50070   77.50070    -999.25  112.21710  112.21710   12.66450   12.23520   24.93020   12.23520    -999.25    -999.25    -999.25    -999.25    -999.25    -999.25    -999.25  -61.85820  -13.18780   24.93020
 8300.00000    -999.25    8.40920    8.40920   15.95520    -999.25    -999.25    -999.25    -999.25   62.67560   58.55080   58.55080   30.82100   15.32860   15.32860   62.67560   73.31260  135.81160   73.31260  618.40690  618.40690    -999.25    -999.25    -999.25    -999.25    -999.25 -143.78560  -95.12430  135.81160
 8350.00000    -999.25    8.24860    8.24860   52.19810    -999.25    -999.25    -999.25    -999.25   19.15780   74.60790   74.60790   29.23850   14.06410   14.06410   19.15780   14.06370   19.71340   14.06370  568.57710  568.57710    -999.25    -999.25    -999.25    -999.25    -999.25 -123.63140  -74.97920   19.71340
 8400.00000    -999.25    8.54980    8.54980    0.64640    -999.25    -999.25    -999.25    -999.25 1547.10880   56.10300   56.10300   29.88460   14.61360   14.61360 1547.10880 2055.37700 1378.54740 2055.37700 1104.70970 1104.70970    -999.25    -999.25    -999.25    -999.25    -999.25  -97.66590  -49.02270 1378.54740
 8450.00000    -999.25    8.64990    8.64990   16.61730    -999.25    -999.25    -999.25    -999.25   60.28960   54.06830   54.06830   50.38510   49.57520   49.57520   60.28960   65.72110   79.38800   65.72110  702.25490  702.25490    -999.25    -999.25    -999.25    -999.25    -999.25  -82.73510  -34.10110   79.38800
 8500.00000    -999.25    8.38680    8.38680   14.27430    -999.25    -999.25    -999.25    -999.25   70.05600   57.04050   57.04050   35.69390   15.70430   15.70430   70.05600   56.26470   67.96700   56.26470  707.23030  707.23030    -999.25    -999.25    -999.25    -999.25    -999.25  -99.81480  -51.18980   67.96700
 8550.00000    -999.25    8.63960    8.63960   17.79300    -999.25    -999.25    -999.25    -999.25   56.20200   54.26400   54.26400   65.46340   46.33290   46.33290   56.20200   85.52450  170.03280   85.52450  786.70210  786.70210    -999.25    -999.25    -999.25    -999.25    -999.25  -81.63130  -33.01530  170.03280
 8600.00000    -999.25    9.19720    9.19720   28.22810    -999.25    -999.25    -999.25    -999.25   35.42570   57.08400   57.08400   59.73420   46.57520   46.57520   35.42570   37.53470   41.49580   37.53470  807.62970  807.62970    -999.25    -999.25    -999.25    -999.25    -999.25 -105.24390  -56.63700   41.49580
