~Version ---------------------------------------------------
VERS.      2.0 : CWLS log ASCII Standard -VERSION 2.0
WRAP.       NO : One line per depth step
CREA. 07/10/13 : LAS Creation Date
~Well ------------------------------------------------------
STRT.FT                         55.3 : START DEPTH
STOP.FT                      11119.8 : STOP DEPTH
STEP.FT                      0.50000 : STEP LENGTH
NULL.                        -999.25 : NULL VALUE
COMP.         PACIFIC PETROLEUMS LTD : COMPANY
WELL. PACIFIC ET AL TONY 10-18-63-21 : WELL
FLD .                     TONY TOWER : FIELD
LOC .                                : LOCATION
CTRY.                         CANADA : COUNTRY
SRVC.                   Schlumberger : SERVICE COMPANY
DATE.                    24-Sep-1975 : LOGDATE
PROV.                        Alberta : PROVINCE
UWI .               100101806321W500 : UNIQUE WELL ID
SLAT.WGS84                  54.45338 : SURFACE LATITUDE
SLON.WGS84                 -117.1585 : SURFACE LONGITUDE
~Curve Information -----------------------------------------
DEPT   .FT    : DEPTH FEET
CALD   .IN    : CALIPER FROM DENSITY LOG
DCOR   .G/C3  : DENSITY CORRECTION FROM DENSITY LOG
DPHI_LS.DEC   : DENSITY POROSITY LIMESTONE [M=2.71,F=1.0] FROM DENSITY LOG
DPHI_SS.DEC   : DENSITY POROSITY SANDSTONE [M=2.65,F=1.0] FROM DENSITY LOG
GRD    .GAPI  : GAMMA RAY FROM DENSITY LOG
ILD    .OHMM  : DEEP INDUCTION FROM RESISTIVITY LOG
ILM    .OHMM  : MEDIUM INDUCTION FROM RESISTIVITY LOG
LL8    .OHMM  : LATEROLOG FROM RESISTIVITY LOG
NPHI_LS.DEC   : NEUTRON POROSITY LIMESTONE FROM DENSITY LOG
NPHI_SS.DEC   : NEUTRON POROSITY SANDSTONE FROM DENSITY LOG
RHOB   .G/C3  : BULK DENSITY FROM DENSITY LOG
SPR    .MV    : SPONTANEOUS POTENTIAL FROM RESISTIVITY LOG
~Params ----------------------------------------------------
PD  .                     GL : PERMANENT DATUM
EPD .FT                 2714 : ELEVATION PERMANENT DATUM
LMF .                     KB : LOG MEASURED FROM
DAPD.FT                 13.7 : FEET ABOVE PERMANENT DATUM
EKB .FT               2727.7 : KELLY BUSHING
EGL .FT                 2714 : GROUND LEVEL
DATE.               09/24/75 : RUN DATE
RUN .                      1 : RUN NUMBER
DD  .FT                11125 : DEPTH DRILLER
DL  .FT                11121 : DEPTH LOGGER
BLI .FT                11115 : BOTTOM LOG INTERVAL
TLI .FT                 1125 : TOP LOG INTERVAL
CBD .FT                 1125 : CASING BOTTOM DRILLER
CBL .FT                 1125 : CASING BOTTOM LOGGER
BS  .IN                 8.75 : BIT SIZE
BSD .FT                11125 : BIT SIZE AT DEPTH
DFT .               GEL CHEM : DRILLING FLUID TYPE
DFD .                    9.3 : DRILLING FLUID DENSITY
DFV .                    147 : DRILLING FLUID VISCOSITY
DFPH.                    9.5 : DRILLING FLUID PH
DFL .                    9.2 : DRILLING FLUID LOSS
MSS .               FLOWLINE : MUD SAMPLE SOURCE
RMS .OHMM               1.62 : RESISTIVITY MUD SAMPLE
MST .DEGF                 72 : MUD SAMPLE TEMPERATURE
RMF .OHMM               1.26 : RESISTIVITY MUD FILTRATE SAMPLE
MFST.DEGF                 68 : MUD FILTRATE SAMPLE TEMPERATURE
RMB .OHMM               0.41 : RESISTIVITY MUD AT BHT
TCS .HRS                 3.5 : TIME CIRCULATED STOPPED
LUN .                   7691 : LOGGING UNIT NUMBER
LUL .                    EDM : LOGGING UNIT LOCATION
ENGI.              CROCKFORD : RECORDING ENGINEER
WITN.                   ROSS : WITNESSED BY
CLNT.                A2DTECH : CLIENT CODE
ORIG.            2" 5" PRINT : ORIGIN OF DATA
UWI .       100101806321W500 : UNIQUE WELL ID
DICO. A2D Technologies, Inc. : DIGITIZING COMPANY
~Other -----------------------------------------------------
~ASCII -----------------------------------------------------
# ...
 1791.30000   10.89940    0.18400    -999.25    0.30470   69.35150    5.53370    4.08930    4.45100    -999.25    0.36320    2.17990  -94.02690
 1791.80000   10.31230    0.17160    -999.25    0.29320   66.95900    5.53580    4.47700    5.26780    -999.25    0.37080    2.15070  -94.05540
 1792.30000   10.21760    0.15650    -999.25    0.25710   64.23530    5.67580    5.01450    7.36650    -999.25    0.36940    2.17170  -94.70640
 1792.80000   10.30730    0.14590    -999.25    0.23080   62.99680    5.97170    5.57920   10.22160    -999.25    0.35660    2.21740  -95.32050
 1793.30000   10.31990    0.09540    -999.25    0.19640   62.45230    6.82300    5.63650    9.51960    -999.25    0.34560    2.26190  -95.61890
 1793.80000   10.31960    0.04200    -999.25    0.17380   62.00110    7.79570    5.96340    6.90110    -999.25    0.34550    2.31780  -95.69130
 1794.30000   10.40110    0.04620    -999.25    0.18250   61.03480    8.90700    6.94120    7.26080    -999.25    0.34910    2.36380  -95.49510
 1794.80000   10.45620    0.06610    -999.25    0.17050   60.15360   10.17670    8.07920    8.71380    -999.25    0.33640    2.37440  -95.25280
 1795.30000   10.43380    0.09260    -999.25    0.18320   59.74710   11.16290    8.99250   10.45760    -999.25    0.29960    2.38160  -95.20660
 1795.80000   10.51020    0.08550    -999.25    0.18610   59.31250   12.07940    9.38090   12.20150    -999.25    0.27170    2.36210  -95.22240
 1796.30000   10.60560    0.06470    -999.25    0.17650   59.13820   13.07120    9.78610   12.15810    -999.25    0.26800    2.35800  -95.54240
 1796.80000   10.60610    0.07640    -999.25    0.18690   59.13690   14.14430   10.25940   11.66680    -999.25    0.27290    2.37160  -95.61820
 1797.30000   10.58620    0.07810    -999.25    0.21460   59.13570   15.30560   10.82530   11.22850    -999.25    0.28020    2.35880  -95.65690
 1797.80000   10.62110    0.04420    -999.25    0.22060   59.85920   16.15230   11.42240   10.82050    -999.25    0.28570    2.31180  -95.99640
 1798.30000   10.62670    0.05080    -999.25    0.22330   61.04770   16.20460   11.53910   10.43850    -999.25    0.28820    2.29860  -96.32350
 1798.80000   10.57640    0.05620    -999.25    0.23050   62.23840   15.09050   11.41010   10.19100    -999.25    0.29220    2.29310  -96.50010
 1799.30000   10.52330    0.05790    -999.25    0.23970   63.70280   12.64290   10.45890    9.95040    -999.25    0.30010    2.28160  -96.76410
 1799.80000   10.47110    0.06950    -999.25    0.25500   65.53310   10.65050    8.29490    9.51470    -999.25    0.31180    2.26910  -96.54270
 1800.30000   10.39650    0.08850    -999.25    0.28280   68.09640    8.82390    5.88940    7.33150    -999.25    0.34120    2.20020  -95.89730
 1800.80000   10.44510    0.10190    -999.25    0.31120   70.47650    6.71240    4.18150    5.41930    -999.25    0.36970    2.16110  -95.51070
 1801.30000   10.62250    0.11780    -999.25    0.34030   72.98690    5.10620    3.37070    4.07740    -999.25    0.40150    2.11710  -95.04600
 1801.80000   10.81620    0.17780    -999.25    0.37650   74.98120    4.07010    2.94820    3.38670    -999.25    0.43570    2.06590  -94.67340
 1802.30000   10.90690    0.19290    -999.25    0.41440   77.36280    3.76180    2.61450    3.22760    -999.25    0.46220    2.00240  -94.30080
 1802.80000   11.16280    0.19480    -999.25    0.41990   78.63740    3.47690    2.47120    3.18370    -999.25    0.45980    1.93830  -93.92820
 1803.30000   11.07400    0.19510    -999.25    0.40350   79.36870    3.21360    2.44760    3.23070    -999.25    0.44820    1.94450  -93.65370
 1803.80000   10.64050    0.16620    -999.25    0.37000   79.43330    3.01660    2.48100    3.40050    -999.25    0.43300    2.00520  -93.54340
 1804.30000   11.11480    0.16470    -999.25    0.35630   78.77830    2.99280    2.57440    3.59560    -999.25    0.42060    2.07230  -93.19480
 1804.80000   10.70860    0.16200    -999.25    0.37520   77.92120    3.14520    2.71160    3.80190    -999.25    0.40820    2.03730  -92.86810
 1805.30000   10.57570    0.12960    -999.25    0.34840   77.09010    3.33560    2.82560    3.98020    -999.25    0.39970    2.03520  -92.84520
 1805.80000    9.98530    -999.25    -999.25    0.32540   76.88920    3.53750    2.91210    3.98520    -999.25    0.38520    2.11380  -92.82440
 1806.30000   10.21920    -999.25    -999.25    0.30060   78.33970    3.75160    2.98250    3.83660    -999.25    0.36600    2.13930  -92.83590
 1806.80000   10.55440    -999.25    -999.25    0.29580   80.73950    3.94020    3.04370    3.69350    -999.25    0.36560    2.16690  -92.87220
 1807.30000   10.77390    -999.25    -999.25    0.29390   83.13930    4.04540    3.08820    3.62170    -999.25    0.37020    2.17370  -93.25850
 1807.80000   10.76800    -999.25    -999.25    0.28310   83.13450    4.04700    3.10680    3.63400    -999.25    0.36610    2.18570  -93.63850
 1808.30000   10.53020    -999.25    -999.25    0.28330   81.53580    4.10780    3.21010    3.83620    -999.25    0.35490    2.19370  -93.92920
 1808.80000   10.44980    -999.25    -999.25    0.26590   79.93720    4.21540    3.34460    4.03650    -999.25    0.34220    2.20560  -94.01370
 1809.30000   10.72510    -999.25    -999.25    0.23230   78.31580    4.42910    3.48470    4.17460    -999.25    0.32940    2.24640  -93.97070
 1809.80000   11.41070    -999.25    -999.25    0.21770   76.67160    4.65480    3.63070    4.31750    -999.25    0.32120    2.27100  -94.24330
 1810.30000   12.25320    -999.25    -999.25    0.21310   74.41250    4.95290    3.95330    4.47000    -999.25    0.31800    2.29630  -94.39060
 1810.80000   12.00910    -999.25    -999.25    0.19680   71.61740    5.48410    4.39710    4.72860    -999.25    0.31280    2.31500  -94.47220
 1811.30000   10.46080    0.17740    -999.25    0.16910   68.35660    6.07230    5.04650    5.48190    -999.25    0.30100    2.34520  -94.63740
 1811.80000   10.38260    0.17500    -999.25    0.15920   64.06240    6.94060    5.80270    6.53150    -999.25    0.28960    2.38690  -94.73610
 1812.30000   10.29040    0.16270    -999.25    0.16850   60.13950    8.12850    6.73610    8.75350    -999.25    0.27380    2.40000  -94.92120
 1812.80000   10.19310    0.13240    -999.25    0.16150   53.85380    9.51960    7.88430   11.74370    -999.25    0.25590    2.39130  -95.75240
 1813.30000   10.12680    0.09510    -999.25    0.15820   49.85470   11.14890    9.22820   13.77760    -999.25    0.23960    2.39170  -97.56370
 1813.80000   10.04850    0.06580    -999.25    0.15840   46.68430   13.01320   10.80120   16.16370    -999.25    0.23210    2.39860  -99.38670
 1814.30000    9.95850    0.08180    -999.25    0.15130   45.96630   15.02590   12.63800   18.26260    -999.25    0.24160    2.40990 -101.14960
 1814.80000    9.88160    0.12610    -999.25    0.17360   46.24650   16.41150   13.61530   17.17850    -999.25    0.25730    2.40960 -102.94410
 1815.30000    9.85610    0.15340    -999.25    0.19380   46.59320   17.05440   12.88350   13.73350    -999.25    0.27080    2.37450 -104.30240
 1815.80000    9.83450    0.14710    -999.25    0.19870   46.93990   17.04080   12.13060   12.26590    -999.25    0.27930    2.33820 -105.49440
 1816.30000    9.79100    0.15170    -999.25    0.19280   47.28670   16.30670   11.82790   12.19530    -999.25    0.28260    2.33950 -106.48210
 1816.80000    9.79110    0.16940    -999.25    0.19090   47.63340   15.41440   11.67130   12.49000    -999.25    0.28130    2.35230 -106.43730
 1817.30000    9.78650    0.17990    -999.25    0.19630   47.97910   14.57080   11.51690   12.75310    -999.25    0.28220    2.34860 -106.10530
 1817.80000    9.78510    0.16930    -999.25    0.20890   48.53440   13.92430   11.36440   12.88900    -999.25    0.28630    2.33020 -105.63820
 1818.30000    9.78330    0.14580    -999.25    0.21700   49.47380   13.74660   11.30720   12.86580    -999.25    0.28970    2.31180 -105.26450
 1818.80000    9.79010    0.13830    -999.25    0.20770   49.92240   13.75540   11.29770   12.61710    -999.25    0.29290    2.30920 -105.37750
