~Version ---------------------------------------------------
VERS.      2.0 : CWLS log ASCII Standard -VERSION 2.0
WRAP.       NO : One line per depth step
CREA. 08/01/17 : LAS Creation Date
~Well ------------------------------------------------------
STRT.FT                                1400.0 : START DEPTH
STOP.FT                               13550.0 : STOP DEPTH
STEP.FT                              50.00000 : STEP LENGTH
NULL.                                 -999.25 : NULL VALUE
COMP.               EXXONMOBIL RESOURCES LTD. : COMPANY
WELL. CDN-SUP ET AL BREWSTER CK 6-12-42-11 #6 : WELL
FLD .                                         : FIELD
LOC .                                         : LOCATION
CTRY.                                  CANADA : COUNTRY
SRVC.                            Schlumberger : SERVICE COMPANY
DATE.                             03-May-1962 : LOGDATE
PROV.                                 Alberta : PROVINCE
UWI .                        100061204211W500 : UNIQUE WELL ID
SLAT.WGS84                           52.60151 : SURFACE LATITUDE
SLON.WGS84                          -115.4546 : SURFACE LONGITUDE
~Curve Information -----------------------------------------
DEPT  .FT    : Depth Curve
CALMED.IN    : CALIPER FROM MICROLOG
CALWS .IN    : CALIPER [CALMED]
CILDED.MMHO  : CONDUCTIVITY FROM RESISTIVITY LOG
CONDWS.MMHO  : CONDUCTIVITY [1000/DRESWS]
DRESWS.OHMM  : DEEP RESISTIVITY [ILDED] IF DRESWS<1;1000/CONDWS
GRNED .GAPI  : GAMMA RAY FROM NEUTRON LOG
GRWS  .GAPI  : GAMMA RAY [GRNED]
ILDED .OHMM  : INDUCTION LOG DEEP RESISTIVITY
NEUTED.CPS   : NEUTRON FROM NEUTRON LOG
NEUTWS.CPS   : NEUTRON [NEUTED]
SNED  .OHMM  : 16 INCH SHORT NORMAL RESISTIVITY FROM IEL
SPRED .MV    : SPONTANEOUS POTENTIAL FROM RESISTIVITY LOG
SPWS  .MV    : SPONTANEOUS POTENTIAL [BASELINE 0 MV] [SPRED]
SRESWS.OHMM  : SHALLOW RESISTIVITY [SNED]
~Params ----------------------------------------------------
PD  .                     GL : PERMANENT DATUM
EPD .FT                 3360 : ELEVATION PERMANENT DATUM
LMF .                     KB : LOG MEASURED FROM
DAPD.FT                   16 : FEET ABOVE PERMANENT DATUM
EKB .FT                 3376 : KELLY BUSHING
EGL .FT                 3360 : GROUND LEVEL
DATE.               05/03/62 : RUN DATE
RUN .                      2 : RUN NUMBER
DD  .FT                13600 : DEPTH DRILLER
DL  .FT                13574 : DEPTH LOGGER
BLI .FT                13573 : BOTTOM LOG INTERVAL
TLI .FT                10193 : TOP LOG INTERVAL
CBD .FT                 1380 : CASING BOTTOM DRILLER
CBL .FT                 1380 : CASING BOTTOM LOGGER
BS  .IN                    9 : BIT SIZE
BSD .FT                13600 : BIT SIZE AT DEPTH
DFT .                 UNICAL : DRILLING FLUID TYPE
DFD .                    9.8 : DRILLING FLUID DENSITY
DFV .                    190 : DRILLING FLUID VISCOSITY
DFPH.                    8.5 : DRILLING FLUID PH
DFL .                    4.6 : DRILLING FLUID LOSS
RMS .OHMM                2.5 : RESISTIVITY MUD SAMPLE
MST .DEGF                 54 : MUD SAMPLE TEMPERATURE
RMF .OHMM               0.72 : RESISTIVITY MUD FILTRATE SAMPLE
MFST.DEGF                 71 : MUD FILTRATE SAMPLE TEMPERATURE
RMC .OHMM               1.08 : RESISTIVITY MUD CAKE
MCST.DEGF                 71 : MUD CAKE SAMPLE TEMPERATURE
RMB .OHMM               0.24 : RESISTIVITY MUD AT BHT
TCS .HRS                   5 : TIME CIRCULATED STOPPED
LUN .                   2771 : LOGGING UNIT NUMBER
ENGI.                 GORITZ : RECORDING ENGINEER
WITN.              MACINTOSH : WITNESSED BY
CLNT.                A2DTECH : CLIENT CODE
ORIG.            2" 5" PRINT : ORIGIN OF DATA
UWI .       100061204211W500 : UNIQUE WELL ID
DICO. A2D Technologies, Inc. : DIGITIZING COMPANY
~Other -----------------------------------------------------
~ASCII -----------------------------------------------------
# ...
 6300.00000   11.28240   11.28240  148.22460  148.30850    6.74270  101.43550  101.43550    6.74270  175.93690  175.93690    9.78380  -19.17320   -3.07950    9.78380
 6350.00000   10.40140   10.40140  113.93610  108.72280    9.19770    -999.25    -999.25    9.19770    -999.25    -999.25   12.73780  -22.02840   -5.93470   12.73780
 6400.00000    -999.25    -999.25  113.24830  108.78320    9.19260    -999.25    -999.25    9.19260    -999.25    -999.25   12.57850  -21.65250   -5.55880   12.57850
 6450.00000    -999.25    -999.25  116.33810  115.05960    8.69130    -999.25    -999.25    8.69130    -999.25    -999.25   11.79500  -21.13360   -5.03990   11.79500
 6500.00000    -999.25    -999.25  109.76300  105.63450    9.46660    -999.25    -999.25    9.46660    -999.25    -999.25   12.11840  -20.63300   -4.53930   12.11840
 6550.00000    -999.25    -999.25  117.62500  108.62480    9.20600    -999.25    -999.25    9.20600    -999.25    -999.25   11.62450  -20.51600   -4.42230   11.62450
 6600.00000    -999.25    -999.25  113.69360  107.30420    9.31930    -999.25    -999.25    9.31930    -999.25    -999.25   12.38810  -20.38830   -4.29460   12.38810
 6650.00000    -999.25    -999.25  110.87590  105.72610    9.45840    -999.25    -999.25    9.45840    -999.25    -999.25   12.85350  -19.68840   -3.59470   12.85350
 6700.00000    -999.25    -999.25   83.37670   75.61960   13.22410    -999.25    -999.25   13.22410    -999.25    -999.25   18.39390  -20.61530   -4.52160   18.39390
 6750.00000    -999.25    -999.25   77.61210   69.40350   14.40850    -999.25    -999.25   14.40850    -999.25    -999.25   20.83770  -20.53850   -4.44480   20.83770
 6800.00000    -999.25    -999.25   97.59820   92.13620   10.85350    -999.25    -999.25   10.85350    -999.25    -999.25   15.85220  -19.91200   -3.81830   15.85220
 6850.00000    -999.25    -999.25  112.82770  103.69140    9.64400    -999.25    -999.25    9.64400    -999.25    -999.25   12.99240  -19.74600   -3.65230   12.99240
 6900.00000    -999.25    -999.25  112.53320  105.59440    9.47020    -999.25    -999.25    9.47020    -999.25    -999.25   11.79500  -20.24490   -4.15120   11.79500
 6950.00000    -999.25    -999.25  143.92110  138.10570    7.24110    -999.25    -999.25    7.24110    -999.25    -999.25    9.34170  -20.10460   -4.01090    9.34170
 7000.00000    -999.25    -999.25  145.02190  139.67850    7.15930    -999.25    -999.25    7.15930    -999.25    -999.25    9.25460  -20.38190   -4.28820    9.25460
 7050.00000    -999.25    -999.25  132.48790  125.21290    7.98640    -999.25    -999.25    7.98640    -999.25    -999.25   10.62130  -20.82500   -4.73130   10.62130
 7100.00000    -999.25    -999.25  136.55650  132.12660    7.56850    -999.25    -999.25    7.56850    -999.25    -999.25    9.71850  -21.10350   -5.00980    9.71850
 7150.00000    -999.25    -999.25  123.86970  115.53610    8.65530    -999.25    -999.25    8.65530    -999.25    -999.25   10.74970  -19.85560   -3.76190   10.74970
 7200.00000    -999.25    -999.25  132.24560  128.20630    7.80020    -999.25    -999.25    7.80020    -999.25    -999.25   10.19830  -20.00200   -3.90830   10.19830
 7250.00000    -999.25    -999.25  129.22440  123.90040    8.07100    -999.25    -999.25    8.07100    -999.25    -999.25   10.50010  -20.69730   -4.60360   10.50010
 7300.00000    -999.25    -999.25  105.13330   98.03440   10.20050    -999.25    -999.25   10.20050    -999.25    -999.25   12.60340  -20.17150   -4.07780   12.60340
 7350.00000    -999.25    -999.25  156.55990  150.29460    6.65360    -999.25    -999.25    6.65360    -999.25    -999.25    8.41770  -20.13440   -4.04070    8.41770
 7400.00000    -999.25    -999.25  198.26870  187.46600    5.33430   91.14050   91.14050    5.33430  188.39830  188.39830    6.84590  -20.56090   -4.46720    6.84590
 7450.00000    -999.25    -999.25  162.31500  162.14120    6.16770   78.09180   78.09180    6.16770  203.28030  203.28030    8.70050  -20.33930   -4.24560    8.70050
 7500.00000   12.21140   12.21140  129.51880  128.25120    7.79720   87.34560   87.34560    7.79720  206.02130  206.02130   10.40880    -999.25    -999.25   10.40880
 7550.00000    9.86250    9.86250   75.82950   71.69280   13.94840   78.99610   78.99610   13.94840  259.38050  259.38050   19.86690  -11.43830   -5.98090   19.86690
 7600.00000   10.47680   10.47680  118.96270  114.38900    8.74210   95.16100   95.16100    8.74210  211.71070  211.71070   11.14810  -10.48510   -5.02770   11.14810
 7650.00000   10.53920   10.53920  105.98990   99.62840   10.03730   82.41970   82.41970   10.03730  213.99890  213.99890   14.01310  -10.16830   -4.71090   14.01310
 7700.00000   11.97240   11.97240  111.22990  104.75860    9.54650    -999.25    -999.25    9.54650    -999.25    -999.25   12.60040  -10.41160   -4.95420   12.60040
 7750.00000   12.59870   12.59870  107.31840  103.00040    9.70870    -999.25    -999.25    9.70870    -999.25    -999.25   12.66230  -10.56900   -5.11160   12.66230
 7800.00000   12.69900   12.69900   86.15070   77.81620   12.85080    -999.25    -999.25   12.85080    -999.25    -999.25   15.49810  -10.08640   -4.62900   15.49810
 7850.00000   12.28540   12.28540  106.52340  101.17670    9.88370    -999.25    -999.25    9.88370    -999.25    -999.25   12.83350    -999.25    -999.25   12.83350
 7900.00000    -999.25    -999.25  101.67110   93.54010   10.69060    -999.25    -999.25   10.69060    -999.25    -999.25   13.28760  -20.02180   -3.87770   13.28760
 7950.00000    -999.25    -999.25  120.12100  110.81070    9.02440    -999.25    -999.25    9.02440    -999.25    -999.25   12.15480  -20.82260   -4.62670   12.15480
 8000.00000    -999.25    -999.25  144.82870  141.50880    7.06670    -999.25    -999.25    7.06670    -999.25    -999.25    9.64960  -20.41190   -4.16480    9.64960
 8050.00000    -999.25    -999.25  136.41890  131.86870    7.58330    -999.25    -999.25    7.58330    -999.25    -999.25   10.21320  -20.48700   -4.18840   10.21320
 8100.00000    -999.25    -999.25  104.10250   96.77730   10.33300    -999.25    -999.25   10.33300    -999.25    -999.25   14.42160  -20.74420   -4.39420   14.42160
 8150.00000    -999.25    -999.25  123.41730  117.20440    8.53210    -999.25    -999.25    8.53210    -999.25    -999.25   11.61140  -19.91680   -3.51530   11.61140
 8200.00000    -999.25    -999.25  109.72640  105.56480    9.47400    -999.25    -999.25    9.47400    -999.25    -999.25   14.39830  -20.38450   -3.93130   14.39830
 8250.00000    -999.25    -999.25   96.40640   90.91740   10.99900    -999.25    -999.25   10.99900    -999.25    -999.25   15.56300  -20.84040   -4.33600   15.56300
 8300.00000    -999.25    -999.25   66.00440   58.31210   17.14910    -999.25    -999.25   17.14910    -999.25    -999.25   26.62880  -20.07980   -3.52390   26.62880
 8350.00000    -999.25    -999.25  134.91310  130.65580    7.65370    -999.25    -999.25    7.65370    -999.25    -999.25   11.15770  -20.55870   -3.95130   11.15770
 8400.00000    -999.25    -999.25  147.66180  142.13430    7.03560    -999.25    -999.25    7.03560    -999.25    -999.25   10.27550  -20.87990   -4.22100   10.27550
 8450.00000    -999.25    -999.25  100.19220   92.73660   10.78340    -999.25    -999.25   10.78340    -999.25    -999.25   15.47160  -20.61210   -3.90150   15.47160
 8500.00000    -999.25    -999.25  113.67840  100.78310    9.92230    -999.25    -999.25    9.92230    -999.25    -999.25   14.04630  -20.51800   -3.75620   14.04630
 8550.00000    -999.25    -999.25  162.93910  162.95930    6.13650  104.79040  104.79040    6.13650  184.16740  184.16740    8.79700  -20.40520   -3.59190    8.79700
 8600.00000   15.32730   15.32730  161.89840  164.06080    6.09530   91.30350   91.30350    6.09530  182.83590  182.83590    8.63610  -21.53410   -4.66930    8.63610
 8650.00000    9.73270    9.73270   83.87500   78.03290   12.81510  167.02980  167.02980   12.81510  217.99280  217.99280   21.96090  -20.51840   -3.60220   21.96090
 8700.00000   15.33750   15.33750  214.98210  224.22310    4.45980  103.05310  103.05310    4.45980  173.88420  173.88420    6.74560  -21.18240   -4.21450    6.74560
