~Version ---------------------------------------------------
VERS.      2.0 : CWLS log ASCII Standard -VERSION 2.0
WRAP.       NO : One line per depth step
CREA. 01/03/18 : LAS Creation Date
~Well ------------------------------------------------------
STRT.FT                           650.0 : START DEPTH
STOP.FT                          9200.0 : STOP DEPTH
STEP.FT                        50.00000 : STEP LENGTH
NULL.                           -999.25 : NULL VALUE
COMP.                DENISON MINES LTD. : COMPANY
WELL. DENISON ET AL VIRGHILLS 2-6-65-12 : WELL
FLD .                                   : FIELD
LOC .                                   : LOCATION
CTRY.                            CANADA : COUNTRY
SRVC.                      Schlumberger : SERVICE COMPANY
DATE.                       14-Mar-1976 : LOGDATE
PROV.                           Alberta : PROVINCE
UWI .                  100020606512W500 : UNIQUE WELL ID
SLAT.WGS84                     54.59091 : SURFACE LATITUDE
SLON.WGS84                    -115.7994 : SURFACE LONGITUDE
~Curve Information -----------------------------------------
DEPT  .FT    : Depth Curve
CALSED.IN    : CALIPER FROM SONIC LOG
CALWS .IN    : CALIPER [CALSED]
CILDED.MMHO  : CONDUCTIVITY FROM RESISTIVITY LOG
CONDWS.MMHO  : CONDUCTIVITY [1000/DRESWS]
DRESWS.OHMM  : DEEP RESISTIVITY [ILDED] FROM TOP TO 3965' IF ILDED<1;1000/CILDED;ELSE ILDED
DTED  .US/F  : DELTA TIME FROM SONIC LOG
DTWS  .US/F  : DELTA TIME [DTED] [DEPTH ADJ TO LL8]
GRSED .GAPI  : GAMMA RAY FROM SONIC LOG
GRWS  .GAPI  : GAMMA RAY [GRSED]
ILDED .OHMM  : INDUCTION LOG DEEP RESISTIVITY
ILMED .OHMM  : INDUCTION LOG MEDIUM RESISTIVITY
LL8ED .OHMM  : 8 INCH LATEROLOG RESISTIVITY
MRESWS.OHMM  : MEDIUM RESISTIVITY [ILMED]
SPRED .MV    : SPONTANEOUS POTENTIAL FROM RESISTIVITY LOG SHIFTED
SPWS  .MV    : SPONTANEOUS POTENTIAL [BASELINE 0 MV] [SPRED]
SRESWS.OHMM  : SHALLOW RESISTIVITY [LL8ED]
~Params ----------------------------------------------------
PD  .                     GL : PERMANENT DATUM
EPD .FT               3411.5 : ELEVATION PERMANENT DATUM
LMF .                     KB : LOG MEASURED FROM
DAPD.FT                 14.2 : FEET ABOVE PERMANENT DATUM
EKB .FT               3425.7 : KELLY BUSHING
EGL .FT               3411.5 : GROUND LEVEL
DATE.               03/14/76 : RUN DATE
RUN .                      1 : RUN NUMBER
DD  .FT                 9226 : DEPTH DRILLER
DL  .FT                 9229 : DEPTH LOGGER
BLI .FT                 9223 : BOTTOM LOG INTERVAL
TLI .FT                  637 : TOP LOG INTERVAL
CBD .FT                  639 : CASING BOTTOM DRILLER
CBL .FT                  637 : CASING BOTTOM LOGGER
BS  .IN                7.875 : BIT SIZE
BSD .FT                 9226 : BIT SIZE AT DEPTH
DFT .               GEL CHEM : DRILLING FLUID TYPE
DFD .                    9.4 : DRILLING FLUID DENSITY
DFV .                    120 : DRILLING FLUID VISCOSITY
DFPH.                    9.5 : DRILLING FLUID PH
DFL .                    7.8 : DRILLING FLUID LOSS
MSS .             CIRCULATED : MUD SAMPLE SOURCE
RMS .OHMM               2.51 : RESISTIVITY MUD SAMPLE
MST .DEGF                 54 : MUD SAMPLE TEMPERATURE
RMF .OHMM               1.99 : RESISTIVITY MUD FILTRATE SAMPLE
MFST.DEGF                 50 : MUD FILTRATE SAMPLE TEMPERATURE
RMC .OHMM               2.94 : RESISTIVITY MUD CAKE
MCST.DEGF                 50 : MUD CAKE SAMPLE TEMPERATURE
RMB .OHMM               0.56 : RESISTIVITY MUD AT BHT
TCS .HRS                 3.5 : TIME CIRCULATED STOPPED
LUN .                   7691 : LOGGING UNIT NUMBER
LUL .                    EDM : LOGGING UNIT LOCATION
ENGI.              CROCKFORD : RECORDING ENGINEER
WITN.             CARRINGTON : WITNESSED BY
CLNT.                A2DTECH : CLIENT CODE
ORIG.            2" 5" PRINT : ORIGIN OF DATA
UWI .       100020606512W500 : UNIQUE WELL ID
DICO. A2D Technologies, Inc. : DIGITIZING COMPANY
~Other -----------------------------------------------------
~ASCII -----------------------------------------------------
  650.00000   10.71700   10.71700  226.17870  228.92470    4.37460  135.25670  135.25670   84.28090   84.28090    4.37460    -999.25    4.10240    -999.25  -65.40800   -9.36800    4.10240
  700.00000    9.31780    9.31780  215.43790  228.64980    4.37350  135.64120  135.64120   71.47580   71.47580    4.37350    -999.25    4.77460    -999.25  -62.72880   -6.68890    4.77460
  750.00000    8.85850    8.85850  219.83660  229.37880    4.35960  119.42930  119.42930   70.37100   70.37100    4.35960    -999.25    3.97620    -999.25  -62.41660   -6.37670    3.97620
  800.00000    8.65360    8.65360   84.98840   86.33530   11.58280  110.75380  110.75380   62.11780   62.11780   11.58280    -999.25   10.12210    -999.25  -72.01290  -15.97300   10.12210
  850.00000    9.14710    9.14710  185.67390  183.16700    5.45950  127.77060  127.77060   66.80790   66.80790    5.45950    -999.25    4.99220    -999.25  -58.99340   -3.15030    4.99220
  900.00000    9.41690    9.41690  194.56780  202.27730    4.94380  119.32590  119.32590   72.16660   72.16660    4.94380    -999.25    4.53430    -999.25  -58.51540   -2.90260    4.53430
  950.00000    8.13180    8.13180  240.94720  248.80570    4.01920  124.97960  124.97960   69.52960   69.52960    4.01920    -999.25    3.72480    -999.25  -58.43420   -3.05410    3.72480
 1000.00000    8.51950    8.51950  270.03020  263.47680    3.79540  131.05660  131.05660   79.96080   79.96080    3.79540    -999.25    3.36710    -999.25  -59.25040   -4.10180    3.36710
 1050.00000   13.96050   13.96050  224.71830  222.73340    4.48980  147.75550  147.75550   46.25530   46.25530    4.48980    -999.25    3.75550    -999.25  -63.69070   -8.77250    3.75550
 1100.00000    9.66830    9.66830  213.32670  209.20940    4.77990  127.21780  127.21780   77.16850   77.16850    4.77990    -999.25    4.09300    -999.25  -58.15170   -3.46620    4.09300
 1150.00000    8.35980    8.35980  155.15540  139.23470    7.19810  110.20440  110.20440   74.07210   74.07210    7.19810    -999.25    6.10450    -999.25  -66.86920  -12.41410    6.10450
 1200.00000   12.03290   12.03290  269.98770  270.30680    3.69950  138.54920  138.54920   61.20820   61.20820    3.69950    -999.25    3.33970    -999.25  -57.22160   -2.99910    3.33970
 1250.00000    8.57840    8.57840  151.10190  159.21030    6.28100  106.53580  106.53580   60.01360   60.01360    6.28100    -999.25    5.64090    -999.25  -60.97490   -6.98390    5.64090
 1300.00000    9.37340    9.37340  213.94290  221.26620    4.52000  111.71410  111.71410   71.43450   71.43450    4.52000    -999.25    4.16080    -999.25  -57.45590   -3.69530    4.16080
 1350.00000    9.71740    9.71740  394.52190  361.46760    2.76650  133.32860  133.32860   90.37660   90.37660    2.76650    -999.25    2.30460    -999.25  -55.90790   -2.37990    2.30460
 1400.00000   10.03340   10.03340  258.26750  238.90900    4.18730  128.72750  128.72750   70.33910   70.33910    4.18730    -999.25    3.80500    -999.25  -55.57380   -2.27620    3.80500
 1450.00000    9.44670    9.44670  205.49570  204.65380    4.88630  118.63030  118.63030   71.23920   71.23920    4.88630    -999.25    4.46560    -999.25  -56.01750   -2.95250    4.46560
 1500.00000   10.03250   10.03250  373.12370  371.69190    2.69040  146.19400  146.19400   79.48850   79.48850    2.69040    -999.25    2.66900    -999.25  -56.16490   -3.33150    2.66900
 1550.00000   10.02540   10.02540   86.39550   83.15220   12.03580  118.16260  118.16260   55.66140   55.66140   12.03580    -999.25   10.46620    -999.25  -61.88600   -9.28290   10.46620
 1600.00000    8.63150    8.63150  244.55460  241.56920    4.13960  140.14610  140.14610   73.74490   73.74490    4.13960    -999.25    3.81330    -999.25  -54.03220   -1.66180    3.81330
 1650.00000    8.82150    8.82150  193.01940  191.58030    5.22140  115.26750  115.26750   64.67430   64.67430    5.22140    -999.25    4.62330    -999.25  -53.94120   -1.80110    4.62330
 1700.00000    8.44530    8.44530  214.68190  198.47960    5.03830   95.82420   95.82420   68.00090   68.00090    5.03830    -999.25    4.48490    -999.25  -51.29190    0.61550    4.48490
 1750.00000    8.93530    8.93530  276.35780  267.42260    3.73940  119.90870  119.90870   75.47370   75.47370    3.73940    -999.25    3.06770    -999.25  -53.41770   -1.74180    3.06770
 1800.00000    9.30910    9.30910  360.22900  334.51530    2.98940  127.70780  127.70780   70.69120   70.69120    2.98940    -999.25    2.65570    -999.25  -52.82660   -1.38110    2.65570
 1850.00000    7.58740    7.58740   99.27630   99.88810   10.01120   96.91180   96.91180   51.84060   51.84060   10.01120    -999.25    8.37320    -999.25  -68.76790  -17.55510    8.37320
 1900.00000    7.74450    7.74450  161.63930  166.83370    5.99940  105.66840  105.66840   57.72300   57.72300    5.99940    -999.25    5.37620    -999.25  -62.46920  -11.48670    5.37620
 1950.00000    7.65570    7.65570  109.10870  110.23170    9.07180  104.69040  104.69040   54.22270   54.22270    9.07180    -999.25    7.84710    -999.25  -68.08520  -17.33540    7.84710
 2000.00000    7.81350    7.81350  137.04710  137.11030    7.29340  108.98860  108.98860   54.58250   54.58250    7.29340    -999.25    6.23680    -999.25  -66.91450  -16.39620    6.23680
 2050.00000    8.67060    8.67060  277.40170  273.09590    3.66270  113.57870  113.57870   68.84520   68.84520    3.66270    -999.25    3.30200    -999.25  -52.24180   -1.95390    3.30200
 2100.00000    7.70410    7.70410   91.12740   91.23670   10.96050  107.88730  107.88730   54.44550   54.44550   10.96050    -999.25    9.19910    -999.25  -69.37360  -19.31830    9.19910
 2150.00000    8.14440    8.14440  223.71220  227.83070    4.38920  108.42820  108.42820   62.43390   62.43390    4.38920    -999.25    4.02240    -999.25  -51.31050   -1.48560    4.02240
 2200.00000    7.60420    7.60420  128.06650  130.33730    7.67240  106.69790  106.69790   52.44730   52.44730    7.67240    -999.25    7.03200    -999.25  -65.29520  -15.70300    7.03200
 2250.00000    7.83130    7.83130  144.71510  117.62770    8.50140   78.88460   78.88460   52.72970   52.72970    8.50140    -999.25    7.50650    -999.25  -51.46980   -2.10910    7.50650
 2300.00000    8.47450    8.47450  244.53110  234.75710    4.26030  106.42120  106.42120   59.33330   59.33330    4.26030    -999.25    3.89880    -999.25  -50.72790   -1.59750    3.89880
 2350.00000    8.90160    8.90160  231.93310  233.31230    4.28610  111.85310  111.85310   57.26010   57.26010    4.28610    -999.25    3.90110    -999.25  -51.11760   -2.21990    3.90110
 2400.00000    7.60320    7.60320   71.52700   69.90530   14.32580  112.28490  112.28490   43.52570   43.52570   14.32580    -999.25   11.82330    -999.25  -62.98690  -14.31950   11.82330
 2450.00000    7.68480    7.68480  266.54900  255.53230    3.91340  101.59690  101.59690   57.08880   57.08880    3.91340    -999.25    3.60850    -999.25  -50.38610   -1.95140    3.60850
 2500.00000    7.95220    7.95220  128.90880  129.74710    7.70730   88.76210   88.76210   45.57210   45.57210    7.70730    -999.25    7.17470    -999.25  -50.93590   -2.73270    7.17470
 2550.00000    7.93480    7.93480   48.03060   56.46440   17.88700   67.58020   67.58020   34.11750   34.11750   17.88700    -999.25   33.96610    -999.25  -58.05970  -10.08690   33.96610
 2600.00000    8.17340    8.17340  233.38620  233.67220    4.27950  105.73280  105.73280   57.36850   57.36850    4.27950    -999.25    3.84180    -999.25  -49.82480   -2.08470    3.84180
 2650.00000    9.43710    9.43710  247.32300  263.55460    3.79430  115.16580  115.16580   48.27700   48.27700    3.79430    -999.25    4.47160    -999.25  -49.03390   -1.52410    4.47160
 2700.00000    9.62490    9.62490  185.15990  186.18850    5.37090   98.80190   98.80190   51.68360   51.68360    5.37090    -999.25    4.75790    -999.25  -49.10300   -1.82590    4.75790
 2750.00000    9.94320    9.94320  277.44410  274.68750    3.64050  142.74960  142.74960   50.79170   50.79170    3.64050    -999.25    4.02880    -999.25  -49.88790   -2.85780    4.02880
