~Version ---------------------------------------------------
VERS.      2.0 : CWLS log ASCII Standard -VERSION 2.0
WRAP.       NO : One line per depth step
CREA. 07/10/13 : LAS Creation Date
~Well ------------------------------------------------------
STRT.FT                         55.3 : START DEPTH
STOP.FT                      11119.8 : STOP DEPTH
STEP.FT                      0.50000 : STEP LENGTH
NULL.                        -999.25 : NULL VALUE
COMP.         PACIFIC PETROLEUMS LTD : COMPANY
WELL. PACIFIC ET AL TONY 10-18-63-21 : WELL
FLD .                     TONY TOWER : FIELD
LOC .                                : LOCATION
CTRY.                         CANADA : COUNTRY
SRVC.                   Schlumberger : SERVICE COMPANY
DATE.                    24-Sep-1975 : LOGDATE
PROV.                        Alberta : PROVINCE
UWI .               100101806321W500 : UNIQUE WELL ID
SLAT.WGS84                  54.45338 : SURFACE LATITUDE
SLON.WGS84                 -117.1585 : SURFACE LONGITUDE
~Curve Information -----------------------------------------
DEPT   .FT    : DEPTH FEET
CALD   .IN    : CALIPER FROM DENSITY LOG
DCOR   .G/C3  : DENSITY CORRECTION FROM DENSITY LOG
DPHI_LS.DEC   : DENSITY POROSITY LIMESTONE [M=2.71,F=1.0] FROM DENSITY LOG
DPHI_SS.DEC   : DENSITY POROSITY SANDSTONE [M=2.65,F=1.0] FROM DENSITY LOG
GRD    .GAPI  : GAMMA RAY FROM DENSITY LOG
ILD    .OHMM  : DEEP INDUCTION FROM RESISTIVITY LOG
ILM    .OHMM  : MEDIUM INDUCTION FROM RESISTIVITY LOG
LL8    .OHMM  : LATEROLOG FROM RESISTIVITY LOG
NPHI_LS.DEC   : NEUTRON POROSITY LIMESTONE FROM DENSITY LOG
NPHI_SS.DEC   : NEUTRON POROSITY SANDSTONE FROM DENSITY LOG
RHOB   .G/C3  : BULK DENSITY FROM DENSITY LOG
SPR    .MV    : SPONTANEOUS POTENTIAL FROM RESISTIVITY LOG
~Params ----------------------------------------------------
PD  .                     GL : PERMANENT DATUM
EPD .FT                 2714 : ELEVATION PERMANENT DATUM
LMF .                     KB : LOG MEASURED FROM
DAPD.FT                 13.7 : FEET ABOVE PERMANENT DATUM
EKB .FT               2727.7 : KELLY BUSHING
EGL .FT                 2714 : GROUND LEVEL
DATE.               09/24/75 : RUN DATE
RUN .                      1 : RUN NUMBER
DD  .FT                11125 : DEPTH DRILLER
DL  .FT                11121 : DEPTH LOGGER
BLI .FT                11115 : BOTTOM LOG INTERVAL
TLI .FT                 1125 : TOP LOG INTERVAL
CBD .FT                 1125 : CASING BOTTOM DRILLER
CBL .FT                 1125 : CASING BOTTOM LOGGER
BS  .IN                 8.75 : BIT SIZE
BSD .FT                11125 : BIT SIZE AT DEPTH
DFT .               GEL CHEM : DRILLING FLUID TYPE
DFD .                    9.3 : DRILLING FLUID DENSITY
DFV .                    147 : DRILLING FLUID VISCOSITY
DFPH.                    9.5 : DRILLING FLUID PH
DFL .                    9.2 : DRILLING FLUID LOSS
MSS .               FLOWLINE : MUD SAMPLE SOURCE
RMS .OHMM               1.62 : RESISTIVITY MUD SAMPLE
MST .DEGF                 72 : MUD SAMPLE TEMPERATURE
RMF .OHMM               1.26 : RESISTIVITY MUD FILTRATE SAMPLE
MFST.DEGF                 68 : MUD FILTRATE SAMPLE TEMPERATURE
RMB .OHMM               0.41 : RESISTIVITY MUD AT BHT
TCS .HRS                 3.5 : TIME CIRCULATED STOPPED
LUN .                   7691 : LOGGING UNIT NUMBER
LUL .                    EDM : LOGGING UNIT LOCATION
ENGI.              CROCKFORD : RECORDING ENGINEER
WITN.                   ROSS : WITNESSED BY
CLNT.                A2DTECH : CLIENT CODE
ORIG.            2" 5" PRINT : ORIGIN OF DATA
UWI .       100101806321W500 : UNIQUE WELL ID
DICO. A2D Technologies, Inc. : DIGITIZING COMPANY
~Other -----------------------------------------------------
~ASCII -----------------------------------------------------
# ...
 11087.30000    9.10530    0.02520    0.05860    -999.25  109.71140   12.76480   20.59720   69.42230    0.00940    -999.25    2.61270  -97.76510
 11087.80000    9.10430    0.01070    0.07650    -999.25  111.05990   11.34840   20.02730   64.11270    0.01480    -999.25    2.59620 -100.05960
 11088.30000    9.10080    0.00900    0.09130    -999.25  109.52580    9.02710   13.46950   61.03880    0.02590    -999.25    2.56740 -104.17850
 11088.80000    9.05850    0.01750    0.08700    -999.25  101.82010    7.15290    9.33780   35.33820    0.03840    -999.25    2.54980 -107.07460
 11089.30000    9.01330    0.07570    0.07300    -999.25   83.93350    5.88080    7.25730   20.57700    0.05220    -999.25    2.58760 -110.29720
 11089.80000    8.96800    0.11090    0.09220    -999.25   65.91950    5.07110    5.64030   17.43730    0.05470    -999.25    2.58900 -113.89770
 11090.30000    8.92270    0.12300    0.10620    -999.25   55.91860    4.38380    4.38360   17.66070    0.04200    -999.25    2.53430 -116.57250
 11090.80000    8.87740    0.13320    0.10110    -999.25   54.72860    3.86570    3.69400   18.86450    0.02880    -999.25    2.54030 -117.61050
 11091.30000    8.88750    0.12990    0.09750    -999.25   56.50680    3.58220    3.51540   21.10460    0.02750    -999.25    2.55140 -117.54110
 11091.80000    8.92290    0.11170    0.10040    -999.25   58.28510    3.50270    3.56680   22.90860    0.02880    -999.25    2.54660 -116.40020
 11092.30000    8.97580    0.09020    0.09420    -999.25   60.06330    3.54400    3.73470   22.93980    0.03380    -999.25    2.54060 -113.59840
 11092.80000    9.03290    0.07310    0.08580    -999.25   59.91170    3.65970    3.96570   23.63180    0.04340    -999.25    2.54370 -109.92360
 11093.30000    9.09920    0.05070    0.07820    -999.25   52.64140    4.02830    4.21630   22.94610    0.05290    -999.25    2.56530 -105.24500
 11093.80000    9.12630    0.04310    0.07810    -999.25   44.35120    4.43400    4.62710   14.68660    0.06250    -999.25    2.58460 -100.97160
 11094.30000    9.04290    0.05550    0.08470    -999.25   28.33760    4.88060    5.09650   10.55590    0.06300    -999.25    2.57650  -98.36480
 11094.80000    8.98510    0.08340    0.09950    -999.25   19.36830    5.36750    5.61350   13.65640    0.05070    -999.25    2.55980  -97.55440
 11095.30000    8.95690    0.10370    0.09900    -999.25   17.32750    5.88780    6.18290   17.92890    0.04260    -999.25    2.54320  -96.32290
 11095.80000    8.93180    0.09440    0.09670    -999.25   17.21420    6.45860    6.81010   21.74270    0.05150    -999.25    2.54110  -93.53600
 11096.30000    8.91270    0.09770    0.08980    -999.25   17.21420    7.08460    7.50090   27.28070    0.06450    -999.25    2.55880  -89.13220
 11096.80000    8.91170    0.11130    0.09350    -999.25   17.21420    7.77140    8.25260   27.74330    0.08490    -999.25    2.56010  -83.04020
 11097.30000    8.92280    0.09050    0.09900    -999.25   17.21420    8.52470    9.00240   26.20770    0.10910    -999.25    2.54980  -76.18190
 11097.80000    8.97140    0.05980    0.10400    -999.25   17.21420    9.35100    9.82030   25.08540    0.13790    -999.25    2.53960  -67.93760
 11098.30000    9.01680    0.04420    0.08670    -999.25   17.14930   10.17410   10.64180   22.83770    0.16450    -999.25    2.54390  -60.91150
 11098.80000    9.02970    0.04390    0.09830    -999.25   16.93090   10.91290   11.19840   20.93970    0.16790    -999.25    2.56490  -55.99290
 11099.30000    9.04080    0.04490    0.10630    -999.25   17.09670   11.42530   11.50600   19.51350    0.16990    -999.25    2.53970  -52.94180
 11099.80000    9.06580    0.03470    0.08840    -999.25   17.14410   11.40290   11.63640   18.26890    0.17510    -999.25    2.52950  -51.07830
 11100.30000    9.09010    0.03710    0.04890    -999.25   17.21510   11.25890   11.68090   17.36200    0.18160    -999.25    2.57770  -49.77990
 11100.80000    9.07640    0.04930    0.04470    -999.25   17.19390   10.94340   11.59300   16.96730    0.18720    -999.25    2.62780  -48.85760
 11101.30000    9.04100    0.06430    0.04610    -999.25   17.17150   10.32480   11.47250   16.97500    0.18980    -999.25    2.63290  -49.24840
 11101.80000    9.01340    0.07880    0.04820    -999.25   17.08330    9.57280   11.26390   17.01270    0.19060    -999.25    2.63220  -50.66270
 11102.30000    8.99520    0.07500    0.05880    -999.25   17.19710    8.87560   10.86230   16.45740    0.18780    -999.25    2.62570  -53.53700
 11102.80000    8.99080    0.07120    0.07820    -999.25   17.17830    7.90390   10.26420   14.76160    0.18560    -999.25    2.60090  -57.15650
 11103.30000    8.98640    0.05260    0.10700    -999.25   17.15960    6.75910    9.22270   12.09820    0.19040    -999.25    2.56730  -62.42630
 11103.80000    8.98200    0.03580    0.13150    -999.25   16.90400    5.78010    7.99760   10.00430    0.19470    -999.25    2.52390  -69.19400
 11104.30000    8.91280    0.01900    0.16210    -999.25   16.94480    4.68450    6.47630   11.96090    0.19510    -999.25    2.48070  -78.61460
 11104.80000    8.71400    0.04040    0.17520    -999.25   17.17600    3.78370    5.10430   14.86520    0.19530    -999.25    2.43570  -88.80400
 11105.30000    8.56880    0.09520    0.17600    -999.25   16.94760    3.05610    4.00990   17.31660    0.19550    -999.25    2.41850 -100.68440
 11105.80000    8.48610    0.13730    0.17370    -999.25   17.07280    2.46840    3.15010   16.27070    0.19580    -999.25    2.41660 -112.47780
 11106.30000    8.43310    0.17060    0.17930    -999.25   17.17010    2.20290    2.50700   13.91070    0.19910    -999.25    2.41200 -122.11040
 11106.80000    8.44910    0.17510    0.18500    -999.25   16.94190    1.97160    2.20270   12.52050    0.20410    -999.25    2.40370 -128.43410
 11107.30000    8.45520    0.18220    0.17410    -999.25   17.16960    1.76470    1.93530   11.83160    0.20920    -999.25    2.40250 -133.35250
 11107.80000    8.45020    0.18690    0.16710    -999.25   17.00210    1.57950    1.74360   11.20600    0.21250    -999.25    2.42200 -137.70250
 11108.30000    8.47340    0.18960    0.16560    -999.25   16.91140    1.49500    1.64780   10.95420    0.20890    -999.25    2.43390 -139.81790
 11108.80000    8.47400    0.18560    0.16740    -999.25   17.05970    1.43070    1.59750   11.17240    0.20520    -999.25    2.43410 -141.33610
 11109.30000    8.46700    0.17900    0.16900    -999.25   16.98890    1.40670    1.56070   11.67190    0.20270    -999.25    2.42780 -142.16590
 11109.80000    8.47070    0.18350    0.17480    -999.25   17.12750    1.38480    1.53040   11.73690    0.20150    -999.25    2.42150 -142.91720
 11110.30000    8.47000    0.18660    0.17640    -999.25   16.96960    1.37630    1.53300   11.24760    0.20190    -999.25    2.41520 -142.38820
 11110.80000    8.46920    0.17720    0.17210    -999.25   17.13540    1.37990    1.56730   10.72290    0.19760    -999.25    2.41720 -141.47350
 11111.30000    8.46520    0.16430    0.16720    -999.25   17.16050    1.38350    1.66700   10.51380    0.19080    -999.25    2.42570 -140.39520
 11111.80000    8.50120    0.15720    0.15790    -999.25   16.91370    1.38720    1.80880   10.43020    0.18930    -999.25    2.43250 -138.83060
 11112.30000    8.55110    0.14630    0.14700    -999.25   16.92980    1.39080    1.96260   10.71950    0.19210    -999.25    2.44810 -136.55470
 11112.80000    8.63980    0.12470    0.14260    -999.25   17.04130    1.39440    2.13420   11.74910    0.19480    -999.25    2.46810 -134.65760
 11113.30000    8.74390    0.08900    0.15560    -999.25   17.09730    1.39810    2.36790   13.68350    0.19440    -999.25    2.46500 -133.07380
 11113.80000    8.74000    0.07000    0.16940    -999.25   16.95860    1.40180    2.62730   16.18070    0.19460    -999.25    2.44030 -131.81380
 11114.30000    8.61760    0.10270    0.17940    -999.25   16.90500    1.40540    2.89020   18.51740    0.19460    -999.25    2.41570 -129.80240
 11114.80000    8.51310    0.14080    0.17990    -999.25   16.93980    1.40910    2.99860   20.09630    0.19100    -999.25    2.40910 -128.72390
