~Version ---------------------------------------------------
VERS.      2.0 : CWLS log ASCII Standard -VERSION 2.0
WRAP.       NO : One line per depth step
CREA. 12/19/17 : LAS Creation Date
~Well ------------------------------------------------------
STRT.FT                            1200.0 : START DEPTH
STOP.FT                           10150.0 : STOP DEPTH
STEP.FT                          50.00000 : STEP LENGTH
NULL.                             -999.25 : NULL VALUE
COMP.               CANADIAN FINA OIL LTD : COMPANY
WELL. FINA PAN AM HB HEAVYSOUND 2-6-62-16 : WELL
FLD .                                     : FIELD
LOC .                                     : LOCATION
CTRY.                              CANADA : COUNTRY
SRVC.              Schlumberger of Canada : SERVICE COMPANY
DATE.                         03-Mar-1959 : LOGDATE
PROV.                             Alberta : PROVINCE
UWI .                    100020606216W500 : UNIQUE WELL ID
SLAT.WGS84                       54.32879 : SURFACE LATITUDE
SLON.WGS84                       -116.385 : SURFACE LONGITUDE
~Curve Information -----------------------------------------
DEPT  .FT         : Depth Curve
CALMED.IN         : CALIPER FROM ML LOG
CALWS .IN         : CALIPER [CALMED]
CILDED.MMHO       : CONDUCTIVITY FROM RESISTIVITY LOG
CONDWS.MMHO       : CONDUCTIVITY [1000/DRESWS]
DRESWS.OHMM       : DEEP RESISTIVITY [1000/CILDED IF ILDED < 4, ILDED]
DTED  .US/F       : SONIC FROM SONIC LOG
DTWS  .US/F       : COMPRESSIONAL SONIC [DTED]
GRSED .UgRa-Eq/T  : GAMMA RAY FROM SONIC LOG
GRWS  .GAPI       : GAMMA RAY [GRSED*16.5, Converting to API Unit]
ILDED .OHMM       : INDUCTION DEEP FROM RESISTIVITY LOG
LL7ED .OHMM       : LATEROLOG 7 FT FROM RESISTIVITY LOG
MLLED .OHMM       : LATEROLOG MICRO FROM ML LOG
SNED  .OHMM       : SHORT NORMAL FROM RESISTIVITY LOG
SPRED .MV         : SPONTANEOUS POTENTIAL FROM RESISTIVITY LOG
SPWS  .MV         : SPONTANEOUS POTENTIAL [BASELINE 0 MV, SPRED]
SRESWS.OHMM       : SHALLOW RESISTIVITY [SNED]
~Params ----------------------------------------------------
~Other -----------------------------------------------------
IEL-LL-ML-BCS LOG RUN
~ASCII -----------------------------------------------------
# ...
 5500.00000    -999.25    -999.25   88.40250   83.98420   11.90700   74.49280   74.49280    4.63770   76.52200   11.90700   18.87860    -999.25   16.69720  -70.07890   -2.91760   16.69720
 5550.00000    -999.25    -999.25  136.19040  134.70370    7.42370   81.29070   81.29070    5.21510   86.04910    7.42370   23.79650    -999.25   14.09810  -67.68530   -2.56030   14.09810
 5600.00000    -999.25    -999.25  116.35560  116.02410    8.61890   73.11820   73.11820    5.12260   84.52290    8.61890   16.24050    -999.25   11.98600  -64.97280   -2.33210   11.98600
 5650.00000    -999.25    -999.25   87.18840   80.48740   12.42430  103.76220  103.76220    5.21250   86.00630   12.42430   21.27330    -999.25   20.74940  -65.41470   -7.61140   20.74940
 5700.00000    -999.25    -999.25   68.15710   61.15830   16.35100  113.31960  113.31960    4.89320   80.73780   16.35100   31.89150    -999.25   20.82850  -54.44720   -1.30680   20.82850
 5750.00000    -999.25    -999.25   90.33170   85.40950   11.70830   71.02120   71.02120    3.58790   59.20040   11.70830   23.27320    -999.25   21.53570  -83.02950  -30.24160   21.53570
 5800.00000    -999.25    -999.25   90.45070   86.14450   11.60840   79.99190   79.99190    3.83950   63.35180   11.60840   23.04860    -999.25   19.98400  -79.22940  -27.18830   19.98400
 5850.00000    -999.25    -999.25  147.30090  152.98710    6.53650   79.27490   79.27490    3.65500   60.30750    6.53650   15.98870    -999.25   14.40400  -93.86220  -42.30030   14.40400
 5900.00000    -999.25    -999.25   98.14200   94.64230   10.56610   77.44660   77.44660    5.51560   91.00740   10.56610   15.57500    -999.25   13.92160  -52.80880   -1.46780   13.92160
 5950.00000    -999.25    -999.25  273.82290  273.82290    3.65200  104.58670  104.58670    5.03170   83.02300    3.03280    4.94750    -999.25    5.09680  -54.47760   -3.35890    5.09680
 6000.00000    -999.25    -999.25   98.62250   97.94510   10.20980   77.24850   77.24850    5.52410   91.14760   10.20980   13.89220    -999.25   12.59540  -54.00970   -2.37640   12.59540
 6050.00000    -999.25    -999.25   71.97210   65.26560   15.32200   71.89890   71.89890    3.79320   62.58780   15.32200   24.87010    -999.25   22.14400  -66.18070  -12.70810   22.14400
 6100.00000    -999.25    -999.25  114.32280  116.45100    8.58730   73.89870   73.89870    2.38730   39.39050    8.58730   17.42100    -999.25   19.51360 -103.34350  -52.03290   19.51360
 6150.00000    -999.25    -999.25   98.56230   95.23540   10.50030   74.90300   74.90300    3.98690   65.78390   10.50030   30.53130    -999.25   22.54980  -79.93060  -35.64350   22.54980
 6200.00000    -999.25    -999.25  252.05510  252.05510    3.96740  100.45150  100.45150    6.34480  104.68920    3.25970    5.67250    -999.25    4.88600  -45.13680   -4.70790    4.88600
 6250.00000    -999.25    -999.25  174.89960  190.75600    5.24230   92.76290   92.76290    5.80560   95.79240    5.24230    9.44840    -999.25    8.13010  -43.13230   -3.37110    8.13010
 6300.00000    -999.25    -999.25  120.13960  119.40300    8.37500   84.76240   84.76240    5.73190   94.57640    8.37500   14.65340    -999.25   14.11780  -39.98990   -1.48780   14.11780
 6350.00000    -999.25    -999.25   88.47570   82.60840   12.10530   89.48070   89.48070    4.80190   79.23130   12.10530   29.23250    -999.25   16.31410  -41.30230   -2.80020   16.31410
 6400.00000    -999.25    -999.25   10.28770    2.45530  407.27710   60.91010   60.91010    3.16640   52.24560  407.27710 1276.46170    -999.25  142.11210  -96.29900  -57.24110  142.11210
 6450.00000    8.99500    8.99500   30.33580   22.71250   44.02870   65.00490   65.00490    5.13470   84.72250   44.02870   52.11020   44.60120   35.76140  -81.90870  -41.64280   35.76140
 6500.00000    9.02000    9.02000   87.93430   81.45640   12.27650   69.20230   69.20230    4.32350   71.33780   12.27650   36.20130   46.13240   26.16480  -95.72580  -54.25920   26.16480
 6550.00000    8.04670    8.04670  310.65900  310.65900    3.21900   67.62760   67.62760    3.07760   50.78040    2.48630   31.73660   12.33390   30.00610 -194.63790 -151.97300   30.00610
 6600.00000    9.00720    9.00720  166.98130  176.30470    5.67200   63.44200   63.44200    3.94390   65.07440    5.67200   12.36810   20.32750   13.25490  -77.15760  -33.28480   13.25490
 6650.00000    9.12120    9.12120   76.16170   67.31650   14.85520   59.16300   59.16300    3.01650   49.77230   14.85520   56.97290   76.07080   36.33020 -106.30540  -61.23190   36.33020
 6700.00000    9.20610    9.20610  117.16700  117.19760    8.53260   61.85520   61.85520    3.32850   54.92030    8.53260   33.55600   34.03830   25.55650 -107.97730  -61.69590   25.55650
 6750.00000    8.94030    8.94030   11.13690    2.99630  333.74770   52.73200   52.73200    2.65920   43.87680  333.74770 2042.25180  430.84590  141.87410 -191.50930 -144.02720  141.87410
 6800.00000    8.20620    8.20620   32.30390   26.34140   37.96310   53.24610   53.24610    2.53340   41.80110   37.96310  374.75460   43.28040  100.55400 -272.48030 -223.79990  100.55400
 6850.00000    7.69880    7.69880   74.04590   67.29340   14.86030   59.44820   59.44820    2.80850   46.34020   14.86030  152.38500   10.07380   78.87760 -226.51960 -176.63130   78.87760
 6900.00000    9.00220    9.00220  130.23800  133.43650    7.49420   65.67710   65.67710    6.64010  109.56170    7.49420   12.39360   28.93230   10.21320  -59.26080   -8.02950   10.21320
 6950.00000    8.95490    8.95490  105.60280   99.03150   10.09780   63.34410   63.34410    6.09450  100.55930   10.09780   13.80460   27.94590   16.19800  -70.15600  -16.52640   16.19800
 7000.00000    8.99380    8.99380  225.40500  244.40320    4.09160   65.41750   65.41750    4.26830   70.42700    4.09160   10.55790   97.53500   11.43670 -100.78430  -45.46900   11.43670
 7050.00000    8.99130    8.99130  103.54980  101.02850    9.89820   61.72430   61.72430    3.09780   51.11370    9.89820   49.39310   32.72180   22.88760 -106.37640  -49.86080   22.88760
 7100.00000    8.26780    8.26780    9.97050    7.52130  132.95560   53.11910   53.11910    0.97890   16.15190  132.95560  373.54750  173.68210  113.74280 -142.78030  -85.05480  113.74280
 7150.00000    8.99950    8.99950   25.93410   23.14650   43.20300   57.99640   57.99640    3.95910   65.32510   43.20300   76.94250   74.09490   48.51330  -77.18100  -18.25280   48.51330
 7200.00000    9.01850    9.01850    8.98220    6.41830  155.80510   53.37360   53.37360    2.50180   41.27970  155.80510  349.19100  280.77400  107.28160 -142.88360  -82.74540  107.28160
 7250.00000    9.00350    9.00350    7.54130    5.27430  189.59900   53.91710   53.91710    2.69940   44.54010  189.59900  383.55900  184.33930    -999.25 -119.68740  -58.34650    -999.25
 7300.00000    9.01770    9.01770   10.69380    8.83960  113.12700   55.51320   55.51320    3.36680   55.55220  113.12700  220.50960  198.08090   93.82920  -81.73230  -19.19110   93.82920
 7350.00000    9.00770    9.00770    6.96270    4.25000  235.29630   53.08920   53.08920    3.59530   59.32240  235.29630  719.42550  309.58450  132.12000 -106.61030  -43.00190  132.12000
 7400.00000    9.01600    9.01600    6.40360    3.06660  326.09820   57.42160   57.42160    3.12500   51.56250  326.09820  616.05410  494.74000  127.36670  -97.32990  -32.99050  127.36670
 7450.00000    9.05450    9.05450   55.81500   55.07520   18.15700   63.24790   63.24790    5.40450   89.17430   18.15700   29.25150   25.83310   22.78970  -93.95480  -28.88010   22.78970
 7500.00000    9.16000    9.16000   11.79310   10.41450   96.01990   55.46110   55.46110    2.71010   44.71670   96.01990  193.35930  120.07140   98.47630  -69.82790   -4.10650   98.47630
 7550.00000    9.67220    9.67220    8.11830    5.41870  184.54730   51.78290   51.78290    0.95600   15.77400  184.54730  600.84870   95.71140  128.59950 -127.50640  -61.33140  128.59950
 7600.00000    9.23940    9.23940    8.71430    6.16820  162.12210   51.55180   51.55180    1.09970   18.14500  162.12210  334.76820   49.67030  116.63750 -130.28900  -63.65680  116.63750
