~Version ---------------------------------------------------
VERS.      2.0 : CWLS log ASCII Standard -VERSION 2.0
WRAP.       NO : One line per depth step
CREA. 01/03/18 : LAS Creation Date
~Well ------------------------------------------------------
STRT.FT                        800.0 : START DEPTH
STOP.FT                       8500.0 : STOP DEPTH
STEP.FT                     50.00000 : STEP LENGTH
NULL.                        -999.25 : NULL VALUE
COMP.        PETROMARK MINERALS LTD. : COMPANY
WELL. PETROMK IOE KINAKIN 4-12-64-10 : WELL
FLD .                                : FIELD
LOC .                                : LOCATION
CTRY.                         CANADA : COUNTRY
SRVC.                   Schlumberger : SERVICE COMPANY
DATE.                    02-Jan-1976 : LOGDATE
PROV.                        Alberta : PROVINCE
UWI .               100041206410W500 : UNIQUE WELL ID
SLAT.WGS84                  54.51845 : SURFACE LATITUDE
SLON.WGS84                 -115.3807 : SURFACE LONGITUDE
~Curve Information -----------------------------------------
DEPT  .FT    : Depth Curve
CALSED.IN    : CALIPER FROM SONIC LOG
CALWS .IN    : CALIPER [CALSED]
CILDED.MMHO  : CONDUCTIVITY FROM RESISTIVITY LOG
CONDWS.MMHO  : CONDUCTIVITY [866' CILDED 7400' 1000/ILDED]
DRESWS.OHMM  : DEEP RESISTIVITY [1000/CONDWS]
DTED  .US/F  : DELTA TIME FROM SONIC LOG
DTWS  .US/F  : DELTA TIME [DTED]
GRSED .GAPI  : GAMMA RAY FROM SONIC LOG
GRWS  .GAPI  : GAMMA RAY [GRSED]
ILDED .OHMM  : INDUCTION LOG DEEP RESISTIVITY
ILMED .OHMM  : INDUCTION LOG MEDIUM RESISTIVITY
LL8ED .OHMM  : 8 INCH LATEROLOG RESISTIVITY [FILLED GAPS]
MRESWS.OHMM  : MEDIUM RESISTIVITY [ILMED]
SPRED .MV    : SPONTANEOUS POTENTIAL FROM RESISTIVITY LOG
SPWS  .MV    : SPONTANEOUS POTENTIAL [BASELINE 0 MV] [SPRED]
SRESWS.OHMM  : SHALLOW RESISTIVITY [LL8ED]
~Params ----------------------------------------------------
PD  .                     GL : PERMANENT DATUM
EPD .FT               3170.9 : ELEVATION PERMANENT DATUM
LMF .                     KB : LOG MEASURED FROM
DAPD.FT                 14.4 : FEET ABOVE PERMANENT DATUM
EKB .FT               3185.3 : KELLY BUSHING
EGL .FT               3170.9 : GROUND LEVEL
DATE.               02/01/76 : RUN DATE
RUN .                      1 : RUN NUMBER
DD  .FT                 8507 : DEPTH DRILLER
DL  .FT                 8510 : DEPTH LOGGER
BLI .FT                 8504 : BOTTOM LOG INTERVAL
TLI .FT                  861 : TOP LOG INTERVAL
CBD .FT                  861 : CASING BOTTOM DRILLER
CBL .FT                  861 : CASING BOTTOM LOGGER
BS  .IN                7.875 : BIT SIZE
BSD .FT                 8507 : BIT SIZE AT DEPTH
DFT .               GEL CHEM : DRILLING FLUID TYPE
DFD .                    9.4 : DRILLING FLUID DENSITY
DFV .                    106 : DRILLING FLUID VISCOSITY
DFPH.                    9.5 : DRILLING FLUID PH
DFL .                      6 : DRILLING FLUID LOSS
MSS .            CIRCULATION : MUD SAMPLE SOURCE
RMS .OHMM               1.97 : RESISTIVITY MUD SAMPLE
MST .DEGF                 58 : MUD SAMPLE TEMPERATURE
RMF .OHMM                1.5 : RESISTIVITY MUD FILTRATE SAMPLE
MFST.DEGF                 58 : MUD FILTRATE SAMPLE TEMPERATURE
RMC .OHMM                2.3 : RESISTIVITY MUD CAKE
MCST.DEGF                 58 : MUD CAKE SAMPLE TEMPERATURE
TCS .HRS                   4 : TIME CIRCULATED STOPPED
LUN .                   7691 : LOGGING UNIT NUMBER
LUL .                    EDM : LOGGING UNIT LOCATION
ENGI.                  BORLE : RECORDING ENGINEER
WITN.                 SAVAGE : WITNESSED BY
CLNT.                A2DTECH : CLIENT CODE
ORIG.        2" 5" 10" PRINT : ORIGIN OF DATA
UWI .       100041206410W500 : UNIQUE WELL ID
DICO. A2D Technologies, Inc. : DIGITIZING COMPANY
~Other -----------------------------------------------------
~ASCII -----------------------------------------------------
# ...
 5100.00000    9.35060    9.35060  227.60050  227.60050    4.39470   67.90640   67.90640   50.40900   50.40900    4.63800    -999.25    8.16520    -999.25  -36.45220  -41.73310    8.16520
 5150.00000    9.24380    9.24380  369.85580  369.85580    2.70380   76.18160   76.18160   46.18730   46.18730    2.88160    -999.25    6.69760    -999.25  -62.81450  -68.99190    6.69760
 5200.00000    9.36570    9.36570  469.97780  469.97780    2.13110   72.27000   72.27000   52.31550   52.31550    2.16120    -999.25    5.90010    -999.25  -76.65270  -83.73550    5.90010
 5250.00000    8.64270    8.64270   49.49550   49.49550   20.20390   52.64160   52.64160    9.90450    9.90450   25.11710    -999.25  155.15200    -999.25 -106.88780 -114.86700  155.15200
 5300.00000    8.76050    8.76050   50.16180   50.16180   19.93550   59.15560   59.15560   36.79890   36.79890   25.43630    -999.25   37.98440    -999.25  -30.06180  -38.94200   37.98440
 5350.00000    8.46580    8.46580  170.74090  170.74090    5.85710   65.73940   65.73940   62.81610   62.81610    6.71000    -999.25    7.16960    -999.25  -21.92870  -31.71440    7.16960
 5400.00000    8.42080    8.42080  126.29790  126.29790    7.91780   64.54920   64.54920   48.24930   48.24930    8.97210    -999.25    9.83320    -999.25  -27.69780  -38.37980    9.83320
 5450.00000    8.40010    8.40010  136.40120  136.40120    7.33130   66.46720   66.46720   63.44320   63.44320    8.26120    -999.25    9.00400    -999.25  -21.59050  -33.17800    9.00400
 5500.00000    9.34500    9.34500  165.00410  165.00410    6.06050   75.38500   75.38500  103.09510  103.09510    6.78990    -999.25    7.40380    -999.25    3.77400   -8.70990    7.40380
 5550.00000    9.37670    9.37670  160.40820  160.40820    6.23410   73.63940   73.63940   96.05160   96.05160    7.07770    -999.25    7.60470    -999.25    6.52410   -6.86070    7.60470
 5600.00000   10.43260   10.43260  179.53490  179.53490    5.57080   83.59270   83.59270  107.36110  107.36110    6.33960    -999.25    6.96480    -999.25    5.19310   -9.09720    6.96480
 5650.00000    8.74820    8.74820   86.38220   86.38220   11.57650   62.08370   62.08370   64.64740   64.64740   13.43700    -999.25   14.04070    -999.25   -7.70960  -22.01340   14.04070
 5700.00000    8.49390    8.49390   10.84000   10.84000   92.25140   50.05450   50.05450   10.24960   10.24960  294.26980    -999.25  474.24650    -999.25  -29.63340  -40.57690  474.24650
 5750.00000    8.57220    8.57220   44.24200   44.24200   22.60300   53.94190   53.94190   10.35030   10.35030   28.07820    -999.25   82.32640    -999.25 -184.17050 -187.92400   82.32640
 5800.00000    8.58730    8.58730   12.19750   12.19750   81.98400   49.57750   49.57750    7.87880    7.87880  551.66410    -999.25  538.33920    -999.25  -60.29690  -56.82410  538.33920
 5850.00000    8.47150    8.47150    7.82770    7.82770  127.75060   50.11870   50.11870   13.08830   13.08830    -999.25    -999.25  552.86350    -999.25  -86.34550  -75.61030  552.86350
 5900.00000    8.59610    8.59610    8.93760    8.93760  111.88690   49.42310   49.42310   14.54380   14.54380    -999.25    -999.25  535.15680    -999.25  -94.17300  -76.24770  535.15680
 5950.00000    8.50730    8.50730    9.42190    9.42190  106.16520   49.55700   49.55700   15.63270   15.63270  495.57790    -999.25  550.16560    -999.25  -98.59260  -73.40490  550.16560
 6000.00000    8.51340    8.51340   13.17440   13.17440   75.90480   50.20870   50.20870    8.55890    8.55890  145.48040    -999.25  208.48850    -999.25  -88.23670  -55.85890  208.48850
 6050.00000    8.45460    8.45460   15.17500   15.17500   65.89790   50.71040   50.71040    5.56710    5.56710  138.05980    -999.25  350.30960    -999.25 -167.33040 -127.72630  350.30960
 6100.00000    8.13910    8.13910   60.49570   60.49570   16.53150   53.61390   53.61390    8.17660    8.17660   20.29500    -999.25  242.91010    -999.25 -190.23190 -143.36540  242.91010
 6150.00000    8.17420    8.17420   53.46090   53.46090   18.70530   53.96170   53.96170   14.01710   14.01710   23.27980    -999.25  224.61920    -999.25 -179.04060 -124.98400  224.61920
 6200.00000    8.31320    8.31320   13.60170   13.60170   73.52210   50.45090   50.45090   14.26630   14.26630  214.62180    -999.25  238.03940    -999.25 -141.51110  -80.19210  238.03940
 6250.00000    8.24150    8.24150   31.18630   31.18630   32.06540   53.46360   53.46360    8.24960    8.24960   47.91930    -999.25  258.89640    -999.25 -165.60970  -97.10060  258.89640
 6300.00000    8.03620    8.03620   38.96460   38.96460   25.66430   54.10260   54.10260   11.51250   11.51250   35.12020    -999.25  234.34130    -999.25 -186.86460 -111.12930  234.34130
 6350.00000    7.90970    7.90970  105.31790  105.31790    9.49560   58.75930   58.75930   11.72700   11.72700   10.96770    -999.25   68.09500    -999.25 -195.95350 -112.95580   68.09500
 6400.00000    8.27730    8.27730   48.03040   48.03040   20.82010   51.21150   51.21150   15.03660   15.03660   27.17370    -999.25  152.95780    -999.25 -203.72630 -113.53840  152.95780
 6450.00000    8.61220    8.61220   22.16230   22.16230   45.12730   52.28180   52.28180   18.54430   18.54430   73.46830    -999.25  235.75920    -999.25 -172.47000  -75.01970  235.75920
 6500.00000    8.31460    8.31460  112.13070  112.13070    8.91820   57.10940   57.10940   45.39070   45.39070   10.53810    -999.25   26.47210    -999.25 -169.78440  -70.42750   26.47210
 6550.00000    8.44250    8.44250   13.20770   13.20770   75.71340   47.40690   47.40690   18.39770   18.39770  259.68450    -999.25  552.75200    -999.25 -189.76570  -93.96510  552.75200
 6600.00000    8.36350    8.36350   82.07700   82.07700   12.22960   52.13170   52.13170   25.21710   25.21710   14.93270    -999.25   39.43300    -999.25 -171.00370  -78.77730   39.43300
 6650.00000    8.48900    8.48900  179.26810  179.26810    5.57820   58.02490   58.02490   32.57460   32.57460    6.13490    -999.25    7.58430    -999.25 -150.73360  -62.04570    7.58430
 6700.00000    8.47070    8.47070   40.95380   40.95380   24.41890   55.42300   55.42300   32.92710   32.92710   32.77400    -999.25   41.96730    -999.25  -98.50620  -13.39240   41.96730
 6750.00000    8.72620    8.72620   82.91520   82.91520   12.06050   62.10310   62.10310   52.64800   52.64800   13.95270    -999.25   16.69080    -999.25  -96.12850  -11.43020   16.69080
 6800.00000   11.74380   11.74380  216.32500  216.32500    4.62270   77.65600   77.65600   72.72360   72.72360    5.19310    -999.25    5.74280    -999.25 -103.93890  -18.74100    5.74280
 6850.00000    9.66150    9.66150  181.22120  181.22120    5.51810   74.83670   74.83670   67.10430   67.10430    6.24230    -999.25    6.57110    -999.25  -95.35220   -9.65220    6.57110
 6900.00000   11.56360   11.56360  242.08600  242.08600    4.13080   79.42150   79.42150   73.05170   73.05170    4.51370    -999.25    4.94460    -999.25  -95.69900   -9.50190    4.94460
 6950.00000   10.52760   10.52760  230.13940  230.13940    4.34880   76.01540   76.01540   74.79630   74.79630    4.80350    -999.25    5.31770    -999.25 -117.86870  -31.16950    5.31770
 7000.00000    8.65990    8.65990  130.68960  130.68960    7.65170   68.96370   68.96370   65.45840   65.45840    8.69080    -999.25   12.80900    -999.25  -97.20260  -10.25860   12.80900
 7050.00000    8.37970    8.37970   64.15570   64.15570   15.58710   55.55010   55.55010   34.74080   34.74080   21.08860    -999.25   32.74770    -999.25  -93.27830   -7.31830   32.74770
 7100.00000   10.71920   10.71920  287.22340  287.22340    3.48270   87.09230   87.09230   73.34310   73.34310    3.54830    -999.25    4.39490    -999.25 -110.08940  -25.11840    4.39490
 7150.00000   12.37170   12.37170  331.77150  331.77150    3.01410   85.72560   85.72560   80.97510   80.97510    3.27420    -999.25    3.43670    -999.25  -98.00210  -14.01020    3.43670
 7200.00000   11.34960   11.34960  218.98430  218.98430    4.56650   79.90390   79.90390   75.10880   75.10880    5.04310    -999.25    5.57640    -999.25 -108.13080  -25.12780    5.57640
