~Version ---------------------------------------------------
VERS. 2.0 : CWLS log ASCII Standard -VERSION 2.0
WRAP.  NO : ONE LINE PER DEPTH STEP
~Well ------------------------------------------------------
STRT.F                                        1500.0 : START DEPTH
STOP.F                                       11100.0 : STOP DEPTH
STEP.F                                      50.00000 : STEP LENGTH
NULL.                                        -999.25 : NULL VALUE
COMP. GREAT PLAINS DEVELOPMENT COMPANY OF CANADA LTD : COMPANY
WELL.                 GPD ET AL ROSEVEAR 10-14-54-16 : WELL
FLD .                                                : FIELD
LOC .                                                : LOCATION
CTRY.                                         CANADA : COUNTRY
SRVC.                                   Schlumberger : SERVICE COMPANY
DATE.                                    01-Feb-1978 : LOGDATE
PROV.                                        Alberta : PROVINCE
UWI .                               100101405416W500 : UNIQUE WELL ID
SLAT.WGS84                                  53.66484 : SURFACE LATITUDE
SLON.WGS84                                 -116.2439 : SURFACE LONGITUDE
~Curve Information -----------------------------------------
DEPT   .F     : 
GRS    .GAPI  : GAMMA RAY FROM SONIC LOG
DT     .US/F  : DELTA TIME
CALS   .IN    : CALIPER FROM SONIC LOG
LLD    .OHMM  : LATEROLOG DEEP RESISTIVITY
LLS    .OHMM  : LATEROLOG SHALLOW
SPR    .MV    : SPONTANEOUS POTENTIAL FROM RESISTIVITY LOG
GRD    .GAPI  : GAMMA RAY FROM DENSITY LOG
DRHO   .G/C3  : DENSITY CORRECTION
RHOB   .G/C3  : BULK DENSITY
CALD   .IN    : CALIPER FROM DENSITY LOG
NPOR_SS.DEC   : NEUTRON POROSITY  SANDSTONE
DPHI_SS.DEC   : DENSITY POROSITY SANDSTONE
NPHI_LS.DEC   : NEUTRON POROSITY LIMESTONE
DPHI_LS.DEC   : DENSITY POROSITY LIMESTONE
~Params ----------------------------------------------------
PD  .                     GL : PERMANENT DATUM
EPD .FT                 2743 : ELEVATION PERMANENT DATUM
LMF .                     KB : LOG MEASURED FROM
DAPD.FT                 21.4 : FEET ABOVE PERMANENT DATUM
EKB .FT               2764.4 : KELLY BUSHING
EGL .FT                 2743 : GROUND LEVEL
DATE.               02/01/78 : RUN DATE
RUN .                      1 : RUN NUMBER
DD  .FT                11140 : DEPTH DRILLER
DL  .FT                11134 : DEPTH LOGGER
BLI .FT                11133 : BOTTOM LOG INTERVAL
TLI .FT                 1512 : TOP LOG INTERVAL
CBD .FT                 1512 : CASING BOTTOM DRILLER
CBL .FT                 1512 : CASING BOTTOM LOGGER
BS  .IN                 8.75 : BIT SIZE
BSD .FT                11140 : BIT SIZE AT DEPTH
DFT .            KCL POLYMER : DRILLING FLUID TYPE
DFD .                    9.4 : DRILLING FLUID DENSITY
DFV .                     45 : DRILLING FLUID VISCOSITY
DFPH.                    9.5 : DRILLING FLUID PH
DFL .                     16 : DRILLING FLUID LOSS
RMS .OHMM              0.205 : RESISTIVITY MUD SAMPLE
MST .DEGF                 39 : MUD SAMPLE TEMPERATURE
RMF .OHMM              0.163 : RESISTIVITY MUD FILTRATE SAMPLE
MFST.DEGF                 38 : MUD FILTRATE SAMPLE TEMPERATURE
RMC .OHMM              0.032 : RESISTIVITY MUD CAKE
MCST.DEGF                118 : MUD CAKE SAMPLE TEMPERATURE
RMB .OHMM              0.032 : RESISTIVITY MUD AT BHT
TCS .HRS                   7 : TIME CIRCULATED STOPPED
LUN .                   7772 : LOGGING UNIT NUMBER
LUL .                    EDM : LOGGING UNIT LOCATION
ENGI.                BODYMAN : RECORDING ENGINEER
WITN.                  BATES : WITNESSED BY
CLNT.                A2DTECH : CLIENT CODE
ORIG.               5" PRINT : ORIGIN OF DATA
UWI .       100101405416W500 : UNIQUE WELL ID
DICO. A2D Technologies, Inc. : DIGITIZING COMPANY
~Other -----------------------------------------------------
~ASCII -----------------------------------------------------
 1500.00000   36.61730    -999.25    -999.25    -999.25    -999.25    -999.25   42.05890    -999.25    -999.25    -999.25    0.46550    -999.25    -999.25    -999.25
 1550.00000   89.21530   95.88340   10.14160    6.98720    4.24820   -8.93930   86.58290    0.21440    2.25280   10.25000    0.37100    0.25430    -999.25    -999.25
 1600.00000   89.00950  138.91860   10.77610   10.07640   12.72220   -7.76990   69.80380    0.03740    1.48460   12.88210    0.70600    0.44850    -999.25    -999.25
 1650.00000   75.28280   80.25290   10.65200   13.80900    9.72220   -7.50150   74.18350    0.02240    2.43280   11.06280    0.27010    0.10930    -999.25    -999.25
 1700.00000   83.13210   87.79480   10.08890   13.70510    9.93050   -7.97120   80.83000    0.00900    2.45900   10.47140    0.31490    0.13660    -999.25    -999.25
 1750.00000   77.92940   86.20230    9.98460   12.36370   10.77870   -7.40300   65.98890    0.03510    2.49120   10.14270    0.32270    0.11430    -999.25    -999.25
 1800.00000   77.27260   85.10930   10.03590    7.99930    7.30450   -8.29310   72.07810    0.02820    2.46280   10.30560    0.30360    0.14020    -999.25    -999.25
 1850.00000   98.68370   94.08280   10.94120    6.22260    5.98270  -12.46630   86.90430    0.09110    2.34200   10.58010    0.35400    0.19370    -999.25    -999.25
 1900.00000   84.58490   82.98790   10.44840    8.98190    8.01920  -11.69120   79.50810    0.02840    2.51100   10.95060    0.27660    0.09170    -999.25    -999.25
 1950.00000  105.76620   94.08110   10.64020    7.13460    6.43520  -15.04210  103.41010    0.05890    2.44560   11.79930    0.36600    0.10270    -999.25    -999.25
 2000.00000   99.87940   98.45100   11.02270    4.18840    3.93990  -12.68260   96.53060    0.11930    2.36160   12.62770    0.30700    0.12850    -999.25    -999.25
 2050.00000  102.21180  132.98170   10.88800    3.78090    3.22850  -12.76390   91.08650    0.11060    1.77080   14.83250    0.43190    0.34150    -999.25    -999.25
 2100.00000   96.53400   93.65310   10.98220    8.75730    5.88470  -17.98990   90.66100    0.08620    2.37970   13.87440    0.36100    0.20160    -999.25    -999.25
 2150.00000   97.15430  100.54350   10.86200    8.31640    6.74470  -13.98030  100.55270    0.06640    2.33790   13.43940    0.40160    0.17320    -999.25    -999.25
 2200.00000  102.87930   99.76880   11.59180    3.91870    3.54060  -21.46140  103.43630    0.24130    2.29680   13.50870    0.40600    0.22970    -999.25    -999.25
 2250.00000   94.13410  105.23220   11.09800    4.62630    4.27290  -20.11440   93.18760    0.04310    2.21820   12.09750    0.41370    0.22810    -999.25    -999.25
 2300.00000  101.16960   94.99070   11.93110    5.40200    4.99640  -24.14640  107.48170    0.02310    2.44050   11.43040    0.37610    0.15160    -999.25    -999.25
 2350.00000   58.43950   67.59180   10.20420   19.23220   14.98440  -15.24250   56.90050    0.00810    2.56650   11.09350    0.19360    0.08380    -999.25    -999.25
 2400.00000   92.07920   93.02380   11.28850    4.33870    4.13900  -21.54240   90.33660    0.04310    2.47980   11.46720    0.33700    0.10370    -999.25    -999.25
 2450.00000   81.28170   84.28020   10.84850    9.01550    7.36510  -20.93510   71.97850    0.01430    2.53290   11.75740    0.27220    0.08370    -999.25    -999.25
 2500.00000   92.16750  100.43460   10.96230    6.82400    5.99860  -22.60620   83.87370    0.03740    2.45950   11.25890    0.34850    0.11150    -999.25    -999.25
 2550.00000  110.06540  110.59430   11.83310    4.86630    5.93190  -24.17690  123.60720    0.01120    2.30150   10.95510    0.44280    0.16160    -999.25    -999.25
 2600.00000   97.57250   93.47240   10.48990    7.15850    5.93280  -24.55830   92.82180    0.03690    2.49000   11.34920    0.37320    0.10920    -999.25    -999.25
 2650.00000   97.68530   95.20650   11.20010    3.97040    3.89590  -26.80600   93.88240    0.03010    2.37520   13.05960    0.29800    0.14720    -999.25    -999.25
 2700.00000  106.64580  126.97300   13.69030    5.01760    4.14380  -27.32420  102.91410    0.16390    2.12320   15.00680    0.46090    0.38900    -999.25    -999.25
 2750.00000  105.95930  100.49940   10.83680    5.18700    4.35920  -35.64480   90.87870    0.18290    2.22160   15.01140    0.37880    0.22380    -999.25    -999.25
 2800.00000   88.26880   78.06100   11.12790   21.37180   15.27040  -24.87200   79.31260    0.02050    2.45290   13.57100    0.21850    0.10980    -999.25    -999.25
 2850.00000   78.76450   78.41560   11.26220    7.23070    5.14410  -33.23570   85.19660    0.12490    2.43870   12.75640    0.21000    0.11620    -999.25    -999.25
 2900.00000  121.92120  119.09720   10.79600    4.52920    4.31400  -36.08820  106.77260    0.24630    2.21570   12.42170    0.37130    0.32350    -999.25    -999.25
 2950.00000   71.15960   75.47970   10.26680   24.96750   20.91120  -28.98950   67.65500    0.05360    2.52970   10.84890    0.22770    0.08630    -999.25    -999.25
 3000.00000  126.48660  100.83010   11.33590    4.10680    3.80530  -36.59150  119.81160    0.22560    2.04920   12.36260    0.35360    0.26480    -999.25    -999.25
 3050.00000   74.46280   84.80170   10.74470   14.32100   11.98010  -20.66350   72.97160    0.03210    2.42310   11.43760    0.28260    0.11530    -999.25    -999.25
 3100.00000  109.60290   88.89100   10.77430    5.86500    5.00510  -36.44690   99.13620    0.06490    2.37410   11.48430    0.33820    0.18000    -999.25    -999.25
 3150.00000  101.41020   93.51700   11.02940    3.79340    3.34860  -38.83240  106.19700    0.20120    2.32380   13.15300    0.32080    0.22030    -999.25    -999.25
 3200.00000  100.68660   92.01850   11.41210    5.88590    4.95430  -31.74060   90.77430    0.02780    2.50330   11.42620    0.30780    0.10540    -999.25    -999.25
 3250.00000   87.88440   89.63410   11.82670    2.44750    2.24000  -38.13600   93.53500    0.04600    2.41250   13.13010    0.35360    0.14320    -999.25    -999.25
 3300.00000   61.74940   74.30290   11.28910   31.36570   21.90610  -30.14590   59.52120    0.01270    2.52630   12.54430    0.22300    0.06190    -999.25    -999.25
 3350.00000   61.79260   90.78280   10.09710    3.52430    2.68120   -2.65340   56.38610    0.06260    2.36400   11.20140    0.29620    0.19730    -999.25    -999.25
 3400.00000  100.85390   83.71460   11.83050    3.06390    3.51800  -38.35150  114.42460    0.03230    2.46740   12.61740    0.26880    0.07570    -999.25    -999.25
 3450.00000   90.04830   82.42290   11.16790    8.68110    8.27440  -35.15710   83.75770    0.02310    2.51610   12.10220    0.31100    0.06890    -999.25    -999.25
 3500.00000   82.84750   87.24830   11.37460    7.35680    6.84540  -71.33450   77.98470    0.02770    2.51600   10.69090    0.36170    0.08690    -999.25    -999.25
 3550.00000   45.59180   66.07690    9.98850   19.67300   12.64360  -25.74060   61.61780    0.02510    2.57480   10.46510    0.21530    0.04210    -999.25    -999.25
 3600.00000   59.52470   76.86900   10.37200   14.70370   13.53590  -30.64910   59.41610    0.04170    2.49270   10.98170    0.25070    0.12080    -999.25    -999.25
 3650.00000   69.88440   98.69540   11.24720    6.09020    5.65940  -36.30080   71.71270    0.21480    2.24840   14.97330    0.38760    0.25790    -999.25    -999.25
 3700.00000   70.16450  101.11770   13.57920    5.04770    3.93910  -37.11990   75.50550    0.18660    1.90620    -999.25    0.40090    0.45140    -999.25    -999.25
 3750.00000   68.12040   89.44330   11.30840    6.76870    5.58810  -45.65810   72.41720    0.20240    2.06200    -999.25    0.34420    0.28090    -999.25    -999.25
 3800.00000   47.09690   68.81790   10.53960   64.68120   50.17580  -29.83860   47.62670    0.04360    2.50240   11.40960    0.24280    0.10450    -999.25    -999.25
 3850.00000   67.25240   85.40200   11.30280    7.25320    6.02560  -45.22640   67.57870    0.24930    2.22450   14.03340    0.35870    0.21290    -999.25    -999.25
 3900.00000   75.41520   84.53110   11.57730    8.58580    7.84510  -43.40400   79.61100    0.20630    2.22930   12.80680    0.37030    0.32660    -999.25    -999.25
