~Version ---------------------------------------------------
VERS.      2.0 : CWLS log ASCII Standard -VERSION 2.0
WRAP.       NO : One line per depth step
CREA. 01/03/18 : LAS Creation Date
~Well ------------------------------------------------------
STRT.FT                         700.0 : START DEPTH
STOP.FT                        9000.0 : STOP DEPTH
STEP.FT                      50.00000 : STEP LENGTH
NULL.                         -999.25 : NULL VALUE
COMP.              IPEX OIL & GAS LTD : COMPANY
WELL. IPEX ET AL VIRGHILLS 15-4-65-12 : WELL
FLD .                                 : FIELD
LOC .                                 : LOCATION
CTRY.                          CANADA : COUNTRY
SRVC.                    Schlumberger : SERVICE COMPANY
DATE.                     08-Nov-1976 : LOGDATE
PROV.                         Alberta : PROVINCE
UWI .                100150406512W500 : UNIQUE WELL ID
SLAT.WGS84                   54.60052 : SURFACE LATITUDE
SLON.WGS84                  -115.7474 : SURFACE LONGITUDE
~Curve Information -----------------------------------------
DEPT  .FT    : Depth Curve
CALSED.IN    : CALIPER FROM SONIC LOG
CALWS .IN    : CALIPER [CALSED]
CILDED.MMHO  : CONDUCTIVITY FROM RESISTIVITY LOG
CONDWS.MMHO  : CONDUCTIVITY [1000/DRESWS]
DRESWS.OHMM  : DEEP RESISTIVITY [IF ILDED<1;THEN 1000/CILDED;ELSE ILDED]
DTED  .US/F  : DELTA TIME FROM SONIC LOG
DTWS  .US/F  : DELTA TIME [DTED]
GRSED .GAPI  : GAMMA RAY FROM SONIC LOG
GRWS  .GAPI  : GAMMA RAY [GRSED]
ILDED .OHMM  : INDUCTION LOG DEEP RESISTIVITY
ILMED .OHMM  : INDUCTION LOG MEDIUM RESISTIVITY
LL8ED .OHMM  : LATEROLOG 8 RESISTIVITY
MRESWS.OHMM  : MEDIUM RESISTIVITY [ILMED]
SPRED .MV    : SPONTANEOUS POTENTIAL FROM RESISTIVITY LOG
SPWS  .MV    : SPONTANEOUS POTENTIAL [BASELINE 0 MV] [SPRED]
SRESWS.OHMM  : SHALLOW RESISTIVITY [LL8ED]
~Params ----------------------------------------------------
PD  .                     GL : PERMANENT DATUM
EPD .FT               3262.9 : ELEVATION PERMANENT DATUM
LMF .                     KB : LOG MEASURED FROM
DAPD.FT                 14.2 : FEET ABOVE PERMANENT DATUM
EKB .FT               3277.1 : KELLY BUSHING
EGL .FT               3262.9 : GROUND LEVEL
DATE.               11/08/76 : RUN DATE
RUN .                      1 : RUN NUMBER
DD  .FT                 9050 : DEPTH DRILLER
DL  .FT                 9050 : DEPTH LOGGER
BLI .FT                 9044 : BOTTOM LOG INTERVAL
TLI .FT                  649 : TOP LOG INTERVAL
CBD .FT                  652 : CASING BOTTOM DRILLER
CBL .FT                  649 : CASING BOTTOM LOGGER
BS  .IN                7.875 : BIT SIZE
BSD .FT                 9050 : BIT SIZE AT DEPTH
DFD .                     90 : DRILLING FLUID DENSITY
DFV .                    150 : DRILLING FLUID VISCOSITY
DFPH.                    9.5 : DRILLING FLUID PH
DFL .                      9 : DRILLING FLUID LOSS
MSS .             CIRCULATED : MUD SAMPLE SOURCE
RMS .OHMM               2.31 : RESISTIVITY MUD SAMPLE
MST .DEGF                 57 : MUD SAMPLE TEMPERATURE
RMF .OHMM               1.54 : RESISTIVITY MUD FILTRATE SAMPLE
MFST.DEGF                 55 : MUD FILTRATE SAMPLE TEMPERATURE
RMC .OHMM               3.55 : RESISTIVITY MUD CAKE
MCST.DEGF                 57 : MUD CAKE SAMPLE TEMPERATURE
TCS .HRS                   2 : TIME CIRCULATED STOPPED
LUN .                   7691 : LOGGING UNIT NUMBER
LUL .                    WCT : LOGGING UNIT LOCATION
ENGI.               CROCFORD : RECORDING ENGINEER
WITN.                NEUFELD : WITNESSED BY
CLNT.                A2DTECH : CLIENT CODE
ORIG.            2" 5" PRINT : ORIGIN OF DATA
UWI .       100150406512W500 : UNIQUE WELL ID
DICO. A2D Technologies, Inc. : DIGITIZING COMPANY
~Other -----------------------------------------------------
~ASCII -----------------------------------------------------
  700.00000    -999.25    -999.25  174.97720  171.57660    5.82830    -999.25    -999.25    -999.25    -999.25    5.82830    -999.25    5.24910    -999.25  -34.15400   -2.11280    5.24910
  750.00000    -999.25    -999.25  145.67440  147.59710    6.77520    -999.25    -999.25    -999.25    -999.25    6.77520    -999.25    5.60830    -999.25  -35.41030   -3.36910    5.60830
  800.00000    -999.25    -999.25   89.63550   90.27960   11.07670    -999.25    -999.25    -999.25    -999.25   11.07670    -999.25    8.58610    -999.25  -43.70480  -11.86620    8.58610
  850.00000    -999.25    -999.25  224.61380  263.18560    3.79960    -999.25    -999.25    -999.25    -999.25    3.79960    -999.25    4.15510    -999.25  -34.46230   -2.85130    4.15510
  900.00000    -999.25    -999.25  195.88290  195.32010    5.11980    -999.25    -999.25    -999.25    -999.25    5.11980    -999.25    4.47940    -999.25  -35.03250   -3.64910    4.47940
  950.00000    -999.25    -999.25  107.80740  106.58030    9.38260    -999.25    -999.25    -999.25    -999.25    9.38260    -999.25    7.20850    -999.25  -42.94130  -11.78670    7.20850
 1000.00000    -999.25    -999.25  316.53240  321.46070    3.11080    -999.25    -999.25    -999.25    -999.25    3.11080    -999.25    3.00910    -999.25  -34.41080   -3.48270    3.00910
 1050.00000    -999.25    -999.25  235.42400  233.23070    4.28760    -999.25    -999.25    -999.25    -999.25    4.28760    -999.25    3.65450    -999.25  -35.52610   -4.82560    3.65450
 1100.00000    -999.25    -999.25  184.14240  166.15710    6.01840    -999.25    -999.25    -999.25    -999.25    6.01840    -999.25    5.18940    -999.25  -34.40200   -3.92910    5.18940
 1150.00000    -999.25    -999.25  348.35020  294.67230    3.39360    -999.25    -999.25    -999.25    -999.25    3.39360    -999.25    2.73350    -999.25  -34.89280   -4.64750    2.73350
 1200.00000    -999.25    -999.25  137.90260  123.83130    8.07550    -999.25    -999.25    -999.25    -999.25    8.07550    -999.25    6.41840    -999.25  -39.14760   -9.13110    6.41840
 1250.00000    -999.25    -999.25  235.05360  230.31920    4.34180    -999.25    -999.25    -999.25    -999.25    4.34180    -999.25    3.89640    -999.25  -34.22740   -4.43740    3.89640
 1300.00000    -999.25    -999.25  285.77400  276.27360    3.61960    -999.25    -999.25    -999.25    -999.25    3.61960    -999.25    3.20090    -999.25  -32.58420   -3.02180    3.20090
 1350.00000    -999.25    -999.25  259.53050  251.09230    3.98260    -999.25    -999.25    -999.25    -999.25    3.98260    -999.25    3.44820    -999.25  -31.42380   -2.08900    3.44820
 1400.00000    -999.25    -999.25  182.05230  177.03500    5.64860    -999.25    -999.25    -999.25    -999.25    5.64860    -999.25    4.89960    -999.25  -30.72810   -1.62090    4.89960
 1450.00000    -999.25    -999.25  218.33630  203.41950    4.91590    -999.25    -999.25    -999.25    -999.25    4.91590    -999.25    4.13360    -999.25  -32.78810   -3.90970    4.13360
 1500.00000    -999.25    -999.25  179.13670  173.44850    5.76540    -999.25    -999.25    -999.25    -999.25    5.76540    -999.25    4.94010    -999.25  -31.67040   -3.01850    4.94010
 1550.00000    -999.25    -999.25  136.87720  129.57230    7.71770    -999.25    -999.25    -999.25    -999.25    7.71770    -999.25    6.45360    -999.25  -33.16760   -4.74330    6.45360
 1600.00000    -999.25    -999.25  494.89060  442.86980    2.25800    -999.25    -999.25    -999.25    -999.25    2.25800    -999.25    2.51580    -999.25  -32.19460   -3.99790    2.51580
 1650.00000    -999.25    -999.25  403.06440  354.84900    2.81810    -999.25    -999.25    -999.25    -999.25    2.81810    -999.25    2.46040    -999.25  -31.58830   -3.61920    2.46040
 1700.00000    -999.25    -999.25  371.83530  349.95010    2.85760    -999.25    -999.25    -999.25    -999.25    2.85760    -999.25    2.55340    -999.25  -31.59980   -3.85950    2.55340
 1750.00000    -999.25    -999.25  244.34900  226.92720    4.40670    -999.25    -999.25    -999.25    -999.25    4.40670    -999.25    3.80310    -999.25  -31.93810   -4.42430    3.80310
 1800.00000    -999.25    -999.25  292.91850  276.81660    3.61250    -999.25    -999.25    -999.25    -999.25    3.61250    -999.25    2.99850    -999.25  -30.82950   -3.54330    2.99850
 1850.00000    -999.25    -999.25  263.41770  271.88690    3.67800    -999.25    -999.25    -999.25    -999.25    3.67800    -999.25    4.06040    -999.25  -30.86480   -3.80620    4.06040
 1900.00000    -999.25    -999.25  288.07480  274.57440    3.64200    -999.25    -999.25    -999.25    -999.25    3.64200    -999.25    3.14720    -999.25  -30.43040   -3.59940    3.14720
 1950.00000    -999.25    -999.25  197.56830  197.08900    5.07390    -999.25    -999.25    -999.25    -999.25    5.07390    -999.25    4.44470    -999.25  -29.96880   -3.36650    4.44470
 2000.00000    -999.25    -999.25  129.00620  126.34720    7.91470    -999.25    -999.25    -999.25    -999.25    7.91470    -999.25    6.73090    -999.25  -43.14630  -16.77060    6.73090
 2050.00000    -999.25    -999.25  167.89610  164.65780    6.07320    -999.25    -999.25    -999.25    -999.25    6.07320    -999.25    5.07590    -999.25  -32.50600   -6.35790    5.07590
 2100.00000    -999.25    -999.25  286.64390  276.28130    3.61950    -999.25    -999.25    -999.25    -999.25    3.61950    -999.25    3.15330    -999.25  -27.97670   -2.05620    3.15330
 2150.00000    -999.25    -999.25  167.79740  162.34820    6.15960    -999.25    -999.25    -999.25    -999.25    6.15960    -999.25    5.60130    -999.25  -41.19450  -15.50160    5.60130
 2200.00000    -999.25    -999.25  187.90390  168.37280    5.93920    -999.25    -999.25    -999.25    -999.25    5.93920    -999.25    5.42290    -999.25  -32.43450   -6.97040    5.42290
 2250.00000    -999.25    -999.25  309.90370  292.63720    3.41720    -999.25    -999.25    -999.25    -999.25    3.41720    -999.25    3.02200    -999.25  -27.61180   -2.37420    3.02200
 2300.00000    -999.25    -999.25  292.24840  266.91580    3.74650    -999.25    -999.25    -999.25    -999.25    3.74650    -999.25    3.36000    -999.25  -26.31920   -1.30920    3.36000
 2350.00000    -999.25    -999.25  321.59910  307.36130    3.25350    -999.25    -999.25    -999.25    -999.25    3.25350    -999.25    2.94740    -999.25  -27.30440   -2.52200    2.94740
 2400.00000    -999.25    -999.25  306.38260  300.10200    3.33220    -999.25    -999.25    -999.25    -999.25    3.33220    -999.25    3.08610    -999.25  -26.95500   -2.40020    3.08610
 2450.00000    -999.25    -999.25  137.52950  136.03220    7.35120    -999.25    -999.25    -999.25    -999.25    7.35120    -999.25    7.25770    -999.25  -44.58850  -20.26250    7.25770
 2500.00000    -999.25    -999.25  316.73110  319.80560    3.12690    -999.25    -999.25    -999.25    -999.25    3.12690    -999.25    3.42110    -999.25  -25.84840   -1.74890    3.42110
 2550.00000    -999.25    -999.25  275.68100  270.66530    3.69460    -999.25    -999.25    -999.25    -999.25    3.69460    -999.25    3.87910    -999.25  -27.65750   -3.81770    3.87910
 2600.00000    -999.25    -999.25  213.53800  222.96540    4.48500    -999.25    -999.25    -999.25    -999.25    4.48500    -999.25    5.09770    -999.25  -37.75980  -14.27120    5.09770
 2650.00000    -999.25    -999.25  297.04780  316.14560    3.16310    -999.25    -999.25    -999.25    -999.25    3.16310    -999.25    3.55750    -999.25  -27.39940   -4.26190    3.55750
 2700.00000    -999.25    -999.25  303.27500  296.70070    3.37040    -999.25    -999.25    -999.25    -999.25    3.37040    -999.25    3.74100    -999.25  -27.20240   -4.41790    3.74100
 2750.00000    -999.25    -999.25  271.20830  278.65240    3.58870    -999.25    -999.25    -999.25    -999.25    3.58870    -999.25    3.74390    -999.25  -27.17750   -4.74230    3.74390
 2800.00000    -999.25    -999.25  198.46200  200.98890    4.97540    -999.25    -999.25    -999.25    -999.25    4.97540    -999.25    5.33240    -999.25  -27.50680   -5.42280    5.33240
