~Version ---------------------------------------------------
VERS.      2.0 : CWLS log ASCII Standard -VERSION 2.0
WRAP.       NO : One line per depth step
CREA. 09/29/17 : LAS Creation Date
~Well ------------------------------------------------------
STRT.FT                      2600.0 : START DEPTH
STOP.FT                     12600.0 : STOP DEPTH
STEP.FT                    50.00000 : STEP LENGTH
NULL.                       -999.25 : NULL VALUE
COMP. AMOCO CANADA COMPANY LIMITED. : COMPANY
WELL.        AMOCO NIPAC 6-20-50-15 : WELL
FLD .                               : FIELD
LOC .                               : LOCATION
CTRY.                        CANADA : COUNTRY
SRVC.                  Schlumberger : SERVICE COMPANY
DATE.                   07-Aug-1978 : LOGDATE
PROV.                       Alberta : PROVINCE
UWI .              100062005015W500 : UNIQUE WELL ID
SLAT.WGS84                 53.32816 : SURFACE LATITUDE
SLON.WGS84                -116.1619 : SURFACE LONGITUDE
~Curve Information -----------------------------------------
DEPT    .FT    : Depth Curve
CALDED  .IN    : CALIPER FROM DENSITY LOG [ADJ. TO RESISTIVITY LOG]
CALSED  .IN    : CALIPER FROM SONIC LOG [ADJ. TO RESISTIVITY LOG]
CALWS   .IN    : CALIPER [CALSED]
CONDWS  .MMHO  : CONDUCTIVITY [1000/DRESWS]
DCORED  .G/C3  : DENSITY CORRECTION FROM DENSITY LOG [ADJ. TO RESISTIVITY LOG]
DCORWS  .G/C3  : DENSITY CORRECTION [DCORED]
DENWS   .G/C3  : BULK DENSITY [RHOBED]
DPHILSED.V/V   : DENSITY POROSITY LIMESTONE [M=2.71, F=1.00] FROM DENSITY LOG [ADJ. TO RESISTIVITY LOG]
DPHISSED.V/V   : DENSITY POROSITY SANDSTONE [M=2.65, F=1.00] FROM DENSITY LOG [ADJ. TO RESISTIVITY LOG]
DPOLSWS .V/V   : DENSITY POROSITY LIMESTONE [CALC FROM DENWS,M=2.71, F=1.00]
DRESWS  .OHMM  : DEEP RESISTIVITY [ILDED]
DTED    .US/F  : DELTA-T FROM SONIC LOG [ADJ. TO RESISTIVITY LOG]
DTWS    .US/F  : COMPRESSIONAL SONIC [DTED]
GRDED   .GAPI  : GAMMA RAY FROM DENSITY LOG [ADJ. TO RESISTIVITY LOG]
GRSED   .GAPI  : GAMMA RAY  FRPM SONIC LOG [ADJ. TO RESISTIVITY LOG]
GRWS    .GAPI  : GAMMA RAY [GRDED]
ILDED   .OHMM  : DEEP INDUCTION RESISTIVITY FROM RESISTIVITY LOG
ILMED   .OHMM  : MEDIUM INDUCTION RESISTIVITY FROM RESISTIVITY LOG
LL8ED   .OHMM  : LATEROLOG 8 RESISTIVITY FROM RESISTIVITY LOG
MRESWS  .OHMM  : MEDIUM RESISTIVITY [ILMED]
NPHILSED.V/V   : NEUTRON POROSITY LIMESTONE FROM DENSITY LOG [ADJ. TO RESISTIVITY LOG]
NPHISSED.V/V   : NEUTRON POROSITY SANDSTONE FROM DENSITY LOG [ADJ. TO RESISTIVITY LOG]
NPOLSWS .V/V   : NEUTRON POROSITY LIMESTONE [NPHISSED CONVERTED TO LIMESTONE MATRIX, SPL. TO NPHILSED @ 8990' ]
RHOBED  .G/C3  : BULK DENSITY  FROM DENSITY LOG [ADJ. TO RESISTIVITY LOG]
SFLED   .OHMM  : SPHERICALLY FOCUSED RESISTIVITY FROM RESISTIVITY LOG
SPRED   .MV    : SPONTANEOUS POTENTIAL FROM RESISTIVITY LOG
SPWS    .MV    : SPONTANEOUS POTENTIAL [BASELINE 0 MV,SPRED]
SRESWS  .OHMM  : SHALLOW RESISTIVITY [LL8ED SPL. TO SFLED @ 8997']
~Params ----------------------------------------------------
PD  .                     GL : PERMANENT DATUM
EPD .FT               101.84 : ELEVATION PERMANENT DATUM
LMF .                     KB : LOG MEASURED FROM
DAPD.FT                 6.22 : FEET ABOVE PERMANENT DATUM
DMF .                     KB : DRILLING MEASURED FROM
EKB .FT              1017.06 : KELLY BUSHING
EGL .FT              1010.84 : GROUND LEVEL
DATE.               08/07/78 : RUN DATE
RUN .                      3 : RUN NUMBER
DD  .FT               3846.6 : DEPTH DRILLER
DL  .FT                 3846 : DEPTH LOGGER
BLI .FT                 3845 : BOTTOM LOG INTERVAL
TLI .FT                 3290 : TOP LOG INTERVAL
CBD .FT                 2742 : CASING BOTTOM DRILLER
CBL .FT                 2741 : CASING BOTTOM LOGGER
BS  .MM                  216 : BIT SIZE
BSD .FT               3846.6 : BIT SIZE AT DEPTH
RMF .OHMM               1.36 : RESISTIVITY MUD FILTRATE SAMPLE
MFST.DEGF               22.2 : MUD FILTRATE SAMPLE TEMPERATURE
RMC .OHMM               0.94 : RESISTIVITY MUD CAKE
MCST.DEGF               24.4 : MUD CAKE SAMPLE TEMPERATURE
LUN .                   7809 : LOGGING UNIT NUMBER
LUL .                    EDM : LOGGING UNIT LOCATION
ENGI.            GUNN DRONEN : RECORDING ENGINEER
WITN.                CULSHAW : WITNESSED BY
CLNT.                A2DTECH : CLIENT CODE
ORIG.            2" 5" PRINT : ORIGIN OF DATA
UWI .       100062005015W500 : UNIQUE WELL ID
DICO. A2D Technologies, Inc. : DIGITIZING COMPANY
~Other -----------------------------------------------------
DIL-SFL/CNFD/BCS LOG RAN
SPRED HAS GAPS AT MANY INTERVAL DUE TO NOT VISIBILITY OF SP IN PRINT
GR RAN RAN THROUGH CASING FROM 8980'-9000' SO GRWS ADDED +10 API.
NEUTRON MATRIX CONVERSION FOR LIMESTONE USING SCHLUMBERGER CHART
MUD CONTAIN BARITE
~ASCII -----------------------------------------------------
# ...
 5100.00000   17.00840   13.23090   13.23090   73.98150   -0.06340   -0.06340    1.84400    -999.25    0.48940    0.50650   13.51690   85.71460   85.71460   54.67840   60.62830   54.67840   13.51690   12.10820   12.89770   12.10820    -999.25    0.45760    0.41610    1.84400    -999.25  -53.54880   -3.77070   12.89770
 5150.00000   17.01350   13.43910   13.43910   67.69560   -0.07920   -0.07920    1.61000    -999.25    0.59170    0.64330   14.77200   86.42150   86.42150   50.80980   56.99230   50.80980   14.77200   11.21360   13.02970   11.21360    -999.25    0.44710    0.40530    1.61000    -999.25  -55.53100   -5.64960   13.02970
 5200.00000   16.99410   13.99150   13.99150   42.45460   -0.09110   -0.09110    1.66140    -999.25    0.56840    0.61320   23.55460   75.88870   75.88870   40.45890   48.57420   40.45890   23.55460   16.59700   13.98670   16.59700    -999.25    0.44170    0.39980    1.66140    -999.25  -54.30970   -4.32440   13.98670
 5250.00000   14.78610   12.83340   12.83340   21.21430    0.06840    0.06840    2.26730    -999.25    0.22910    0.25890   47.13800   70.23990   70.23990   30.60570   34.42560   30.60570   47.13800   41.24330   51.09050   41.24330    -999.25    0.20280    0.15930    2.26730    -999.25  -78.56100  -28.47250   51.09050
 5300.00000   16.74170   13.99410   13.99410   66.00510   -0.08950   -0.08950    1.72780    -999.25    0.53720    0.57440   15.15070   88.64250   88.64250   42.48870   43.97970   42.48870   15.15070   10.84290   13.33100   10.84290    -999.25    0.52540    0.48700    1.72780    -999.25  -56.12720   -5.93560   13.33100
 5350.00000   12.71170   12.57080   12.57080   17.02380    0.04640    0.04640    2.67780    -999.25   -0.00050    0.01880   58.74140   64.15510   64.15510   39.77380   40.65020   39.77380   58.74140   49.55490   76.64830   49.55490    -999.25    0.17150    0.12850    2.67780    -999.25  -64.34870  -14.05320   76.64830
 5400.00000   16.58430   12.86750   12.86750   53.29980    0.01580    0.01580    2.16100    -999.25    0.29340    0.32110   18.76180   75.17910   75.17910   52.04300   66.81450   52.04300   18.76180   19.84580   21.97050   19.84580    -999.25    0.28850    0.24450    2.16100    -999.25  -56.17520   -5.77640   21.97050
 5450.00000   17.01470   13.29930   13.29930   82.42390   -0.03640   -0.03640    2.02630    -999.25    0.37340    0.39980   12.13240   81.43650   81.43650   60.86650   61.98470   60.86650   12.13240   12.55810   14.10900   12.55810    -999.25    0.37300    0.32970    2.02630    -999.25  -57.17220   -6.66960   14.10900
 5500.00000   17.01630   13.46380   13.46380   67.69840   -0.01790   -0.01790    2.07980    -999.25    0.34360    0.36850   14.77140   79.26470   79.26470   76.12240   77.86420   76.12240   14.77140   15.35240   19.24890   15.35240    -999.25    0.29110    0.24710    2.07980    -999.25  -59.09890   -8.49300   19.24890
 5550.00000   16.50280   13.04590   13.04590   76.15410    0.03250    0.03250    2.52210    -999.25    0.07870    0.10990   13.13180   76.64560   76.64560   76.85540   83.90310   76.85540   13.13180   13.64000   14.98160   13.64000    -999.25    0.28940    0.24540    2.52210    -999.25  -59.92640   -9.21750   14.98160
 5600.00000   15.02540   12.64690   12.64690   61.45070    0.03870    0.03870    2.70040    -999.25    0.00030    0.00560   16.27320   74.58500   74.58500   67.73000   81.25230   67.73000   16.27320   17.05920   18.36460   17.05920    -999.25    0.26590    0.22190    2.70040    -999.25  -60.98560  -10.17270   18.36460
 5650.00000   16.73970   12.77680   12.77680   75.78920   -0.02570   -0.02570    2.01770    -999.25    0.37810    0.40490   13.19450   77.89200   77.89200   84.97430   97.81200   84.97430   13.19450   13.68960   15.41710   13.68960    -999.25    0.28020    0.23620    2.01770    -999.25  -60.98430  -10.06810   15.41710
 5700.00000   15.86550   12.97820   12.97820   69.09560    0.02690    0.02690    2.31470    -999.25    0.20490    0.23120   14.47270   74.83220   74.83220   75.54930   86.52000   75.54930   14.47270   14.97870   17.31800   14.97870    -999.25    0.28200    0.23800    2.31470    -999.25  -59.95370   -8.93370   17.31800
 5750.00000   15.37550   13.12720   13.12720   83.64770    0.02320    0.02320    2.55150    -999.25    0.05660    0.09270   11.95490   79.94610   79.94610   91.27020  101.08070   91.27020   11.95490   12.48330   14.18680   12.48330    -999.25    0.30790    0.26390    2.55150    -999.25  -59.10950   -7.98620   14.18680
 5800.00000   15.07450   13.01460   13.01460   72.40210    0.01980    0.01980    2.50910    -999.25    0.08600    0.11750   13.81180   81.64630   81.64630   91.32110   97.11380   91.32110   13.81180   14.28620   17.41400   14.28620    -999.25    0.31970    0.27580    2.50910    -999.25  -57.50750   -6.28110   17.41400
 5850.00000   15.17250   12.99060   12.99060   70.14200    0.06870    0.06870    2.64860    -999.25   -0.00020    0.03590   14.25680   82.85150   82.85150   93.89630  103.66600   93.89630   14.25680   14.90840   19.06380   14.90840    -999.25    0.32540    0.28150    2.64860    -999.25  -56.59050   -5.26030   19.06380
 5900.00000   13.66600   12.85150   12.85150   56.96840    0.07670    0.07670    2.64400    -999.25    0.00660    0.03860   17.55360   80.65610   80.65610   90.80800  102.72930   90.80800   17.55360   18.18720   22.88200   18.18720    -999.25    0.26030    0.21630    2.64400    -999.25  -56.97920   -5.54570   22.88200
 5950.00000   14.38650   13.24100   13.24100   83.78370    0.07200    0.07200    2.65570    -999.25   -0.00720    0.03180   11.93550   80.21520   80.21520   92.34790   94.66500   92.34790   11.93550   12.41130   15.15100   12.41130    -999.25    0.29700    0.25300    2.65570    -999.25  -58.85340   -7.31600   15.15100
 6000.00000   16.94780   13.87220   13.87220  102.16900    0.03440    0.03440    2.56910    -999.25    0.04590    0.08240    9.78770   83.40890   83.40890   87.39150   92.79630   87.39150    9.78770   10.12360   12.08480   10.12360    -999.25    0.31040    0.26650    2.56910    -999.25  -57.68320   -6.04250   12.08480
 6050.00000   16.81540   13.93720   13.93720   92.29130    0.07130    0.07130    2.55210    -999.25    0.06210    0.09240   10.83530   81.39390   81.39390   77.41980   85.40070   77.41980   10.83530   11.57000   13.33080   11.57000    -999.25    0.33300    0.28920    2.55210    -999.25  -57.01750   -5.27380   13.33080
 6100.00000   16.35140   13.52620   13.52620  119.54430    0.06210    0.06210    2.56270    -999.25    0.05380    0.08610    8.36510   78.96090   78.96090   78.68490   94.86680   78.68490    8.36510    8.74670   10.07810    8.74670    -999.25    0.32620    0.28230    2.56270    -999.25  -60.30910   -8.46150   10.07810
 6150.00000   14.19190   13.84700   13.84700  126.80540    0.00430    0.00430    2.28640    -999.25    0.22490    0.24770    7.88610   76.82430   76.82430   68.03800   79.41460   68.03800    7.88610    8.45640    9.34120    8.45640    -999.25    0.42520    0.38290    2.28640    -999.25  -59.65220   -7.70130    9.34120
 6200.00000   14.67590   13.62180   13.62180  120.51390   -0.01120   -0.01120    2.06520    -999.25    0.35350    0.37710    8.29780   79.34900   79.34900   68.34600   91.26060   68.34600    8.29780    8.59470   10.29790    8.59470    -999.25    0.39770    0.35480    2.06520    -999.25  -60.23600   -8.18130   10.29790
 6250.00000   14.73870   13.56630   13.56630  123.83750   -0.04040   -0.04040    1.91060    -999.25    0.43500    0.46750    8.07510   78.96700   78.96700   81.64590   89.91730   81.64590    8.07510    8.69580   10.33340    8.69580    -999.25    0.39160    0.34860    1.91060    -999.25  -59.14250   -6.98450   10.33340
 6300.00000   14.57600   13.51900   13.51900   86.69180   -0.01700   -0.01700    2.15610    -999.25    0.29800    0.32390   11.53530   77.06270   77.06270   72.95330   81.23990   72.95330   11.53530   12.87260   13.63500   12.87260    -999.25    0.34430    0.30060    2.15610    -999.25  -60.32740   -8.06630   13.63500
