~Version ---------------------------------------------------
VERS.      2.0 : CWLS log ASCII Standard -VERSION 2.0
WRAP.       NO : One line per depth step
CREA. 08/31/17 : LAS Creation Date
~Well ------------------------------------------------------
STRT.FT                                       1500.0 : START DEPTH
STOP.FT                                      11100.0 : STOP DEPTH
STEP.FT                                     50.00000 : STEP LENGTH
NULL.                                        -999.25 : NULL VALUE
COMP. GREAT PLAINS DEVELOPMENT COMPANY OF CANADA LTD : COMPANY
WELL.                 GPD ET AL ROSEVEAR 10-14-54-16 : WELL
FLD .                                                : FIELD
LOC .                                                : LOCATION
CTRY.                                         CANADA : COUNTRY
SRVC.                                   Schlumberger : SERVICE COMPANY
DATE.                                    01-Feb-1978 : LOGDATE
PROV.                                        Alberta : PROVINCE
UWI .                               100101405416W500 : UNIQUE WELL ID
SLAT.WGS84                                  53.66484 : SURFACE LATITUDE
SLON.WGS84                                 -116.2439 : SURFACE LONGITUDE
~Curve Information -----------------------------------------
DEPT    .FT    : Depth Curve
CALDED  .IN    : CALIPER FROM DENSITY LOG
CALSED  .IN    : CALIPER FROM SONIC LOG [ADJ. TO RESISTIVITY LOG]
CALWS   .IN    : CALIPER [CALDED]
CONDWS  .MMHO  : CONDUCTIVITY [1000/DRESWS]
DCORWS  .G/C3  : DENSITY CORRECTION [DRHOED]
DENWS   .G/C3  : FORMATION BULK DENSITY [RHOBED]
DPHILSED.V/V   : DENSITY POROSITY LIME [M=2.71, F=1.0] FROM DENSITY LOG [ADJ. TO RHOBED]
DPHISSED.V/V   : DENSITY POROSITY SAND [M=2.65, F=1.0] FROM DENSITY LOG [ADJ. TO RHOBED]
DPOLSWS .V/V   : DENSITY POROSITY LIME [CALC FROM DENWS, M=2.71, F=1.0]
DRESWS  .OHMM  : DEEP RESISTIVITY [LLDED]
DRHOED  .G/C3  : DENSITY CORRECTION FROM DENSITY LOG
DTED    .US/F  : DELTA TIME FROM SONIC LOG [ADJ. TO RESISTIVITY LOG]
DTWS    .US/F  : COMPRESSIONAL SONIC [DTED]
GRDED   .GAPI  : GAMMA RAY FROM DENSITY LOG
GRSED   .GAPI  : GAMMA RAY FROM SONIC LOG [ADJ. TO RESISTIVITY LOG]
GRWS    .GAPI  : GAMMA RAY [GRSED]
LLDED   .OHMM  : LATEROLOG DEEP RESISTIVITY FROM RESISTIVITY LOG
LLSED   .OHMM  : LATEROLOG SHALLOW RESISTIVITY FROM RESISTIVITY LOG
NPHILSED.V/V   : NEUTRON POROSITY LIME FROM DENSITY LOG [ADJ. TO RHOBED]
NPOLSWS .V/V   : NEUTRON POROSITY LIME [SS MATRIX(SLB) CONVERTED TO LS, SPL. TO NPHILSED @ 7520']
NPORSSED.V/V   : NEUTRON POROSITY  SAND FROM DENSITY LOG [ADJ. TO RHOBED]
RHOBED  .G/C3  : BULK DENSITY FROM DENSITY LOG
SPRED   .MV    : SPONTANEOUS POTENTIAL FROM RESISTIVITY LOG
SPWS    .MV    : SPONTANEOUS POTENTIAL [BASELINE 0 MV, SPRED]
SRESWS  .OHMM  : SHALLOW RESISTIVITY [LLSED]
~Params ----------------------------------------------------
PD  .                     GL : PERMANENT DATUM
EPD .FT                 2743 : ELEVATION PERMANENT DATUM
LMF .                     KB : LOG MEASURED FROM
DAPD.FT                 21.4 : FEET ABOVE PERMANENT DATUM
EKB .FT               2764.4 : KELLY BUSHING
EGL .FT                 2743 : GROUND LEVEL
DATE.               02/01/78 : RUN DATE
RUN .                      1 : RUN NUMBER
DD  .FT                11140 : DEPTH DRILLER
DL  .FT                11134 : DEPTH LOGGER
BLI .FT                11133 : BOTTOM LOG INTERVAL
TLI .FT                 1512 : TOP LOG INTERVAL
CBD .FT                 1512 : CASING BOTTOM DRILLER
CBL .FT                 1512 : CASING BOTTOM LOGGER
BS  .IN                 8.75 : BIT SIZE
BSD .FT                11140 : BIT SIZE AT DEPTH
DFT .            KCL POLYMER : DRILLING FLUID TYPE
DFD .                    9.4 : DRILLING FLUID DENSITY
DFV .                     45 : DRILLING FLUID VISCOSITY
DFPH.                    9.5 : DRILLING FLUID PH
DFL .                     16 : DRILLING FLUID LOSS
RMS .OHMM              0.205 : RESISTIVITY MUD SAMPLE
MST .DEGF                 39 : MUD SAMPLE TEMPERATURE
RMF .OHMM              0.163 : RESISTIVITY MUD FILTRATE SAMPLE
MFST.DEGF                 38 : MUD FILTRATE SAMPLE TEMPERATURE
RMC .OHMM              0.032 : RESISTIVITY MUD CAKE
MCST.DEGF                118 : MUD CAKE SAMPLE TEMPERATURE
RMB .OHMM              0.032 : RESISTIVITY MUD AT BHT
TCS .HRS                   7 : TIME CIRCULATED STOPPED
LUN .                   7772 : LOGGING UNIT NUMBER
LUL .                    EDM : LOGGING UNIT LOCATION
ENGI.                BODYMAN : RECORDING ENGINEER
WITN.                  BATES : WITNESSED BY
CLNT.                A2DTECH : CLIENT CODE
ORIG.               5" PRINT : ORIGIN OF DATA
UWI .       100101405416W500 : UNIQUE WELL ID
DICO. A2D Technologies, Inc. : DIGITIZING COMPANY
~Other -----------------------------------------------------
~ASCII -----------------------------------------------------
# ...
 5700.00000    9.71020    9.60040    9.71020   77.00000    0.05650    2.64190    -999.25    0.00440    0.04000   13.00180    0.05650   84.22640   84.22640  130.62020  118.94410  118.94410   13.00180   15.36640    -999.25    0.30040    0.34410    2.64190  -84.90790   -2.19740   15.36640
 5750.00000   10.79290    9.59650   10.79290   81.41110    0.02740    2.61330    -999.25    0.01810    0.05430   12.28730    0.02740   83.73780   83.73780  123.24780  123.60330  123.60330   12.28730   14.73110    -999.25    0.24960    0.29360    2.61330  -84.49060   -2.03870   14.73110
 5800.00000   10.15290    9.62550   10.15290   69.04500    0.01770    2.62490    -999.25    0.01480    0.05070   14.48330    0.01770   85.21210   85.21210  124.64790  123.94400  123.94400   14.48330   16.51380    -999.25    0.29720    0.34090    2.62490  -85.35660   -3.16340   16.51380
 5850.00000    9.92230    9.61470    9.92230   73.81310    0.07170    2.61900    -999.25    0.02090    0.05190   13.58120    0.07170   84.32510   84.32510  121.81010  117.86120  117.86120   13.58120   18.01650    -999.25    0.31950    0.36300    2.61900  -87.15330   -5.22030   18.01650
 5900.00000    9.91980    9.56450    9.91980   39.93820    0.02700    2.58490    -999.25    0.04120    0.07720   25.03870    0.02700   88.33720   88.33720  131.36050  126.26140  126.26140   25.03870   31.48830    -999.25    0.31910    0.36260    2.58490  -87.28100   -5.60650   31.48830
 5950.00000   10.25370    9.99270   10.25370   86.14380    0.00270    2.60470    -999.25    0.03430    0.06270   11.60860    0.00270   88.39940   88.39940  123.00520  133.76350  133.76350   11.60860   13.55820    -999.25    0.34650    0.38950    2.60470  -84.74160   -3.32740   13.55820
 6000.00000   10.40360    9.76290   10.40360   47.92760    0.03000    2.54550    -999.25    0.06240    0.09620   20.88510    0.03000   95.06930   95.06930  124.41290  118.89990  118.89990   20.88510   25.06880    -999.25    0.35260    0.39560    2.54550  -86.63130   -5.47560   25.06880
 6050.00000   11.47960   10.94350   11.47960  126.10980    0.06300    2.59300    -999.25    0.03390    0.06910    7.92960    0.06300   79.92280   79.92280  106.43420  110.05490  110.05490    7.92960    8.46190    -999.25    0.28890    0.33270    2.59300  -82.86360   -1.96660    8.46190
 6100.00000   11.84360   10.59760   11.84360  124.98750    0.08310    2.58600    -999.25    0.03880    0.07210    8.00980    0.08310   82.40280   82.40280  110.45470  110.47690  110.47690    8.00980    9.57690    -999.25    0.32150    0.36490    2.58600  -82.74560   -2.10880    9.57690
 6150.00000   12.07760   10.66700   12.07760  170.84960    0.20090    2.35330    -999.25    0.17750    0.21220    5.85310    0.20090   79.52240   79.52240  112.91990  117.06100  117.06100    5.85310    6.37290    -999.25    0.33370    0.37700    2.35330  -82.22700   -1.84870    6.37290
 6200.00000   11.84110   10.65220   11.84110   99.55640    0.08100    2.64130    -999.25    0.00500    0.03940   10.05530    0.08100   75.53120   75.53120  105.28970  106.51690  106.51690   10.05530   11.42380    -999.25    0.27810    0.32190    2.64130  -83.51550   -3.39750   11.42380
 6250.00000   12.99100   11.01610   12.99100  106.32390    0.21570    2.50520    -999.25    0.08390    0.11860    9.40600    0.21570   79.66790   79.66790  114.18680  115.79820  115.79820    9.40600   10.16810    -999.25    0.29110    0.33490    2.50520  -83.19990   -3.34050   10.16810
 6300.00000   11.81950   10.50580   11.81950  104.25680    0.24920    2.41010    -999.25    0.14860    0.16920    9.59170    0.24920   85.40440   85.40440  109.30640  117.42330  117.42330    9.59170   10.85630    -999.25    0.29530    0.33900    2.41010  -80.78910   -1.18830   10.85630
 6350.00000   11.18660   10.23010   11.18660  126.92680    0.24520    2.46400    -999.25    0.11570    0.14590    7.88620    0.24520   89.43720   89.43720  141.11910  134.38730  134.38730    7.88620    9.68710    -999.25    0.29980    0.34350    2.46400  -85.28000   -5.93950    9.68710
 6400.00000   15.00000   12.99330   15.00000  226.17270    0.18660    1.96220    -999.25    0.41550    0.43390    4.42140    0.18660   92.79110   92.79110   98.31200   90.35350   90.35350    4.42140    4.54670    -999.25    0.46230    0.50400    1.96220  -78.18330    0.89870    4.54670
 6450.00000   12.35670    9.96250   12.35670  116.66020    0.21450    2.27530    -999.25    0.23030    0.25520    8.58670    0.21450   78.95140   78.95140  115.64420  113.33420  113.33420    8.58670    9.95130    -999.25    0.29140    0.33520    2.27530  -85.14230   -6.32050    9.95130
 6500.00000   10.86450    9.70640   10.86450   32.42420    0.25000    2.54790    -999.25    0.06680    0.09750   30.84130    0.25000   68.20520   68.20520   62.03110   55.74930   55.74930   30.84130   32.52820    -999.25    0.07300    0.11510    2.54790  -85.11990   -6.55670   32.52820
 6550.00000   15.00260   13.12700   15.00260  379.59310    0.06990    1.79440    -999.25    0.45000    0.53030    2.63440    0.06990  103.75100  103.75100   99.09360   98.38570   98.38570    2.63440    2.37980    -999.25    0.41730    0.45900    1.79440  -79.04880   -0.74420    2.37980
 6600.00000   10.11570    9.69440   10.11570   51.39040    0.02930    2.61100    -999.25    0.02270    0.06000   19.51570    0.02930   68.83700   68.83700   94.29040   88.63170   88.63170   19.51570   21.34180    -999.25    0.23890    0.28290    2.61100  -85.88070   -7.83640   21.34180
 6650.00000   10.52320    9.96510   10.52320   44.06840    0.03950    2.63920    -999.25    0.01320    0.03450   22.69200    0.03950   71.48810   71.48810   75.16210   68.44260   68.44260   22.69200   21.28660    -999.25    0.16740    0.21100    2.63920  -87.08870   -9.30290   21.28660
 6700.00000   11.16270   10.38500   11.16270   28.31940    0.05380    2.69400    -999.25   -0.02330    0.00770   35.50990    0.05380   61.65290   61.65290   70.06590   65.00400   65.00400   35.50990   26.21610    -999.25    0.14830    0.19160    2.69400  -89.51520  -11.98970   26.21610
 6750.00000   11.86020   12.11940   11.86020   28.54600    0.04740    1.59890    -999.25    0.45050    0.63780   36.74490    0.04740   99.45560   99.45560   66.02860   68.12960   68.12960   36.74490   27.23350    -999.25    0.50530    0.54700    1.59890  -87.70820  -10.44130   27.23350
 6800.00000   10.44030   10.27170   10.44030   55.14110    0.06310    2.65980    -999.25   -0.00550    0.02810   18.13530    0.06310   70.61730   70.61730  102.49990  100.24530  100.24530   18.13530   16.25300    -999.25    0.20640    0.25030    2.65980  -87.77960  -10.77130   16.25300
 6850.00000    9.81110    9.42130    9.81110    5.83320    0.01760    2.69440    -999.25   -0.02720    0.00920  172.24770    0.01760   50.63650   50.63650   54.30560   52.16060   52.16060  172.24770  172.28550    -999.25    0.02590    0.06250    2.69440  -87.37230  -10.62430  172.28550
 6900.00000   10.65030   10.07650   10.65030   74.53120    0.04350    2.57830    -999.25    0.04620    0.07460   13.41720    0.04350   67.75900   67.75900   51.64130   53.85980   53.85980   13.41720   12.09420    -999.25    0.14770    0.19100    2.57830  -80.94140   -4.45180   12.09420
 6950.00000   11.63610   10.69030   11.63610   38.15690    0.15340    2.56070    -999.25    0.05890    0.08910   26.21810    0.15340   71.63520   71.63520   88.54990   82.78180   82.78180   26.21810   19.39560    -999.25    0.26650    0.31040    2.56070  -83.89740   -7.66800   19.39560
 7000.00000   10.65890   10.22030   10.65890   14.02820    0.07650    1.61520    -999.25    0.45000    0.63020   82.10460    0.07650   86.90890   86.90890   37.17510   33.02740   33.02740   82.10460   89.85230    -999.25    0.56790    0.60960    1.61520  -84.35130   -8.38060   89.85230
 7050.00000    9.94840    9.60230    9.94840   35.81690    0.02870    2.58810    -999.25    0.03880    0.06800   27.91980    0.02870   73.20930   73.20930   98.65930  102.39380  102.39380   27.91980   30.65320    -999.25    0.22910    0.27310    2.58810  -82.55620   -6.84410   30.65320
