~Version ---------------------------------------------------
VERS. 2.0 : CWLS log ASCII Standard -VERSION 2.0
WRAP.  NO : ONE LINE PER DEPTH STEP
~Well ------------------------------------------------------
STRT.F                        1300.0 : START DEPTH
STOP.F                       12650.0 : STOP DEPTH
STEP.F                      50.00000 : STEP LENGTH
NULL.                        -999.25 : NULL VALUE
COMP.           PETROFINA CANADA LTD : COMPANY
WELL. FINA AMOCO HB MAYBERNE 10-11-5 : WELL
FLD .                                : FIELD
LOC .                                : LOCATION
CTRY.                         CANADA : COUNTRY
SRVC.                   Schlumberger : SERVICE COMPANY
DATE.                    03-Apr-1977 : LOGDATE
PROV.                        Alberta : PROVINCE
UWI .               100101105718W500 : UNIQUE WELL ID
SLAT.WGS84                  53.91479 : SURFACE LATITUDE
SLON.WGS84                 -116.5629 : SURFACE LONGITUDE
~Curve Information -----------------------------------------
DEPT   .F                 : 
ILD    .OHMM              : DEEP INDUCTION RESISTIVITY
ILM    .OHMM              : INDUCTION MEDIUM RESISTIVITY
LL8    .OHMM              : LATEROLOG-8 RESISTIVITY
SPR    .MV                : SPONTANEOUS POTENTIAL FROM RESISTIVITY
CALD   .IN   07 280 30 00 : DIFFERENTIAL CALIPER
DCOR   .G/C3              : DENSITY CORRECTION
GRD    .GAPI 45 310 01 00 : GAMMA RAY FROM FDC
RHOB   .G/C3 45 350 01 00 : HRDD HIGH RESOLUTION FORMATION DENSITY
NPHI_LS.DEC               : NEUTRON POROSITY LIMESTONE
GRS    .GAPI 00 000 00 01 : GAMMA RAY FROM SONIC
SPHI   .DEC               : SONIC POROSITY
DT     .US/F 60 520 00 00 : ACOUSTIC TRANSIT TIME SLOWNESS, DELTA T
CALS   .IN   60 280 50 00 : CALIPER FROM SONIC LOG
DPHI_LS.DEC  45 890 10 00 : DENSITY POROSITY LIMESTONE
DPHI_SS.DEC  45 890 12 00 : DENSITY POROSITY SANDSTONE
NPOR_SS.DEC               : ENCHANCED THERMAL NEUTRON POROSITY IN SELECTED LITHOLOGY SANDSTONE
~Params ----------------------------------------------------
PD  .                     GL : PERMANENT DATUM
EPD .FT                 4315 : ELEVATION PERMANENT DATUM
LMF .                     KB : LOG MEASURED FROM
DAPD.FT                   17 : FEET ABOVE PERMANENT DATUM
EKB .FT                 4322 : KELLY BUSHING
EGL .FT                 4315 : GROUND LEVEL
DATE.               04/03/77 : RUN DATE
RUN .                      1 : RUN NUMBER
DD  .FT                12670 : DEPTH DRILLER
DL  .FT                12672 : DEPTH LOGGER
BLI .FT                12669 : BOTTOM LOG INTERVAL
TLI .FT                 1324 : TOP LOG INTERVAL
CBD .FT                 1327 : CASING BOTTOM DRILLER
CBL .FT                 1324 : CASING BOTTOM LOGGER
BS  .IN                 8.75 : BIT SIZE
BSD .FT                12670 : BIT SIZE AT DEPTH
DFT .               GEL CHEM : DRILLING FLUID TYPE
DFD .                      9 : DRILLING FLUID DENSITY
DFV .                    130 : DRILLING FLUID VISCOSITY
DFPH.                     10 : DRILLING FLUID PH
MSS .               FLOWLINE : MUD SAMPLE SOURCE
RMS .OHMM                3.2 : RESISTIVITY MUD SAMPLE
MST .DEGF                 56 : MUD SAMPLE TEMPERATURE
RMF .OHMM               2.94 : RESISTIVITY MUD FILTRATE SAMPLE
MFST.DEGF                 62 : MUD FILTRATE SAMPLE TEMPERATURE
RMB .OHMM               0.88 : RESISTIVITY MUD AT BHT
TCS .HRS                   4 : TIME CIRCULATED STOPPED
LUN .                   7667 : LOGGING UNIT NUMBER
LUL .                    EDM : LOGGING UNIT LOCATION
ENGI.          CAMPBELL BIGG : RECORDING ENGINEER
WITN.         SANDERS DAVIES : WITNESSED BY
CLNT.                A2DTECH : CLIENT CODE
ORIG.            2" 5" PRINT : ORIGIN OF DATA
UWI .       100101105718W500 : UNIQUE WELL ID
DICO. A2D Technologies, Inc. : DIGITIZING COMPANY
~Other -----------------------------------------------------
~ASCII -----------------------------------------------------
# ...
 7750.00000   13.93430   17.49920   20.94790  -31.58390    9.95150    0.11010   63.27910    2.37780    -999.25   85.87060    0.08540   67.22230    9.30910    -999.25    0.18050    0.12710
 7800.00000   22.08690   26.93600   30.02140  -31.32990    9.80640    0.26370   83.61330    2.54780    -999.25   81.22010    0.08310   66.89690    9.32480    -999.25    0.06810    0.14350
 7850.00000   11.52470   14.97870   14.24400  -28.81130   10.54910    0.24270   89.51810    2.29140    -999.25  104.64380    0.12500   72.75660    9.61130    -999.25    0.22910    0.21620
 7900.00000    8.06010   10.42480    9.71210  -31.81730   11.43440    0.18990   96.36380    2.14210    -999.25   93.06670    0.10120   69.82880    9.98340    -999.25    0.29160    0.34090
 7950.00000   24.00020   44.77740  111.36020  -36.55910    9.04380   -0.02300   33.67270    2.67090    -999.25   48.20000    0.02860   58.96140    9.19990    -999.25   -0.00370    0.15260
 8000.00000   10.81070   14.70370   16.44910  -31.58300    9.63410   -0.00570   78.77430    2.57750    -999.25   85.02020    0.13220   73.75560    9.68340    -999.25    0.04510    0.25070
 8050.00000    6.77480    8.23650    8.59640  -31.23920   11.64450    0.20040   97.33850    2.02240    -999.25   92.10420    0.14420   75.48290   10.11660    -999.25    0.37040    0.32530
 8100.00000   11.44560   15.17870   14.62490  -37.69060    9.47060    0.02690  106.70520    2.52940    -999.25   97.77070    0.12470   72.74790    9.30510    -999.25    0.07160    0.24160
 8150.00000   12.83940   15.56420   15.13740  -42.79560    9.56080    0.01420   64.62950    2.41640    -999.25   90.74790    0.20780   84.18800    9.43470    -999.25    0.11310    0.34560
 8200.00000   14.11190   19.47650   17.34420  -39.02380    9.25830   -0.00170   65.28300    2.61150    -999.25   68.43590    0.07590   66.20440    9.21450    -999.25    0.04060    0.18010
 8250.00000   10.08530   13.23210   15.04600  -51.31080    9.27750   -0.00170   57.44050    2.53650    -999.25   58.49220    0.09980   69.67830    9.26770    -999.25    0.07600    0.20290
 8300.00000    8.01840   10.99860   13.23340  -35.05680   10.65280    0.17560   99.42610    2.17790    -999.25   94.79510    0.19520   82.20950   10.23990    -999.25    0.26130    0.42970
 8350.00000    9.43480   17.51440   22.78560  -97.38660    8.81650    0.04550   40.63180    2.46510    -999.25   41.41770    0.12010   72.26570    8.02160    -999.25    0.11420    0.24380
 8400.00000   17.64410   23.05690   24.02020  -47.10680    9.66750    0.10670   58.04590    2.59010    -999.25   59.66730    0.09010   68.14260    9.53350    -999.25    0.03240    0.15890
 8450.00000   16.74580   20.97610   18.20060  -34.57380   10.49930    0.20330   92.70550    2.50340    -999.25   97.55110    0.12890   73.33670    9.82850    -999.25    0.08870    0.23300
 8500.00000   12.81830   18.06290   21.41310  -34.13570   10.23350    0.07220  106.38130    2.59680    -999.25  116.14950    0.10950   70.55520    9.60760    -999.25    0.06650    0.22700
 8550.00000   15.16620   16.73610   20.57670  -31.30910   10.96810    0.21120  112.44120    2.28260    -999.25  106.50050    0.17980   80.10440    9.62760    -999.25    0.20010    0.28460
 8600.00000   20.30040   29.12860   26.07740  -50.38420    8.85480    0.01150   58.06720    2.49900    -999.25   58.43960    0.06140   64.92380    8.90010    -999.25    0.08690    0.15110
 8650.00000   33.40230   37.88180   47.06480  -55.67440   10.32800    0.25090   43.53180    2.08850    -999.25   43.54430    0.11900   72.32170    9.64370    -999.25    0.29520    0.14720
 8700.00000   22.99460   28.61500   32.89920  -36.91470   10.73700    0.21540   83.86210    2.08270    -999.25   88.83370    0.12480   72.69870    9.51720    -999.25    0.32040    0.21070
 8750.00000   13.26650   17.04760   15.53480  -31.51380   11.42210    0.23180  111.71990    2.19550    -999.25  100.37980    0.11350   71.66540    9.81110    -999.25    0.22260    0.28370
 8800.00000    8.29470   10.84370   10.16170  -30.37450   12.36130    0.18860   98.97310    2.00730    0.28480   93.58610    0.17290   78.89810   10.21630    0.34050    0.36910    0.35790
 8850.00000    4.11920    4.73950    5.60190  -29.01090    9.87230    0.23920  101.28860    2.30030    0.37630   98.23350    0.23450   83.40470   10.38270    0.26170    -999.25    -999.25
 8900.00000  419.72550  845.24970 1559.26000  -89.73560    8.64350   -0.00440   20.71110    2.57460    0.02160   19.09390    0.02570   53.91310    8.94630    0.08620    -999.25    -999.25
 8950.00000 1063.79880 1170.99980  281.64370 -131.33140    9.30940    0.07630   14.75510    2.58930    0.01260   15.53840    0.02490   53.26140    9.24330    0.06600    -999.25    -999.25
 9000.00000  302.92600  622.76900 1097.44470 -100.98260    8.78680   -0.00930   16.32300    2.59200    0.02790   16.87150    0.02680   54.04710    8.90520    0.07330    -999.25    -999.25
 9050.00000  412.77340 1169.53550 1438.45030  -74.24110    9.06620   -0.00230  300.37120    2.47330    0.18470  299.64510    0.14880   71.38280    9.33700    0.12590    -999.25    -999.25
 9100.00000   18.03230   22.65870   23.09140  -31.25780    9.18310    0.00400   95.27800    2.70050    0.09490   96.56250    0.06260   59.14010    9.41040    0.00650    -999.25    -999.25
 9150.00000   14.23990   22.21280  295.44220  -98.73790    8.77790    0.06240   39.84870    2.70480    0.12200   32.44010    0.00800   51.46090    8.72830    0.00680    -999.25    -999.25
 9200.00000   18.90140   27.79150   31.20130  -87.10220   10.98250    0.26340   31.33320    2.17250    0.11150   29.80770    0.04900   56.93920    9.18440    0.32460    -999.25    -999.25
 9250.00000   95.36600  143.08380  256.24710  -80.20320   10.58170    0.26640   24.59270    2.53770    0.03470   35.94410    0.02570   53.41210    9.28280    0.06490    -999.25    -999.25
 9300.00000   15.97010   24.35450   65.45080  -64.05040    9.47330    0.00670   35.69330    2.68130    0.10530   50.71340    0.06560   59.15560    9.21760    0.07600    -999.25    -999.25
 9350.00000  252.41970  936.10220 1482.90480  -80.31910    9.53720   -0.01010   10.36130    2.69390    0.00620   24.69870    0.00200   49.97790    9.20060    0.00860    -999.25    -999.25
 9400.00000   11.61300   31.17050  232.55100 -149.47890    8.25850    0.11210   15.62360    2.65480    0.11580   16.24770    0.03720   55.05350    7.50260    0.04490    -999.25    -999.25
 9450.00000  123.53030  526.84230 1542.93310 -122.32450    8.84640    0.05750   19.32730    2.38450    0.00910   16.98590    0.00410   50.87570    9.02810    0.20380    -999.25    -999.25
 9500.00000   13.28020   19.28990   35.96460  -11.80010    8.93860   -0.00060   94.76550    2.70220    0.09290   97.36200    0.05350   58.17300    9.09650   -0.00810    -999.25    -999.25
 9550.00000   25.98510   36.97270   42.57660  -19.09360    8.94990   -0.00500   86.98420    2.71820    0.07930   87.44490    0.03810   55.45960    8.89750   -0.00620    -999.25    -999.25
 9600.00000    7.56310   10.34590   12.50930  -39.85360    9.00560   -0.00670   74.31380    2.67300    0.11740   74.07100    0.06860   59.85380    9.16450    0.00950    -999.25    -999.25
 9650.00000   81.15780  126.34510  168.44380  -15.14820    9.18710    0.04920   43.20210    2.64760    0.05030   38.12430    0.02150   52.95200    8.99540    0.02240    -999.25    -999.25
 9700.00000  137.46810  135.68040  137.75860  -64.43610   10.20760    0.23340   13.47180    2.60160    0.01000   13.63120    0.01980   52.89590    9.08120    0.06050    -999.25    -999.25
 9750.00000   98.27000  302.25210 1492.77230 -140.00290    8.67960    0.00380    8.63080    2.60180    0.03110   11.70000    0.01430   52.11980    9.16610    0.07510    -999.25    -999.25
 9800.00000   27.27930   42.14480   70.98360  -30.46480   10.94210    0.26160   44.63070    2.62780    0.05690   47.24460    0.04060   55.71600    9.25580    0.04940    -999.25    -999.25
 9850.00000   20.92780   27.95460   45.69640   -6.74050    8.79800    0.00500   36.19830    2.67070    0.05580   40.25860    0.04400   56.13370    8.93440    0.02100    -999.25    -999.25
