~Version ---------------------------------------------------
VERS.      2.0 : CWLS log ASCII Standard -VERSION 2.0
WRAP.       NO : One line per depth step
CREA. 10/26/17 : LAS Creation Date
~Well ------------------------------------------------------
STRT.FT                    1300.0 : START DEPTH
STOP.FT                   12250.0 : STOP DEPTH
STEP.FT                  50.00000 : STEP LENGTH
NULL.                     -999.25 : NULL VALUE
COMP.  TEXACO EXPLORATION COMPANY : COMPANY
WELL. TEXACO MARLBORO 10-12-54-18 : WELL
FLD .                             : FIELD
LOC .                             : LOCATION
CTRY.                      CANADA : COUNTRY
SRVC.      Schlumberger of Canada : SERVICE COMPANY
DATE.                 04-Oct-1969 : LOGDATE
PROV.                     Alberta : PROVINCE
UWI .            100101205418W500 : UNIQUE WELL ID
SLAT.WGS84                53.6526 : SURFACE LATITUDE
SLON.WGS84               -116.514 : SURFACE LONGITUDE
~Curve Information -----------------------------------------
DEPT   .FT    : Depth Curve
CALDED .IN    : CALIPER FROM DENSITY LOG [DEP. ADJ. TO RESIST. LOG]
CALSED .IN    : CALIPER FROM SONIC LOG [DEP. ADJ. TO RESIST. LOG]
CALWS  .IN    : CALIPER [3734' CALSED 8553'CALDED]
CILDED .MMHO  : CONDUCTIVITY FROM RESISTIVITY LOG
CONDWS .MMHO  : CONDUCTIVITY [1000/DRESWS]
DCORWS .G/C3  : DENSITY CORRECTION [DRHOED]
DENWS  .G/C3  : BULK DENSITY [M=2.71, F=1.00 ASSUMED] [RHOBED]
DPOLSWS.V/V   : DENSITY POROSITY [M=2.71, F=1.00 ASSUMED] [CAL. FROM DENWS]
DRESWS .OHMM  : DEEP RESISTIVITY [1000/CILDED][READINGS >2000 ARE REDUCED TO 2000 OHMM]
DRHOED .G/C3  : DENSITY CORRECTION FROM DENSITY LOG [DEP. ADJ. TO RESIST. LOG]
DTED   .US/F  : DELTA TIME FROM SONIC LOG [DEP. ADJ. TO RESIST. LOG]
DTWS   .US/F  : DELTA TIME [DTED]
GRDED  .GAPI  : GAMMA RAY FROM DENSITY LOG [DEP. ADJ. TO RESIST. LOG]
GRSED  .GAPI  : GAMMA RAY FROM SONIC LOG [DEP. ADJ. TO RESIST. LOG]
GRWS   .GAPI  : GAMMA RAY [3734' GRSED 8556' GRDED]
ILDED  .OHMM  : INDUCTION LOG DEEP RESISTIVITY
RHOBED .G/C3  : BULK DENSITY FROM DENSITY LOG [DEP. ADJ. TO RESIST. LOG]
SNED   .OHMM  : 16 INCH SHORT NORMAL RESISTIVITY FROM IEL
SPRED  .MV    : SPONTANEOUS POTENTIAL FROM RESISTIVITY LOG
SPWS   .MV    : SPONTANEOUS POTENTIAL [BASELINE 0 MV] [SPRED]
SRESWS .OHMM  : SHALLOW RESISTIVITY [SNED]
~Params ----------------------------------------------------
PD  .                     GL : PERMANENT DATUM
EPD .FT               3162.6 : ELEVATION PERMANENT DATUM
LMF .                     KB : LOG MEASURED FROM
DAPD.FT                 13.7 : FEET ABOVE PERMANENT DATUM
EKB .FT               3179.3 : KELLY BUSHING
EGL .FT               3165.6 : GROUND LEVEL
DATE.               11/18/69 : RUN DATE
RUN .                      1 : RUN NUMBER
DD  .FT                12259 : DEPTH DRILLER
DL  .FT                12263 : DEPTH LOGGER
BLI .FT                12262 : BOTTOM LOG INTERVAL
TLI .FT                 8816 : TOP LOG INTERVAL
CBD .FT                 1266 : CASING BOTTOM DRILLER
CBL .FT                 1264 : CASING BOTTOM LOGGER
BSD .FT                12259 : BIT SIZE AT DEPTH
DFT .               GEL CHEM : DRILLING FLUID TYPE
DFD .                   10.5 : DRILLING FLUID DENSITY
DFV .                     60 : DRILLING FLUID VISCOSITY
DFPH.                      9 : DRILLING FLUID PH
DFL .                    6.8 : DRILLING FLUID LOSS
RMS .OHMM               1.58 : RESISTIVITY MUD SAMPLE
MST .DEGF                 68 : MUD SAMPLE TEMPERATURE
RMF .OHMM               1.05 : RESISTIVITY MUD FILTRATE SAMPLE
MFST.DEGF                 66 : MUD FILTRATE SAMPLE TEMPERATURE
RMC .OHMM               1.92 : RESISTIVITY MUD CAKE
MCST.DEGF                 68 : MUD CAKE SAMPLE TEMPERATURE
RMB .OHMM               0.47 : RESISTIVITY MUD AT BHT
TCS .HRS                 2.5 : TIME CIRCULATED STOPPED
LUN .                   7502 : LOGGING UNIT NUMBER
LUL .                    EDM : LOGGING UNIT LOCATION
ENGI.                 SLADEN : RECORDING ENGINEER
WITN.               BRYNLUND : WITNESSED BY
CLNT.                A2DTECH : CLIENT CODE
ORIG.            2" 5" PRINT : ORIGIN OF DATA
UWI .       100101205418W500 : UNIQUE WELL ID
DICO. A2D Technologies, Inc. : DIGITIZING COMPANY
~Other -----------------------------------------------------
~ASCII -----------------------------------------------------
# ...
 11200.00000    9.12130    9.02860    9.12130   65.87130   65.87130    0.05060    2.71080   -0.00040   15.18110    0.05060   62.92460   62.92460   80.19310   79.86160   83.13990   15.31250    2.71080   19.28020  -33.80380  -28.60870   19.28020
 11250.00000    8.68900    8.96820    8.68900   57.54870   57.54870    0.02620    2.69770    0.00720   17.37660    0.02620   61.14390   61.14390   85.10940   87.47880   84.81540   17.77650    2.69770   22.32330  -13.03960   -7.84450   22.32330
 11300.00000   12.42210   10.01820   12.42210  113.89470  113.89470    0.12510    2.25380    0.26680    8.78000    0.12510   71.45660   71.45660  108.15980  121.14260  109.32960    8.89190    2.25380   11.33620  -11.75800   -6.56290   11.33620
 11350.00000   10.92940    9.25770   10.92940   81.84280   81.84280    0.18080    2.61340    0.05650   12.21850    0.18080   68.66190   68.66190  107.17710  111.52430  107.48370   12.42890    2.61340   15.69720  -10.90500   -5.70990   15.69720
 11400.00000   11.82420    9.54910   11.82420   96.66420   96.66420    0.18380    2.55610    0.09000   10.34510    0.18380   70.77190   70.77190  120.98280  116.86980  121.54740   10.42960    2.55610   13.19880   -8.97470   -3.77960   13.19880
 11450.00000   12.25630   11.47560   12.25630  109.37690  109.37690    0.19710    2.49840    0.12370    9.14270    0.19710   70.77590   70.77590   98.06660  107.72700  101.73690    9.26760    2.49840   10.68060  -26.59140  -17.40210   10.68060
 11500.00000   12.10470    9.56610   12.10470  100.09040  100.09040    0.22460    2.63350    0.04470    9.99100    0.22460   71.58910   71.58910  105.40410  110.83460  104.88880   10.15740    2.63350   12.18220  -17.80490   -3.94550   12.18220
 11550.00000   12.47820   12.32410   12.47820   96.28250   96.28250    0.10790    2.15020    0.32740   10.38610    0.10790   83.68210   83.68210  128.55000  125.09430  127.61370   10.65430    2.15020   14.05180  -39.12130  -20.59170   14.05180
 11600.00000    9.96020    9.50340    9.96020   11.46890   11.46890    0.15020    2.39640    0.18340   87.19230    0.15020   55.69880   55.69880   69.71320   73.57520   78.13870   86.28900    2.39640  192.91180  -30.27650   -9.71910  192.91180
 11650.00000   10.40860    9.07350   10.40860    4.69730    4.69730    0.15500    2.49680    0.12470  212.88830    0.15500   52.22100   52.22100   28.36090   32.87580   26.41890  269.55580    2.49680  243.85440  -78.60090  -58.04350  243.85440
 11700.00000    8.54500    7.99150    8.54500   17.26660   17.26660    0.02730    2.81820   -0.06330   57.91530    0.02730   48.55120   48.55120   18.64840   17.45070   18.87080   58.56820    2.81820  131.38530 -130.49790 -109.94050  131.38530
 11750.00000    7.55940    8.18840    7.55940   65.02340   65.02340    0.15280    2.46890    0.14100   15.37910    0.15280   60.96720   60.96720   22.55800   21.70450   22.22330   16.01090    2.46890   35.43320 -130.57190 -110.01450   35.43320
 11800.00000    7.57670    7.95440    7.57670   20.44060   20.44060    0.14720    2.74320   -0.01940   48.92220    0.14720   49.24070   49.24070   17.99700   18.07010   18.10050   49.90600    2.74320   90.19000 -151.57560 -131.01820   90.19000
 11850.00000    8.31200    8.39960    8.31200    7.02200    7.02200    0.17470    2.58580    0.07260  142.40960    0.17470   51.02170   51.02170   21.41780   18.43350   21.71020  170.40660    2.58580  210.30120 -142.69690 -122.13950  210.30120
 11900.00000    7.48070    7.72720    7.48070   10.06830   10.06830    0.21580    2.59010    0.07010   99.32160    0.21580   45.68310   45.68310   22.43320   20.45590   23.11570  109.37700    2.59010  140.02510 -136.25540 -115.69800  140.02510
 11950.00000   10.11180    9.19750   10.11180    5.25210    5.25210    0.08460    2.57490    0.07900  190.40000    0.08460   48.81890   48.81890   25.56690   20.06420   24.04400  227.80000    2.57490  350.94810 -130.55050 -109.99310  350.94810
 12000.00000    9.56850    8.85220    9.56850    7.45460    7.45460    0.17360    2.58800    0.07130  134.14540    0.17360   48.95030   48.95030   28.09450   25.69600   27.17370  149.70290    2.58800  274.90190 -113.69340  -93.13600  274.90190
 12050.00000   10.51350    9.04310   10.51350   11.77600   11.77600    0.15640    2.59220    0.06890   84.91850    0.15640   48.69510   48.69510   18.59630   17.43660   19.36100   84.82070    2.59220  312.12600  -83.11110  -62.55370  312.12600
 12100.00000    9.82060    9.03600    9.82060   10.31550   10.31550    0.16530    2.45530    0.14890   96.94150    0.16530   50.68470   50.68470   19.87910   18.94960   19.38650   99.80410    2.45530  314.83790  -73.94620  -53.38880  314.83790
 12150.00000    8.89850    8.75970    8.89850    8.11100    8.11100    0.18090    2.67470    0.02060  123.28940    0.18090   47.73580   47.73580   17.70040   18.85820   18.84120  138.28680    2.67470  182.00970  -50.60500  -30.04760  182.00970
 12200.00000   10.18870    8.82220   10.18870   10.52680   10.52680    0.21060    2.56090    0.08720   94.99560    0.21060   51.89440   51.89440   63.17550   70.28160   65.51810   97.81950    2.56090  120.85030  -76.22930  -55.67190  120.85030
 12250.00000   11.87590    9.97050   11.87590    9.94480    9.94480    0.13900    2.32500    0.22510  100.55510    0.13900   49.16650   49.16650    -999.25    -999.25    -999.25  109.79830    2.32500  202.70800 -130.71510 -110.15770  202.70800
