~Version ---------------------------------------------------
VERS.      2.0 : CWLS log ASCII Standard -VERSION 2.0
WRAP.       NO : One line per depth step
CREA. 11/13/17 : LAS Creation Date
~Well ------------------------------------------------------
STRT.FT                     900.0 : START DEPTH
STOP.FT                   12300.0 : STOP DEPTH
STEP.FT                  50.00000 : STEP LENGTH
NULL.                     -999.25 : NULL VALUE
COMP.        TALISMAN ENERGY INC. : COMPANY
WELL. TRIAD C&E DEBOLT 11-11-68-3 : WELL
FLD .                          WC : FIELD
LOC .                             : LOCATION
CTRY.                      CANADA : COUNTRY
SRVC.      Schlumberger of Canada : SERVICE COMPANY
DATE.                 22-Oct-1959 : LOGDATE
PROV.                     Alberta : PROVINCE
UWI .            100111106803W600 : UNIQUE WELL ID
SLAT.WGS84          54.8741972951 : SURFACE LATITUDE
SLON.WGS84        -118.3466714855 : SURFACE LONGITUDE
~Curve Information -----------------------------------------
DEPT  .FT         : Depth Curve
CALWS .IN         : CALIPER [MCALED]
CILDED.MMHO       : CONDUCTIVITY FROM RESISTIVITY LOG
CONDWS.MMHO       : CONDUCTIVITY [1000/DRESWS]
DRESWS.OHMM       : DEEP RESISTIVITY [1000/CILDED IF 1LDED<5 ,ILDED]
GRNED .UgRa-Eq/T  : GAMMA RAY  FROM GRN LOG  [ADJ. TO RESISTIVITY]
GRWS  .GAPI       : GAMMA RAY [GRNED*16.5 TO CONVERT TO GAPI]
ILDED .OHMM       : DEEP INDUCTION FROM RESISTIVITY LOG
MCALED.IN         : CALIPER FROM MICROLOG
NEUTED.CPS        : NEUTRON FROM GRN LOG [ADJ. TO RESISTIVITY]
NEUTWS.CPS        : NEUTRON [NEUTED]
SNED  .OHMM       : SHORT NORMAL FROM RESISTIVITY LOG
SPRED .MV         : SPONTANEOUS POTENTIAL FROM RESISTIVITY LOG
SPWS  .MV         : SPONTANEOUS POTENTIAL [BASELINE 0 MV,SPRED]
SRESWS.OHMM       : SHALLOW RESISTIVITY [SNED]
~Params ----------------------------------------------------
LMF .                     KB : LOG MEASURED FROM
DMF .                     KB : DRILLING MEASURED FROM
EKB .FT                 2343 : KELLY BUSHING
DATE.               10/22/59 : RUN DATE
RUN .                      2 : RUN NUMBER
DD  .FT                12312 : DEPTH DRILLER
DL  .FT                12312 : DEPTH LOGGER
BLI .FT                12304 : BOTTOM LOG INTERVAL
TLI .FT                 7822 : TOP LOG INTERVAL
BS  .IN                    9 : BIT SIZE
BSD .FT                12312 : BIT SIZE AT DEPTH
DFT .              LIME BASE : DRILLING FLUID TYPE
DFD .                     10 : DRILLING FLUID DENSITY
DFV .                    164 : DRILLING FLUID VISCOSITY
DFPH.                   12.5 : DRILLING FLUID PH
DFL .                     12 : DRILLING FLUID LOSS
RMS .OHMM               0.72 : RESISTIVITY MUD SAMPLE
MST .DEGF                 88 : MUD SAMPLE TEMPERATURE
RMF .OHMM               0.46 : RESISTIVITY MUD FILTRATE SAMPLE
MFST.DEGF                 78 : MUD FILTRATE SAMPLE TEMPERATURE
RMC .OHMM               1.49 : RESISTIVITY MUD CAKE
MCST.DEGF                 78 : MUD CAKE SAMPLE TEMPERATURE
RMB .OHMM                0.3 : RESISTIVITY MUD AT BHT
TCS .HRS                   5 : TIME CIRCULATED STOPPED
LUN .                 1573WC : LOGGING UNIT NUMBER
ENGI.              HAUSEGGER : RECORDING ENGINEER
WITN.              HENDERSON : WITNESSED BY
CLNT.                A2DTECH : CLIENT CODE
ORIG.            2" 5" PRINT : ORIGIN OF DATA
UWI .       100111106803W600 : UNIQUE WELL ID
DICO. A2D Technologies, Inc. : DIGITIZING COMPANY
~Other -----------------------------------------------------
IEL-ML-GRN LOG RAN
ALL RESISTIVITY CURVES 2" (FROM TOP TO 2477'] ON LOG IMAGE
~ASCII -----------------------------------------------------
  900.00000   13.33850  162.26870  163.65540    6.11040    -999.25    -999.25    6.11040   13.33850    -999.25    -999.25    7.15580  -57.61810   -0.83550    7.15580
  950.00000   13.71730  245.94240  245.94240    4.06600    -999.25    -999.25    4.49700   13.71730    -999.25    -999.25    5.22980  -57.21260   -0.36270    5.22980
 1000.00000   15.69820  249.08770  249.08770    4.01470    -999.25    -999.25    4.33830   15.69820    -999.25    -999.25    4.79010  -58.37790   -1.46080    4.79010
 1050.00000    8.76980  111.06550   92.38350   10.96020    -999.25    -999.25   10.55360    8.76980    -999.25    -999.25   10.38450  -62.92400   -5.94010   10.38450
 1100.00000   10.88270  247.28540  247.28540    4.04390    -999.25    -999.25    4.40660   10.88270    -999.25    -999.25    4.81750  -59.48900   -2.43750    4.81750
 1150.00000   15.70700  310.99140  310.99140    3.21550    -999.25    -999.25    3.44560   15.70700    -999.25    -999.25    4.24940  -60.15440   -3.03570    4.24940
 1200.00000   13.06510  381.98010  381.98010    2.61790    -999.25    -999.25    3.16090   13.06510    -999.25    -999.25    3.51420  -59.03770   -1.85180    3.51420
 1250.00000   15.64980  261.82840  261.82840    3.81930    -999.25    -999.25    4.20550   15.64980    -999.25    -999.25    4.82410  -59.62920   -2.37610    4.82410
 1300.00000    8.93390   58.10370   61.12570   16.35980    -999.25    -999.25   16.36450    8.93390    -999.25    -999.25   17.15980  -69.71450  -12.39450   17.15980
 1350.00000    9.94090  275.47730  275.47730    3.63010    -999.25    -999.25    4.41110    9.94090    -999.25    -999.25    4.91790  -58.60210   -1.21460    4.91790
 1400.00000   10.22390  182.39990  157.12890    6.36420    -999.25    -999.25    6.36420   10.22390    -999.25    -999.25    7.41640  -61.35240   -3.89770    7.41640
 1450.00000   10.61250  153.25070  140.98410    7.09300    -999.25    -999.25    7.09300   10.61250    -999.25    -999.25    7.69350  -59.76730   -2.24540    7.69350
 1500.00000   12.38130  192.75160  187.56800    5.33140    -999.25    -999.25    5.33140   12.38130    -999.25    -999.25    5.94740  -59.05300   -1.46390    5.94740
 1550.00000   10.15980  132.67570  133.73650    7.49130    -999.25    -999.25    7.39580   10.15980    -999.25    -999.25    8.59850  -60.74380   -3.08780    8.59850
 1600.00000    8.76780   57.42630   53.76080   18.60090    -999.25    -999.25   18.60090    8.76780    -999.25    -999.25   20.77500  -68.27720  -10.55370   20.77500
 1650.00000    9.57260   96.03070   92.55830   10.80400    -999.25    -999.25   10.80400    9.57260    -999.25    -999.25   12.43650  -61.18680   -3.39600   12.43650
 1700.00000   10.96410  167.97550  160.93470    6.21370    -999.25    -999.25    6.21370   10.96410    -999.25    -999.25    6.84570  -58.55050   -0.69260    6.84570
 1750.00000   15.67280  229.99340  229.99340    4.34800    -999.25    -999.25    4.72720   15.67280    -999.25    -999.25    5.24680  -57.85870    0.06640    5.24680
 1800.00000   11.28910  204.69770  198.84500    5.02900    -999.25    -999.25    5.02550   11.28910    -999.25    -999.25    5.54220  -58.43110   -0.43900    5.54220
 1850.00000    9.78320   85.13580   82.56750   12.11130    -999.25    -999.25   12.11130    9.78320    -999.25    -999.25   14.18570  -58.88280   -0.82320   14.18570
 1900.00000   10.09580  160.34030  159.84910    6.25590    -999.25    -999.25    6.25590   10.09580    -999.25    -999.25    7.58610  -58.73130   -0.60450    7.58610
 1950.00000   10.41350  148.50470  142.19690    7.03250    -999.25    -999.25    7.03250   10.41350    -999.25    -999.25    7.93980  -59.31030   -1.11630    7.93980
 2000.00000   15.90650  231.35450  231.35450    4.32240    -999.25    -999.25    4.53130   15.90650    -999.25    -999.25    5.99720  -59.00770   -0.74650    5.99720
 2050.00000    9.71840  159.98420  161.09580    6.21570    -999.25    -999.25    6.41940    9.71840    -999.25    -999.25    7.69610  -58.68610   -0.35810    7.69610
 2100.00000   13.24510  222.03040  222.03040    4.50390    -999.25    -999.25    4.63960   13.24510    -999.25    -999.25    5.44570  -59.13590   -0.74030    5.44570
 2150.00000   10.68110  209.20830  209.20830    4.77990    -999.25    -999.25    4.77220   10.68110    -999.25    -999.25    5.43360  -59.54450   -1.08170    5.43360
 2200.00000   11.37760  232.46280  232.46280    4.30180    -999.25    -999.25    4.79170   11.37760    -999.25    -999.25    5.41940  -59.87510   -1.34510    5.41940
 2250.00000    9.60520  101.81290   97.52670   10.25360    -999.25    -999.25   10.25360    9.60520    -999.25    -999.25   12.74420  -61.45800   -2.86080   12.74420
 2300.00000    9.75570  220.01340  196.83440    5.08100    -999.25    -999.25    5.06280    9.75570    -999.25    -999.25    5.41460  -59.33290   -0.66880    5.41460
 2350.00000   11.74160  185.06330  178.62250    5.59840    -999.25    -999.25    5.59840   11.74160    -999.25    -999.25    6.10520  -59.16200   -0.43040    6.10520
 2400.00000   12.09080   82.16330   79.65650   12.55390    -999.25    -999.25   12.55390   12.09080    -999.25    -999.25   13.22340  -59.91560   -1.11680   13.22340
 2450.00000   12.69460  100.56110   93.34980   10.71240    -999.25    -999.25   10.71240   12.69460    -999.25    -999.25   11.16370  -59.67440   -0.80830   11.16370
 2500.00000   12.88120  119.57520  109.63590    9.12110    -999.25    -999.25    9.12110   12.88120    -999.25    -999.25   10.36490  -59.67440   -0.74110   10.36490
 2550.00000   12.58460  113.46680  107.71600    9.28420    -999.25    -999.25    9.31360   12.58460    -999.25    -999.25   11.12890  -59.60160   -0.60150   11.12890
 2600.00000   12.59540  109.44040   97.81190   10.22370    -999.25    -999.25   10.22370   12.59540    -999.25    -999.25   12.76340  -59.06130    0.00640   12.76340
 2650.00000   12.41860  118.17270  109.53860    9.12920    -999.25    -999.25    9.12920   12.41860    -999.25    -999.25   10.41420  -59.15030   -0.01540   10.41420
 2700.00000   11.64320  159.51340  138.99700    7.19440    -999.25    -999.25    7.19440   11.64320    -999.25    -999.25    8.04300  -60.04420   -0.84220    8.04300
 2750.00000   13.38320  137.92460  127.49570    7.84340    -999.25    -999.25    7.84340   13.38320    -999.25    -999.25    8.32520  -60.06160   -0.79230    8.32520
 2800.00000   14.03280  140.00240  130.12430    7.68510    -999.25    -999.25    7.67630   14.03280    -999.25    -999.25    8.17810  -60.31200   -0.97580    8.17810
 2850.00000   15.46400  126.92980  116.41990    8.58960    -999.25    -999.25    8.58960   15.46400    -999.25    -999.25    8.92440  -59.85820   -0.45450    8.92440
 2900.00000   15.68750  119.65350  110.83530    9.02240    -999.25    -999.25    9.02240   15.68750    -999.25    -999.25    9.45800  -60.29800   -0.82710    9.45800
 2950.00000   13.93940  136.49140  124.16960    8.05350    -999.25    -999.25    8.05350   13.93940    -999.25    -999.25    8.37720  -60.33290   -0.79480    8.37720
 3000.00000   11.82850   63.50620   59.34930   16.84940    -999.25    -999.25   16.84940   11.82850    -999.25    -999.25   16.32790  -60.93220   -1.32690   16.32790
 3050.00000    8.77700   55.72420   51.87400   19.27820    -999.25    -999.25   19.38840    8.77700    -999.25    -999.25   20.96890  -84.80640  -26.24320   20.96890
 3100.00000   10.97650   69.44060   67.07180   14.90940    -999.25    -999.25   14.90940   10.97650    -999.25    -999.25   16.31210  -63.50270   -6.11740   16.31210
 3150.00000   12.54280   84.52350   83.15040   12.02640    -999.25    -999.25   12.02640   12.54280    -999.25    -999.25   12.37310  -59.12600   -2.42200   12.37310
 3200.00000   11.86260  114.66300  101.99500    9.80440    -999.25    -999.25    9.80440   11.86260    -999.25    -999.25   10.34350  -58.74010   -2.18600   10.34350
 3250.00000   12.66300  107.47250  103.50790    9.66110    -999.25    -999.25    9.66110   12.66300    -999.25    -999.25   10.20930  -58.96560   -2.56150   10.20930
 3300.00000   13.83600  110.23660  103.35860    9.67930    -999.25    -999.25    9.75380   13.83600    -999.25    -999.25   10.00630  -58.86960   -2.61450   10.00630
