~Version ---------------------------------------------------
VERS.      2.0 : CWLS log ASCII Standard -VERSION 2.0
WRAP.       NO : One line per depth step
CREA. 01/03/18 : LAS Creation Date
~Well ------------------------------------------------------
STRT.FT                         900.0 : START DEPTH
STOP.FT                        8550.0 : STOP DEPTH
STEP.FT                      50.00000 : STEP LENGTH
NULL.                         -999.25 : NULL VALUE
COMP.          APACHE OIL CORPORATION : COMPANY
WELL. APACHE CEGO KINAKIN 10-25-63-10 : WELL
FLD .                                 : FIELD
LOC .                                 : LOCATION
CTRY.                          CANADA : COUNTRY
SRVC.          Schlumberger of Canada : SERVICE COMPANY
DATE.                     29-Jun-1964 : LOGDATE
PROV.                         Alberta : PROVINCE
UWI .                100102506310W500 : UNIQUE WELL ID
SLAT.WGS84                   54.48135 : SURFACE LATITUDE
SLON.WGS84                  -115.3707 : SURFACE LONGITUDE
~Curve Information -----------------------------------------
DEPT  .FT    : Depth Curve
CALSED.IN    : CALIPER FROM SONIC LOG
CALWS .IN    : CALIPER [CALSED]
CILDED.MMHO  : CONDUCTIVITY FROM IEL LOG
CONDWS.MMHO  : CONDUCTIVITY [1000/DRESWS]
DRESWS.OHMM  : DEEP RESISTIVITY [ILDED] IF ILDED<5;1000/CILDED;ELSE ILDED
DTED  .US/F  : DELTA TIME FROM SONIC LOG
DTWS  .US/F  : DELTA TIME [DTED]
GRSED .GAPI  : GAMMA RAY FROM SONIC LOG
GRWS  .GAPI  : GAMMA RAY [GRSED]
ILDED .OHMM  : INDUCTION LOG DEEP RESISTIVITY FROM IEL LOG
SNED  .OHMM  : 16 INCH SHORT NORMAL RESISTIVITY FROM IEL LOG
SPRED .MV    : SPONTANEOUS POTENTIAL FROM IEL LOG SHIFTED
SPWS  .MV    : SPONTANEOUS POTENTIAL [BASELINE 0 MV] [SPRED]
SRESWS.OHMM  : SHALLOW RESISTIVITY [SNED]
~Params ----------------------------------------------------
PD  .                     GL : PERMANENT DATUM
EPD .FT                 3164 : ELEVATION PERMANENT DATUM
LMF .                     KB : LOG MEASURED FROM
DAPD.FT                   14 : FEET ABOVE PERMANENT DATUM
EKB .FT                 3178 : KELLY BUSHING
EGL .FT                 3164 : GROUND LEVEL
DATE.               06/29/64 : RUN DATE
RUN .                      1 : RUN NUMBER
DD  .FT                 8582 : DEPTH DRILLER
DL  .FT                 8591 : DEPTH LOGGER
BLI .FT                 8590 : BOTTOM LOG INTERVAL
TLI .FT                  895 : TOP LOG INTERVAL
CBD .FT                  895 : CASING BOTTOM DRILLER
CBL .FT                  895 : CASING BOTTOM LOGGER
BS  .IN                 8.75 : BIT SIZE
BSD .FT                 8582 : BIT SIZE AT DEPTH
DFT .                    GEL : DRILLING FLUID TYPE
DFD .                    8.8 : DRILLING FLUID DENSITY
DFV .                    130 : DRILLING FLUID VISCOSITY
DFPH.                    9.5 : DRILLING FLUID PH
DFL .                   10.4 : DRILLING FLUID LOSS
RMF .OHMM               1.53 : RESISTIVITY MUD FILTRATE SAMPLE
MFST.DEGF                 68 : MUD FILTRATE SAMPLE TEMPERATURE
RMC .OHMM               1.96 : RESISTIVITY MUD CAKE
MCST.DEGF                 68 : MUD CAKE SAMPLE TEMPERATURE
TCS .HRS                 2.5 : TIME CIRCULATED STOPPED
LUN .                   4508 : LOGGING UNIT NUMBER
LUL .                     RD : LOGGING UNIT LOCATION
ENGI.         KOKONIS HIPKIN : RECORDING ENGINEER
WITN.              CHOQUETTE : WITNESSED BY
CLNT.                A2DTECH : CLIENT CODE
ORIG.            2" 5" PRINT : ORIGIN OF DATA
UWI .       100102506310W500 : UNIQUE WELL ID
DICO. A2D Technologies, Inc. : DIGITIZING COMPANY
~Other -----------------------------------------------------
~ASCII -----------------------------------------------------
# ...
 3350.00000    -999.25    -999.25  118.42480  130.03390    7.69030    -999.25    -999.25    -999.25    -999.25    7.69030    6.58310  -26.50780  -12.25140    6.58310
 3400.00000    -999.25    -999.25  159.42450  161.77560    6.18140    -999.25    -999.25    -999.25    -999.25    6.18140    5.49870  -25.82710  -11.72400    5.49870
 3450.00000    -999.25    -999.25  163.05500  172.31280    5.80340    -999.25    -999.25    -999.25    -999.25    5.80340    5.66620  -24.10500  -10.15520    5.66620
 3500.00000    -999.25    -999.25  202.61190  202.61190    4.93550    -999.25    -999.25    -999.25    -999.25    4.89040    4.52350  -23.08130   -9.28470    4.52350
 3550.00000    -999.25    -999.25  170.64940  187.64340    5.32930    -999.25    -999.25    -999.25    -999.25    5.32930    6.37500  -24.79650  -11.15240    6.37500
 3600.00000    -999.25    -999.25  162.53620  177.60730    5.63040    -999.25    -999.25    -999.25    -999.25    5.63040    6.66580  -23.50610  -10.01600    6.66580
 3650.00000    -999.25    -999.25  129.30580  137.28530    7.28410    -999.25    -999.25    -999.25    -999.25    7.28410    9.77660  -24.38270  -11.04590    9.77660
 3700.00000    -999.25    -999.25  132.85840  144.27100    6.93140    -999.25    -999.25    -999.25    -999.25    6.93140    8.96280  -24.41560  -11.23210    8.96280
 3750.00000    -999.25    -999.25  230.46010  230.46010    4.33910    -999.25    -999.25    -999.25    -999.25    3.80870    4.39520  -23.56520  -10.53490    4.39520
 3800.00000    -999.25    -999.25  164.41380  188.78580    5.29730    -999.25    -999.25    -999.25    -999.25    5.29730    5.94700  -24.27640  -11.39860    5.94700
 3850.00000    -999.25    -999.25  201.32600  201.32600    4.96710    -999.25    -999.25    -999.25    -999.25    4.36290    5.20420  -21.90120   -9.17750    5.20420
 3900.00000    -999.25    -999.25  176.54620  190.51250    5.24900    -999.25    -999.25    -999.25    -999.25    5.24900    5.89730  -23.81030  -11.23980    5.89730
 3950.00000    -999.25    -999.25  229.88260  229.88260    4.35000    -999.25    -999.25    -999.25    -999.25    4.01010    4.70110  -22.38450   -9.96730    4.70110
 4000.00000    -999.25    -999.25  226.36310  226.36310    4.41770    -999.25    -999.25    -999.25    -999.25    3.95900    4.68090  -22.29920  -10.03530    4.68090
 4050.00000    -999.25    -999.25  425.68210  425.68210    2.34920    -999.25    -999.25    -999.25    -999.25    2.04950    2.63690  -19.33570   -7.22430    2.63690
 4100.00000   13.39560   13.39560  581.95440  581.95440    1.71830    -999.25    -999.25    -999.25    -999.25    1.60190    2.03810  -16.39860   -4.44120    2.03810
 4150.00000   11.20730   11.20730  280.89080  280.89080    3.56010   90.75720   90.75720   92.72460   92.72460    3.34640    3.78660  -17.84520   -6.04110    3.78660
 4200.00000   11.11370   11.11370  235.30450  235.30450    4.24980   98.10170   98.10170  103.38790  103.38790    4.43490    4.88460  -18.20840   -6.55750    4.88460
 4250.00000    9.54890    9.54890  134.40420  132.46090    7.54940   85.37150   85.37150   81.93580   81.93580    7.54940    8.33990  -23.02130  -11.52370    8.33990
 4300.00000   11.09800   11.09800  606.86490  606.86490    1.64800  201.22000  201.22000   96.63310   96.63310    1.30540    1.59100  -14.44090   -3.09580    1.59100
 4350.00000   11.16460   11.16460  168.13500  182.54170    5.47820  125.93150  125.93150   81.09380   81.09380    5.47820    8.40360  -20.91930   -9.76270    8.40360
 4400.00000    8.39290    8.39290  110.46510  107.05030    9.34140   80.79170   80.79170   58.21660   58.21660    9.34140   18.15020  -76.89260  -65.94220   18.15020
 4450.00000    9.93230    9.93230  136.24070  139.25250    7.18120   79.68830   79.68830   64.36710   64.36710    7.18120   10.03870  -23.01370  -12.26960   10.03870
 4500.00000   11.14920   11.14920  184.76230  190.86150    5.23940   78.96980   78.96980   56.74510   56.74510    5.23940    6.00160  -25.15470  -14.61680    6.00160
 4550.00000    9.38790    9.38790   73.66400   67.83940   14.74070  129.16180  129.16180   49.35520   49.35520   14.74070   17.59640  -24.67110  -14.33850   17.59640
 4600.00000   10.41710   10.41710  194.91570  194.12950    5.15120   83.56570   83.56570   81.04460   81.04460    5.15120    6.63890  -26.21360  -16.08820    6.63890
 4650.00000    8.53250    8.53250  139.33910  132.18770    7.56500   82.27800   82.27800   60.56130   60.56130    7.56500   14.25640  -68.15620  -58.23700   14.25640
 4700.00000   11.41540   11.41540  183.14210  189.35090    5.28120   83.36120   83.36120   83.30850   83.30850    5.28120    6.17630  -22.92230  -13.20940    6.17630
 4750.00000   11.00120   11.00120  206.87410  206.87410    4.83390   84.04800   84.04800   85.42790   85.42790    4.67740    6.74150  -30.61620  -21.10950    6.74150
 4800.00000   10.77780   10.77780  136.91740  143.02440    6.99370   81.60800   81.60800   81.50920   81.50920    6.99370    9.01900  -21.72720  -12.42580    9.01900
 4850.00000   11.09450   11.09450  140.34390  140.31540    7.12680   79.33670   79.33670   74.11420   74.11420    7.12680    7.59760  -20.01610  -10.92190    7.59760
 4900.00000   10.88530   10.88530  103.40780  100.55000    9.94530   83.68820   83.68820   61.11710   61.11710    9.94530   13.15180  -25.82380  -16.93590   13.15180
 4950.00000    8.81730    8.81730   76.88300   74.45460   13.43100   74.74450   74.74450   58.42820   58.42820   13.43100   23.44670  -46.30520  -37.62350   23.44670
 5000.00000    9.61300    9.61300  103.52400   98.22120   10.18110   77.71320   77.71320   81.62960   81.62960   10.18110   13.59920  -35.45510  -26.97970   13.59920
 5050.00000   11.96600   11.96600  102.75390  102.71840    9.73550   69.09320   69.09320   77.78920   77.78920    9.73550   12.34830  -20.28990  -12.01960   12.34830
 5100.00000    8.69210    8.69210   21.13300   19.10090   52.35360   56.15570   56.15570   15.06360   15.06360   52.35360  166.86360 -102.57070  -94.50780  166.86360
 5150.00000   11.22570   11.22570  186.89790  194.53740    5.14040   70.47400   70.47400   58.67020   58.67020    5.14040    9.52250  -49.48610  -41.62940    9.52250
 5200.00000   10.32370   10.32370  244.21030  244.21030    4.09480   69.12220   69.12220   64.69660   64.69660    4.13270    7.63350  -58.77130  -51.12090    7.63350
 5250.00000   10.58340   10.58340  280.51950  280.51950    3.56480   67.48930   67.48930   33.42190   33.42190    3.71930    9.83280  -98.41270  -90.96850    9.83280
 5300.00000    9.37530    9.37530  131.39490  132.22530    7.56290   56.10720   56.10720   22.71930   22.71930    7.56290   33.52710  -94.54050  -87.30160   33.52710
 5350.00000    9.40480    9.40480   43.57530   41.75050   23.95180   55.90780   55.90780   41.24710   41.24710   23.95180   37.88100  -14.62560   -7.59390   37.88100
 5400.00000    9.10830    9.10830  171.48670  178.59380    5.59930   65.56020   65.56020   68.40930   68.40930    5.59930    8.94540  -30.85710  -24.03170    8.94540
 5450.00000   10.19290   10.19290  148.21720  151.09390    6.61840   68.11750   68.11750   55.99180   55.99180    6.61840    7.94480  -22.21660  -15.59740    7.94480
 5500.00000    9.76580    9.76580  115.16690  114.09920    8.76430   65.23560   65.23560   36.44570   36.44570    8.76430   10.66130  -21.30360  -14.89070   10.66130
 5550.00000   10.47080   10.47080  157.78290  163.97830    6.09840   75.69130   75.69130   92.41480   92.41480    6.09840    7.73690   -9.71180   -3.50400    7.73690
 5600.00000   10.84140   10.84140  153.63670  156.70540    6.38140   73.23580   73.23580   84.23290   84.23290    6.38140    7.44810  -14.83460   -8.83420    7.44810
 5650.00000   13.68230   13.68230  166.03980  171.63260    5.82640   66.93810   66.93810  123.02510  123.02510    5.82640    8.12560  -10.69350   -4.51260    8.12560
 5700.00000   10.59860   10.59860   87.05540   85.56810   11.68660   62.34950   62.34950   71.46550   71.46550   11.68660   12.23890  -21.36850  -14.18530   12.23890
 5750.00000    9.35340    9.35340   11.96920    9.26020  107.98900   51.78350   51.78350   25.68920   25.68920  107.98900  102.61430   -0.51430    7.67120  102.61430
