~Version ---------------------------------------------------
VERS.      2.0 : CWLS log ASCII Standard -VERSION 2.0
WRAP.       NO : One line per depth step
CREA. 12/08/14 : LAS Creation Date
~Well ------------------------------------------------------
STRT.M                             300.0 : START DEPTH
STOP.M                            2750.0 : STOP DEPTH
STEP.M                          50.00000 : STEP LENGTH
NULL.                            -999.25 : NULL VALUE
COMP.                  INNOVA ENERGY LTD : COMPANY
WELL. INNOVA ET AL SNIPE LAKE 9-29-69-17 : WELL
FLD .                                    : FIELD
LOC .                                    : Location
CTRY.                             CANADA : COUNTRY
SRVC.                       Schlumberger : SERVICE COMPANY
DATE.                        15-Oct-2003 : LOGDATE
LOC1.                                    : Location 1
SECT.                                    : Section
TOWN.                                    : Township
RNGE.                                    : Range
PDAT.                                    : Perm Datum
EPD .                             828.55 : Elevation
LMF .                                 KB : Log Measured From
DMF .                                 KB : Drill Measured From
APD .                                    : Above Perm Datum
EKB .                             833.55 : Elev-Kelly Bushing.
EDF .                             833.25 : Elev-Drill Floor
EGL .                             828.55 : Elev-Ground Level
PROV.                            Alberta : PROVINCE
UWI .                   100092906917W500 : UNIQUE WELL ID
SLAT.WGS84                       55.0044 : SURFACE LATITUDE
SLON.WGS84                     -116.5483 : SURFACE LONGITUDE
~Curve Information -----------------------------------------
DEPT    .M      : Depth METERS
AHT20ED .OHMM   : 20 INCH RESISTIVITY TWO FOOT RESOLUTION FROM PEX- AIT LOG
AHT30ED .OHMM   : 30 INCH RESISTIVITY TWO FOOT RESOLUTION FROM PEX-AIT LOG
AHT90ED .OHMM   : 90 INCH RESISTIVITY TWO FOOT RESOLUTION FROM PEX-AIT LOG
CAL2DED .MM     : LONG AXIS CALIPER FROM DENSITY LOG
CALWS   .MM     : CALIPER [HCALDED]
CONDWS  .MMHO   : CONDUCTIVITY [1000/DRESWS]
DCORWS  .KG/M3  : DENSITY CORRECTION [HDRAED]
DENWS   .KG/M3  : FORMATION BULK DENSITY [CALC. FROM DPOLSWS, M=2710, F=1000]
DPHILSED.V/V    : DENSITY POROSITY LIMESTONE [M=2710 F=1000] FROM DENSITY LOG
DPHISSED.V/V    : DENSITY POROSITY  SANDSTONE [M=2650 F=1000] FROM DENSITY LOG
DPOLSWS .V/V    : DENSITY POROSITY LIMESTONE [DPHISSED CONVERTED TO LIMESTONE MATRIX, M=2710 F=1000 ]
DRESWS  .OHMM   : DEEP RESISTIVITY [AHT90ED]
DTED    .US/M   : DELTA-TIME FROM SONIC LOG [ADJ. TO PEX-AIT LOG]
DTWS    .US/M   : COMPRESSIONAL SONIC [DTED]
GRDED   .GAPI   : GAMMA RAY FROM DENSITY LOG
GRED    .GAPI   : GAMMA RAY FROM GAMMA LOG  [ADJ. TO PEX-AIT LOG]
GRRED   .GAPI   : GAMMA RAY FROM PEX-AIT LOG
GRSED   .GAPI   : GAMMA RAY FROM SONIC LOG  [ADJ. TO PEX-AIT LOG]
GRWS    .GAPI   : GAMMA RAY [GRED SPL. TO GRRED @ 210 M TO GRSED @ 2753.7 M]
HCALDED .MM     : HRCC CALIPER CALIBRATED FROM DENSITY LOG
HDRAED  .KG/M3  : HRDD SPINE AND RIBS DENSITY CORRECTION FROM DENSITY LOG
MRESWS  .OHMM   : MEDIUM RESISTIVITY [AHT30ED]
NPOLSWS .V/V    : NEUTRON POROSITY LIMESTONE [NPORSSED MATRIX (TNPH) CONVERSION FOR LIMESTONE ]
NPORLSED.V/V    : NEUTRON POROSITY LIMESTONE FROM DENSITY LOG
NPORSSED.V/V    : ENHANCED THERMAL NEUTRON POROSITY SANDSTONE FROM DENSITY LOG
PEFWS   .B/E    : PHOTOELECTRIC FACTOR [PEFZED]
PEFZED  .B/E    : HRDD STANDARD RESOLUTION FORMATION PHOTOELECTRIC FACTOR FROM DENSITY LOG
RHOZED  .KG/M3  : HRDD STANDARD RESOLUTION FORMATION DENSITY FROM DENSITY LOG [ADJ TO DPHISSED]
RXOZED  .OHMM   : STANDARD RESOLUTION INVADED ZONE RESISTIVITY FROM PEX-AIT LOG
SPRED   .MV     : SPONTANEOUS POTENTIAL FROM PEX-AIT LOG
SPWS    .MV     : SPONTANEOUS POTENTIAL [BASELINE 0 MV, SPRED]
SRESWS  .OHMM   : SHALLOW RESISTIVITY [AHT20ED]
TENDED  .N      : TENSION FROM DENSITY LOG
TENRED  .N      : TENSION FROM PEX-AIT LOG
TENSED  .N      : TENSION FROM SONIC LOG
~Params ----------------------------------------------------
RUN .          1 : Run #
DATE.            : Date log was run
TDD .       2765 : Depth - Driller
TDL .       2765 : Depth - Logger
BLI .     2762.5 : Bottom Log Interval
TLI .      416.0 : Top Log Interval
CBD .      416.6 : Casing - Driller
CBL .        416 : Casing - Logger
BS  .        200 : Bit Size
DFT .   GEL CHEM : Type of Fluid In Hole
DFD .       1175 : Drilling Fluid Density
DFV .         90 : Drilling Fluid Viscosity
DFPH.        9.5 : Drilling Fluid pH
DFL .        6.5 : Drilling Fluid Loss
MSS .   FLOWLINE : Source of Sample
RMS .       0.68 : Mud Resitivity
RMFS.      0.926 : Mud Filtrate Resistivity
RMCS.      0.625 : Mud Cake Resitivity
MFSS. CALCULATED : Source of Rmf
MCSS. CALCULATED : Source of Rmc
RMBH.            : Rm at BHT
MRT .         78 : Max Recorded Temperature
CLNT.    A2DTECH : CLIENT CODE
~Other -----------------------------------------------------
~ASCII -----------------------------------------------------
  300.00000    -999.25    -999.25    -999.25    -999.25    -999.25    -999.25    -999.25    -999.25    -999.25    -999.25    -999.25    -999.25    -999.25    -999.25    -999.25   52.17520    -999.25    -999.25   67.17520    -999.25    -999.25    -999.25    -999.25    -999.25    -999.25    -999.25    -999.25    -999.25    -999.25    -999.25    -999.25    -999.25    -999.25    -999.25    -999.25
  350.00000    -999.25    -999.25    -999.25    -999.25    -999.25    -999.25    -999.25    -999.25    -999.25    -999.25    -999.25    -999.25    -999.25    -999.25    -999.25   39.41060    -999.25    -999.25   54.41060    -999.25    -999.25    -999.25    -999.25    -999.25    -999.25    -999.25    -999.25    -999.25    -999.25    -999.25    -999.25    -999.25    -999.25    -999.25    -999.25
  400.00000    -999.25    -999.25    -999.25    -999.25    -999.25    -999.25    -999.25    -999.25    -999.25    -999.25    -999.25    -999.25    -999.25    -999.25   46.45720   37.08030   46.52290   45.32230   61.52290    -999.25    -999.25    -999.25    0.71130    -999.25    0.72380    -999.25    -999.25    -999.25    -999.25    -999.25    -999.25    -999.25    -999.25    -999.25    -999.25
  450.00000    6.58890    8.35440   12.47380  202.91520  210.32230   80.16800  -11.97690 2117.21500    -999.25    0.32290    0.34670   12.47380  379.68210  379.68210   39.19240    -999.25   39.03620   43.85390   39.03620  210.32230  -11.97690    8.35440    0.32230    -999.25    0.36980    2.53980    2.53980 2114.25560    4.38350   31.51050   -0.49700    6.58890 8435.69920 8602.30470 5554.05220
  500.00000    3.50470    3.84600    4.58060  231.48410  352.90560  218.31200  180.76160 2092.13500    -999.25    0.33810    0.36130    4.58060  409.79550  409.79550   71.47460    -999.25   71.61050   72.65660   71.61050  352.90560  180.76160    3.84600    0.34140    -999.25    0.38750    2.90440    2.90440 2096.65360    2.37310   23.22470   -6.40570    3.50470 9148.50000 9170.10350 6035.68650
  550.00000    3.63920    3.87660    4.37590  211.38040  268.78460  228.52440   62.24820 2199.55000    -999.25    0.27300    0.29850    4.37590  384.06550  384.06550   77.95520    -999.25   77.70560   81.42830   77.70560  268.78460   62.24820    3.87660    0.42450    -999.25    0.46290    2.87550    2.87550 2199.64770    2.75910   21.13910   -6.11410    3.63920 9530.44630 9457.16990 6384.50050
  600.00000    5.01260    5.31100    5.81820  212.67290  342.08040  171.87450   76.63960 2442.26500    -999.25    0.12590    0.15660    5.81820  366.35980  366.35980  104.83490    -999.25  105.16720  108.01660  105.16720  342.08040   76.63960    5.31100    0.32500    -999.25    0.37230    3.39150    3.39150 2453.13820    4.59320   16.27600   -8.60010    5.01260 10011.77730 9963.78420 6811.08250
  650.00000    4.55800    4.81950    5.51150  215.56810  292.89020  181.43880   52.06920 2283.86500    -999.25    0.22190    0.24920    5.51150  382.28280  382.28280  136.46830    -999.25  136.59540  130.39680  136.59540  292.89020   52.06920    4.81950    0.37210    -999.25    0.41570    3.14180    3.14180 2281.93380    3.55210   17.14290   -6.40690    4.55800 10195.50680 10285.15720 6997.85400
  700.00000    4.85150    5.34680    6.18820  245.99520  244.98320  161.59790   64.84570 2175.95500    -999.25    0.28730    0.31230    6.18820  357.07000  357.07000  121.48350    -999.25  121.48060  118.23270  121.48060  244.98320   64.84570    5.34680    0.42720    -999.25    0.46530    2.76240    2.76240 2181.87990    3.03030   12.89400  -10.82920    4.85150 10481.26170 10493.00290 7328.91110
  750.00000    5.58690    6.34840    7.48090  230.26310  281.89030  133.67380  101.61430 2148.23500    -999.25    0.30410    0.32850    7.48090  332.28390  332.28390  115.01370    -999.25  114.99820  108.37740  114.99820  281.89030  101.61430    6.34840    0.36240    -999.25    0.40680    2.50750    2.50750 2150.18090    2.85590   13.13740  -10.75930    5.58690 10991.22070 11010.25680 7663.96440
  800.00000    4.23430    4.70370    5.33800  221.95460  299.62760  187.33610  169.17150 1954.52500    -999.25    0.42150    0.44180    5.33800  369.45390  369.45390  130.49840    -999.25  130.91430  130.30820  130.91430  299.62760  169.17150    4.70370    0.43160    -999.25    0.46920    2.46620    2.46620 1957.33890    1.79520   16.13660   -7.93360    4.23430 10832.89060 10909.69630 7786.57130
  850.00000    5.27650    5.54310    6.11150  214.76360  208.11900  163.62600   97.91970 2197.40500    -999.25    0.27430    0.29980    6.11150  375.11000  375.11000  163.32610  104.28180  163.41410  168.85820  163.41410  208.11900   97.91970    5.54310    0.39210    -999.25    0.43380    3.20780    3.20780 2192.59990    3.46680   16.39090   -7.85280    5.27650 11401.49610 11417.90530 8334.99900
  900.00000    3.97590    4.34270    4.77260  268.63670  237.86600  209.52940  114.64410 2087.18500    -999.25    0.34110    0.36420    4.77260  338.66680  338.66680  106.60170  117.26400  107.18500  124.45300  107.18500  237.86600  114.64410    4.34270    0.44950    -999.25    0.48530    2.84730    2.84730 2078.49270    2.01290   18.13620   -6.28090    3.97590 12280.40330 12423.82620 8929.83300
  950.00000    3.36790    3.59040    3.94580  242.39240  324.10240  253.43400  257.49980 2033.72500    -999.25    0.37350    0.39550    3.94580  334.33610  334.33610  109.88780   98.24460  110.05520  118.16990  110.05520  324.10240  257.49980    3.59040    0.41340    -999.25    0.45290    2.33600    2.33600 2025.09840    1.55070   18.61390   -5.97670    3.36790 12030.05180 11982.08300 8930.38670
 1000.00000    2.12330    2.17580    2.27980  259.82040  419.39810  438.63500   36.77290 2406.13000    -999.25    0.14780    0.17770    2.27980  376.81430  376.81430  114.65960   72.63830  113.62260  111.17600  113.62260  419.39810   36.77290    2.17580    0.34570    -999.25    0.39150    2.94640    2.94640 2413.61130    2.24980   20.35930   -4.40480    2.12330 12605.96000 12070.98630 8968.22950
 1050.00000    2.14320    2.26010    2.34950  400.55040  342.34490  425.62250  135.22620 1928.78500    -999.25    0.43710    0.45690    2.34950  358.82890  358.82890  110.07680    -999.25  109.94590  103.50120  109.94590  342.34490  135.22620    2.26010    0.47140    -999.25    0.50500    2.46560    2.46560 1951.78610    1.37200   19.18630   -5.79610    2.14320 12838.58200 12598.29490 9685.08110
 1100.00000    3.12750    2.75790    1.99750  213.71710  197.78850  500.62580   19.94350 2278.75000    -999.25    0.22500    0.25220    1.99750  313.71840  313.71840   69.11510   46.42480   69.13360   69.32140   69.13360  197.78850   19.94350    2.75790    0.29740    -999.25    0.34650    2.68440    2.68440 2278.83060    5.95330  -17.78330  -43.71250    3.12750 13220.48540 13074.83300 9801.00590
 1150.00000    2.75130    2.06120    1.38930  203.61140  198.15170  719.78690   10.16240 2272.31500    -999.25    0.22890    0.25600    1.38930  296.99120  296.99120   49.73170    -999.25   49.66410   43.44550   49.66410  198.15170   10.16240    2.06120    0.24580    -999.25    0.29730    2.27690    2.27690 2269.16940    7.33110  -46.92600  -73.80190    2.75130 13425.64940 13453.52250 10103.15430
 1200.00000    2.51980    1.92900    1.30100  196.76950  197.89640  768.63950    1.37850 2220.50500    -999.25    0.26030    0.28630    1.30100  303.76210  303.76210   57.57280   42.81320   57.45170   55.95000   57.45170  197.89640    1.37850    1.92900    0.30940    -999.25    0.35770    2.82170    2.82170 2219.39450    6.32730  -44.70920  -72.53190    2.51980 13464.37010 13553.50980 10428.62110
 1250.00000    3.19930    2.45760    1.67020  199.13380  197.74510  598.73070   17.02150 2248.06000    -999.25    0.24360    0.27010    1.67020  276.20370  276.20370   60.20350    -999.25   59.23830   67.53460   59.23830  197.74510   17.02150    2.45760    0.27820    -999.25    0.32830    2.94270    2.94270 2243.47120    6.54740  -37.23960  -66.00900    3.19930 13976.34380 13947.75680 10776.54490
 1300.00000    4.05550    4.02150    4.38530  218.45120  235.35260  228.03460   10.42980 2509.09000    -999.25    0.08540    0.11750    4.38530  273.87120  273.87120   86.09270    -999.25   85.36380   96.40750   85.36380  235.35260   10.42980    4.02150    0.25240    -999.25    0.30370    3.29090    3.29090 2512.37720    5.15840   15.58260  -14.13360    4.05550 14292.71090 14206.50980 11068.27150
