~Version ---------------------------------------------------
VERS. 2.0 : CWLS log ASCII Standard -VERSION 2.0
WRAP.  NO : ONE LINE PER DEPTH STEP
~Well ------------------------------------------------------
STRT.F                                300.0 : START DEPTH
STOP.F                              11400.0 : STOP DEPTH
STEP.F                             50.00000 : STEP LENGTH
NULL.                               -999.25 : NULL VALUE
COMP.                  CHEVRON STANDARD LTD : COMPANY
WELL. CHEVRON CLARK 14-34-58-18 10-34-58-18 : WELL
FLD .                          KAYBOB SOUTH : FIELD
LOC .                                       : LOCATION
CTRY.                                CANADA : COUNTRY
SRVC.                          Schlumberger : SERVICE COMPANY
DATE.                           26-Oct-1968 : LOGDATE
PROV.                               Alberta : PROVINCE
UWI .                      100103405818W500 : UNIQUE WELL ID
SLAT.WGS84                         54.05952 : SURFACE LATITUDE
SLON.WGS84                        -116.5853 : SURFACE LONGITUDE
~Curve Information -----------------------------------------
DEPT  .F                 : 
GR    .GAPI 01 310 01 00 : GAMMA RAY
GR_1  .GAPI 00 000 00 01 : GAMMA RAY
CALN  .IN   42 280 60 00 : CALIPER
ILD   .OHMM 07 120 46 00 : INDUCTION LOG DEEP
ILM   .OHMM 07 120 44 00 : INDUCTION LOG MEDIUM
LL8   .OHMM 07 220 08 00 : LATEROLOG-8 RES.
SPR   .MV   07 010 01 00 : SPONTANEOUS POTENTIAL
CALS  .IN   60 280 50 00 : CALIPER FROM SONIC LOG
DT    .US/F 60 520 00 00 : INTERVAL TRANSIT TIME
GRS   .GAPI 60 310 01 00 : GAMMA RAY FROM SONIC LOG
SNP_DM.                  : 
~Params ----------------------------------------------------
PD  .                     GL : PERMANENT DATUM
EPD .FT               3407.1 : ELEVATION PERMANENT DATUM
LMF .                     KB : LOG MEASURED FROM
DAPD.FT                 13.9 : FEET ABOVE PERMANENT DATUM
DMF .                     KB : DRILLING MEASURED FROM
EKB .FT                 3421 : KELLY BUSHING
EDF .FT                 3407 : DRILLING FLOOR
EGL .FT               3407.1 : GROUND LEVEL
DATE.               10/26/68 : RUN DATE
RUN .                      1 : RUN NUMBER
DD  .FT                11418 : DEPTH DRILLER
DL  .FT                11421 : DEPTH LOGGER
BLI .FT                11420 : BOTTOM LOG INTERVAL
TLI .FT                10900 : TOP LOG INTERVAL
CBD .FT                 2021 : CASING BOTTOM DRILLER
CBL .FT                 2021 : CASING BOTTOM LOGGER
BS  .IN                 8.75 : BIT SIZE
BSD .FT                11418 : BIT SIZE AT DEPTH
DFT .                    GEL : DRILLING FLUID TYPE
DFD .                    9.4 : DRILLING FLUID DENSITY
DFV .                    148 : DRILLING FLUID VISCOSITY
DFPH.                   11.5 : DRILLING FLUID PH
DFL .                    6.4 : DRILLING FLUID LOSS
RMS .OHMM                1.0 : RESISTIVITY MUD SAMPLE
MST .DEGF                 62 : MUD SAMPLE TEMPERATURE
RMF .OHMM               0.84 : RESISTIVITY MUD FILTRATE SAMPLE
MFST.DEGF                 70 : MUD FILTRATE SAMPLE TEMPERATURE
RMC .OHMM               1.22 : RESISTIVITY MUD CAKE
MCST.DEGF                 70 : MUD CAKE SAMPLE TEMPERATURE
TCS .HRS                 300 : TIME CIRCULATED STOPPED
LUN .                   7501 : LOGGING UNIT NUMBER
LUL .                    EDM : LOGGING UNIT LOCATION
ENGI.               STUEHMER : RECORDING ENGINEER
WITN.                HOVDEBO : WITNESSED BY
CLNT.                A2DTECH : CLIENT CODE
ORIG.        2" 5" 10" PRINT : ORIGIN OF DATA
UWI .       100103405818W500 : UNIQUE WELL ID
DICO. A2D Technologies, Inc. : DIGITIZING COMPANY
~Other -----------------------------------------------------
~ASCII -----------------------------------------------------
# ...
 9450.00000    6.93950   11.20440    -999.25  877.87850   62.34530   60.41900 -144.14070   10.84430   52.26320   12.56240    -999.25
 9500.00000    6.35810   11.77830    -999.25 1294.93810   70.94040   74.49320 -147.29530   10.27810   64.22720   11.50600    -999.25
 9550.00000   14.06680   19.88380    -999.25  642.36370   79.27830   72.59770 -147.50870   11.07930   54.79120   13.46330    -999.25
 9600.00000    6.86010    8.73090    -999.25  244.66470  103.11370  102.86590 -146.15640    9.95710   50.53850   20.03630    -999.25
 9650.00000   33.78560   55.26680    -999.25   18.54400   16.26240   36.57780 -133.90110    9.75930   56.17970   41.48270    -999.25
 9700.00000   81.28210  134.11350    -999.25 1854.84730   85.35380  235.45360 -152.87080    9.77200   51.72370   11.26990    -999.25
 9750.00000   20.76610   30.46710    -999.25   18.92590   14.54960   12.61660 -143.69220   11.49180   60.89530   18.58050    -999.25
 9800.00000   12.95570   20.84540    -999.25 1547.98130  115.98920  117.01740 -103.32460   10.12590   51.13570   37.20130    -999.25
 9850.00000   21.55060   34.41550    -999.25  202.34260   99.27020   95.89890  -71.83850    9.55610   52.42140   37.08680    -999.25
 9900.00000   30.17580   53.37070    -999.25   86.74710   63.77820   73.10570  -66.34920    9.81660   53.66690   39.49090    -999.25
 9950.00000   21.23230   48.79340    -999.25   49.34910   41.26130   38.92760  -63.17630    9.58560   54.65190   47.34250    -999.25
 10000.00000   24.06490   39.40550    -999.25   79.28150   63.00920   57.98110  -65.60110    9.48850   54.05360   39.77480    -999.25
 10050.00000   23.82720   41.49170    -999.25   59.65470   44.84300   46.56800  -61.23600    9.53650   54.97100   35.55110    -999.25
 10100.00000   22.91880   35.96290    -999.25   44.16780   37.81610   42.81000  -57.38850    9.45750   55.18090   44.29510    -999.25
 10150.00000   38.83600   67.03730    -999.25   20.68610   18.36930   19.67030  -52.45860    9.74280   59.67090   45.73380    -999.25
 10200.00000   40.15390   67.35560    -999.25   12.96510   12.14000   13.66110  -49.81380   10.24620   62.98650   53.70750    -999.25
 10250.00000   40.54730   80.73820    -999.25    7.51420    7.15110    8.29470  -50.62810   11.37230   69.49700   58.93440    -999.25
 10300.00000   51.64420   91.03200    -999.25   11.83630   11.12220   14.19280  -49.27720    9.73800   65.15390   59.41790    -999.25
 10350.00000   50.90570  102.84590    -999.25    5.71740    5.31740    8.44740  -54.91070   11.63940   73.81330   69.31260    -999.25
 10400.00000   50.96500   70.08240    -999.25    7.85150    7.54520    9.56580  -51.03990   10.16950   71.21960   51.74530    -999.25
 10450.00000   47.12880   98.25640    -999.25    8.36080    7.68600    9.52130  -55.03440   10.08880   70.48070   53.99640    -999.25
 10500.00000   50.42900   84.42280    -999.25   19.38770   15.49420   47.95330  -55.54010    9.43150   62.59750   50.30900    -999.25
 10550.00000    -999.25    -999.25    -999.25    8.86030    8.50590   10.06550  -54.84450    9.70100   66.29640   67.00520    -999.25
 10600.00000    -999.25    -999.25    -999.25    7.84650    8.94500    8.13420  -56.94060    9.81060   69.46340   80.10080    -999.25
 10650.00000    -999.25    -999.25    -999.25    8.30930    9.14050   10.20750  -52.55760    9.67740   71.43260   77.01310    -999.25
 10700.00000    -999.25    -999.25    -999.25   10.03340   11.00700   15.03200  -55.11000    9.55410   68.24440   65.44900    -999.25
 10750.00000    -999.25    -999.25    -999.25    9.20550    9.73370    7.49030  -57.92440   10.58810   79.67130   89.90610    -999.25
 10800.00000    -999.25    -999.25    -999.25    8.92280    8.00770   11.95480  -50.57310    9.43570   73.13680   78.95030    -999.25
 10850.00000    -999.25    -999.25    -999.25 1656.59680 1464.74290  304.86760  -55.19830    8.80250   78.49730  133.20770    -999.25
 10900.00000    -999.25    -999.25    8.72410 1674.14220  921.09340  319.69820  -53.50230    8.75470   67.19300  133.49300    0.04230
 10950.00000    -999.25    -999.25    8.78040   46.89070   40.03590   73.97750  -55.33760    9.40700   74.54340  181.52930    0.04330
 11000.00000    -999.25    -999.25    8.77010 1723.12620 2116.59810  351.56640 -114.85840    8.75750   48.19260    8.45250    0.05790
 11050.00000    -999.25    -999.25    8.76250 1774.91310 2130.14870  326.39110 -132.18770    8.78280   57.38490   12.36120    0.06490
 11100.00000    -999.25    -999.25    8.66490 1723.06410 2056.83670  243.96170 -108.35440    8.78210   58.25490   13.32970    0.04030
 11150.00000    -999.25    -999.25    8.57530 1670.50370  764.87960  293.89570 -137.95210    8.61230   52.12230    7.67480    0.07210
 11200.00000    -999.25    -999.25    8.57030  699.55440  220.67970  136.29340 -162.43620    8.74940   50.33570   15.27520    0.05040
 11250.00000    -999.25    -999.25    8.93900  554.27080  182.78300  210.85020 -157.15060    8.76190   49.47160   14.18530    0.10280
 11300.00000    -999.25    -999.25    8.43540 1629.44850  268.85120  157.18440 -153.55900    8.59520   49.44130   12.45180    0.06990
 11350.00000    -999.25    -999.25    8.75630 1713.32560 1141.43140  145.06830 -145.71660    9.03050   48.37280   17.96140    0.09660
 11400.00000    -999.25    -999.25   11.84630  969.90610  100.41180  111.50780  -79.08940    9.66350   50.56320    -999.25    0.10740
