~Version ---------------------------------------------------
VERS.      2.0 : CWLS log ASCII Standard -VERSION 2.0
WRAP.       NO : One line per depth step
CREA. 11/03/17 : LAS Creation Date
~Well ------------------------------------------------------
STRT.FT                            1500.0 : START DEPTH
STOP.FT                           10400.0 : STOP DEPTH
STEP.FT                          50.00000 : STEP LENGTH
NULL.                             -999.25 : NULL VALUE
COMP.                CHEVRON STANDARD LTD : COMPANY
WELL. CHEVRON ET AL HEAVYSOUND 3-25-61-17 : WELL
FLD .                                     : FIELD
LOC .                                     : LOCATION
CTRY.                              CANADA : COUNTRY
SRVC.                        Schlumberger : SERVICE COMPANY
DATE.                         27-Nov-1977 : LOGDATE
PROV.                             Alberta : PROVINCE
UWI .                    100032506117W500 : UNIQUE WELL ID
SLAT.WGS84                       54.30091 : SURFACE LATITUDE
SLON.WGS84                       -116.419 : SURFACE LONGITUDE
~Curve Information -----------------------------------------
DEPT    .FT    : Depth Curve
CALDED  .IN    : CALIPER FROM DENSITY LOG [ADJ. TO RESISTIVITY LOG]
CALSED  .IN    : CALIPER FROM SONIC LOG [ADJ. TO RESISTIVITY LOG]
CALWS   .IN    : CALIPER [CALSED SPL. TO CALDED @ 9702']
CONDWS  .MMHO  : CONDUCTIVITY [1000/DRESWS]
DCORWS  .G/C3  : DENSITY CORRECTION [DRHOED]
DENWS   .G/C3  : FORMATION BULK DENSITY [RHOBED]
DPHILSED.V/V   : DENSITY POROSITY LIMESTONE [M=2.71, F=1.00] FROM DENSITY LOG [ADJ. TO RESISTIVITY LOG]
DPHISSED.V/V   : DENSITY POROSITY SANDSTONE [M=2.65, F=1.00] FROM DENSITY LOG [ADJ. TO RESISTIVITY LOG]
DPOLSWS .V/V   : DENSITY POROSITY LIMESTONE [CALC FROM DENWS,M=2.71, F=1.00]
DRESWS  .OHMM  : DEEP RESISTIVITY [ILDED]
DRHOED  .G/C3  : BULK DENSITY CORRECTION FROM DENSITY LOG [ADJ. TO RESISTIVITY LOG]
DTED    .US/F  : DELTA-T FROM SONIC LOG [ADJ. TO RESISTIVITY LOG]
DTWS    .US/F  : COMPRESSIONAL SONIC [DTED]
GRDED   .GAPI  : GAMMA RAY FROM DENSITY LOG [ADJ. TO RESISTIVITY LOG]
GRNED   .GAPI  : GAMMA RAY FROM GRN LOG [ADJ. TO RESISTIVITY LOG]
GRSED   .GAPI  : GAMMA RAY FROM SONIC LOG [ADJ. TO RESISTIVITY LOG]
GRWS    .GAPI  : GAMMA RAY [GRSED]
ILDED   .OHMM  : DEEP  INDUCTION RESISTIVITY FROM RESISTIVITY LOG
ILMED   .OHMM  : MEDIUM INDUCTION RESISTIVITY FROM RESISTIVITY LOG
LL8ED   .OHMM  : LATEROLOG 8 RESISTIVITY FROM RESISTIVITY LOG
MRESWS  .OHMM  : MEDIUM RESISTIVITY [ILMED]
NEUTED  .NAPI  : NEUTRON FROM GRN LOG [ADJ. TO RESISTIVITY LOG]
NEUTWS  .NAPI  : NEUTRON [NEUTED]
NPHILSED.V/V   : NEUTRON POROSITY LIMESTONE FROM DENSITY LOG [ADJ. TO RESISTIVITY LOG]
NPHISSED.V/V   : NEUTRON POROSITY SANDSTONE FROM DENSITY LOG [ADJ. TO RESISTIVITY LOG]
NPOLSWS .V/V   : NEUTRON POROSITY LIMESTONE [NPHISSED MATRIX  CONVERSION FOR LIMESTONE & SPL. TO NPHILSED @ 9702']
RHOBED  .G/C3  : BULK DENSITY FROM DENSITY LOG [ADJ. TO RESISTIVITY LOG]
SPRED   .MV    : SPONTANEOUS POTENTIAL FROM RESISTIVITY LOG
SPWS    .MV    : SPONTANEOUS POTENTIAL [BASELINE 0 MV,SPRED]
SRESWS  .OHMM  : SHALLOW RESISTIVITY [LL8ED]
TENDED  .LBF   : TENSION FROM DENSITY LOG [ADJ. TO RESISTIVITY LOG]
TENSED  .LBF   : TENSION FROM SONIC LOG [ADJ. TO RESISTIVITY LOG]
~Params ----------------------------------------------------
PD  .                     GL : PERMANENT DATUM
EPD .FT                 3014 : ELEVATION PERMANENT DATUM
LMF .                     KB : LOG MEASURED FROM
DAPD.FT                   19 : FEET ABOVE PERMANENT DATUM
EKB .FT                 3033 : KELLY BUSHING
EGL .FT                 3014 : GROUND LEVEL
DATE.               11/27/77 : RUN DATE
RUN .                      1 : RUN NUMBER
DD  .FT                10428 : DEPTH DRILLER
DL  .FT                10435 : DEPTH LOGGER
BLI .FT                10429 : BOTTOM LOG INTERVAL
TLI .FT                 1501 : TOP LOG INTERVAL
CS  .IN                9.625 : CASING SIZE
CBD .FT                 1500 : CASING BOTTOM DRILLER
CBL .FT                 1501 : CASING BOTTOM LOGGER
DFT .                GEL OIL : DRILLING FLUID TYPE
DFD .                    9.1 : DRILLING FLUID DENSITY
DFV .                     83 : DRILLING FLUID VISCOSITY
MSS .               FLOWLINE : MUD SAMPLE SOURCE
RMS .OHMM               1.69 : RESISTIVITY MUD SAMPLE
MST .DEGF                 60 : MUD SAMPLE TEMPERATURE
RMF .OHMM               1.11 : RESISTIVITY MUD FILTRATE SAMPLE
MFST.DEGF                 54 : MUD FILTRATE SAMPLE TEMPERATURE
TCS .HRS                   4 : TIME CIRCULATED STOPPED
LUN .                   7670 : LOGGING UNIT NUMBER
LUL .                    EDM : LOGGING UNIT LOCATION
ENGI.                   DALY : RECORDING ENGINEER
WITN.     RICHARDSON SPRAGUE : WITNESSED BY
CLNT.                A2DTECH : CLIENT CODE
ORIG.            2" 5" PRINT : ORIGIN OF DATA
UWI .       100032506117W500 : UNIQUE WELL ID
DICO. A2D Technologies, Inc. : DIGITIZING COMPANY
~Other -----------------------------------------------------
DIL-CNFD-BHC-GRN LOG RUN
~ASCII -----------------------------------------------------
# ...
 2600.00000   12.71760    9.78500    9.78500  317.46030    0.15190    1.84190    -999.25    0.48690    0.50770    3.15000    0.15190  123.23470  123.23470   99.63070    -999.25   84.51600   84.51600    3.15000    3.30600    3.68810    3.30600    -999.25    -999.25    -999.25    0.52810    0.49700    1.84190 -163.08220   -1.95880    3.68810 1481.09820 2022.95890
 2650.00000    9.96660    9.47410    9.47410  654.36460    0.09030    2.03480    -999.25    0.39070    0.39490    1.52820    0.09030  154.92110  154.92110  138.92190    -999.25  131.19070  131.19070    1.52820    1.56540    2.50900    1.56540    -999.25    -999.25    -999.25    0.52430    0.49280    2.03480 -162.89570   -2.08490    2.50900 1311.28350 2014.21960
 2700.00000    9.05380    8.66110    8.66110   36.96310    0.08890    2.33620    -999.25    0.20840    0.21860   27.05400    0.08890   97.18650   97.18650   41.26520    -999.25   38.56520   38.56520   27.05400   21.55670   18.59410   21.55670    -999.25    -999.25    -999.25    0.31840    0.26780    2.33620 -169.88590   -9.39240   18.59410 1239.00150 1605.11670
 2750.00000    9.48930    9.13160    9.13160  188.05480   -0.00170    2.34870    -999.25    0.18980    0.21130    5.31760   -0.00170   97.01280   97.01280   76.90740    -999.25   69.02040   69.02040    5.31760    5.54200    6.72780    5.54200    -999.25    -999.25    -999.25    0.40360    0.35890    2.34870 -165.05440   -4.82420    6.72780 1336.93620 1667.76200
 2800.00000    9.10780    8.95160    8.95160   66.61940    0.07950    2.37520    -999.25    0.17600    0.19580   15.01120    0.07950   88.75400   88.75400   51.20110    -999.25   46.04660   46.04660   15.01120   15.60730   16.78980   15.60730    -999.25    -999.25    -999.25    0.32010    0.26960    2.37520 -171.75540  -11.55830   16.78980 1254.85600 1623.05790
 2850.00000   11.23700    9.61900    9.61900  227.92540    0.19240    2.11290    -999.25    0.33280    0.34920    4.38740    0.19240  101.31310  101.31310   75.50960    -999.25   74.67020   74.67020    4.38740    4.04860    3.93400    4.04860    -999.25    -999.25    -999.25    0.46040    0.42170    2.11290 -162.19320   -2.02950    3.93400 1364.64780 1694.25550
 2900.00000   10.27350   10.09490   10.09490  269.70170    0.18370    2.25160    -999.25    0.25840    0.26810    3.70780    0.18370   96.06420   96.06420   72.49720    -999.25   69.58930   69.58930    3.70780    3.84410    4.18330    3.84410    -999.25    -999.25    -999.25    0.42650    0.38400    2.25160 -161.82530   -1.69480    4.18330 1368.23490 1735.67120
 2950.00000    9.81020    9.13880    9.13880   56.37170    0.03220    2.45700    -999.25    0.13270    0.14800   17.73940    0.03220   87.42900   87.42900   49.89970    -999.25   45.88490   45.88490   17.73940   14.97720   14.30420   14.97720    -999.25    -999.25    -999.25    0.23440    0.18200    2.45700 -175.48080  -15.68550   14.30420 1406.15560 1718.94620
 3000.00000    9.65370    9.68230    9.68230  116.04290    0.04020    2.47080    -999.25    0.11340    0.13990    8.61750    0.04020   84.74200   84.74200   69.36280    -999.25   59.36760   59.36760    8.61750    9.67620   10.85870    9.67620    -999.25    -999.25    -999.25    0.28500    0.23310    2.47080 -160.60840   -1.17810   10.85870 1460.09420 1841.76050
 3050.00000   12.00580   10.82770   10.82770  281.02270    0.05700    2.38630    -999.25    0.16770    0.18930    3.55870    0.05700  130.07680  130.07680   74.92030    -999.25   66.59920   66.59920    3.55870    4.08380    4.42830    4.08380    -999.25    -999.25    -999.25    0.40590    0.36160    2.38630 -160.32670   -1.25340    4.42830 1514.96220 1802.79260
 3100.00000   12.56790    9.98400    9.98400  260.62030    0.03280    2.33520    -999.25    0.19540    0.21920    3.83700    0.03280   99.27320   99.27320   70.41370    -999.25   54.33900   54.33900    3.83700    4.01010    5.07070    4.01010    -999.25    -999.25    -999.25    0.37420    0.32700    2.33520 -163.09630   -3.98570    5.07070 1525.21550 1843.53490
 3150.00000   11.35390    9.76150    9.76150  267.81650    0.02860    2.24420    -999.25    0.24980    0.27240    3.73390    0.02860  109.28510  109.28510   80.63850    -999.25   73.68270   73.68270    3.73390    3.88700    4.79390    3.88700    -999.25    -999.25    -999.25    0.45050    0.41070    2.24420 -161.26230   -2.11450    4.79390 1247.41110 1883.08490
 3200.00000   12.66180   10.06240   10.06240  258.25780    0.02500    2.31380    -999.25    0.21940    0.23170    3.87210    0.02500  100.47070  100.47070   68.55250    -999.25   64.08060   64.08060    3.87210    4.01420    4.53600    4.01420    -999.25    -999.25    -999.25    0.41180    0.36790    2.31380 -161.01830   -1.83330    4.53600 1313.65450 1891.62290
 3250.00000    9.52450    9.01100    9.01100   62.94730    0.03150    2.31870    -999.25    0.21170    0.22880   15.88630    0.03150   91.33940   91.33940   56.15710    -999.25   51.24420   51.24420   15.88630   18.69650   19.43610   18.69650    -999.25    -999.25    -999.25    0.29540    0.24390    2.31870 -164.38230   -5.16010   19.43610 1241.58880 1970.91480
 3300.00000    9.82230    9.18880    9.18880   53.01880    0.05620    2.45430    -999.25    0.12420    0.14950   18.86160    0.05620   83.52360   83.52360   49.79010    -999.25   45.61030   45.61030   18.86160   19.56690   20.88850   19.56690    -999.25    -999.25    -999.25    0.27300    0.22070    2.45430 -177.92810  -18.66890   20.88850 1333.11890 1886.05210
 3350.00000    9.63200    9.16180    9.16180  103.03330    0.00770    2.44770    -999.25    0.13690    0.15340    9.70560    0.00770   80.03330   80.03330   55.36870    -999.25   50.08910   50.08910    9.70560   11.51750   18.26770   11.51750    -999.25    -999.25    -999.25    0.33200    0.28210    2.44770 -176.35890  -17.06240   18.26770 1373.21900 1985.87380
 3400.00000   10.64910   10.51360   10.51360  209.11750    0.05970    2.48350    -999.25    0.11080    0.13250    4.78200    0.05970   98.89240   98.89240   80.59770    -999.25   73.86460   73.86460    4.78200    5.12290    4.06660    5.12290    -999.25    -999.25    -999.25    0.40950    0.36530    2.48350 -160.50330   -1.16960    4.06660 1385.68900 1642.28280
 3450.00000    -999.25    9.72010    9.72010  104.19920    -999.25    -999.25    -999.25    -999.25    -999.25    9.59700    -999.25   75.49130   75.49130    -999.25    -999.25   58.19420   58.19420    9.59700   10.33910   11.70330   10.33910    -999.25    -999.25    -999.25    -999.25    -999.25    -999.25 -161.43270   -2.06180   11.70330    -999.25 1645.78560
 3500.00000    -999.25   10.00500   10.00500  102.10750    -999.25    -999.25    -999.25    -999.25    -999.25    9.79360    -999.25   85.40950   85.40950    -999.25    -999.25   72.78120   72.78120    9.79360   10.36150   12.83570   10.36150    -999.25    -999.25    -999.25    -999.25    -999.25    -999.25 -163.02730   -3.61920   12.83570    -999.25 1762.63740
 3550.00000    -999.25   10.02390   10.02390  190.77770    -999.25    -999.25    -999.25    -999.25    -999.25    5.24310    -999.25   96.55340   96.55340    -999.25    -999.25   88.61340   88.61340    5.24310    5.69240    6.14020    5.69240    -999.25    -999.25    -999.25    -999.25    -999.25    -999.25 -160.43960   -0.99450    6.14020    -999.25 1736.86500
 3600.00000    -999.25   10.39710   10.39710  165.98610    -999.25    -999.25    -999.25    -999.25    -999.25    6.02460    -999.25   95.77510   95.77510    -999.25    -999.25  102.50750  102.50750    6.02460    6.43940    6.82270    6.43940    -999.25    -999.25    -999.25    -999.25    -999.25    -999.25 -161.48680   -2.00430    6.82270    -999.25 1773.27730
 3650.00000    -999.25   10.21920   10.21920  179.95320    -999.25    -999.25    -999.25    -999.25    -999.25    5.55700    -999.25   95.96990   95.96990    -999.25    -999.25  108.13720  108.13720    5.55700    5.89810    6.63410    5.89810    -999.25    -999.25    -999.25    -999.25    -999.25    -999.25 -161.21670   -1.69700    6.63410    -999.25 1756.47930
