~Version ---------------------------------------------------
VERS.      2.0 : CWLS log ASCII Standard -VERSION 2.0
WRAP.       NO : One line per depth step
CREA. 01/05/18 : LAS Creation Date
~Well ------------------------------------------------------
STRT.FT                      950.0 : START DEPTH
STOP.FT                    10300.0 : STOP DEPTH
STEP.FT                   50.00000 : STEP LENGTH
NULL.                      -999.25 : NULL VALUE
COMP.         PETROFINA CANADA LTD : COMPANY
WELL. FINA ET AL KAYBOB 10-7-60-17 : WELL
FLD .                              : FIELD
LOC .                              : LOCATION
CTRY.                       CANADA : COUNTRY
SRVC.                 Schlumberger : SERVICE COMPANY
DATE.                  18-Jan-1976 : LOGDATE
PROV.                      Alberta : PROVINCE
UWI .             100100706017W500 : UNIQUE WELL ID
SLAT.WGS84                54.17689 : SURFACE LATITUDE
SLON.WGS84               -116.5329 : SURFACE LONGITUDE
~Curve Information -----------------------------------------
DEPT    .FT    : Depth Curve
CALDED  .IN    : CALIPER FROM DENSITY LOG [ADJ. TO RESISTIVITY LOG]
CALSED  .IN    : CALIPER FROM SONIC LOG
CALWS   .IN    : CALIPER [CALDED SPL. TO CALSED @ 1046']
CILDED  .MMHO  : CONDUCTIVITY FROM RESISTIVITY LOG
CONDWS  .MMHO  : CONDUCTIVITY [1000/DRESWS]
DCORED  .G/C3  : DENSITY CORRECTION FROM DENSITY LOG [ADJ. TO RESISTIVITY LOG]
DCORWS  .G/C3  : DENSITY CORRECTION [DCORED]
DENWS   .G/C3  : FORMATION BULK DENSITY [CALC. FROM DPOLSWS, M=M=2.71 F=1.00]
DPHILSED.V/V   : DENSITY POROSITY LIMESTONE [M=M=2.71 F=1.00] FROM DENSITY LOG [ADJ. TO RESISTIVITY LOG]
DPHISSED.V/V   : DENSITY POROSITY SANDSTONE [M=2.65 F=1.00] FROM DENSITY LOG [ADJ. TO RESISTIVITY LOG]
DPOLSWS .V/V   : DENSITY POROSITY LIMESTONE [DPHISSED CONVERTED TO LIMESTONE (M=2.71 F=1.00), SPL. TO DPHILSED @ 6847']
DRESWS  .OHMM  : DEEP RESISTIVITY [1000/CILDED, IF ILDED < 2, ILDED & SPL. TO ILDED @ 1043'-3980']
DTED    .US/F  : DELTA TIME FROM SONIC LOG
DTWS    .US/F  : COMPRESSIONAL SONIC [DTED]
GRDED   .GAPI  : GAMMA RAY FROM DENSITY LOG [ADJ. TO RESISTIVITY LOG]
GRSED   .GAPI  : GAMMA RAY FROM SONIC LOG
GRWS    .GAPI  : GAMMA RAY [GRSED]
ILDED   .OHMM  : DEEP  INDUCTION LOG RESISTIVITY FROM RESISTIVITY LOG
ILMED   .OHMM  : MEDIUM INDUCTION LOG RESISTIVITY FROM RESISTIVITY LOG
LL8ED   .OHMM  : 8 INCH LATEROLOG RESISTIVITY FROM RESISTIVITY LOG
MRESWS  .OHMM  : MEDIUM RESISTIVITY [ILMED]
NPHILSED.V/V   : NEUTRON POROSITY LIMESTONE FROM DENSITY LOG [ADJ. TO RESISTIVITY LOG]
NPHISSED.V/V   : NEUTRON POROSITY SANDSTONE FROM DENSITY LOG [ADJ. TO RESISTIVITY LOG]
NPOLSWS .V/V   : NEUTRON POROSITY LIMESTONE [NPHISSED MATRIX CONVERSION FOR LIMESTONE, SPL. TO NPHILSED @ 6847']
RHOBED  .G/C3  : BULK DENSITY FROM DENSITY LOG [ADJ. TO RESISTIVITY LOG]
SPRED   .MV    : SPONTANEOUS POTENTIAL FROM RESISTIVITY LOG
SPWS    .MV    : SPONTANEOUS POTENTIAL [BASELINE 0 MV, SPRED]
SRESWS  .OHMM  : SHALLOW RESISTIVITY [LL8ED]
~Params ----------------------------------------------------
PD  .                     GL : PERMANENT DATUM
EPD .FT              2627.65 : ELEVATION PERMANENT DATUM
LMF .                     KB : LOG MEASURED FROM
DAPD.FT                 14.2 : FEET ABOVE PERMANENT DATUM
EKB .FT              2641.85 : KELLY BUSHING
EGL .FT              2627.65 : GROUND LEVEL
DATE.               01/18/76 : RUN DATE
RUN .                      1 : RUN NUMBER
DD  .FT                10330 : DEPTH DRILLER
DL  .FT                10336 : DEPTH LOGGER
BLI .FT                10330 : BOTTOM LOG INTERVAL
TLI .FT                 1038 : TOP LOG INTERVAL
CBD .FT                 1039 : CASING BOTTOM DRILLER
CBL .FT                 1038 : CASING BOTTOM LOGGER
BS  .IN                 8.75 : BIT SIZE
BSD .FT                10330 : BIT SIZE AT DEPTH
DFT .            GEL CAUSTIC : DRILLING FLUID TYPE
DFD .                    9.1 : DRILLING FLUID DENSITY
DFV .                    220 : DRILLING FLUID VISCOSITY
DFPH.                   10.5 : DRILLING FLUID PH
DFL .                    9.5 : DRILLING FLUID LOSS
MSS .             CIRCULATED : MUD SAMPLE SOURCE
RMS .OHMM               2.67 : RESISTIVITY MUD SAMPLE
MST .DEGF                 52 : MUD SAMPLE TEMPERATURE
RMF .OHMM               2.43 : RESISTIVITY MUD FILTRATE SAMPLE
MFST.DEGF                 73 : MUD FILTRATE SAMPLE TEMPERATURE
RMB .OHMM               0.88 : RESISTIVITY MUD AT BHT
TCS .HRS                   4 : TIME CIRCULATED STOPPED
LUN .                   7667 : LOGGING UNIT NUMBER
LUL .                    EDM : LOGGING UNIT LOCATION
ENGI.                 DENNIS : RECORDING ENGINEER
WITN.                JOHNSON : WITNESSED BY
CLNT.                A2DTECH : CLIENT CODE
ORIG.            2" 5" PRINT : ORIGIN OF DATA
UWI .       100100706017W500 : UNIQUE WELL ID
DICO. A2D Technologies, Inc. : DIGITIZING COMPANY
~Other -----------------------------------------------------
~ASCII -----------------------------------------------------
# ...
 8450.00000    8.39560    8.59910    8.59910    -999.25   40.17050    0.17330    0.17330    2.76930   -0.03470    -999.25   -0.03470   24.89390   52.23280   52.23280   15.83870   14.07160   14.07160   24.89390   37.95180  119.24040   37.95180    0.08380    -999.25    0.08380    2.77400 -162.07840 -122.99640  119.24040
 8500.00000    9.02250    8.96380    8.96380    -999.25    2.95060    0.04190    0.04190    2.87210   -0.09480    -999.25   -0.09480  338.91130   49.52640   49.52640   36.89370   37.92050   37.92050  338.91130 1525.85050 1489.09990 1525.85050    0.00820    -999.25    0.00820    2.88380 -151.02610 -111.91640 1489.09990
 8550.00000   12.68840   11.66900   11.66900    -999.25    8.34030    0.16420    0.16420    2.41150    0.17450    -999.25    0.17450  119.99650   53.61930   53.61930   21.50200   20.32260   20.32260  119.99650   52.62290   61.94330   52.62290    0.12600    -999.25    0.12600    2.40710 -153.82720 -114.69000   61.94330
 8600.00000    8.77800   10.01980   10.01980    -999.25   22.27100    0.03740    0.03740    2.78200   -0.04210    -999.25   -0.04210   44.90140   54.05930   54.05930   30.92450   30.25860   30.25860   44.90140   36.88930   31.81060   36.88930    0.10820    -999.25    0.10820    2.78140 -137.34890  -98.18390   31.81060
 8650.00000    8.80240   10.12970   10.12970    -999.25    4.77100    0.01160    0.01160    2.71270   -0.00160    -999.25   -0.00160  209.60130   51.29880   51.29880   24.21550   25.78000   25.78000  209.60130  291.56990  187.78460  291.56990    0.01950    -999.25    0.01950    2.71790  -84.19950  -45.00690  187.78460
 8700.00000    9.21060    9.09470    9.09470    -999.25   11.90700    0.02830    0.02830    2.74160   -0.01850    -999.25   -0.01850   83.98390   52.93530   52.93530   40.90780   36.94300   36.94300   83.98390   91.45370   96.60090   91.45370    0.03440    -999.25    0.03440    2.74770  -41.40920   -2.82870   96.60090
 8750.00000    9.19520    9.12700    9.12700    -999.25    7.80000    0.03350    0.03350    2.76420   -0.03170    -999.25   -0.03170  128.20580   52.06110   52.06110   32.56430   28.87520   28.87520  128.20580  174.07410  138.38430  174.07410    0.02130    -999.25    0.02130    2.76620  -48.23040  -10.39310  138.38430
 8800.00000    9.18520    9.06220    9.06220    -999.25    9.89370    0.04080    0.04080    2.74440   -0.02010    -999.25   -0.02010  101.07600   52.51090   52.51090   31.70170   31.57210   31.57210  101.07600  127.46460  110.88110  127.46460    0.03050    -999.25    0.03050    2.74530  -47.87580  -10.77810  110.88110
 8850.00000    9.19270    9.19030    9.19030    -999.25    7.64170    0.00880    0.00880    2.71380   -0.00220    -999.25   -0.00220  130.86020   51.90800   51.90800   27.09570   24.77950   24.77950  130.86020  198.13040  161.32400  198.13040    0.01720    -999.25    0.01720    2.72540  -46.23720   -9.88640  161.32400
 8900.00000    9.14110    9.27190    9.27190    -999.25   17.97000    0.02410    0.02410    2.74060   -0.01790    -999.25   -0.01790   55.64840   53.59260   53.59260   32.51060   37.59450   37.59450   55.64840   69.40400   67.56210   69.40400    0.04160    -999.25    0.04160    2.75440  -41.35020   -5.74260   67.56210
 8950.00000    9.31660    9.49980    9.49980    -999.25   88.18890    0.02340    0.02340    2.69290    0.01000    -999.25    0.01000   11.33930   63.87460   63.87460   68.94460   65.25700   65.25700   11.33930   13.07950   14.43710   13.07950    0.13060    -999.25    0.13060    2.69460  -41.32590   -6.46150   14.43710
 9000.00000    9.35350    9.67100    9.67100    -999.25   95.44720    0.05280    0.05280    2.67870    0.01830    -999.25    0.01830   10.47700   65.70040   65.70040   74.76660   68.00350   68.00350   10.47700   11.67090   13.78300   11.67090    0.13560    -999.25    0.13560    2.67100  -44.29730  -10.17610   13.78300
 9050.00000    9.11550    9.38480    9.38480    -999.25   72.00660    0.03400    0.03400    2.73490   -0.01460    -999.25   -0.01460   13.88770   62.37850   62.37850   62.30980   61.48580   61.48580   13.88770   15.98270   19.32310   15.98270    0.12520    -999.25    0.12520    2.73890  -35.85050   -2.46880   19.32310
 9100.00000    9.24720    9.35570    9.35570    -999.25   74.21810    0.06160    0.06160    2.73790   -0.01630    -999.25   -0.01630   13.47380   64.41210   64.41210   81.87620   75.89420   75.89420   13.47380   16.69500   19.56410   16.69500    0.14820    -999.25    0.14820    2.74610  -35.25930   -2.62460   19.56410
 9150.00000   10.94080   10.21410   10.21410    -999.25   62.09950    0.18040    0.18040    2.39440    0.18460    -999.25    0.18460   16.10320   76.69360   76.69360  100.16830   93.17710   93.17710   16.10320   22.04040   37.01630   22.04040    0.24890    -999.25    0.24890    2.41240  -52.37540  -19.54330   37.01630
 9200.00000   13.31540   11.64130   11.64130    -999.25  179.28860    0.19110    0.19110    2.37240    0.19740    -999.25    0.19740    5.57760   81.30300   81.30300  106.01960   99.02870   99.02870    5.57760    5.95460    7.71670    5.95460    0.33540    -999.25    0.33540    2.36940  -80.36660  -47.10200    7.71670
 9250.00000   11.26120    9.84670    9.84670    -999.25  104.47790    0.25000    0.25000    2.47610    0.13680    -999.25    0.13680    9.57140   65.76660   65.76660   77.81830   77.88240   77.88240    9.57140   10.28070   20.88550   10.28070    0.18200    -999.25    0.18200    2.47510  -65.08210  -31.38500   20.88550
 9300.00000    9.62700    9.67640    9.67640    -999.25   65.52750    0.10670    0.10670    2.56070    0.08730    -999.25    0.08730   15.26450   66.44880   66.44880   93.79800   92.84020   92.84020   15.26450   17.27330   22.37030   17.27330    0.14980    -999.25    0.14980    2.56450  -47.32650  -13.19900   22.37030
 9350.00000    9.29760    9.23600    9.23600    -999.25   34.22360    0.00880    0.00880    2.71090   -0.00050    -999.25   -0.00050   29.21960   55.76100   55.76100   48.92130   49.69080   49.69080   29.21960   33.29940   43.02840   33.29940    0.06260    -999.25    0.06260    2.70940  -40.66740   -6.10520   43.02840
 9400.00000    9.12690    9.73290    9.73290    -999.25   54.39190    0.00880    0.00880    2.69670    0.00780    -999.25    0.00780   18.38510   62.39670   62.39670   70.05500   68.21790   68.21790   18.38510   20.06120   23.75500   20.06120    0.12460    -999.25    0.12460    2.70170  -41.12280   -6.12810   23.75500
 9450.00000    9.27340    9.31320    9.31320    -999.25   68.96310    0.00180    0.00180    2.67700    0.01930    -999.25    0.01930   14.50050   66.39250   66.39250   91.76860   84.16770   84.16770   14.50050   16.14340   19.83810   16.14340    0.17370    -999.25    0.17370    2.68700  -37.61630   -2.34520   19.83810
 9500.00000    9.60340    9.42210    9.42210    -999.25   71.85660    0.14280    0.14280    2.74030   -0.01770    -999.25   -0.01770   13.91660   66.53240   66.53240  102.23400   97.95500   97.95500   13.91660   16.16330   19.19930   16.16330    0.18410    -999.25    0.18410    2.74030  -39.82300   -5.16000   19.19930
 9550.00000    9.65620    9.45340    9.45340    -999.25   78.45490    0.21330    0.21330    2.70750    0.00150    -999.25    0.00150   12.74630   65.88620   65.88620   82.12360   75.77930   75.77930   12.74630   14.73110   18.96200   14.73110    0.15430    -999.25    0.15430    2.71220  -38.52860   -4.47060   18.96200
 9600.00000    9.30400    9.16010    9.16010    -999.25   59.62600    0.01000    0.01000    2.72110   -0.00650    -999.25   -0.00650   16.77120   62.18790   62.18790   80.29370   77.28710   77.28710   16.77120   21.92150   29.02070   21.92150    0.13600    -999.25    0.13600    2.72990  -35.10360   -1.65670   29.02070
 9650.00000    9.00260    8.98570    8.98570    -999.25    2.96040    0.02360    0.02360    2.65800    0.03040    -999.25    0.03040  337.79330   60.41380   60.41380   81.74420   79.70990   79.70990  337.79330  602.42630  517.79780  602.42630    0.09710    -999.25    0.09710    2.65840  -39.11390   -6.27510  517.79780
