~Version ---------------------------------------------------
VERS.      2.0 : CWLS log ASCII Standard -VERSION 2.0
WRAP.       NO : One line per depth step
CREA. 12/01/17 : LAS Creation Date
~Well ------------------------------------------------------
STRT.FT                       650.0 : START DEPTH
STOP.FT                      6550.0 : STOP DEPTH
STEP.FT                    50.00000 : STEP LENGTH
NULL.                       -999.25 : NULL VALUE
COMP.    CANADIAN SUPERIOR OIL LTD. : COMPANY
WELL. CDN-SUP ET AL NIPISI 7-5-77-8 : WELL
FLD .                               : FIELD
LOC .                               : LOCATION
CTRY.                        CANADA : COUNTRY
SRVC.        Schlumberger of Canada : SERVICE COMPANY
DATE.                   23-Mar-1976 : LOGDATE
PROV.                       Alberta : PROVINCE
UWI .              100070507708W500 : UNIQUE WELL ID
SLAT.WGS84                 55.64085 : SURFACE LATITUDE
SLON.WGS84                -115.1982 : SURFACE LONGITUDE
~Curve Information -----------------------------------------
DEPT    .FT    : Depth Curve
CALDED  .IN    : CALIPER FROM DENSITY LOG
CALWS   .IN    : CALIPER [CALDED]
CONDWS  .MMHO  : CONDUCTIVITY [1000/DRESWS]
DCORWS  .G/C3  : DENSITY CORRECTION [DRHOED]
DENWS   .G/C3  : FROMATION BULK DENSITY [CALC. FROM DPOLSWS, M=2.71, F=1.00]
DPHILSED.V/V   : DENSITY POROSITY LIMESTONE [DPOLSWS, M=2.71, F=1.00] FROM DENSITY LOG
DPOLSWS .V/V   : DENSITY POROSITY LIMESTONE [DPHILSED SPL. TO CALC. FROM RHOBED M=2.71, F=1.00 AT SEVERAL INTERVAL]
DRESWS  .OHMM  : DEEP RESISTIVITY [ILDED]
DRHOED  .G/C3  : BULK DENSITY CORRECTION FROM DENSITY LOG
GRDED   .GAPI  : GAMMA RAY FROM DENSITY LOG
GRWS    .GAPI  : GAMMA RAY [GRDED]
ILDED   .OHMM  : DEEP INDUCTION RESISTIVITY FROM RESISTIVITY LOG
ILMED   .OHMM  : MEDIUM INDUCTION RESISTIVITY FROM RESISTIVITY LOG
LL8ED   .OHMM  : LATEROLOG 8 RESISTIVITY  FROM RESISTIVITY LOG
MRESWS  .OHMM  : MEDIUM RESISTIVITY [ILMED]
NPHILSED.V/V   : NEUTRON POROSITY LIMESTONE FROM DENSITY LOG
NPOLSWS .V/V   : NEUTRON POROSITY LIMESTONE [NPHILSED]
RHOBED  .G/C3  : BULK DENSITY FROM DENSITY LOG
SPRED   .MV    : SPONTANEOUS POTENTIAL FROM RESISTIVITY LOG
SPWS    .MV    : SPONTANEOUS POTENTIAL [BASELINE 0 MV,SPRED]
SRESWS  .OHMM  : SHALLOW RESISTIVITY [LL8ED]
~Params ----------------------------------------------------
PD  .                     GL : PERMANENT DATUM
EPD .FT                 2344 : ELEVATION PERMANENT DATUM
LMF .                     KB : LOG MEASURED FROM
DAPD.FT                   14 : FEET ABOVE PERMANENT DATUM
EKB .FT                 2358 : KELLY BUSHING
EGL .FT                 2344 : GROUND LEVEL
DATE.               03/23/76 : RUN DATE
RUN .                      1 : RUN NUMBER
DD  .FT                 6590 : DEPTH DRILLER
DL  .FT                 6592 : DEPTH LOGGER
BLI .FT                 6586 : BOTTOM LOG INTERVAL
TLI .FT                  646 : TOP LOG INTERVAL
CBD .FT                  646 : CASING BOTTOM DRILLER
CBL .FT                  646 : CASING BOTTOM LOGGER
BS  .IN                7.875 : BIT SIZE
BSD .FT                 6590 : BIT SIZE AT DEPTH
DFT .               GEL CHEM : DRILLING FLUID TYPE
DFD .                    9.9 : DRILLING FLUID DENSITY
DFV .                    120 : DRILLING FLUID VISCOSITY
DFPH.                     11 : DRILLING FLUID PH
DFL .                    9.6 : DRILLING FLUID LOSS
MSS .             CIRCULATED : MUD SAMPLE SOURCE
RMS .OHMM               0.76 : RESISTIVITY MUD SAMPLE
MST .DEGF                 42 : MUD SAMPLE TEMPERATURE
RMF .OHMM               0.46 : RESISTIVITY MUD FILTRATE SAMPLE
MFST.DEGF                 65 : MUD FILTRATE SAMPLE TEMPERATURE
TCS .HRS                   3 : TIME CIRCULATED STOPPED
LUN .                   7691 : LOGGING UNIT NUMBER
LUL .                    EDM : LOGGING UNIT LOCATION
ENGI.   CROCKFORD KREZANOSKI : RECORDING ENGINEER
WITN.            KELLY GLEEN : WITNESSED BY
CLNT.                A2DTECH : CLIENT CODE
ORIG.            2" 5" PRINT : ORIGIN OF DATA
UWI .       100070507708W500 : UNIQUE WELL ID
DICO. A2D Technologies, Inc. : DIGITIZING COMPANY
~Other -----------------------------------------------------
~ASCII -----------------------------------------------------
  650.00000    9.78460    9.78460  102.73690    0.11510    2.17940    0.31030    0.31030    -999.25    0.11510   76.70170   76.70170    -999.25    -999.25    -999.25    -999.25    0.38990    0.38990    2.20000  -92.02470    1.07510    -999.25
  700.00000   13.50480   13.50480  137.02760    0.07790    2.12420    0.34260    0.34260    7.29780    0.07790   99.56550   99.56550    7.29780    6.87900    6.67610    6.87900    0.38830    0.38830    2.13260 -104.04440  -11.84090    6.67610
  750.00000   14.11630   14.11630  170.11720    0.05940    1.86900    0.49180    0.49180    5.87830    0.05940   83.91360   83.91360    5.87830    5.36050    5.61510    5.36050    0.43890    0.43890    1.85090  -98.80370   -7.49060    5.61510
  800.00000   11.89690   11.89690   89.05750    0.07600    2.20620    0.29460    0.29460   11.22870    0.07600  190.31670  190.31670   11.22870    9.30370   10.65280    9.30370    0.40600    0.40600    2.20260 -104.53130  -14.10870   10.65280
  850.00000   14.59900   14.59900  263.07480    0.00110    1.61020    0.60000    0.64320    3.80120    0.00110   51.69010   51.69010    3.80120    4.95200    4.26040    4.95200    0.47780    0.47780    1.61020  -94.28840   -4.76200    4.26040
  900.00000   14.99950   14.99950  192.29290    0.12200    1.83880    0.50950    0.50950    5.20040    0.12200   70.69750   70.69750    5.20040    4.75320    4.46760    4.75320    0.47970    0.47970    1.85690  -97.54980   -8.91390    4.46760
  950.00000   14.40450   14.40450  174.57490    0.04910    1.51650    0.60000    0.69800    5.72820    0.04910   64.24380   64.24380    5.72820    5.09450    4.50530    5.09450    0.43430    0.43430    1.51650  -96.38630   -8.64670    4.50530
 1000.00000   13.75290   13.75290  234.59310    0.05690    1.67730    0.58860    0.60390    4.26270    0.05690   80.05470   80.05470    4.26270    3.67400    4.09200    3.67400    0.46270    0.46270    1.67730  -94.62750   -7.77830    4.09200
 1050.00000   14.09520   14.09520  230.76570    0.10160    1.74250    0.56050    0.56580    4.33340    0.10160   83.66230   83.66230    4.33340    3.90810    4.07980    3.90810    0.44450    0.44450    1.74250  -96.91030  -10.95160    4.07980
 1100.00000   15.00000   15.00000  222.41500    0.03500    1.58740    0.59990    0.65650    4.49610    0.03500   61.55160   61.55160    4.49610    5.98280    4.24070    5.98280    0.47990    0.47990    1.58740  -92.29750   -7.23510    4.24070
 1150.00000   15.01800   15.01800  201.64540    0.01040    1.42750    0.60000    0.75000    4.95920    0.01040   68.55610   68.55610    4.95920    3.69070    3.83290    3.69070    0.51050    0.51050    1.42750  -91.33740   -7.16540    3.83290
 1200.00000   10.70280   10.70280  391.88020    0.10770    1.91980    0.46210    0.46210    2.55180    0.10770   99.39210   99.39210    2.55180    2.73400    3.54590    2.73400    0.45780    0.45780    1.89490  -93.78830  -10.51260    3.54590
 1250.00000   12.47660   12.47660  410.40790    0.13720    1.90100    0.47310    0.47310    2.43660    0.13720   91.46510   91.46510    2.43660    2.60290    3.02620    2.60290    0.44770    0.44770    1.88110  -94.32380  -11.93850    3.02620
 1300.00000   12.46670   12.46670  358.02510    0.11060    1.80730    0.52790    0.52790    2.79310    0.11060   86.93240   86.93240    2.79310    2.97250    3.19490    2.97250    0.49670    0.49670    1.78710  -92.23050  -10.73570    3.19490
 1350.00000   12.20110   12.20110  352.92040    0.11050    1.91470    0.46510    0.46510    2.83350    0.11050   89.33860   89.33860    2.83350    3.01090    3.27180    3.01090    0.42430    0.42430    1.82930  -91.81070  -11.21220    3.27180
 1400.00000   12.46730   12.46730  596.16070    0.07830    1.75210    0.56020    0.56020    1.67740    0.07830   61.61660   61.61660    1.67740    1.80590    2.13450    1.80590    0.49520    0.49520    1.68020  -83.39740   -3.68930    2.13450
 1450.00000    7.84520    7.84520  111.18150    0.05780    2.11610    0.34730    0.34730    8.99430    0.05780   47.86990   47.86990    8.99430   11.16270   12.13940   11.16270    0.33730    0.33730    2.10510  -91.37370  -12.71750   12.13940
 1500.00000    7.79190    7.79190  159.24830    0.03670    2.11820    0.34610    0.34610    6.27950    0.03670   66.72380   66.72380    6.27950    7.05320    8.82190    7.05320    0.38030    0.38030    2.14610  -89.41860  -11.86400    8.82190
 1550.00000    8.61460    8.61460  116.61940    0.04120    2.12240    0.34360    0.34360    8.57490    0.04120   48.85890   48.85890    8.57490   10.10940    9.38520   10.10940    0.34510    0.34510    2.11550  -91.96360  -15.51070    9.38520
 1600.00000    8.89260    8.89260  276.73230    0.01200    2.18380    0.30770    0.30770    3.61360    0.01200   69.12940   69.12940    3.61360    4.05810    3.85600    4.05810    0.40050    0.40050    2.13670  -94.60600  -19.26190    3.85600
 1650.00000    9.84810    9.84810  198.44030    0.02140    2.15460    0.32480    0.32480    5.03930    0.02140   55.84980   55.84980    5.03930    4.79050    4.47610    4.79050    0.39610    0.39610    2.15710  -91.13300  -16.89060    4.47610
 1700.00000    8.86490    8.86490  305.72630    0.06140    2.24200    0.27370    0.27370    3.27090    0.06140   72.77700   72.77700    3.27090    3.38800    3.52200    3.38800    0.38690    0.38690    2.25340  -93.16820  -20.03460    3.52200
 1750.00000    8.09710    8.09710  188.57610    0.06330    2.14860    0.32830    0.32830    5.30290    0.06330   60.06690   60.06690    5.30290    6.36970    6.64090    6.36970    0.37650    0.37650    2.14010  -93.92910  -21.89720    6.64090
 1800.00000    9.07070    9.07070  240.44240    0.08900    2.28280    0.24980    0.24980    4.15900    0.08900   70.40360   70.40360    4.15900    4.33870    4.56060    4.33870    0.36310    0.36310    2.30410  -91.22460  -20.29430    4.56060
 1850.00000    8.61560    8.61560  147.70830    0.10480    2.26280    0.26150    0.26150    6.77010    0.10480   68.11500   68.11500    6.77010    8.27170    9.71820    8.27170    0.36170    0.36170    2.25670  -97.14880  -27.32740    9.71820
 1900.00000    8.05380    8.05380  171.44130    0.01620    2.43670    0.15980    0.15980    5.83290    0.01620   57.76370   57.76370    5.83290    7.33570    7.97290    7.33570    0.23120    0.23120    2.39940  -95.75100  -27.03120    7.97290
 1950.00000    9.94270    9.94270  299.87710    0.05910    2.28110    0.25080    0.25080    3.33470    0.05910   73.15310   73.15310    3.33470    3.42340    3.59320    3.42340    0.38040    0.38040    2.29590  -86.55950  -18.94860    3.59320
 2000.00000   10.89850   10.89850  297.46850    0.13520    2.25940    0.26350    0.26350    3.36170    0.13520   70.50350   70.50350    3.36170    3.67830    3.59790    3.67830    0.41480    0.41480    2.26200  -80.96860  -14.45930    3.59790
 2050.00000   10.14960   10.14960  164.22520    0.11120    2.27790    0.25270    0.25270    6.08920    0.11120   61.44920   61.44920    6.08920    6.32510    5.95890    6.32510    0.34690    0.34690    2.28650  -86.23240  -20.82470    5.95890
 2100.00000   11.27910   11.27910  211.45670    0.06670    2.12040    0.34480    0.34480    4.72910    0.06670   65.01740   65.01740    4.72910    5.30260    4.42570    5.30260    0.41780    0.41780    2.08500  -78.24730  -13.94850    4.42570
 2150.00000   11.64270   11.64270  159.77500    0.09510    2.41910    0.17010    0.17010    6.25880    0.09510   73.07300   73.07300    6.25880    6.65360    6.88300    6.65360    0.28570    0.28570    2.41420  -92.27060  -29.07340    6.88300
 2200.00000    8.21870    8.21870    4.49450    0.09210    2.48800    0.12980    0.12980  222.49650    0.09210   16.94890   16.94890  222.49650   82.60950 1788.12850   82.60950    0.13650    0.13650    2.48390  -85.96320  -23.87490 1788.12850
 2250.00000    7.97320    7.97320    0.86530    0.11220    2.39400    0.18480    0.18480 1155.61980    0.11220   16.96310   16.96310 1155.61980  952.27450 1665.45650  952.27450    0.20980    0.20980    2.38610  -77.60120  -16.61450 1665.45650
