~Version ---------------------------------------------------
VERS.      2.0 : CWLS log ASCII Standard -VERSION 2.0
WRAP.       NO : One line per depth step
CREA. 12/17/14 : LAS Creation Date
~Well ------------------------------------------------------
STRT.FT                               900.0 : START DEPTH
STOP.FT                              8350.0 : STOP DEPTH
STEP.FT                            50.00000 : STEP LENGTH
NULL.                               -999.25 : NULL VALUE
COMP.                      HOME OIL COMPANY : COMPANY
WELL. HOME FPC ET AL MORSE RIVER 10-30-65-9 : WELL
FLD .                                       : FIELD
LOC .                                       : LOCATION
CTRY.                                CANADA : COUNTRY
SRVC.                Schlumberger of Canada : SERVICE COMPANY
DATE.                           16-Feb-1961 : LOGDATE
PROV.                               Alberta : PROVINCE
UWI .                      100103006509W500 : UNIQUE WELL ID
SLAT.WGS84                         54.65619 : SURFACE LATITUDE
SLON.WGS84                         -115.345 : SURFACE LONGITUDE
~Curve Information -----------------------------------------
DEPT.FT            : Depth Curve
CILD.MMHO          : INDUCTION DEEP CONDUCTIVITY
DT  .US/F          : DELTA-T (INTERVAL TRANSIT TIME)
GRS .UG_RA-EQ/TON  : GAMMA RAY FROM SONIC LOG
ILD .OHMM          : INDUCTION DEEP RESISTIVITY
MCAL.IN            : MLT (MICROLOG) CALIPER
SN  .OHMM          : SHORT NORMAL RESISTIVITY
SPR .MV            : SPONTANEOUS POTENTIAL FROM RESISTIVITY LOG
~Params ----------------------------------------------------
LMF .                     KB : LOG MEASURED FROM
DMF .                     KB : DRILLING MEASURED FROM
EKB .FT                 3357 : KELLY BUSHING
EGL .FT               3344.1 : GROUND LEVEL
DATE.               02/16/61 : RUN DATE
RUN .                      1 : RUN NUMBER
DD  .FT                 8361 : DEPTH DRILLER
DL  .FT                 8351 : DEPTH LOGGER
BLI .FT                 8350 : BOTTOM LOG INTERVAL
TLI .FT                  857 : TOP LOG INTERVAL
CBD .FT                  857 : CASING BOTTOM DRILLER
CBL .FT                  857 : CASING BOTTOM LOGGER
BS  .IN                 8.75 : BIT SIZE
BSD .FT                 8361 : BIT SIZE AT DEPTH
DFT .                    GEL : DRILLING FLUID TYPE
DFD .                    9.9 : DRILLING FLUID DENSITY
DFV .                    135 : DRILLING FLUID VISCOSITY
DFPH.                     10 : DRILLING FLUID PH
DFL .                      7 : DRILLING FLUID LOSS
RMS .OHMM               2.45 : RESISTIVITY MUD SAMPLE
MST .DEGF                 71 : MUD SAMPLE TEMPERATURE
TCS .HRS                   4 : TIME CIRCULATED STOPPED
LUN .                   1571 : LOGGING UNIT NUMBER
LUL .                     SH : LOGGING UNIT LOCATION
ENGI.               WILLIAMS : RECORDING ENGINEER
WITN.                  BEARD : WITNESSED BY
CLNT.                A2DTECH : CLIENT CODE
ORIG.            2" 5" PRINT : ORIGIN OF DATA
UWI .       100103006509W500 : UNIQUE WELL ID
DICO. A2D Technologies, Inc. : DIGITIZING COMPANY
~Other -----------------------------------------------------
~ASCII -----------------------------------------------------
  900.00000  339.23690    -999.25    -999.25    3.17870    -999.25    2.80490  -99.71740
  950.00000  349.79090    -999.25    -999.25    2.81100    -999.25    2.48620 -100.65260
 1000.00000  274.52150    -999.25    -999.25    3.38930    -999.25    3.09250  -96.77830
 1050.00000  239.57140    -999.25    -999.25    3.96190    -999.25    3.70120  -93.76390
 1100.00000  288.41180    -999.25    -999.25    3.46950    -999.25    3.06570  -91.84400
 1150.00000  277.49930    -999.25    -999.25    3.64790    -999.25    2.86680  -97.04700
 1200.00000  250.37150    -999.25    -999.25    4.02950    -999.25    3.59010  -92.18110
 1250.00000  218.01480    -999.25    -999.25    4.83830    -999.25    4.37070  -91.61070
 1300.00000  383.04190    -999.25    -999.25    2.68070    -999.25    2.05380  -90.77940
 1350.00000  282.70550    -999.25    -999.25    3.04660    -999.25    3.46370  -98.21060
 1400.00000  556.06040    -999.25    -999.25    1.99550    -999.25    1.55310  -97.73740
 1450.00000  320.09840    -999.25    -999.25    2.81140    -999.25    2.45700  -98.10090
 1500.00000  235.05900    -999.25    -999.25    4.42660    -999.25    3.77010  -99.99950
 1550.00000  241.05940    -999.25    -999.25    4.00540    -999.25    3.61940 -100.08960
 1600.00000  349.00850    -999.25    -999.25    3.03500    -999.25    2.74810  -97.52470
 1650.00000  132.19650    -999.25    -999.25    7.81720    -999.25    7.38180 -110.08020
 1700.00000  286.48910    -999.25    -999.25    3.22730    -999.25    3.61140  -96.42570
 1750.00000   83.37230    -999.25    -999.25   12.51520    -999.25   10.25460 -112.92140
 1800.00000  290.32670    -999.25    -999.25    3.20340   10.39190    2.89320  -99.93260
 1850.00000  231.71020    -999.25    -999.25    5.47840    8.01550    4.94740 -107.60940
 1900.00000  137.23620    -999.25    -999.25    7.22310    8.28770    5.99110 -113.87310
 1950.00000   94.49020    -999.25    -999.25   10.40810    8.46340    8.30490 -118.00420
 2000.00000  308.17840    -999.25    -999.25    3.49730   10.01830    3.87750 -101.34160
 2050.00000  230.01280    -999.25    -999.25    4.49410    9.62320    3.93650 -100.98580
 2100.00000  253.70910    -999.25    -999.25    3.60130   10.81850    4.01330  -98.55500
 2150.00000  303.72170    -999.25    -999.25    3.07770   11.38480    3.35150 -103.12020
 2200.00000  225.00660    -999.25    -999.25    4.47950   11.76100    4.05370 -102.15410
 2250.00000  268.09570    -999.25    -999.25    3.80960   12.55130    3.49160  -97.18840
 2300.00000  291.37010    -999.25    -999.25    3.24090   11.74270    3.61750 -100.64730
 2350.00000  289.88780    -999.25    -999.25    3.11020   12.69810    3.59430  -98.99920
 2400.00000  264.88090    -999.25    -999.25    3.49930   11.57920    3.81070  -98.75480
 2450.00000  266.74950    -999.25    -999.25    3.50790   11.24670    3.81430  -98.08350
 2500.00000  185.82300    -999.25    -999.25    5.06850   10.04010    6.24060 -108.82400
 2550.00000  260.86790    -999.25    -999.25    3.47460   11.21000    3.79220  -97.45870
 2600.00000  223.96120    -999.25    -999.25    4.27690   12.39840    4.54900 -102.32680
 2650.00000  206.82050    -999.25    -999.25    4.45340   14.25930    4.90800 -106.40610
 2700.00000  203.01320    -999.25    -999.25    4.51650   13.91280    4.78530 -106.72120
 2750.00000  247.18820    -999.25    -999.25    3.91700   13.65080    4.27870 -106.06420
 2800.00000  140.20230    -999.25    -999.25    7.30690   14.04400    8.01540 -102.48290
 2850.00000  163.52350    -999.25    -999.25    5.60290   12.75670    6.03540 -103.11360
 2900.00000  193.42620    -999.25    -999.25    4.77650   14.14190    5.12790 -105.16700
 2950.00000  226.67840    -999.25    -999.25    4.38650   14.08800    4.82320 -103.36980
 3000.00000  143.40750    -999.25    -999.25    6.69230   13.52970    7.17040 -102.04570
 3050.00000  171.15240    -999.25    -999.25    6.00240   13.53380    5.59520 -105.78120
 3100.00000  185.76160    -999.25    -999.25    5.44030   14.65820    5.11360 -104.81730
 3150.00000  226.77440    -999.25    -999.25    4.76280   14.59180    4.25640 -103.88650
 3200.00000  152.91800    -999.25    -999.25    6.56400   14.62810    6.13240 -104.03890
 3250.00000  174.75810    -999.25    -999.25    5.65390   14.60070    5.27860 -103.41250
 3300.00000  230.95700    -999.25    -999.25    4.59030   14.58000    4.89540 -101.96460
 3350.00000  231.94440    -999.25    -999.25    4.20450   14.60520    4.72910  -99.79230
 3400.00000  191.61180    -999.25    -999.25    5.04410   14.17350    6.10460 -100.38450
 3450.00000  191.19360    -999.25    -999.25    5.17870   14.16040    6.47180  -97.78560
 3500.00000  165.66020    -999.25    -999.25    5.88520   10.51230    8.68310  -95.47560
 3550.00000  179.89340    -999.25    -999.25    5.28860   12.29000    6.07110 -100.61240
 3600.00000  252.46340    -999.25    -999.25    4.01070   12.94280    4.72450  -96.37110
 3650.00000  228.04810    -999.25    -999.25    4.40260   13.21930    5.03560  -96.18330
 3700.00000  228.82390    -999.25    -999.25    4.46160   14.62980    4.96730  -99.30190
 3750.00000  272.92350    -999.25    -999.25    3.74590   14.62000    4.30520  -95.29540
 3800.00000  278.32090    -999.25    -999.25    3.58230   14.61160    4.20660  -96.72920
 3850.00000  732.90840    -999.25    -999.25    1.62530   14.63000    1.87110  -91.41500
 3900.00000  520.07820    -999.25    -999.25    1.83370   14.62920    2.15920  -94.62370
 3950.00000  301.26130    -999.25    -999.25    3.24860   14.64870    3.70830  -95.07800
 4000.00000  189.23800    -999.25    -999.25    5.03150   11.69060    6.29080  -99.27490
 4050.00000  204.21030    -999.25    -999.25    4.73570    8.77600    7.51520 -118.85060
 4100.00000  163.73940    -999.25    -999.25    5.77570   10.23460    7.15720 -100.01840
 4150.00000  212.28890    -999.25    -999.25    4.53000    9.00120    8.67670 -131.47810
 4200.00000  270.29440    -999.25    -999.25    3.63390    8.26730    5.99870 -124.20520
 4250.00000  224.39540    -999.25    -999.25    4.28660    8.17900   14.29830 -182.51560
 4300.00000  193.58420    -999.25    -999.25    4.99670   11.05490    5.36800 -104.19360
 4350.00000  195.27110    -999.25    -999.25    4.95270   10.35300    6.98330 -113.17550
 4400.00000  194.92350    -999.25    -999.25    4.87220   10.93740    7.98380 -109.81130
 4450.00000  152.37570    -999.25    -999.25    6.39000    9.22620   19.02270 -178.26740
 4500.00000  198.42970    -999.25    -999.25    4.68300   11.10020    6.07370 -100.74440
 4550.00000  174.93780    -999.25    -999.25    5.54690    8.79330   16.60230 -167.87500
 4600.00000  181.88740    -999.25    -999.25    5.39710    8.95330   14.07480 -167.82520
 4650.00000  225.42060    -999.25    -999.25    4.25890   11.47520    5.51010 -103.57630
 4700.00000  393.82590    -999.25    -999.25    2.34970   13.17390    2.91380 -103.50510
 4750.00000  237.71520    -999.25    -999.25    4.10470   12.34200    5.16970 -101.11940
 4800.00000  210.66690    -999.25    -999.25    4.51250   10.72490    5.99300 -101.57580
 4850.00000  156.11510    -999.25    -999.25    6.64220   11.02650    8.63370 -102.22510
 4900.00000   66.88250    -999.25    -999.25   16.29540   10.46790   25.90530 -135.31570
 4950.00000  117.60450    -999.25    -999.25    8.77190   10.89960   15.50060 -133.33850
 5000.00000  435.82470    -999.25    -999.25    2.36440    9.61490    6.05540 -185.92050
 5050.00000  255.59490    -999.25    -999.25    4.00100    7.98100   16.61640 -182.68390
 5100.00000   44.12170    -999.25    -999.25   29.83800    9.24870  128.67240 -230.26080
 5150.00000   23.04410    -999.25    -999.25   91.57270    9.78520   86.81040 -123.58820
 5200.00000  144.60890    -999.25    -999.25    6.73480    9.36950   11.34610 -119.19020
 5250.00000  184.76800    -999.25    -999.25    5.35440    9.69950    7.20990 -116.15960
 5300.00000  187.34970    -999.25    -999.25    5.20740    9.80400    7.41520 -115.21670
 5350.00000  167.34200    -999.25    -999.25    5.79200   10.36000    8.01620 -104.97890
