~Version ---------------------------------------------------
VERS.      2.0 : CWLS log ASCII Standard -VERSION 2.0
WRAP.       NO : One line per depth step
CREA. 12/19/17 : LAS Creation Date
~Well ------------------------------------------------------
STRT.FT                   1500.0 : START DEPTH
STOP.FT                  10100.0 : STOP DEPTH
STEP.FT                 50.00000 : STEP LENGTH
NULL.                    -999.25 : NULL VALUE
COMP. PHILLIPS PETROLEUM COMPANY : COMPANY
WELL. PHILLIPS KAYBOB 2-18-63-18 : WELL
FLD .                     KAYBOB : FIELD
LOC .                            : LOCATION
CTRY.                     CANADA : COUNTRY
SRVC.                      Welex : SERVICE COMPANY
DATE.                15-Dec-1959 : LOGDATE
PROV.                    Alberta : PROVINCE
UWI .           100021806318W500 : UNIQUE WELL ID
SLAT.WGS84              54.44531 : SURFACE LATITUDE
SLON.WGS84             -116.7064 : SURFACE LONGITUDE
~Curve Information -----------------------------------------
DEPT  .FT    : Depth Curve
CALWS .IN    : CALIPER [MCALED]
CONDWS.MMHO  : CONDUCTIVITY [1000/DRESWS]
DRESWS.OHMM  : DEEP RESISTIVITY [LAT9ED]
GRNED .GAPI  : GAMMA RAY FROM GRN LOG [ADJ. TO RESISTIVITY LOG]
GRWS  .GAPI  : GAMMA RAY [GRNED]
LAT9ED.OHMM  : LATEROLOG 9' FROM RESISTIVITY LOG
LT16ED.OHMM  : LATERLOG 16' FROM RESISTIVITY LOG
MCALED.IN    : CALIPER FROM MICRO LOG
NEUTED.NAPI  : NEUTRON FROM GRN LOG [ADJ. TO RESISTIVITY LOG]
NEUTWS.NAPI  : NEUTRON [NEUTED]
SNED  .OHMM  : SHORT NORMAL FROM RESISTIVITY LOG
SPRED .MV    : SPONTANEOUS POTENTIAL FROM RESISTIVITY LOG
SPWS  .MV    : SPONTANEOUS POTENTIAL [BASELINE 0 MV, SPRED]
SRESWS.OHMM  : SHALLOW RESISTIVITY [SNED]
~Params ----------------------------------------------------
PD  .                         RKB : PERMANENT DATUM
LMF .                          KB : LOG MEASURED FROM
DMF .                          KB : DRILLING MEASURED FROM
EKB .FT                      2620 : KELLY BUSHING
EDF .FT                      2618 : DRILLING FLOOR
EGL .FT                      2605 : GROUND LEVEL
DATE.                    12/15/59 : RUN DATE
RUN .                           2 : RUN NUMBER
DD  .FT                     10140 : DEPTH DRILLER
DL  .FT                     10144 : DEPTH LOGGER
BLI .FT                     10143 : BOTTOM LOG INTERVAL
TLI .FT                      1510 : TOP LOG INTERVAL
CS  .IN                     9.625 : CASING SIZE
CBD .FT                    1510.5 : CASING BOTTOM DRILLER
CBL .FT                      1510 : CASING BOTTOM LOGGER
BS  .IN                     7.875 : BIT SIZE
BSD .FT                     10140 : BIT SIZE AT DEPTH
DFT . OIL EMULSION GEL QX CAUSTIC : DRILLING FLUID TYPE
DFD .                        10.4 : DRILLING FLUID DENSITY
DFV .                          95 : DRILLING FLUID VISCOSITY
DFPH.                         9.5 : DRILLING FLUID PH
DFL .                         6.4 : DRILLING FLUID LOSS
MSS .                  CIRCULATED : MUD SAMPLE SOURCE
RMS .OHMM                     1.8 : RESISTIVITY MUD SAMPLE
MST .DEGF                      60 : MUD SAMPLE TEMPERATURE
RMF .OHMM                     1.5 : RESISTIVITY MUD FILTRATE SAMPLE
MFST.DEGF                      60 : MUD FILTRATE SAMPLE TEMPERATURE
RMC .OHMM                     2.2 : RESISTIVITY MUD CAKE
MCST.DEGF                      60 : MUD CAKE SAMPLE TEMPERATURE
RMB .OHMM                     0.6 : RESISTIVITY MUD AT BHT
MRT .DEGF                     194 : MAXIMUM RECORDED TEMPERATURE
LUN .                        6101 : LOGGING UNIT NUMBER
ENGI.                      FOWLER : RECORDING ENGINEER
WITN.            TIBBITS FISHBUCK : WITNESSED BY
CLNT.                     A2DTECH : CLIENT CODE
ORIG.                 2" 5" PRINT : ORIGIN OF DATA
UWI .            100021806318W500 : UNIQUE WELL ID
DICO.      A2D Technologies, Inc. : DIGITIZING COMPANY
~Other -----------------------------------------------------
IEL-GRN-ML LOG RAN
DATA FROM SMALL SCALE
~ASCII -----------------------------------------------------
 1500.00000    -999.25    -999.25    -999.25   71.61490   71.61490    -999.25    -999.25    -999.25  311.96750  311.96750    -999.25    -999.25    -999.25    -999.25
 1550.00000   13.37690  750.07500    1.33320   99.61160   99.61160    1.33320    2.61530   13.37690  335.10370  335.10370    2.76400  -20.07290   -8.71060    2.76400
 1600.00000   10.63280  187.36070    5.33730   90.28900   90.28900    5.33730    6.94810   10.63280  341.99960  341.99960    3.94920  -21.19080  -10.97230    3.94920
 1650.00000   13.22900 1105.82770    0.90430   91.48110   91.48110    0.90430    8.69450   13.22900  329.28540  329.28540    2.89880  -23.78570  -11.31110    2.89880
 1700.00000   13.79360  490.31630    2.03950   98.66190   98.66190    2.03950    3.45930   13.79360  337.54730  337.54730    2.41320  -23.97420   -9.06440    2.41320
 1750.00000    8.16690   38.33890   26.08320  101.62050  101.62050   26.08320   31.44460    8.16690  428.97850  428.97850   18.53520  -34.93050  -17.58560   18.53520
 1800.00000    9.43100  145.16530    6.88870   83.04170   83.04170    6.88870    6.93290    9.43100  410.67790  410.67790    4.66520  -25.06110   -5.40550    4.66520
 1850.00000   11.43910  215.74510    4.63510   84.50960   84.50960    4.63510    6.23970   11.43910  380.12640  380.12640    3.72750  -26.95180   -6.63780    3.72750
 1900.00000    8.65280  361.74220    2.76440   98.36010   98.36010    2.76440    4.42600    8.65280  405.25080  405.25080    4.30430  -28.73720   -7.76480    4.30430
 1950.00000   13.15060  217.35350    4.60080   68.79940   68.79940    4.60080    4.20480   13.15060  347.44710  347.44710    2.33360  -33.84980  -12.21900    2.33360
 2000.00000    8.43330   60.05100   16.65250   85.20930   85.20930   16.65250   14.72110    8.43330  452.16780  452.16780   18.69730  -36.27900  -13.98980   18.69730
 2050.00000   13.56130  196.74200    5.08280  107.82700  107.82700    5.08280    7.28220   13.56130  366.73230  366.73230    4.64280  -26.22990   -3.28230    4.64280
 2100.00000   13.19540  172.80710    5.78680   72.13340   72.13340    5.78680    7.71240   13.19540  348.51550  348.51550    3.59030  -28.99110   -5.38510    3.59030
 2150.00000   10.91260 1820.49880    0.54930  112.20300  112.20300    0.54930    2.28340   10.91260  357.45680  357.45680    3.64700  -30.65820   -5.43260    3.64700
 2200.00000   12.46020  183.62100    5.44600   82.90160   82.90160    5.44600    8.05740   12.46020  345.04740  345.04740    4.65160  -33.65910   -6.73030    4.65160
 2250.00000   10.07350  201.91410    4.95260   86.23940   86.23940    4.95260    6.94940   10.07350  382.90310  382.90310   13.91030  -37.08950   -8.45760   13.91030
 2300.00000   10.80730  289.93910    3.44900   76.61840   76.61840    3.44900    5.88110   10.80730  354.80790  354.80790    5.27160  -36.70710   -7.90570    5.27160
 2350.00000   12.03430  340.37920    2.93790   69.61320   69.61320    2.93790    3.64980   12.03430  340.62450  340.62450    4.68480  -37.10680   -8.64710    4.68480
 2400.00000   13.02420  200.37670    4.99060   77.53960   77.53960    4.99060    7.76800   13.02420  344.86240  344.86240    4.58690  -35.71380   -7.59580    4.58690
 2450.00000   11.49150  195.95930    5.10310   81.62820   81.62820    5.10310    6.02710   11.49150  343.60530  343.60530    4.57070  -31.33310   -3.55680    4.57070
 2500.00000   12.44250  238.41310    4.19440   69.04760   69.04760    4.19440    7.83910   12.44250  331.47820  331.47820    4.75570  -30.11240   -3.55970    4.75570
 2550.00000   11.42810  185.06180    5.40360   81.93670   81.93670    5.40360    7.74340   11.42810  338.44100  338.44100    5.75930  -38.91070  -10.41310    5.75930
 2600.00000    9.85800  276.42640    3.61760   67.60690   67.60690    3.61760    2.15910    9.85800  393.78120  393.78120    8.51090  -42.76730  -12.32490    8.51090
 2650.00000    8.20570   30.24730   33.06080   60.57190   60.57190   33.06080   35.12660    8.20570  436.93160  436.93160   30.01370  -54.05520  -21.66790   30.01370
 2700.00000    8.78700   92.26620   10.83820   79.93350   79.93350   10.83820   11.24210    8.78700  378.29720  378.29720   10.36840  -39.77430   -6.86020   10.36840
 2750.00000   12.27300  160.53430    6.22920   78.59860   78.59860    6.22920    6.31210   12.27300  316.99500  316.99500    4.47960  -40.34220   -7.73420    4.47960
 2800.00000    8.32290  143.73810    6.95710   74.12570   74.12570    6.95710    5.25820    8.32290  404.14750  404.14750   13.81620  -42.03540   -9.73340   13.81620
 2850.00000    9.08830   83.57780   11.96490   66.11540   66.11540   11.96490   16.45040    9.08830  358.62270  358.62270    5.10050  -40.56140   -8.56550    5.10050
 2900.00000   10.33000  269.42560    3.71160   80.50280   80.50280    3.71160    4.87180   10.33000  350.46040  350.46040    4.97790  -35.44720   -3.73670    4.97790
 2950.00000   12.61480  106.76120    9.36670   73.68510   73.68510    9.36670    4.87560   12.61480  331.71980  331.71980    6.29900  -39.96230   -8.46400    6.29900
 3000.00000   12.11280  183.48960    5.44990   87.50840   87.50840    5.44990    6.14610   12.11280  358.93070  358.93070    6.63440  -37.92080   -6.63470    6.63440
 3050.00000   11.62850  135.55460    7.37710  106.47420  106.47420    7.37710    7.32130   11.62850  321.91930  321.91930    7.81370  -47.73700  -16.66310    7.81370
 3100.00000   11.97020  109.84790    9.10350  104.14720  104.14720    9.10350    9.78750   11.97020  352.58360  352.58360    9.94860  -46.23470  -15.37310    9.94860
 3150.00000   12.53180  146.88390    6.80810  114.47460  114.47460    6.80810    8.24130   12.53180  325.71030  325.71030    7.31210  -41.10900  -10.45960    7.31210
 3200.00000   12.54900  139.35730    7.17580  131.87180  131.87180    7.17580    8.16190   12.54900  322.64140  322.64140    8.37730  -36.62910   -6.19190    8.37730
 3250.00000   13.32040   94.65570   10.56460  125.37110  125.37110   10.56460   14.57890   13.32040  368.24290  368.24290   12.95990  -40.43700   -7.68450   12.95990
 3300.00000   12.88650  108.64960    9.20390  131.75930  131.75930    9.20390    8.30130   12.88650  362.73070  362.73070   10.43400  -44.30030   -8.82110   10.43400
 3350.00000   11.64970  128.47860    7.78340  125.03030  125.03030    7.78340   10.17430   11.64970  343.17760  343.17760    8.28640  -43.62280   -8.26890    8.28640
 3400.00000   12.15120  144.60900    6.91520  125.40920  125.40920    6.91520    8.32540   12.15120  315.32680  315.32680    7.57940  -46.60190  -11.76220    7.57940
 3450.00000   11.29790   98.78790   10.12270  119.15340  119.15340   10.12270   10.31240   11.29790  355.03530  355.03530    9.51620  -48.05360  -13.72810    9.51620
 3500.00000   11.09520   78.41780   12.75220   97.19530   97.19530   12.75220   13.77010   11.09520  375.24100  375.24100   10.99460  -43.33620   -9.52490   10.99460
 3550.00000   10.88410  135.65210    7.37180  124.87940  124.87940    7.37180    8.61070   10.88410  322.70940  322.70940    7.57390  -45.02950  -11.73230    7.57390
 3600.00000   11.20880  142.15050    7.03480  131.18080  131.18080    7.03480    8.85230   11.20880  318.91420  318.91420    7.09200  -39.72090   -6.61400    7.09200
 3650.00000   10.74270  181.86450    5.49860  121.21920  121.21920    5.49860    6.51830   10.74270  329.02380  329.02380    6.40360  -41.75250   -8.59270    6.40360
 3700.00000   10.32540  110.93980    9.01390  120.65250  120.65250    9.01390   10.29890   10.32540  334.60200  334.60200    8.50640  -42.59980   -6.79340    8.50640
 3750.00000    9.74160  160.81050    6.21850  128.15810  128.15810    6.21850    6.07010    9.74160  310.87340  310.87340    7.41590  -45.57810   -8.85850    7.41590
 3800.00000   10.12280   95.45540   10.47610  117.04870  117.04870   10.47610   11.38950   10.12280  335.69400  335.69400    9.93450  -44.97150   -9.14280    9.93450
 3850.00000   10.31230  126.35040    7.91450  127.58450  127.58450    7.91450    8.65920   10.31230  343.18410  343.18410    9.48410  -45.71280  -10.77500    9.48410
 3900.00000   10.55850  132.87980    7.52560  124.64310  124.64310    7.52560    8.72460   10.55850  338.02080  338.02080    9.63000  -43.10350  -10.33630    9.63000
