~Version ---------------------------------------------------
VERS. 2.0 : CWLS log ASCII Standard -VERSION 2.0
WRAP.  NO : ONE LINE PER DEPTH STEP
~Well ------------------------------------------------------
STRT.M                    600.0 : START DEPTH
STOP.M                   3350.0 : STOP DEPTH
STEP.M                 50.00000 : STEP LENGTH
NULL.                   -999.25 : NULL VALUE
COMP. GULF CANADA RESOURCES INC : COMPANY
WELL.    GULF STURLS 4-12-69-26 : WELL
FLD .                           : FIELD
LOC .                           : LOCATION
CTRY.                    CANADA : COUNTRY
SRVC.    Schlumberger of Canada : SERVICE COMPANY
DATE.               20-Feb-1982 : LOGDATE
PROV.                   Alberta : PROVINCE
UWI .          100041206926W500 : UNIQUE WELL ID
SLAT.WGS84             54.95583 : SURFACE LATITUDE
SLON.WGS84            -117.8332 : SURFACE LONGITUDE
~Curve Information -----------------------------------------
DEPT   .M                 : 
GRS    .GAPI 60 310 01 00 : GAMMA RAY FROM SONIC LOG
CALS   .MM   60 280 01 00 : CALIPER FROM SONIC LOG
DTME   .US/M 60 500 00 00 : DELTA-T (INTERVAL TRANSIT TIME) (METERS)
TENS   .LB   60 635 00 00 : TENSION FROM SONIC LOG
ILD    .OHMM 07 120 46 00 : INDUCTION DEEP RESISTIVITY
ILM    .OHMM 07 120 44 00 : INDUCTION MEDIUM RESISTIVITY
SFLU   .OHMM 07 220 01 00 : SHALLOW FOCUSED RESISTIVITY (UNAVERAGED)
SPR    .MV   07 010 01 00 : SPONTANEOUS POTENTIAL FROM RESISTIVITY LOG
TENR   .LB   07 635 00 00 : TENSION FROM RESISTIVITY LOG
NPHI_SS.DEC  42 890 03 00 : NEUTRON POROSITY SANDSTONE
GRD    .GAPI 45 310 01 00 : GAMMA RAY FROM DENSITY LOG
DPHI_SS.DEC  45 890 12 00 : DENSITY POROSITY SANDSTONE
DRHO   .G/C3 45 356 01 00 : BULK DENSITY CORRECTION
TEND   .LB   45 635 00 00 : TENSION FROM DENSITY LOG
CALD   .MM   45 280 60 00 : CALIPER FROM DENSITY LOG
NPHI_LS.DEC  42 890 01 00 : NEUTRON POROSITY LIMESTONE
DPHI_LS.DEC  45 890 10 00 : DENSITY POROSITY LIMESTONE
RHOB   .G/C3 45 350 01 00 : BULK DENSITY
GRR    .GAPI 07 310 01 00 : GAMMA RAY FROM RESISTIVITY LOG
~Params ----------------------------------------------------
PD  .                         GL : PERMANENT DATUM
EPD .M                       740 : ELEVATION PERMANENT DATUM
LMF .                         KB : LOG MEASURED FROM
DAPD.M                      6.55 : FEET ABOVE PERMANENT DATUM
DMF .                         KB : DRILLING MEASURED FROM
EKB .M                    746.55 : KELLY BUSHING
EDF .M                    746.15 : DRILLING FLOOR
EGL .M                       740 : GROUND LEVEL
DATE.                   02/20/82 : RUN DATE
RUN .                          1 : RUN NUMBER
DD  .M                      3373 : DEPTH DRILLER
DL  .M                      3373 : DEPTH LOGGER
BLI .M                      3371 : BOTTOM LOG INTERVAL
TLI .M                       610 : TOP LOG INTERVAL
CS  .MM                      244 : CASING SIZE
CBD .M                       610 : CASING BOTTOM DRILLER
CBL .M                       610 : CASING BOTTOM LOGGER
BS  .MM                      222 : BIT SIZE
BSD .M                      3373 : BIT SIZE AT DEPTH
DFT .                   GEL CHEM : DRILLING FLUID TYPE
DFD .                       1140 : DRILLING FLUID DENSITY
DFV .                         69 : DRILLING FLUID VISCOSITY
DFPH.                         10 : DRILLING FLUID PH
DFL .                        7.4 : DRILLING FLUID LOSS
MSS .                   FLOWLINE : MUD SAMPLE SOURCE
RMS .OHMM                   1.49 : RESISTIVITY MUD SAMPLE
MST .DEGC                   22.7 : MUD SAMPLE TEMPERATURE
RMF .OHMM                   1.38 : RESISTIVITY MUD FILTRATE SAMPLE
MFST.DEGC                   18.3 : MUD FILTRATE SAMPLE TEMPERATURE
RMC .OHMM                  0.437 : RESISTIVITY MUD CAKE
MCST.DEGC                    104 : MUD CAKE SAMPLE TEMPERATURE
MFSS.                      PRESS : MUD FILTRATE SAMPLE SOURCE
MCSS.                      PRESS : MUD CAKE SAMPLE SOURCE
RMB .OHMM                  0.525 : RESISTIVITY MUD AT BHT
TCS .HRS                    1230 : TIME CIRCULATED STOPPED
TLAB.HRS                    1930 : TIME LOGGER AT BOTTOM
LUN .                       8155 : LOGGING UNIT NUMBER
LUL .                         GP : LOGGING UNIT LOCATION
ENGI.                      JONES : RECORDING ENGINEER
WITN.                      ZADEH : WITNESSED BY
CLNT.                    A2DTECH : CLIENT CODE
ORIG. 6.5"/100M 16.5"/100M PRINT : ORIGIN OF DATA
UWI .           100041206926W500 : UNIQUE WELL ID
DICO.     A2D Technologies, Inc. : DIGITIZING COMPANY
~Other -----------------------------------------------------
~ASCII -----------------------------------------------------
# ...
 2450.00000   45.47450  274.39010  183.53170 2714.61550   20.12580   22.65050   35.60820 -150.19450 2757.81130    -999.25   45.74630    -999.25    0.09910 3138.74320  319.23700    0.02720    0.02190    2.67690   44.18300
 2500.00000   38.04330  276.85350  183.89270 2234.68330   43.73130   52.16290   63.82540 -152.41280 2804.08570    -999.25   39.97140    -999.25    0.00780 3131.57690  252.15640    0.01890    0.01800    2.67550   41.81960
 2550.00000   61.91800  278.87170  205.03270 2700.37720   17.61030   18.69530   22.45360 -172.02520 2859.55740    -999.25   63.19140    -999.25   -0.00040 3148.30440  272.49150    0.06760    0.02110    2.66750   65.53920
 2600.00000  175.08810  279.94370  222.13720 2218.07130   15.12790   16.58700   30.37910  -73.90410 2901.41310    -999.25  217.68120    -999.25    0.02620 3232.20120  248.46180    0.26410    0.14360    2.49350  201.54430
 2650.00000   13.12080  280.17540  161.06690 2251.78320  624.73800  803.41850 1822.21200 -252.93830 2949.23020    -999.25   14.41920    -999.25    0.24940 3301.93700  299.75980   -0.00660    0.00680    2.70360   16.59430
 2700.00000   17.12990  286.66080  165.80410 2195.16330  286.43720  334.66760  454.46760 -307.74070 2997.82840    -999.25   11.16170    -999.25    0.24950 3342.56180  291.73710   -0.00130    0.02530    2.66380   15.06540
 2750.00000   13.89110  283.49280  166.54690 2148.87940 1320.45460  413.37660 1362.30240 -262.01590 3032.78780    -999.25   14.13280    -999.25    0.25120 3370.84200  307.79670   -0.00110    0.04780    2.62460   12.27830
 2800.00000   14.76270  288.20260  163.84560 2093.95950  356.41300 1033.78230 1792.31030 -288.02710 3083.49460    -999.25   12.76390    -999.25    0.21990 3418.65770  314.53190   -0.00190    0.05280    2.62050   10.37470
 2850.00000   16.10720  288.67030  176.16400 1920.93650   26.91510   33.56990   76.50780 -243.00080 3137.61690    -999.25   16.50180    -999.25    0.05060 3434.19020  245.24650    0.02200    0.04570    2.63380   13.82600
 2900.00000   21.65560  291.78870  208.00860 2929.55080 1068.76920 1813.57740 1872.36850 -227.85220 3187.72360    -999.25   22.52600    -999.25    0.15330 3480.43310  353.43250    0.00930    0.12560    2.48660   20.52720
 2950.00000   16.16190  232.58800  166.24280 3474.48140  236.81240  371.87660  394.58740 -177.88880 3264.71950    -999.25   20.00550    -999.25    0.00470 3581.10520  241.18400    0.00390    0.00280    2.70990   27.24720
 3000.00000   34.94070  231.73950  177.97270 3525.13920  148.75220  174.11740  261.64080 -104.29770 3305.05270    -999.25   33.79050    -999.25    0.01500 3624.73340  243.51860    0.01730    0.00920    2.69870   32.94210
 3050.00000   20.25540  237.00740  179.57180 3578.25240   81.35460  152.00320  494.17500  -76.39860 3370.48510    -999.25   20.99940    -999.25    0.02690 3671.48540  242.22700    0.01770    0.01650    2.68060   17.07700
 3100.00000   98.73970  275.97090  299.90590 3578.09550    2.28010    2.44730    2.28740  -58.96630 3402.25780    -999.25  113.51980    -999.25    0.09550 3666.09860  306.28590    0.29570    0.18470    2.40250   93.63620
 3150.00000   61.00820  249.32140  211.69380 3676.15330    6.96860    7.69260    9.03260 -157.49780 3470.72560    -999.25   57.26950    -999.25    0.00170 3758.96140  263.70490    0.09030    0.02540    2.67050   56.06090
 3200.00000   99.21940  274.38370  302.90060 3738.31710    2.29860    2.49660    3.25970 -115.72010 3533.40450    -999.25  103.56850    -999.25    0.21460 3815.95970  345.44880    0.21350    0.01160    2.68490  105.86280
 3250.00000   12.33130  245.84800  173.82090 3784.19210   60.99450   58.05050   57.92320 -182.16030 3569.09300    -999.25   11.51560    -999.25   -0.00190 3832.33250  249.25420    0.00890    0.01570    2.68450    9.19540
 3300.00000   54.53210  235.25790  177.18160 3806.05470   98.26390  120.82190  151.75890 -189.37360 3609.38770    -999.25   61.66900    -999.25    0.01250 3894.76250  243.41420    0.03880   -0.00420    2.71710   60.44080
 3350.00000  165.83430  228.76680  230.69650 3839.51590    9.71860   11.19590   17.23210 -147.29210 3657.88060    -999.25  201.37030    -999.25    0.04970 3866.27220  243.72200    0.13210    0.05510    2.62080  176.85700
