~Version ---------------------------------------------------
VERS.      2.0 : CWLS log ASCII Standard -VERSION 2.0
WRAP.       NO : One line per depth step
CREA. 10/19/17 : LAS Creation Date
~Well ------------------------------------------------------
STRT.FT                          300.0 : START DEPTH
STOP.FT                        10200.0 : STOP DEPTH
STEP.FT                       50.00000 : STEP LENGTH
NULL.                          -999.25 : NULL VALUE
COMP.             IMPERIAL OIL LIMITED : COMPANY
WELL.   IMPERIAL CYNTHIA NO. 9-6-52-11 : WELL
FLD .                                  : FIELD
LOC .                                  : LOCATION
CTRY.                           CANADA : COUNTRY
SRVC. Schlumberger Well Surveying Corp : SERVICE COMPANY
DATE.                      06-Sep-1954 : LOGDATE
PROV.                          Alberta : PROVINCE
UWI .                 100090605211W500 : UNIQUE WELL ID
SLAT.WGS84               53.4630190179 : SURFACE LATITUDE
SLON.WGS84             -115.6015677109 : SURFACE LONGITUDE
~Curve Information -----------------------------------------
DEPT  .FT         : Depth Curve
CALIED.IN         : CALIPER FROM CALIPER LOG
CALWS .IN         : CALIPER [CALIED]
CONDWS.MMHO       : CONDUCTIVITY [1000/DRESWS]
DRESWS.OHMM       : DEEP RESISTIVITY [LNED]
GRNED .UgRa-Eq/T  : GAMMA RAY FROM NEUTRON LOG
GRWS  .GAPI       : GAMMA RAY [GRNED*16.50, CONVERTED TO API UNIT]
LNED  .OHMM       : LONG NORMAL FROM RESISTIVITY LOG
LT18ED.OHMM       : LATERAL 18' 8" FROM RESISTIVITY LOG
NEUTED.NAPI       : NEUTRON FROM NEUTRON LOG
NEUTWS.NAPI       : NEUTRON [NEUTED]
SNED  .OHMM       : SHORT NORMAL 16" FROM RESISTIVITY LOG
SPRED .MV         : SPONTANEOUS POTENTIAL FROM RESISTIVITY LOG
SPWS  .MV         : SPONTANEOUS POTENTIAL [BASELINE 0 MV,SPRED]
SRESWS.OHMM       : SHALLOW RESISTIVITY [SNED]
~Params ----------------------------------------------------
LMF .                     KB : LOG MEASURED FROM
DMF .                     KB : DRILLING MEASURED FROM
EKB .FT                 3086 : KELLY BUSHING
DATE.               09/06/54 : RUN DATE
RUN .                      4 : RUN NUMBER
DD  .FT                10217 : DEPTH DRILLER
DL  .FT                10217 : DEPTH LOGGER
BLI .FT                10217 : BOTTOM LOG INTERVAL
TLI .FT                 8589 : TOP LOG INTERVAL
CBD .FT                 5691 : CASING BOTTOM DRILLER
CBL .FT                 5690 : CASING BOTTOM LOGGER
BS  .IN                8.625 : BIT SIZE
BSD .FT                10217 : BIT SIZE AT DEPTH
DFT .              LIME BASE : DRILLING FLUID TYPE
DFD .                   10.1 : DRILLING FLUID DENSITY
DFV .                    240 : DRILLING FLUID VISCOSITY
DFPH.                   10.5 : DRILLING FLUID PH
DFL .                    7.8 : DRILLING FLUID LOSS
MSS .               FLOWLINE : MUD SAMPLE SOURCE
RMS .OHMM                1.4 : RESISTIVITY MUD SAMPLE
MST .DEGF                 70 : MUD SAMPLE TEMPERATURE
RMB .OHMM                0.5 : RESISTIVITY MUD AT BHT
TCS .HRS                 2.5 : TIME CIRCULATED STOPPED
LUN .                   1772 : LOGGING UNIT NUMBER
LUL .                    GDM : LOGGING UNIT LOCATION
ENGI.                BUCKLEY : RECORDING ENGINEER
WITN.                  BLAND : WITNESSED BY
CLNT.                A2DTECH : CLIENT CODE
ORIG.            2" 5" PRINT : ORIGIN OF DATA
UWI .       100090605211W500 : UNIQUE WELL ID
DICO. A2D Technologies, Inc. : DIGITIZING COMPANY
~Other -----------------------------------------------------
EL,GRN,CALIPER LOG RUN
SPRED MECHANICAL SHIFT @ 4901',5698'
ALL RESISTIVITY CURVES FROM LINEAR SCALE OF 5" LOG. RESISTIVITY DATA VERIFIED @700-3300', 5700-6300' FROM SMALL SCALE LOG
GRN DATA @700'-3300', 5500-6200', 6400-7400' FROM SMALL SCALE LOG
~ASCII -----------------------------------------------------
  300.00000    -999.25    -999.25    -999.25    -999.25    2.94770   48.63710    -999.25    -999.25  151.04730  151.04730    -999.25    -999.25    -999.25    -999.25
  350.00000    -999.25    -999.25    -999.25    -999.25    2.83680   46.80720    -999.25    -999.25  170.91880  170.91880    -999.25    -999.25    -999.25    -999.25
  400.00000    -999.25    -999.25    -999.25    -999.25    2.88300   47.56950    -999.25    -999.25  151.19520  151.19520    -999.25    -999.25    -999.25    -999.25
  450.00000    -999.25    -999.25    -999.25    -999.25    2.70130   44.57140    -999.25    -999.25  160.24200  160.24200    -999.25    -999.25    -999.25    -999.25
  500.00000    -999.25    -999.25    -999.25    -999.25    2.93820   48.48030    -999.25    -999.25  154.50320  154.50320    -999.25    -999.25    -999.25    -999.25
  550.00000    -999.25    -999.25    -999.25    -999.25    2.51020   41.41830    -999.25    -999.25  155.32400  155.32400    -999.25    -999.25    -999.25    -999.25
  600.00000    -999.25    -999.25    -999.25    -999.25    3.02420   49.89930    -999.25    -999.25  143.58750  143.58750    -999.25    -999.25    -999.25    -999.25
  650.00000    -999.25    -999.25    -999.25    -999.25    3.01060   49.67490    -999.25    -999.25  145.58190  145.58190    -999.25    -999.25    -999.25    -999.25
  700.00000    -999.25    -999.25    -999.25    -999.25    3.06840   50.62860    -999.25    -999.25  143.23350  143.23350    -999.25    -999.25    -999.25    -999.25
  750.00000    -999.25    -999.25   46.11480   21.68500    3.60400   59.46520   21.68500   22.92630  165.76420  165.76420   15.67630  -56.76390  -13.33950   15.67630
  800.00000    -999.25    -999.25  131.99930    7.57580    4.47020   73.75910    7.57580    6.07750  151.86440  149.57760    4.70420  -51.03670   -4.36180    4.70420
  850.00000    -999.25    -999.25  109.34800    9.14770    4.79230   79.07300    9.14770   14.70230  155.73760  157.57840    6.61120  -49.36870   -2.35780    6.61120
  900.00000    -999.25    -999.25   31.20280   32.04840    4.51730   74.53540   32.04840   33.45460  162.68950  172.40510   26.14730  -63.50710  -16.34470   26.14730
  950.00000    -999.25    -999.25  111.92600    8.93700    4.79400   79.10100    8.93700    9.67620  160.04840  144.22750    5.25710  -51.55350   -4.23870    5.25710
 1000.00000    -999.25    -999.25   91.85010   10.88730    3.95370   65.23610   10.88730   13.07550  159.38100  165.11140   11.25880  -51.58300   -4.11670   11.25880
 1050.00000    -999.25    -999.25   81.25390   12.30710    5.49340   90.64110   12.30710    7.61060  153.76480  158.84680    8.04520  -53.42130   -5.80350    8.04520
 1100.00000    -999.25    -999.25  113.67840    8.79740    4.18290   69.01780    8.79740    5.55000  157.46490  160.86140    6.75750  -50.38880   -2.61850    6.75750
 1150.00000    -999.25    -999.25   42.22240   23.68410    3.19030   52.63990   23.68410   37.19740  155.37610  160.21040   18.87840  -57.42250  -13.30770   18.87840
 1200.00000    -999.25    -999.25  115.20060    8.68170    4.49360   74.14520    8.68170   13.95950  156.59060  156.59060    6.29650  -41.15880   -2.90340    6.29650
 1250.00000    -999.25    -999.25   89.94750   11.11760    4.97830   82.14190   11.11760   14.07930  153.32620  144.96600    8.33130  -45.32470   -4.50030    8.33130
 1300.00000    -999.25    -999.25  104.80530    9.54150    4.29390   70.84940    9.54150    5.69800  162.65940  170.83200    7.08480  -48.08470   -4.69130    7.08480
 1350.00000    -999.25    -999.25   44.91360   22.26500    3.39400   56.00100   22.26500   27.99990  164.98880  162.56420   16.19280  -67.28830  -21.30900   16.19280
 1400.00000    -999.25    -999.25   75.35340   13.27080    4.25210   70.15970   13.27080   23.23430  168.06140  178.74430    9.21360  -50.79200   -2.24380    9.21360
 1450.00000    -999.25    -999.25   74.09130   13.49690    3.84440   63.43340   13.49690   14.33560  185.88940  186.46680   10.14790  -52.79900   -5.17420   10.14790
 1500.00000    -999.25    -999.25   72.00720   13.88750    4.23040   69.80160   13.88750    3.71390  171.66810  176.64770   11.07400  -54.65120   -8.29510   11.07400
 1550.00000    -999.25    -999.25  179.16970    5.58130    4.73660   78.15390    5.58130   27.12740  172.92020  173.02290    4.10220  -52.34740   -7.25990    4.10220
 1600.00000    -999.25    -999.25   78.89010   12.67590    4.60290   75.94790   12.67590    9.75890  166.41510  166.78380    7.65990  -51.92540   -8.11480    7.65990
 1650.00000    -999.25    -999.25  110.46180    9.05290    4.74150   78.23480    9.05290    6.10090  156.79510  153.53750    6.22490  -48.42410   -5.88210    6.22490
 1700.00000    -999.25    -999.25  117.30660    8.52470    4.57050   75.41330    8.52470    8.43420  160.40540  157.13360    7.01300  -45.30030   -4.03530    7.01300
 1750.00000    -999.25    -999.25  183.36510    5.45360    4.11950   67.97180    5.45360    7.06310  154.76040  166.26730    4.49790  -44.89950   -3.02070    4.49790
 1800.00000    -999.25    -999.25  123.98030    8.06580    3.54440   58.48260    8.06580   12.29060  161.53300  152.61490   10.76950  -51.05820   -8.31290   10.76950
 1850.00000    -999.25    -999.25  358.90840    2.81490    4.07030   67.15990    2.81490   42.71840  136.87170  138.75040    9.89350  -52.85230   -9.23470    9.89350
 1900.00000    -999.25    -999.25  110.31320    9.06510    4.19700   69.24970    9.06510   12.29830  156.48010  156.02400    5.66600  -53.38300   -8.89880    5.66600
 1950.00000    -999.25    -999.25   88.55240   11.29380    4.65440   76.79760   11.29380   18.81510  165.72240  163.35360    8.07470  -53.00760   -7.65110    8.07470
 2000.00000    -999.25    -999.25   88.32520   11.32180    3.84730   63.48050   11.32180   10.30240  173.71130  162.54640    9.78190  -54.06380   -7.84070    9.78190
 2050.00000    -999.25    -999.25  119.36310    8.37780    3.89640   64.29060    8.37780    9.10290  176.37950  177.89890    9.45550  -51.08800   -4.35340    9.45550
 2100.00000    -999.25    -999.25  111.72750    8.95080    3.80950   62.85680    8.95080   12.16580  167.87590  175.18220    8.20820  -51.83740   -5.62330    8.20820
 2150.00000    -999.25    -999.25  123.80830    8.07700    4.42760   73.05540    8.07700   12.38480  169.52650  178.45560    7.51830  -52.68740   -6.99050    7.51830
 2200.00000    -999.25    -999.25  122.36100    8.17290    4.18260   69.01290    8.17290   12.31300  163.53140  156.16460    6.55100  -51.29050   -6.11410    6.55100
 2250.00000    -999.25    -999.25  139.65700    7.16040    4.49410   74.15270    7.16040    7.38780  150.66310  153.92330    5.22150  -49.85670   -5.19750    5.22150
 2300.00000    -999.25    -999.25   37.87450   26.40300    3.54420   58.47930   26.40300   14.29010  196.27130  188.53130   22.88570  -61.17240  -17.03030   22.88570
 2350.00000    -999.25    -999.25   87.07230   11.48480    3.85280   63.57200   11.48480    6.18970  158.96790  158.98260    6.49270  -47.77560   -4.15400    6.49270
 2400.00000    -999.25    -999.25  108.66730    9.20240    3.79410   62.60260    9.20240    3.83860  154.18560  160.37740    7.22250  -49.24040   -6.13600    7.22250
 2450.00000    -999.25    -999.25  131.98390    7.57680    4.95970   81.83500    7.57680    6.06000  163.51920  164.78130    6.62850  -46.85340   -4.26950    6.62850
 2500.00000    7.65960    7.65960  136.58030    7.32170    4.50090   74.26480    7.32170    6.23980  155.54050  156.61190    6.30730  -44.77150   -2.69700    6.30730
 2550.00000    7.30660    7.30660  127.04220    7.87140    3.85740   63.64710    7.87140    8.00970  168.08180  169.27290    6.61770  -48.39060   -6.24430    6.61770
 2600.00000    6.39980    6.39980  152.86630    6.54180    4.52990   74.74340    6.54180    4.00250  153.66570  151.18660    4.34520  -47.79510   -5.57660    4.34520
 2650.00000    7.06880    7.06880  157.39600    6.35340    4.39150   72.45980    6.35340    9.25560  168.04310  169.67930    5.47700  -48.42100   -6.13070    5.47700
 2700.00000    7.49220    7.49220  160.61910    6.22720    4.15900   68.62350    6.22720    8.60460  169.86940  169.86940    6.52630  -49.30750   -6.94490    6.52630
