~Version ---------------------------------------------------
VERS. 2.0 : CWLS log ASCII Standard -VERSION 2.0
WRAP.  NO : ONE LINE PER DEPTH STEP
~Well ------------------------------------------------------
STRT.M                               380.5 : START DEPTH
STOP.M                              2549.3 : STOP DEPTH
STEP.M                             0.20000 : STEP LENGTH
NULL.                              -999.25 : NULL VALUE
COMP.                DEVON ARL CORPORATION : COMPANY
WELL. DEVON ARL ETAL 7D GVILLEE 7-25-76-23 : WELL
FLD .                                      : FIELD
LOC .                                      : LOCATION
CTRY.                               CANADA : COUNTRY
SRVC.                         Schlumberger : SERVICE COMPANY
DATE.                          06-Mar-2003 : LOGDATE
PROV.                              Alberta : PROVINCE
UWI .                     100072507623W500 : UNIQUE WELL ID
SLAT.WGS84                        55.61368 : SURFACE LATITUDE
SLON.WGS84                       -117.4224 : SURFACE LONGITUDE
~Curve Information -----------------------------------------
DEPT    .M    0   1   0  0 : 1 MEASURED DEPTH
GRS     .GAPI 60 310 01 00 : GAMMA RAY FROM SONIC LOG
HDS     .MM   60 280 00 00 : HOLE DIAMETER FROM SONIC
DT      .US/M 60 500 00 00 : DELTA-T (INTERVAL TRANSIT TIME)
HCALS   .MM   60 280 50 00 : HRCC CALIPER CALIBRATED FROM SONIC LOG
TENS    .N    60 635 00 00 : TENSION FROM SONIC LOG
GRR     .GAPI 06 310 01 00 : GAMMA RAY FROM RESISTIVITY LOG
RXOZ    .OHMM 06 270 04 00 : INVADED FORMATION RESISTIVITY FILTERED AT 18 INCHES
TENR    .N    06 635 00 00 : TENSION FROM RESISTIVITY LOG
SPR     .MV   06 010 01 00 : SPONTANEOUS POTENTIAL FROM RESISTIVITY LOG
AHF30   .OHMM 06 120 30 00 : ARRAY INDUCTION FOUR FOOT RESISTIVITY A30
AHF20   .OHMM 06 120 20 00 : ARRAY INDUCTION FOUR FOOT RESISTIVITY A20
AHF60   .OHMM 06 120 60 00 : ARRAY INDUCTION FOUR FOOT RESISTIVITY A60
GRD     .GAPI 45 310 01 00 : GAMMA RAY FROM DENSITY LOG
NPOR_SAN.DEC  42 890 03 00 : ENHANCED THERMAL NEUTRON POROSITY (SANDSTONE)
HDD     .MM   45 280 60 00 : HOLE DIAMETER
HCALD   .MM   45 280 60 00 : HRCC CALIPER CALIBRATED FROM DENSITY LOG
DPHI_SAN.DEC  45 890 12 00 : DENSITY POROSITY (MATRIX SANDSTONE)
HDRA    .K/M3 45 356 01 00 : HRDD SPINE AND RIBS DENSITY CORRECTION
PEFZ    .B/E  45 358 01 00 : HRDD STANDARD RESOLUTION FORMATION PHOTOELECTRIC FACTOR
TEND    .N    45 635 00 00 : TENSION FROM DENSITY LOG
NPOR_LS .DEC  42 890 01 00 : NEUTRON POROSITY LIMESTONE
DPHI_LS .DEC  45 890 10 00 : DENSITY POROSITY LIMESTONE
RHOZ    .K/M3 45 350 01 00 : HRDD STANDARD RESOLUTION FORMATION DENSITY
~Params ----------------------------------------------------
PD  .                                  GL : PERMANENT DATUM
EPD .M                              551.9 : ELEVATION PERMANENT DATUM
LMF .                                  KB : LOG MEASURED FROM
DAPD.M                                4.7 : FEET ABOVE PERMANENT DATUM
DMF .                                  KB : DRILLING MEASURED FROM
EKB .M                              556.6 : KELLY BUSHING
EDF .M                              556.3 : DRILLING FLOOR
EGL .M                              551.9 : GROUND LEVEL
DATE.                            03/06/03 : RUN DATE
RUN .                                   1 : RUN NUMBER
DD  .M                               2545 : DEPTH DRILLER
DL  .M                               2544 : DEPTH LOGGER
BLI .M                             2538.3 : BOTTOM LOG INTERVAL
TLI .M                                421 : TOP LOG INTERVAL
CS  .MM                             219.1 : CASING SIZE
CBD .M                                421 : CASING BOTTOM DRILLER
CBL .M                              420.5 : CASING BOTTOM LOGGER
BS  .MM                               200 : BIT SIZE
BSD .M                               2545 : BIT SIZE AT DEPTH
DFT .                            GEL CHEM : DRILLING FLUID TYPE
DFD .                                1050 : DRILLING FLUID DENSITY
DFV .                                  83 : DRILLING FLUID VISCOSITY
DFPH.                                10.5 : DRILLING FLUID PH
DFL .                                   7 : DRILLING FLUID LOSS
MSS .                            FLOWLINE : MUD SAMPLE SOURCE
RMS .OHMM                            1.27 : RESISTIVITY MUD SAMPLE
MST .DEGC                              17 : MUD SAMPLE TEMPERATURE
RMF .OHMM                            0.98 : RESISTIVITY MUD FILTRATE SAMPLE
MFST.DEGC                              18 : MUD FILTRATE SAMPLE TEMPERATURE
RMC .OHMM                            1.55 : RESISTIVITY MUD CAKE
MCST.DEGC                              18 : MUD CAKE SAMPLE TEMPERATURE
MFSS.                            MEASURED : MUD FILTRATE SAMPLE SOURCE
MCSS.                             MEAURED : MUD CAKE SAMPLE SOURCE
RMB .OHMM                           0.566 : RESISTIVITY MUD AT BHT
TCS .HRS                              640 : TIME CIRCULATED STOPPED
TLAB.HRS                             1645 : TIME LOGGER AT BOTTOM
LUN .                                2133 : LOGGING UNIT NUMBER
LUL .                      GRANDE PRAIRIE : LOGGING UNIT LOCATION
ENGI.                            STIRLING : RECORDING ENGINEER
WITN.                              MCLEAY : WITNESSED BY
CLNT.                             A2DTECH : CLIENT CODE
ORIG. 6.5"/100M 16.5"/100M 33"/100M PRINT : ORIGIN OF DATA
UWI .                    100072507623W500 : UNIQUE WELL ID
DICO.              A2D Technologies, Inc. : DIGITIZING COMPANY
~Other -----------------------------------------------------
~ASCII -----------------------------------------------------
# ...
 1832.50000  135.56020  267.19200  321.76280  307.93440 17965.79490  131.07730    1.76930 17964.36330  -32.88480    3.71330    3.47030    3.89300  136.71400    -999.25  267.72300  310.22920    -999.25  179.75400    2.54940 18012.74610    0.38890    0.21670 2283.75880
 1832.70000  125.69920  266.75330  321.78720  297.56020 17923.16410  122.60120    1.95240 17982.18950  -31.47390    3.82620    3.56290    3.94290  126.05510    -999.25  267.13260  306.98390    -999.25  175.83690    2.61380 17883.34180    0.38870    0.21670 2349.91720
 1832.90000  120.80430  267.46410  321.09170  288.49710 17880.53320  122.17670    1.86160 18054.79880  -30.34790    3.94260    3.66320    4.03640  120.48030    -999.25  267.01000  283.74890    -999.25  191.47840    2.63470 17779.40230    0.34900    0.22710 2332.50200
 1833.10000  125.56610  266.94050  320.53020  294.91960 17845.16020  129.10640    1.78570 18058.91210  -31.13940    4.05320    3.77050    4.14050  125.95480    -999.25  267.38220  298.48880    -999.25  210.42380    2.51190 17675.46290    0.33750    0.21620 2306.55490
 1833.30000  134.85760  260.81750  317.45920  289.07350 17847.84180  137.70810    2.04060 17970.25200  -32.33160    4.05770    3.88100    4.24570  134.49020    -999.25  265.34630  282.85630    -999.25  217.60700    2.42380 17613.39260    0.32480    0.19170 2324.86080
 1833.50000  141.23310  255.32970  315.52940  279.76090 17753.65620  143.83900    2.30650 17838.70900  -33.31000    4.06230    3.95120    4.24200  140.53610    -999.25  256.43800  284.61000    -999.25  214.57170    2.45600 17746.42190    0.32670    0.18170 2386.03030
 1833.70000  147.11800  255.33470  320.41670  278.66090 17728.44530  150.03640    2.19060 17723.93750  -32.71090    4.03250    3.94950    4.16790  146.76350    -999.25  254.56070  280.50190    -999.25  214.43940    2.50990 17780.65040    0.35770    0.19320 2403.17750
 1833.90000  151.38870  261.02590  324.50900  285.33560 17680.38090  145.77150    2.17030 17694.78910  -32.11360    3.94430    3.85250    4.05080  150.77590    -999.25  257.00830  278.95690    -999.25  219.55940    2.49470 17779.63280    0.35980    0.20890 2381.71410
 1834.10000  146.23810  264.72050  326.15040  290.74910 17740.79490  141.50650    2.06090 17628.94340  -31.62970    3.80180    3.71340    3.93700  146.67940    -999.25  263.95480  287.68640    -999.25  227.92850    2.41450 17779.08790    0.37310    0.21880 2356.20870
 1834.30000  136.85250  263.89640  326.00420  296.16270 17787.65430  133.14350    1.80930 17752.29690  -30.81440    3.76370    3.68800    3.91920  136.61180    -999.25  264.15720  293.11750    -999.25  226.75420    2.32670 17808.97660    0.38910    0.22180 2326.23220
 1834.50000  131.40650  265.44360  324.96420  302.25740 17831.21680  130.51270    1.88550 17884.40230  -30.16620    3.84950    3.76480    3.99450  131.02440    -999.25  264.94200  302.99350    -999.25  213.48730    2.35030 17942.28910    0.41710    0.22110 2327.43770
 1834.70000  129.83290  269.34460  323.21150  301.84740 17874.77930  129.00700    2.10400 17974.03520  -29.51800    3.95770    3.87070    4.09240  129.62280    -999.25  267.58590  303.98470    -999.25  206.66190    2.40400 18006.89450    0.42260    0.22220 2334.40650
 1834.90000  127.76660  269.49330  321.77890  301.51150 17915.22850  126.66190    2.05640 17911.05860  -28.59360    4.06900    3.97950    4.19270  127.90760    -999.25  270.05730  299.23460    -999.25  224.16170    2.43440 18011.04690    0.44170    0.22440 2329.90110
 1835.10000  127.24390  263.54900  321.17200  307.73250 17834.33590  128.53100    1.99890 17839.26370  -27.83060    4.17120    4.08160    4.29540  126.97090    -999.25  268.02080  303.17090    -999.25  249.54130    2.43780 17951.97660    0.49760    0.21980 2321.48560
 1835.30000  130.90000  254.76750  321.49950  304.70490 17774.46880  133.97530    2.15620 17755.26950  -27.44500    4.27170    4.18000    4.40060  129.91740    -999.25  259.26470  306.11000    -999.25  242.18700    2.44610 17851.16210    0.46360    0.20910 2338.75460
 1835.50000  137.24800  251.15510  320.38570  292.96730 17851.02340  140.32230    2.48470 17892.05860  -27.54650    4.32720    4.24060    4.49220  136.08470    -999.25  251.95810  298.94030    -999.25  205.48800    2.50920 17807.20120    0.42130    0.19920 2368.91970
 1835.70000  143.17330  252.34530  319.03810  264.79880 17927.57810  148.11530    2.64780 18011.09380  -27.94120    4.29660    4.18080    4.46840  142.42650    -999.25  251.98110  279.98610    -999.25  195.80970    2.57180 17915.26170    0.38930    0.19830 2376.99220
 1835.90000  148.99200  256.09100  319.14580  264.29020 17991.71480  150.56370    2.54240 18084.86910  -27.87380    4.21420    4.05000    4.30610  148.47120    -999.25  253.85260  264.98650    -999.25  183.62320    2.56530 18023.32230    0.38300    0.20980 2367.98490
 1836.10000  151.63380  261.30240  321.80450  267.95780 17916.39840  153.01210    2.59500 18069.27340  -26.79660    4.13340    3.92320    4.21210  151.51470    -999.25  257.68470  269.10890    -999.25  165.90270    2.51540 18056.33980    0.39570    0.22550 2341.57710
 1836.30000  153.37880  262.71720  327.42600  271.72060 17853.56640  154.60290    2.44520 17933.60350  -25.38440    4.12820    3.90300    4.26480  153.54480    -999.25  263.73590  267.12590    -999.25  163.92460    2.48670 18015.01950    0.40410    0.23930 2308.46610
 1836.50000  154.92410  260.97700  327.12400  281.00490 17804.28320  155.52420    2.12700 17748.75980  -24.47430    4.28250    3.95050    4.49150  154.97350    -999.25  262.85400  278.41910    -999.25  173.12660    2.46410 17816.41600    0.41230    0.23500 2283.57230
 1836.70000  155.86820  262.90880  320.71270  279.32650 17754.99800  157.49340    2.23560 17777.90230  -24.39500    4.52350    4.10110    4.78720  155.86180    -999.25  259.81390  277.51690    -999.25  171.87070    2.48360 17821.43950    0.37920    0.21190 2327.84450
 1836.90000  159.49900  265.52230  317.46120  272.67130 17705.71480  172.58610    2.76140 17818.45900  -24.38650    4.77800    4.36490    5.17670  160.20830    -999.25  265.03900  276.58370    -999.25  168.33150    2.57130 17793.11520    0.36670    0.21530 2376.48800
 1837.10000  177.57780  256.63990  324.83360  270.22680 17736.47270  203.60980    2.86610 17928.03910  -23.97850    5.17410    4.79310    5.68230  177.74990    -999.25  261.74850  271.24260    -999.25  194.07990    2.57920 17907.75200    0.43310    0.27710 2363.38700
 1837.30000  212.73430  224.92730  328.52660  271.72270 17772.09960  240.95420    1.80050 17911.63090  -24.06610    6.26760    5.46970    7.07810  217.12540    -999.25  247.14680  271.49500    -999.25  217.11850    2.44060 17924.10550    0.42340    0.34740 2167.88280
 1837.50000  250.87840  203.46390  319.22020  262.33550 17772.09960  253.19210    1.77680 17895.22270  -23.63580    9.43410    8.22370   11.35470  251.08260    -999.25  213.34680  272.56250    -999.25  179.91960    2.38120 17940.45700    0.34000    0.32420 2072.25390
 1837.70000  244.34590  199.17430  301.20110  205.40190 17825.59380  223.95800    4.25340 17878.81450  -22.77690   22.59850   16.86170   21.81080  244.86250    -999.25  199.20150  243.71190    -999.25   86.52370    2.47760 17956.81050    0.29920    0.28280 2143.58520
 1837.90000  221.55080  198.52320  293.71910  199.96870 17847.35550  213.72450  136.77920 17862.40620  -21.70860   40.75300   40.88670   38.66380  222.06740    -999.25  198.11190  199.69550    -999.25   31.25040    2.57230 17959.15620    0.29800    0.24010 2267.30980
 1838.10000  221.19380  198.51320  297.67650  199.79820 17774.01560  257.42720   93.96530 17871.13090  -20.98710   50.39800   60.48330   44.46880  214.08130    -999.25  198.08290  199.08400    -999.25    1.83650    2.59860 17951.37110    0.29440    0.22790 2323.05980
 1838.30000  285.00070  198.50320  303.11980  199.99770 17773.44140  356.42610   91.82100 17890.76950  -20.78180   51.04820   51.83070   45.24930  266.42340    -999.25  198.05390  199.10470    -999.25   -4.85750    2.58350 17943.58400    0.32480    0.23940 2325.95780
