~Version ---------------------------------------------------
VERS.      2.0 : CWLS log ASCII Standard -VERSION 2.0
WRAP.       NO : One line per depth step
CREA. 07/28/13 : LAS Creation Date
~Well ------------------------------------------------------
STRT.M                          300.0 : START DEPTH
STOP.M                         3050.0 : STOP DEPTH
STEP.M                       50.00000 : STEP LENGTH
NULL.                         -999.25 : NULL VALUE
COMP.               SABINE CANADA LTD : COMPANY
WELL. SABINE ET AL GIROUX 10-23-65-20 : WELL
FLD .                                 : FIELD
LOC .                                 : LOCATION
CTRY.                          CANADA : COUNTRY
SRVC.                    Schlumberger : SERVICE COMPANY
DATE.                     13-Jan-1979 : LOGDATE
PROV.                         Alberta : PROVINCE
UWI .                100102306520W500 : UNIQUE WELL ID
SLAT.WGS84                   54.64278 : SURFACE LATITUDE
SLON.WGS84                  -116.9066 : SURFACE LONGITUDE
~Curve Information -----------------------------------------
DEPT    .M      : DEPTH METER
CALDED  .MM     : CALIPER FROM DENSITY LOG [ADJ. TO RESISTIVITY LOG]
CALSED  .MM     : CALIPER FROM SONIC LOG [ADJ. TO RESISTIVITY LOG]
CALWS   .MM     : CALIPER [CALDED]
CONDWS  .MMHO   : CONDUCTIVITY [1000/DRESWS]
DCORWS  .KG/M3  : DENSITY CORRECTION [DRHOED]
DENWS   .KG/M3  : FORMATION BULK DENSITY [CALC FROM DPOLSWS, M=2710, F=1000]
DPHILSED.V/V    : DENSITY POROSITY LIMESTONE [M=2710, F=1000] FROM DENSITY LOG [ADJ. TO RESISTIVITY LOG]
DPHISSED.V/V    : DENSITY POROSITY SANDSTONE [M=2650, F=1000] FROM DENSITY LOG [ADJ. TO RESISTIVITY LOG]
DPOLSWS .V/V    : DENSITY POROSITY LIMESTONE [DPHISSED MATRIX CONVERTED TO LIMESTONE & SPL. TO DPHILSED @ 1901.1 M]
DRESWS  .OHMM   : DEEP RESISTIVITY [ILDED]
DRHOED  .KG/M3  : DENSITY CORRECTION FROM DENSITY LOG [ADJ. TO RESISTIVITY LOG]
DTED    .US/M   : DELTA T FROM SONIC LOG [ADJ. TO RESISTIVITY LOG]
DTWS    .US/M   : COMPRESSIONAL SONIC [DTED]
GRDED   .GAPI   : GAMMA RAY FROM DENSITY LOG [ADJ. TO RESISTIVITY LOG]
GRED    .GAPI   : GAMMA RAY FROM CBL LOG
GRSED   .GAPI   : GAMMA RAY FROM SONIC LOG [ADJ. TO RESISTIVITY LOG]
GRWS    .GAPI   : GAMMA RAY [GRED SPL. TO GRSED @ 448 M]
ILDED   .OHMM   : DEEP INDUCTION RESISTIVITY FROM RESISTIVITY LOG
ILMED   .OHMM   : MEDIUM INDUCTION RESISTIVITY FROM RESISTIVITY LOG
MCALED  .MM     : CALIPER FROM MICROLOG
MRESWS  .OHMM   : MEDIUM RESISTIVITY [ILMED]
NPHILSED.V/V    : NEUTRON POROSITY LIMESTONE FROM DENSITY LOG [ADJ. TO RESISTIVITY LOG]
NPHISSED.V/V    : NEUTRON POROSITY SANDSTONE FROM DENSITY LOG [ADJ. TO RESISTIVITY LOG]
NPOLSWS .V/V    : NEUTRON POROSITY LIMESTONE [NPHISSED MATRIX CONVERTED TO LIMESTONE & SPL. TO NPHILSED @ 1901.1 M]
RHOBED  .KG/M3  : BULK DENSITY FROM DENSITY LOG [ADJ. TO RESISTIVITY LOG]
SFLED   .OHMM   : SPHERICALLY FOCUSED LOG FROM RESISTIVITY LOG
SPRED   .MV     : SPONTANEOUS POTENTIAL FROM RESISTIVITY LOG
SPWS    .MV     : SPONTANEOUS POTENTIAL [BASELINE 0 MV, SPRED]
SRESWS  .OHMM   : SHALLOW RESISTIVITY [SFLED]
~Params ----------------------------------------------------
PD  .                       GL : PERMANENT DATUM
EPD .M                  764.08 : ELEVATION PERMANENT DATUM
LMF .                       KB : LOG MEASURED FROM
DAPD.M                       5 : FEET ABOVE PERMANENT DATUM
DMF .                       KB : DRILLING MEASURED FROM
EKB .M                  769.08 : KELLY BUSHING
EGL .M                  764.08 : GROUND LEVEL
DATE.                 01/13/79 : RUN DATE
RUN .                        2 : RUN NUMBER
DD  .M                    3074 : DEPTH DRILLER
DL  .M                    3074 : DEPTH LOGGER
BLI .M                    3073 : BOTTOM LOG INTERVAL
TLI .M                    1370 : TOP LOG INTERVAL
CS  .MM                    244 : CASING SIZE
CBD .M                     462 : CASING BOTTOM DRILLER
CBL .M                     461 : CASING BOTTOM LOGGER
BS  .MM                    222 : BIT SIZE
BSD .M                    3074 : BIT SIZE AT DEPTH
DFT .                GEL BENEX : DRILLING FLUID TYPE
DFD .                     1150 : DRILLING FLUID DENSITY
DFV .                      125 : DRILLING FLUID VISCOSITY
DFPH.                        9 : DRILLING FLUID PH
DFL .                     10.2 : DRILLING FLUID LOSS
MSS .                     CIRC : MUD SAMPLE SOURCE
RMS .OHMM                 2.29 : RESISTIVITY MUD SAMPLE
MST .DEGC                 12.2 : MUD SAMPLE TEMPERATURE
RMF .OHMM                 2.26 : RESISTIVITY MUD FILTRATE SAMPLE
MFST.DEGC                 11.7 : MUD FILTRATE SAMPLE TEMPERATURE
RMC .OHMM                  2.2 : RESISTIVITY MUD CAKE
MCST.DEGC                 11.1 : MUD CAKE SAMPLE TEMPERATURE
MFSS.                    PRESS : MUD FILTRATE SAMPLE SOURCE
MCSS.                    PRESS : MUD CAKE SAMPLE SOURCE
RMB .OHMM                 0.63 : RESISTIVITY MUD AT BHT
TCS .HRS                  1345 : TIME CIRCULATED STOPPED
TLAB.HRS                  2000 : TIME LOGGER AT BOTTOM
LUN .                     7802 : LOGGING UNIT NUMBER
LUL .                      EDM : LOGGING UNIT LOCATION
ENGI.                CROCKFORD : RECORDING ENGINEER
WITN.                   SIFERD : WITNESSED BY
CLNT.                  A2DTECH : CLIENT CODE
ORIG. 6IN/100M 16IN/100M PRINT : ORIGIN OF DATA
UWI .         100102306520W500 : UNIQUE WELL ID
DICO.   A2D Technologies, Inc. : DIGITIZING COMPANY
~Other -----------------------------------------------------
CNL-LDT-DIL-SFL-LM-BCS LOG RAN.
RHOB & DRHO ARE FROM SMALL SECTION
SOME NOISE ON SP CURVE BETWEEN 1950 M & 2750 M.
NEUTRON CONVERSION: SCHLUMBERGER, DESCRIPTION: CNL(NPHI)
~ASCII -----------------------------------------------------
# ...
 1550.00000  246.90530  237.58060  246.90530   92.70500    6.32510 2591.94640    -999.25    0.03520    0.06900   10.78690    6.32510  247.51400  247.51400   89.42240    -999.25   83.35680   83.35680   10.78690   10.31460  232.27030   10.31460    -999.25    0.27190    0.22790 2609.52730   13.79860  -32.16920  -12.67890   13.79860
 1600.00000  245.17170  236.01200  245.17170  129.85830   15.13900 2561.14580    -999.25    0.05390    0.08700    7.70070   15.13900  259.58270  259.58270   87.70750    -999.25   82.68250   82.68250    7.70070    8.25560  236.90220    8.25560    -999.25    0.27470    0.23070 2591.53200    8.23040  -55.25830   -7.53480    8.23040
 1650.00000  214.94360  216.74310  214.94360  182.02670  159.17030 2382.76270    -999.25    0.16200    0.19140    5.49370  159.17030  243.04450  243.04450   32.89840    -999.25   30.54460   30.54460    5.49370    8.10410  204.50330    8.10410    -999.25    0.19580    0.15240 2389.31470   16.78290 -127.53030  -77.24150   16.78290
 1700.00000  301.36390  264.90090  301.36390  246.41470  255.11180 2355.35460    -999.25    0.17860    0.20740    4.05820  255.11180  291.50220  291.50220  112.38150    -999.25  107.78850  107.78850    4.05820    3.93660  244.47980    3.93660    -999.25    0.36000    0.31650 2354.34520    4.80820  -48.59610   -2.28370    4.80820
 1750.00000  293.05230  269.58370  293.05230  279.41550  160.60030 2330.63590    -999.25    0.19360    0.22190    3.57890  160.60030  351.15320  351.15320  112.05600    -999.25  104.84550  104.84550    3.57890    3.71860  230.43450    3.71860    -999.25    0.47760    0.43590 2341.04640    4.63910  -49.12870   -4.41770    4.63910
 1800.00000  249.82220  245.40190  249.82220  163.74650    8.38530 2594.90820    -999.25    0.03340    0.06730    6.10700    8.38530  213.71660  213.71660   88.03910    -999.25   89.27090   89.27090    6.10700    6.31940  223.41170    6.31940    -999.25    0.15270    0.11010 2592.90720   10.28530  -79.65070  -36.14790   10.28530
 1850.00000  233.45160  232.26250  233.45160   71.81380   19.61470 2581.24290    -999.25    0.04170    0.07530   13.92490   19.61470  205.59260  205.59260   81.09230    -999.25   73.26610   73.26610   13.92490   13.48090  224.86400   13.48090    -999.25    0.14090    0.09850 2587.33760   16.03450  -71.23330  -30.44830   16.03450
 1900.00000  225.63380  227.07100  225.63380   26.42570   29.70790 2641.85500    -999.25    0.02210    0.03990   37.84200   29.70790  170.82710  170.82710   53.70590    -999.25   54.87940   54.87940   37.84200   98.27270  229.29540   98.27270    -999.25    0.05040    0.01630 2641.85500 1144.86490  -99.13760  -77.39750 1144.86490
 1950.00000  233.73780  236.26890  233.73780    9.04090    5.13280 2681.10920    0.01690    -999.25    0.01690  110.60900    5.13280  162.80220  162.80220   25.35210    -999.25   24.67810   24.67810  110.60900  160.39350  236.19290  160.39350    0.01520    -999.25    0.01520 2687.85640 1047.99630  -32.91730  -25.85720 1047.99630
 2000.00000  250.92780  258.78850  250.92780    8.40840   -6.42800 2654.39080    0.03250    -999.25    0.03250  118.92900   -6.42800  163.21970  163.21970   30.21270    -999.25   29.42200   29.42200  118.92900  158.74620  246.76690  158.74620    0.01310    -999.25    0.01310 2674.20460  750.12600  -40.72990  -33.05280  750.12600
 2050.00000  255.53060  266.24560  255.53060  215.33160    9.56910 2620.36330    0.05240    -999.25    0.05240    4.64400    9.56910  203.03670  203.03670   79.47930    -999.25   72.56800   72.56800    4.64400    5.05880  229.88830    5.05880    0.11050    -999.25    0.11050 2641.44040    6.49460  -33.36610  -25.07200    6.49460
 2100.00000  244.51260  249.05890  244.51260   35.77950    6.72520 2658.63750    0.03000    -999.25    0.03000   27.94900    6.72520  191.89330  191.89330   49.51800    -999.25   48.52690   48.52690   27.94900   26.40380  236.86200   26.40380    0.07780    -999.25    0.07780 2666.10860   29.36670  -33.77130  -24.86020   29.36670
 2150.00000  233.81290  230.46020  233.81290   11.86220   19.69470 2690.86960    0.01120    -999.25    0.01120   84.30160   19.69470  173.54560  173.54560   34.23170    -999.25   34.37290   34.37290   84.30160   87.19520  224.94370   87.19520    0.02380    -999.25    0.02380 2693.99240  101.65230  -16.83030   -6.05030  101.65230
 2200.00000  229.87340  225.65500  229.87340   19.07280   16.98810 2706.83950    0.00180    -999.25    0.00180   52.43080   16.98810  184.44450  184.44450   53.30370    -999.25   51.12790   51.12790   52.43080   54.22810  224.62700   54.22810    0.04650    -999.25    0.04650 2717.35500   66.99410  -16.34960   -3.96870   66.99410
 2250.00000  234.16440  228.93350  234.16440   57.34240   88.00500 2599.99940    0.06430    -999.25    0.06430   17.43910   88.00500  254.97510  254.97510  150.93490    -999.25  155.92240  155.92240   17.43910   16.65430  223.72140   16.65430    0.17920    -999.25    0.17920 2618.49150   20.97310  -15.66660   -3.94470   20.97310
 2300.00000  228.39600  225.99450  228.39600    2.78080    6.60070 2685.71060    0.01420    -999.25    0.01420  359.61490    6.60070  162.19860  162.19860   19.03660    -999.25   18.19040   18.19040  359.61490  457.80730  219.86130  457.80730    0.00970    -999.25    0.00970 2698.46920  540.87070  -37.72680  -26.85840  540.87070
 2350.00000  228.62820  225.94150  228.62820    7.57520   10.51420 2622.87700    0.05090    -999.25    0.05090  132.00890   10.51420  163.86460  163.86460   11.17250    -999.25   10.87690   10.87690  132.00890  149.28010  223.37330  149.28010    0.01140    -999.25    0.01140 2642.60420  216.65510  -52.51090  -42.59890  216.65510
 2400.00000  262.59860  233.97600  262.59860    3.88470  214.04890 2712.30630   -0.00130    -999.25   -0.00130  257.42160  214.04890  160.19820  160.19820   14.27210    -999.25   15.96810   15.96810  257.42160  256.35430  219.51480  256.35430    0.00800    -999.25    0.00800 2718.46680  294.82750  -45.75990  -36.80430  294.82750
 2450.00000  229.97230  225.24870  229.97230   15.28950    4.95260 2691.85540    0.01060    -999.25    0.01060   65.40440    4.95260  163.98260  163.98260   14.81850    -999.25   15.96060   15.96060   65.40440   72.55070  216.20210   72.55070    0.01520    -999.25    0.01520 2702.32640   88.70090  -52.70500  -44.70580   88.70090
 2500.00000  224.70300  241.09480  224.70300   24.96580   25.72200 2724.71420   -0.00860    -999.25   -0.00860   40.05480   25.72200  162.92130  162.92130   19.55940    -999.25   22.63730   22.63730   40.05480   43.15010  223.20590   43.15010    0.10920    -999.25    0.10920 2716.34420   89.02230  -56.66480  -49.62200   89.02230
 2550.00000  229.94020  226.31610  229.94020    3.91420   13.64660 2717.33590   -0.00430    -999.25   -0.00430  255.48160   13.64660  166.90280  166.90280   40.60550    -999.25   41.07450   41.07450  255.48160  313.24830  227.20680  313.24830    0.01430    -999.25    0.01430 2722.11890  522.47090  -11.49250   -5.40610  522.47090
 2600.00000  234.01500  223.91260  234.01500   15.34210   16.51220 2683.09650    0.01570    -999.25    0.01570   65.18000   16.51220  174.04880  174.04880   40.49520    -999.25   40.98830   40.98830   65.18000   64.14720  227.64160   64.14720    0.03340    -999.25    0.03340 2691.37790   84.66730  -35.20260  -30.15800   84.66730
 2650.00000  262.34380  253.25630  262.34380  233.67220  176.85430 2532.62910    0.10370    -999.25    0.10370    4.27950  176.85430  249.13230  249.13230   99.25570    -999.25  102.35310  102.35310    4.27950    4.42900  239.47230    4.42900    0.23670    -999.25    0.23670 2548.84960    5.33270  -27.84750  -23.88500    5.33270
 2700.00000  319.77930  307.35460  319.77930  291.16320  205.74620 2214.15430    0.29000    -999.25    0.29000    3.43450  205.74620  271.62530  271.62530   97.59850    -999.25  106.33000  106.33000    3.43450    3.55240  249.43810    3.55240    0.34960    -999.25    0.34960 2221.21580    4.34620  -10.39370   -8.69170    4.34620
 2750.00000  238.68320  224.36010  238.68320   94.12210   24.59610 2694.89770    0.00880    -999.25    0.00880   10.62450   24.59610  214.42700  214.42700   89.86150    -999.25   82.30090   82.30090   10.62450   11.37140  225.40470   11.37140    0.14660    -999.25    0.14660 2700.72560   13.04590   -0.02340   -1.47800   13.04590
