~Version ---------------------------------------------------
VERS.      2.0 : CWLS log ASCII Standard -VERSION 2.0
WRAP.       NO : One line per depth step
CREA. 11/15/17 : LAS Creation Date
~Well ------------------------------------------------------
STRT.FT                      1300.0 : START DEPTH
STOP.FT                     10750.0 : STOP DEPTH
STEP.FT                    50.00000 : STEP LENGTH
NULL.                       -999.25 : NULL VALUE
COMP.        PHILLIPS PETROLEUM CO. : COMPANY
WELL. PHILLIPS ATIKAMEG 10-17-65-19 : WELL
FLD .                            WC : FIELD
LOC .                               : LOCATION
CTRY.                        CANADA : COUNTRY
SRVC.                         Welex : SERVICE COMPANY
DATE.                   13-Apr-1959 : LOGDATE
PROV.                       Alberta : PROVINCE
UWI .              100101706519W500 : UNIQUE WELL ID
SLAT.WGS84                 54.62711 : SURFACE LATITUDE
SLON.WGS84                -116.8324 : SURFACE LONGITUDE
~Curve Information -----------------------------------------
DEPT  .FT    : Depth Curve
CALWS .IN    : CALIPER [MCALED]
CONDWS.MMHO  : CONDUCTIVITY [1000/DRESWS]
DRESWS.OHMM  : DEEP RESISTIVITY [LAT9ED]
GRNED .CPS   : GAMMA RAY FROM NEUTRON LOG
GRWS  .CPS   : GAMMA RAY [GRNED*15]
LAT9ED.OHMM  : LATERAL 9" FROM RESISTIVITY LOG
LT16ED.OHMM  : LATERAL 16"FROM RESISTIVITY LOG
MCALED.IN    : MICROLOG CALIPER FROM ML LOG [ADJ. TO RESISTIVITY LOG]
NEUTED.CPS   : NEUTRON FROM NEUTRON LOG
NEUTWS.CPS   : NEUTRON [NEUTED]
SNED  .OHMM  : SHORT NORMAL 18" FROM RESISTIVITY LOG
SPRED .MV    : SPONTANEOUS POTENTIAL FROM RESISTIVITY LOG
SPWS  .MV    : SPONTANEOUS POTENTIAL [BASELINE 0 MV,SPRED]
SRESWS.OHMM  : SHALLOW RESISTIVITY [SNED]
~Params ----------------------------------------------------
PD  .                                      CSF : PERMANENT DATUM
LMF .                                       KB : LOG MEASURED FROM
DAPD.FT                                     14 : FEET ABOVE PERMANENT DATUM
DMF .                                       KB : DRILLING MEASURED FROM
EKB .FT                                   2439 : KELLY BUSHING
EDF .FT                                 2436.5 : DRILLING FLOOR
EGL .FT                                   2426 : GROUND LEVEL
DATE.                                        1 : RUN DATE
RUN .                                 04/13/59 : RUN NUMBER
DD  .FT                                  10752 : DEPTH DRILLER
DL  .FT                                  10755 : DEPTH LOGGER
BLI .FT                                  10754 : BOTTOM LOG INTERVAL
TLI .FT                                   1303 : TOP LOG INTERVAL
CS  .IN                                 13.375 : CASING SIZE
CBD .FT                                   1304 : CASING BOTTOM DRILLER
CBL .FT                                   1303 : CASING BOTTOM LOGGER
BS  .IN                                      9 : BIT SIZE
BSD .FT                                  10752 : BIT SIZE AT DEPTH
DFT . OIL EMULSION GEL CAUSTIC RAYFLO DRISCOSE : DRILLING FLUID TYPE
DFD .                                     10.3 : DRILLING FLUID DENSITY
DFV .                                      144 : DRILLING FLUID VISCOSITY
DFPH.                                      9.5 : DRILLING FLUID PH
DFL .                                      4.8 : DRILLING FLUID LOSS
MSS .                               CIRCULATED : MUD SAMPLE SOURCE
RMS .OHMM                                  2.8 : RESISTIVITY MUD SAMPLE
MST .DEGF                                   60 : MUD SAMPLE TEMPERATURE
RMF .OHMM                                 1.46 : RESISTIVITY MUD FILTRATE SAMPLE
MFST.DEGF                                   70 : MUD FILTRATE SAMPLE TEMPERATURE
RMC .OHMM                                  2.6 : RESISTIVITY MUD CAKE
MCST.DEGF                                   68 : MUD CAKE SAMPLE TEMPERATURE
RMB .OHMM                                  2.8 : RESISTIVITY MUD AT BHT
ENGI.                                   FOWLER : RECORDING ENGINEER
WITN.                           HUNTER HANKINS : WITNESSED BY
CLNT.                                  A2DTECH : CLIENT CODE
ORIG.                              2" 5" PRINT : ORIGIN OF DATA
UWI .                         100101706519W500 : UNIQUE WELL ID
DICO.                   A2D Technologies, Inc. : DIGITIZING COMPANY
~Other -----------------------------------------------------
~ASCII -----------------------------------------------------
 1300.00000    -999.25    -999.25    -999.25   53.12000   53.12000    -999.25    -999.25    -999.25  281.07970  281.07970    -999.25    -999.25    -999.25    -999.25
 1350.00000   12.19130  650.95690    1.53620   89.62860   89.62860    1.53620    4.52740   12.19130  304.54330  304.54330    1.40620  -79.28650   -4.28340    1.40620
 1400.00000   12.20480  467.24640    2.14050   97.25740   97.25740    2.14050    4.71380   12.20480  321.76250  321.76250    1.53690  -79.87050   -4.53570    1.53690
 1450.00000   11.45290  317.94480    3.14520   83.25370   83.25370    3.14520    5.80430   11.45290  327.62140  327.62140    2.04770  -79.39270   -3.72270    2.04770
 1500.00000   11.04100  222.29140    4.49860   88.05420   88.05420    4.49860    6.79830   11.04100  331.04520  331.04520    3.13000  -82.90330   -6.89990    3.13000
 1550.00000   10.57450  185.98490    5.37770   65.43220   65.43220    5.37770    5.78800   10.57450  360.16160  360.16160    3.42280  -81.13380   -4.79870    3.42280
 1600.00000   10.30630  314.06050    3.18410   77.86470   77.86470    3.18410    5.67480   10.30630  336.61310  336.61310    2.94570  -80.99890   -4.32860    2.94570
 1650.00000   10.91900  130.57630    7.65850   72.34270   72.34270    7.65850   10.43150   10.91900  306.19320  306.19320    3.98870  -85.61710   -8.61500    3.98870
 1700.00000   10.51480  387.59690    2.58000   77.73220   77.73220    2.58000    4.75960   10.51480  299.19530  299.19530    1.73920  -81.05280   -3.71560    1.73920
 1750.00000    9.97270  413.08660    2.42080   63.89380   63.89380    2.42080    3.88510    9.97270  334.61340  334.61340    2.90850  -81.68140   -4.01080    2.90850
 1800.00000   10.61060  288.04820    3.47780   76.40410   76.40410    3.47780    7.19070   10.61060  273.74760  273.74760    1.37630  -80.46280   -2.46040    1.37630
 1850.00000    9.74290   84.35330   11.85490   72.38160   72.38160   11.85490    6.44740    9.74290  332.86460  332.86460    2.79110  -81.76030   -3.42280    2.79110
 1900.00000   10.52150  272.42890    3.67690   74.49030   74.49030    3.67690    6.86780   10.52150  315.58910  315.58910    2.22950  -81.86430   -3.19510    2.22950
 1950.00000   10.46000  186.05000    5.37490   76.45160   76.45160    5.37490    7.52000   10.46000  318.53740  318.53740    2.58140  -81.58750   -2.58310    2.58140
 2000.00000   10.30740  138.14060    7.23900   58.22410   58.22410    7.23900    9.40110   10.30740  348.59460  348.59460    8.93610  -89.47990  -10.14210    8.93610
 2050.00000   10.37230  183.92500    5.43770   54.03970   54.03970    5.43770    6.66160   10.37230  366.00020  366.00020    5.70220  -85.73090   -6.06130    5.70220
 2100.00000    9.27280  133.19130    7.50800   64.11840   64.11840    7.50800    6.49740    9.27280  368.75390  368.75390    7.52120  -89.43040   -9.42570    7.52120
 2150.00000   10.06440  198.14820    5.05440   78.94530   78.94530    5.05440    6.39910   10.06440  306.97490  306.97490    3.32670  -84.30560   -3.96910    3.32670
 2200.00000    9.75780   48.78880   20.49650   60.50110   60.50110   20.49650   22.56780    9.75780  417.50480  417.50480   30.18790  -86.74620   -6.07460   30.18790
 2250.00000    9.40880  313.83380    3.18640   62.08910   62.08910    3.18640    4.88680    9.40880  349.24850  349.24850    6.08810  -86.41820   -5.79640    6.08810
 2300.00000   10.72630   65.38210   15.29470   67.78140   67.78140   15.29470   17.42910   10.72630  290.44920  290.44920    5.10620  -89.99670   -9.74940    5.10620
 2350.00000   10.98480  218.96690    4.56690   76.73350   76.73350    4.56690    6.27170   10.98480  305.95250  305.95250    1.92520  -82.19760   -2.32850    1.92520
 2400.00000   10.21640  128.95450    7.77010   72.77250   72.77250    7.77010    7.19590   10.21640  331.86870  331.86870    9.09610  -98.13530  -18.29960    9.09610
 2450.00000   11.88050  269.99300    3.70380   72.73040   72.73040    3.70380    5.28730   11.88050  317.93800  317.93800    2.47810  -83.30520   -2.98010    2.47810
 2500.00000   11.83540  222.06430    4.50320   91.62060   91.62060    4.50320    6.00060   11.83540  290.52420  290.52420    3.37750  -84.18230   -3.37030    3.37750
 2550.00000   10.43960  138.15860    7.23820  109.74390  109.74390    7.23820    8.52310   10.43960  272.32640  272.32640    4.07540  -87.48300   -6.18640    4.07540
 2600.00000   10.98700  140.14040    7.13570  111.52510  111.52510    7.13570    8.79290   10.98700  289.27660  289.27660    4.58550  -87.52250   -5.73650    4.58550
 2650.00000   10.96120  153.09900    6.53270  126.79000  126.79000    6.53270    7.34880   10.96120  279.94960  279.94960    4.38460  -86.60330   -4.33270    4.38460
 2700.00000   11.04460   80.99000   12.34720  127.02350  127.02350   12.34720   11.04200   11.04460  286.93520  286.93520    6.92630  -86.26910   -3.50920    6.92630
 2750.00000   10.83140  102.39500    9.76610  118.07080  118.07080    9.76610   12.22640   10.83140  289.45470  289.45470    5.28060  -87.62310   -4.37620    5.28060
 2800.00000   10.63340  136.34480    7.33430  112.30440  112.30440    7.33430    9.81340   10.63340  280.42900  280.42900    4.99460  -90.13960   -6.40820    4.99460
 2850.00000   10.70290  135.61710    7.37370  116.97170  116.97170    7.37370    8.57890   10.70290  287.43160  287.43160    3.77020  -88.66070   -4.43990    3.77020
 2900.00000   11.24670   92.03360   10.86560  111.64170  111.64170   10.86560   11.14830   11.24670  287.73710  287.73710    5.33080  -88.02130   -3.31590    5.33080
 2950.00000   11.42730   78.78230   12.69320  115.98350  115.98350   12.69320   15.51060   11.42730  303.95500  303.95500    7.02690  -91.42660   -6.23180    7.02690
 3000.00000   11.10480  129.30250    7.73380  116.39280  116.39280    7.73380    9.54890   11.10480  292.95550  292.95550    5.20510  -88.07270   -2.39100    5.20510
 3050.00000   11.23760  144.38770    6.92580  117.28670  117.28670    6.92580    7.79120   11.23760  284.79220  284.79220    4.41400  -88.86240   -2.69610    4.41400
 3100.00000   10.92680  132.97520    7.52020  118.19430  118.19430    7.52020    8.43000   10.92680  280.85650  280.85650    4.75480  -88.67230   -2.01660    4.75480
 3150.00000   10.66600  118.42370    8.44460  119.88310  119.88310    8.44460    9.72640   10.66600  280.15630  280.15630    4.67470  -89.00300   -2.50120    4.67470
 3200.00000   10.86990  118.40340    8.44570  108.60460  108.60460    8.44570    8.88020   10.86990  284.14060  284.14060    5.25530  -89.80620   -3.58340    5.25530
 3250.00000   11.42740  112.26620    8.90740  114.05270  114.05270    8.90740   11.63030   11.42740  290.21890  290.21890    5.39530  -89.90400   -3.95880    5.39530
 3300.00000   11.16510  120.09780    8.32660  115.77740  115.77740    8.32660   10.00100   11.16510  281.29920  281.29920    4.88330  -89.87790   -4.20890    4.88330
 3350.00000   11.33380  106.00290    9.43370  117.70360  117.70360    9.43370   10.85790   11.33380  290.16190  290.16190    4.50820  -88.93050   -3.54060    4.50820
 3400.00000   11.22810  136.45760    7.32830  130.44240  130.44240    7.32830    8.42630   11.22810  274.86630  274.86630    4.36350  -88.16230   -3.04860    4.36350
 3450.00000   11.60600  121.30330    8.24380  126.83520  126.83520    8.24380    9.06940   11.60600  281.90770  281.90770    5.24570  -87.50710   -2.67240    5.24570
 3500.00000   11.62340  138.84840    7.20210  123.87530  123.87530    7.20210    8.21980   11.62340  287.21960  287.21960    4.89800  -86.79090   -2.23380    4.89800
 3550.00000   10.98590  135.03710    7.40580  142.28310  142.28310    7.40580    8.72310   10.98590  280.81010  280.81010    6.81870  -87.32250   -3.04160    6.81870
 3600.00000   10.41510  110.40330    9.05770  133.60850  133.60850    9.05770    9.19620   10.41510  286.81450  286.81450    6.64110  -86.72580   -2.72400    6.64110
 3650.00000   11.35130   77.96070   12.82870  122.53340  122.53340   12.82870    8.65740   11.35130  278.08600  278.08600    6.56360  -87.15660   -3.43110    6.56360
 3700.00000   10.39240   68.38730   14.62260  151.66430  151.66430   14.62260   13.05300   10.39240  296.91980  296.91980   11.20990  -87.31850   -3.87190   11.20990
