~Version ---------------------------------------------------
VERS.      2.0 : CWLS log ASCII Standard -VERSION 2.0
WRAP.       NO : One line per depth step
CREA. 12/01/17 : LAS Creation Date
~Well ------------------------------------------------------
STRT.FT                      1000.0 : START DEPTH
STOP.FT                      9350.0 : STOP DEPTH
STEP.FT                    50.00000 : STEP LENGTH
NULL.                       -999.25 : NULL VALUE
COMP. ATLANTIC RICHFIELD CANADA LTD : COMPANY
WELL.         ARCO SNIPE 10-6-69-17 : WELL
FLD .                               : FIELD
LOC .                               : LOCATION
CTRY.                        CANADA : COUNTRY
SRVC.        Schlumberger of Canada : SERVICE COMPANY
DATE.                   01-Jan-1971 : LOGDATE
PROV.                       Alberta : PROVINCE
UWI .              100100606917W500 : UNIQUE WELL ID
SLAT.WGS84                 54.94767 : SURFACE LATITUDE
SLON.WGS84                -116.5759 : SURFACE LONGITUDE
~Curve Information -----------------------------------------
DEPT  .FT    : Depth Curve
CALSED.IN    : CALIPER FROM SONIC LOG
CALWS .IN    : CALIPER [CALSED]
CONDWS.MMHO  : CONDUCTIVITY [1000/DRESWS]
DRESWS.OHMM  : DEEP MRESISTIVITY [ILDED]
DTED  .US/F  : DELTA-TIME FROM SONIC LOG
DTWS  .US/F  : COMPRESSIONAL SONIC [DTED]
GRSED .GAPI  : GAMMA RAY FROM SONIC LOG
GRWS  .GAPI  : GAMMA RAY [GRSED]
ILDED .OHMM  : DEEP INDUCTION LOG RESISTIVITY FROM RESISTIVITY LOG
ILMED .OHMM  : MEDIUM INDUCTION LOG RESISTIVITY FROM RESISTIVITY LOG
LL8ED .OHMM  : 8 INCH LATEROLOG RESISTIVITY FROM RESISTIVITY LOG
MRESWS.OHMM  : MEDIUM RESISTIITY [ILMED]
SPRED .MV    : SPONTANEOUS POTENTIAL FROM RESISTIVITY LOG
SPWS  .MV    : SPONTANEOUS POTENTIAL [BASELINE TO ZERO, SPRED]
SRESWS.OHMM  : SHALLOW RESISTIVITY [LL8ED]
~Params ----------------------------------------------------
PD  .                     GL : PERMANENT DATUM
EPD .FT               3010.5 : ELEVATION PERMANENT DATUM
LMF .                     KB : LOG MEASURED FROM
DAPD.FT                 18.5 : FEET ABOVE PERMANENT DATUM
EKB .FT                 3029 : KELLY BUSHING
EGL .FT               3010.5 : GROUND LEVEL
DATE.               01/01/71 : RUN DATE
RUN .                      1 : RUN NUMBER
DD  .FT                 9400 : DEPTH DRILLER
DL  .FT                 9398 : DEPTH LOGGER
BLI .FT                 9392 : BOTTOM LOG INTERVAL
TLI .FT                  974 : TOP LOG INTERVAL
CBD .FT                  974 : CASING BOTTOM DRILLER
CBL .FT                  974 : CASING BOTTOM LOGGER
BS  .IN                7.875 : BIT SIZE
BSD .FT                 9400 : BIT SIZE AT DEPTH
DFT .              FRESH GEL : DRILLING FLUID TYPE
DFD .                    9.4 : DRILLING FLUID DENSITY
DFV .                     76 : DRILLING FLUID VISCOSITY
DFPH.                   10.5 : DRILLING FLUID PH
DFL .                    9.2 : DRILLING FLUID LOSS
MSS .               FLOWLINE : MUD SAMPLE SOURCE
RMS .OHMM               3.45 : RESISTIVITY MUD SAMPLE
MST .DEGF                 60 : MUD SAMPLE TEMPERATURE
RMF .OHMM               2.98 : RESISTIVITY MUD FILTRATE SAMPLE
MFST.DEGF                 48 : MUD FILTRATE SAMPLE TEMPERATURE
RMB .OHMM               1.08 : RESISTIVITY MUD AT BHT
TCS .HRS                   3 : TIME CIRCULATED STOPPED
LUN .                   7502 : LOGGING UNIT NUMBER
LUL .                    EDM : LOGGING UNIT LOCATION
ENGI.                 BUFTON : RECORDING ENGINEER
WITN.                 BAINES : WITNESSED BY
CLNT.                A2DTECH : CLIENT CODE
ORIG.            2" 5" PRINT : ORIGIN OF DATA
UWI .       100100606917W500 : UNIQUE WELL ID
DICO. A2D Technologies, Inc. : DIGITIZING COMPANY
~Other -----------------------------------------------------
~ASCII -----------------------------------------------------
# ...
 5600.00000    8.80120    8.80120   22.19640   45.05230   57.68810   57.68810   30.94760   30.94760   45.05230   48.58130   59.01180   48.58130  -24.44280  -17.15890   59.01180
 5650.00000    8.65430    8.65430   24.70520   40.47730   55.22050   55.22050   14.93640   14.93640   40.47730   43.35420  114.94310   43.35420  -62.28800  -55.82840  114.94310
 5700.00000    9.66780    9.66780  421.14130    2.37450   74.39800   74.39800   29.60400   29.60400    2.37450    2.57460    5.11330    2.57460  -65.17000  -59.59020    5.11330
 5750.00000    9.42170    9.42170  247.99130    4.03240   61.58130   61.58130   18.40040   18.40040    4.03240    5.85040   17.75260    5.85040  -82.47040  -77.79760   17.75260
 5800.00000    9.10720    9.10720   75.75770   13.22310   63.85360   63.85360   38.90180   38.90180   13.22310   14.36520   14.88860   14.36520  -32.21200  -28.44630   14.88860
 5850.00000    9.93700    9.93700  647.58450    1.54420   70.98480   70.98480   22.34800   22.34800    1.54420    1.80000    8.97410    1.80000 -113.92050 -111.06780    8.97410
 5900.00000    8.96290    8.96290  147.88310    6.76210   57.79790   57.79790   16.08890   16.08890    6.76210    8.40190   70.10960    8.40190 -134.12120 -132.17550   70.10960
 5950.00000    8.65220    8.65220   26.90880   37.16260   57.37400   57.37400   11.72040   11.72040   37.16260   59.41960  237.66900   59.41960 -105.03090 -103.99820  237.66900
 6000.00000    8.79940    8.79940   11.23760   88.98660   53.13750   53.13750   13.11020   13.11020   88.98660  105.22910  110.66070  105.22910 -123.97040 -123.84480  110.66070
 6050.00000    9.69260    9.69260  279.37350    3.58670   83.73810   83.73810   57.65340   57.65340    3.58670    3.87030    5.03330    3.87030  -72.17260  -72.95400    5.03330
 6100.00000    9.02870    9.02870  214.15110    4.66960   60.80350   60.80350   43.60180   43.60180    4.66960    5.35020    7.61950    5.35020  -65.94920  -67.64360    7.61950
 6150.00000    8.74460    8.74460  130.19310    7.68090   59.89680   59.89680   29.77410   29.77410    7.68090    9.05610   30.52550    9.05610  -76.24310  -78.84460   30.52550
 6200.00000    8.62580    8.62580   35.54090   28.13660   54.01000   54.01000   19.05310   19.05310   28.13660   33.55210   65.98930   33.55210  -12.27960  -15.59220   65.98930
 6250.00000    9.23250    9.23250   36.47050   27.41940   59.16790   59.16790   22.99920   22.99920   27.41940   33.38280   36.16750   33.38280  -22.78750  -25.61210   36.16750
 6300.00000    8.48280    8.48280   25.09730   39.85360   56.48080   56.48080   24.51980   24.51980   39.85360   41.87360   46.57230   41.87360  -31.60920  -33.94590   46.57230
 6350.00000    8.36850    8.36850   30.61050   32.66850   56.54710   56.54710   22.27400   22.27400   32.66850   34.49630   38.25190   34.49630  -51.76980  -53.61530   38.25190
 6400.00000    8.19310    8.19310   30.50080   32.78600   57.25630   57.25630   22.23600   22.23600   32.78600   34.14330   40.78830   34.14330  -39.16900  -40.52660   40.78830
 6450.00000    8.59470    8.59470   38.13960   26.21950   58.59850   58.59850   26.32000   26.32000   26.21950   27.56740   33.28600   27.56740  -26.68940  -27.55580   33.28600
 6500.00000    8.95850    8.95850   36.10320   27.69840   58.79110   58.79110   31.91430   31.91430   27.69840   28.86300   34.75260   28.86300  -32.90780  -33.28630   34.75260
 6550.00000    8.33440    8.33440   20.39850   49.04640   57.94530   57.94530   30.19960   30.19960   49.04640   45.64750   56.81700   45.64750  -30.33690  -30.22750   56.81700
 6600.00000    8.18860    8.18860   45.79130   21.83820   60.96030   60.96030   31.92830   31.92830   21.83820   22.66370   31.45850   22.66370  -19.43950  -18.83890   31.45850
 6650.00000    8.47550    8.47550   47.23200   21.17210   63.00590   63.00590   37.65190   37.65190   21.17210   22.14100   31.06150   22.14100  -26.28820  -25.19970   31.06150
 6700.00000    9.17400    9.17400  102.23380    9.78150   63.86090   63.86090   51.94990   51.94990    9.78150   10.24640   11.80980   10.24640  -49.28720  -47.70750   11.80980
 6750.00000    8.61500    8.61500    7.44910  134.24420   53.61520   53.61520   18.50410   18.50410  134.24420  113.52380  149.54680  113.52380  -49.85370  -47.78610  149.54680
 6800.00000    8.83060    8.83060   19.68390   50.88510   53.03960   53.03960   11.68240   11.68240   50.88510   52.76870   82.40010   52.76870 -121.91680 -119.36120   82.40010
 6850.00000    8.63640    8.63640    1.01140  988.77210   51.55370   51.55370   13.54450   13.54450  988.77210  213.96480  357.66650  213.96480  -69.20630  -66.15960  357.66650
 6900.00000    8.75460    8.75460    9.67040  103.40830   52.65870   52.65870   10.11410   10.11410  103.40830   70.50390  147.37700   70.50390 -114.64490 -111.11020  147.37700
 6950.00000    8.46380    8.46380    1.89810  526.85010   51.16660   51.16660   10.98230   10.98230  526.85010  205.85470  263.48440  205.85470  -90.61450  -86.58870  263.48440
 7000.00000    8.68670    8.68670    2.25370  443.70830   52.12240   52.12240    8.95440    8.95440  443.70830  148.95190  182.76110  148.95190 -131.54250 -127.02870  182.76110
 7050.00000    8.76140    8.76140   20.16630   49.58890   52.17760   52.17760    9.26910    9.26910   49.58890   59.58590  150.00280   59.58590 -143.06400 -138.06230  150.00280
 7100.00000    8.18720    8.18720    1.63620  611.15840   51.65130   51.65130    7.97730    7.97730  611.15840  478.02200  445.99440  478.02200 -129.74500 -124.25210  445.99440
 7150.00000    8.53470    8.53470    4.55890  219.35100   51.04340   51.04340    8.69200    8.69200  219.35100  174.65560  662.71750  174.65560 -129.48520 -123.50440  662.71750
 7200.00000    8.83820    8.83820    0.94450 1058.72730   50.91480   50.91480    9.43140    9.43140 1058.72730  266.69520 1452.47020  266.69520 -128.27900 -121.80700 1452.47020
 7250.00000    8.68680    8.68680    0.92240 1084.07710   51.22570   51.22570    9.75690    9.75690 1084.07710  545.83310 1442.84750  545.83310 -119.23900 -112.27910 1442.84750
 7300.00000    8.66840    8.66840    0.92970 1075.63730   50.32660   50.32660    9.10490    9.10490 1075.63730 1555.68100 1395.39570 1555.68100 -111.57250 -104.12460 1395.39570
 7350.00000    8.63840    8.63840    0.96060 1041.06190   50.98780   50.98780   12.29950   12.29950 1041.06190  360.43210  729.90400  360.43210 -130.09120 -122.15220  729.90400
 7400.00000    8.61340    8.61340    1.47480  678.07220   50.69410   50.69410    8.81220    8.81220  678.07220  393.76250  344.87410  393.76250 -155.38910 -146.96210  344.87410
 7450.00000    8.58660    8.58660   38.59960   25.90700   53.30800   53.30800    9.54160    9.54160   25.90700   37.70560  176.94470   37.70560 -172.09460 -163.17650  176.94470
 7500.00000    8.32120    8.32120  217.44800    4.59880   60.39270   60.39270   27.62890   27.62890    4.59880    5.13930    7.74740    5.13930 -123.52420 -114.11810    7.74740
 7550.00000    7.88640    7.88640  255.79090    3.90960   59.19430   59.19430   36.83940   36.83940    3.90960    4.91280   24.53460    4.91280 -161.76020 -151.86620   24.53460
 7600.00000    8.45390    8.45390   25.27530   39.56430   51.54690   51.54690   20.40410   20.40410   39.56430   42.46920   61.03030   42.46920 -153.88740 -143.50220   61.03030
 7650.00000    8.37100    8.37100   81.24330   12.30870   54.86870   54.86870   22.56880   22.56880   12.30870   12.93950   13.31390   12.93950  -82.14520  -71.27210   13.31390
 7700.00000    8.51210    8.51210   90.47320   11.05300   55.59550   55.59550   21.04150   21.04150   11.05300   11.77060   12.23580   11.77060  -71.91460  -60.55030   12.23580
 7750.00000   10.24210   10.24210  112.33560    8.90190   80.55590   80.55590   50.77120   50.77120    8.90190    7.76260    8.82440    7.76260  -31.49640  -19.64420    8.82440
 7800.00000    8.25850    8.25850    6.19410  162.37120   53.60560   53.60560   14.66950   14.66950  162.37120  118.10800  120.75420  118.10800  -42.93510  -30.59500  120.75420
 7850.00000    8.19570    8.19570   42.50420   23.52710   60.52930   60.52930   39.56090   39.56090   23.52710   20.05170   20.39550   20.05170  -14.12710   -1.29580   20.39550
