~Version ---------------------------------------------------
VERS. 2.0 : CWLS log ASCII Standard -VERSION 2.0
WRAP.  NO : ONE LINE PER DEPTH STEP
~Well ------------------------------------------------------
STRT.M                           450.0 : START DEPTH
STOP.M                          3300.0 : STOP DEPTH
STEP.M                        50.00000 : STEP LENGTH
NULL.                          -999.25 : NULL VALUE
COMP. AMOCO CANADA PETROLEUM CO., LTD. : COMPANY
WELL.       AMOCO HB PEMBINA 9-18-49-9 : WELL
FLD .                          PEMBLNA : FIELD
LOC .                                  : LOCATION
CTRY.                           CANADA : COUNTRY
SRVC.                     Schlumberger : SERVICE COMPANY
DATE.                      22-Dec-1980 : LOGDATE
PROV.                          Alberta : PROVINCE
UWI .                 100091804909W500 : UNIQUE WELL ID
SLAT.WGS84                    53.23032 : SURFACE LATITUDE
SLON.WGS84                   -115.2987 : SURFACE LONGITUDE
~Curve Information -----------------------------------------
DEPT    .M      : DEPTH METERS
CALDED  .MM     : CALIPER FROM DENSITY LOG
CALSED  .MM     : CALIPER FROM SONIC LOG
CALWS   .MM     : CALIPER [CALDED]
CILDED  .MMHO   : CONDUCTIVITY FROM RESISTIVITY LOG
CONDWS  .MMHO   : CONDUCTIVITY [1000/DRESWS]
DCORED  .KG/M3  : DENITY CORRECTION FROM DENSITY LOG
DCORWS  .KG/M3  : DENITY CORRECTION FROM DENSITY LOG
DENWS   .KG/M3  : BULK DENSITY [RHOBED]
DPHILSED.V/V    : DENSITY POROSITY [M=2710 F=1000] FROM DENSITY LOG
DPHISSED.V/V    : DENSITY POROSITY [M=2650 F=1000] FROM DENSITY LOG
DPOLSWS .V/V    : DENSITY PROSITY LIMESTONE [CALCULATED FROM DENWS]
DRESWS  .OHMM   : DEEP RESISTIVITY [ILDED] IF DRESWS<1;1000/CONDWS
DRHOED  .KG/M3  : DENSITY CORRECTION FROM DENSITY LOG
DTED    .US/M   : DELTA TIME FROM SONIC LOG
DTWS    .US/M   : DELTA TIME [DTED]
GRDED   .GAPI   : GAMMA RAY FROM DENSITY LOG
GRSED   .GAPI   : GAMMA RAY FROM SONIC LOG
GRWS    .GAPI   : GAMMA RAY [GRDED]
ILDED   .OHMM   : INDUCTION LOG DEEP RESISTIVITY
ILMED   .OHMM   : INDUCTION LOG MEDIUM RESISTIVITY
MRESWS  .OHMM   : MEDIUM RESISTIVITY [ILMED]
NPHILSED.V/V    : NEUTRON POROSITY LIMESTONE FROM DENSITY LOG
NPHISSED.V/V    : NEUTRON POROSITY SANDSTONE FROM DENSITY LOG
NPOLSWS .V/V    : NEUTRON POROSITY LIMESTONE [NPHILSED], CHANGE MATRIX FROM SNADSTONE TO LIMESTONE [DEPTH 430.5-2160]
RHOBED  .KG/M3  : BULK DENSITY FROM DENSITY LOG
SFLED   .OHMM   : SPHERICALLY FOCUSED LOG RESISTIVITY
SPRED   .MV     : SPONTANEOUS POTENTIAL FROM RESISTIVITY LOG
SPWS    .MV     : SPONTANEOUS POTENTIAL [BASELINE 0 MV] [SPRED]
SRESWS  .OHMM   : SHALLOW RESISTIVITY [SFLED]
~Params ----------------------------------------------------
PD  .                         GL : PERMANENT DATUM
EPD .M                     919.7 : ELEVATION PERMANENT DATUM
LMF .                         KB : LOG MEASURED FROM
DAPD.M                       8.4 : FEET ABOVE PERMANENT DATUM
DMF .                         KB : DRILLING MEASURED FROM
EKB .M                     928.1 : KELLY BUSHING
EGL .M                     919.7 : GROUND LEVEL
DATE.                   12/22/80 : RUN DATE
RUN .                          2 : RUN NUMBER
DD  .M                      3300 : DEPTH DRILLER
DL  .M                      3301 : DEPTH LOGGER
BLI .M                      3300 : BOTTOM LOG INTERVAL
TLI .M                      2595 : TOP LOG INTERVAL
CS  .MM                    244.5 : CASING SIZE
CBD .M                      2593 : CASING BOTTOM DRILLER
CBL .M                      2595 : CASING BOTTOM LOGGER
BS  .MM                      216 : BIT SIZE
BSD .M                      3300 : BIT SIZE AT DEPTH
DFT .         GEL BENEX 5% CRUDE : DRILLING FLUID TYPE
DFD .                       1100 : DRILLING FLUID DENSITY
DFV .                        114 : DRILLING FLUID VISCOSITY
DFPH.                         10 : DRILLING FLUID PH
DFL .                        7.5 : DRILLING FLUID LOSS
MSS .                   FLOWLINE : MUD SAMPLE SOURCE
RMS .OHMM                   1.46 : RESISTIVITY MUD SAMPLE
MST .DEGC                   16.7 : MUD SAMPLE TEMPERATURE
RMF .OHMM                   0.95 : RESISTIVITY MUD FILTRATE SAMPLE
MFST.DEGC                   14.4 : MUD FILTRATE SAMPLE TEMPERATURE
RMC .OHMM                   1.48 : RESISTIVITY MUD CAKE
MCST.DEGC                   18.9 : MUD CAKE SAMPLE TEMPERATURE
MFSS.                        MUD : MUD FILTRATE SAMPLE SOURCE
MCSS.                  MUD PRESS : MUD CAKE SAMPLE SOURCE
RMB .OHMM                   0.49 : RESISTIVITY MUD AT BHT
TCS .HRS                     630 : TIME CIRCULATED STOPPED
TLAB.HRS                    1600 : TIME LOGGER AT BOTTOM
LUN .                       8112 : LOGGING UNIT NUMBER
LUL .                      EDSON : LOGGING UNIT LOCATION
ENGI.                      LLOYD : RECORDING ENGINEER
WITN.                      MAGEE : WITNESSED BY
CLNT.                    A2DTECH : CLIENT CODE
ORIG. 6.5"/100M 16.5"/100M PRINT : ORIGIN OF DATA
UWI .           100091804909W500 : UNIQUE WELL ID
DICO.     A2D Technologies, Inc. : DIGITIZING COMPANY
~Other -----------------------------------------------------
~ASCII -----------------------------------------------------
  450.00000    -999.25    -999.25    -999.25    -999.25    -999.25    -999.25    -999.25    -999.25    -999.25    -999.25    -999.25    -999.25    -999.25    -999.25    -999.25   32.13950   33.41100   52.13950    -999.25    -999.25    -999.25    -999.25    0.57930    0.53940    -999.25    -999.25    -999.25    -999.25    -999.25
  500.00000  400.04090  319.46930  400.04090    -999.25  178.63200   12.15460   12.15460 2079.74630    -999.25    0.34710    0.36860    5.59810    -999.25  301.96420  301.96420   63.54940   60.54170   63.54940    5.59810    4.71880    4.71880    -999.25    0.43840    0.39720 2079.74630    5.28050  -28.42420  -15.70210    5.28050
  550.00000  323.80470  323.85600  323.80470    -999.25   95.74510    8.54800    8.54800 2394.57350    -999.25    0.15240    0.18450   10.44440    -999.25  270.90650  270.90650   56.79420   49.02780   56.79420   10.44440    8.82080    8.82080    -999.25    0.32710    0.27690 2394.57350    6.87090  -33.93480  -15.67820    6.87090
  600.00000  318.99870  322.82750  318.99870    -999.25  163.65810   24.59370   24.59370 2389.18510    -999.25    0.15670    0.18760    6.11030    -999.25  326.22390  326.22390   66.33440   59.43260   66.33440    6.11030    5.11080    5.11080    -999.25    0.44660    0.40630 2389.18510    4.73720  -38.13770  -14.34670    4.73720
  650.00000  311.73380  315.47430  311.73380    -999.25  129.75720   17.86450   17.86450 2400.63400    -999.25    0.14980    0.18090    7.70670    -999.25  276.59140  276.59140   69.28360   63.83000   69.28360    7.70670    6.73930    6.73930    -999.25    0.33760    0.28800 2400.63400    6.19090  -39.00120   -9.67570    6.19090
  700.00000  312.15030  321.82770  312.15030    -999.25  169.39390    8.34270    8.34270 2329.17870    -999.25    0.19520    0.22270    5.90340    -999.25  331.10440  331.10440   82.26930   70.58250   82.26930    5.90340    4.95890    4.95890    -999.25    0.43940    0.39830 2329.17870    4.61780  -35.62520   -1.65110    4.61780
  750.00000  343.16940  335.34480  343.16940    -999.25  138.15400   26.43660   26.43660 2484.98460    -999.25    0.09520    0.13160    7.23830    -999.25  300.30840  300.30840   87.38230   88.30990   87.38230    7.23830    6.53650    6.53650    -999.25    0.31630    0.26560 2484.98460    6.41740  -39.33990   -5.73720    6.41740
  800.00000  345.24800  332.64880  345.24800    -999.25  189.71010   36.04200   36.04200 2375.18380    -999.25    0.16380    0.19580    5.27120    -999.25  324.64220  324.64220   77.29720   69.62160   77.29720    5.27120    4.09420    4.09420    -999.25    0.32610    0.27590 2375.18380    3.98040  -39.09330   -5.86200    3.98040
  850.00000  323.05860  328.77650  323.05860    -999.25  276.28890    6.23600    6.23600 2404.01490    -999.25    0.14790    0.17890    3.61940    -999.25  321.06660  321.06660   76.42940   71.85920   76.42940    3.61940    3.69500    3.69500    -999.25    0.39590    0.35050 2404.01490    3.55810  -40.03040   -7.17060    3.55810
  900.00000  313.34550  316.23030  313.34550    -999.25  143.37530   30.35860   30.35860 2421.82570    -999.25    0.13580    0.16850    6.97470    -999.25  301.25930  301.25930   78.61480   77.39590   78.61480    6.97470    6.25600    6.25600    -999.25    0.43120    0.38920 2421.82570    6.22310  -40.50590   -8.01750    6.22310
  950.00000  310.97200  312.18870  310.97200    -999.25   83.09510   -4.16860   -4.16860 2462.91630    -999.25    0.11570    0.14450   12.03440    -999.25  231.74220  231.74220   48.66130   55.77120   48.66130   12.03440   11.60710   11.60710    -999.25    0.31910    0.26850 2462.91630   13.35250  -39.98690   -7.86990   13.35250
 1000.00000  310.07880  321.50130  310.07880    -999.25  192.11560   41.38430   41.38430 2410.30710    -999.25    0.14470    0.17530    5.20520    -999.25  293.65240  293.65240   72.40380   75.64080   72.40380    5.20520    4.75110    4.75110    -999.25    0.43080    0.38880 2410.30710    4.26070  -42.21210  -10.46650    4.26070
 1050.00000  321.34580  317.27580  321.34580    -999.25  323.75030   28.37090   28.37090 2346.65700    -999.25    0.18380    0.21250    3.08880    -999.25  322.81610  322.81610   89.94850   82.66610   89.94850    3.08880    2.74890    2.74890    -999.25    0.42350    0.38070 2346.65700    2.49390  -41.11920   -9.74500    2.49390
 1100.00000  328.37110  336.65310  328.37110    -999.25  146.27150  -14.42900  -14.42900 2300.99900    -999.25    0.18660    0.23920    6.83660    -999.25  282.59580  282.59580   60.51620   56.43460   60.51620    6.83660    6.36850    6.36850    -999.25    0.49350    0.45360 2300.99900    5.47640  -37.30940   -6.30660    5.47640
 1150.00000  325.34590  334.99980  325.34590    -999.25  163.80020    4.64510    4.64510 2461.90800    -999.25    0.11180    0.14510    6.10500    -999.25  287.42620  287.42620   58.27820   52.67480   58.27820    6.10500    5.42910    5.42910    -999.25    0.38930    0.34330 2461.90800    4.32510  -39.86900   -9.23760    4.32510
 1200.00000  343.67690  337.76550  343.67690    -999.25  127.73020   23.00950   23.00950 2510.31100    -999.25    0.08250    0.11680    7.82900    -999.25  265.59510  265.59510   59.49780   55.02240   59.49780    7.82900    7.02350    7.02350    -999.25    0.33720    0.28760 2510.31100    7.52170  -40.39760  -10.13760    7.52170
 1250.00000  424.25360  372.32070  424.25360    -999.25  134.17600   19.08990   19.08990 2092.63890    -999.25    0.44820    0.36100    7.45290    -999.25  310.10780  310.10780   45.58880   42.10120   45.58880    7.45290    5.52060    5.52060    -999.25    0.46290    0.42300 2092.63890    5.37560  -34.53170   -4.64320    5.37560
 1300.00000  308.28600  306.57190  308.28600    -999.25   44.94380   13.22290   13.22290 2431.24340    -999.25    0.13180    0.16300   22.25000    -999.25  258.13090  258.13090   32.38160   30.09480   32.38160   22.25000   22.73030   22.73030    -999.25    0.26270    0.21010 2431.24340   22.65070  -64.10440  -34.58730   22.65070
 1350.00000  343.11550  325.86440  343.11550    -999.25  156.06950   17.75170   17.75170 2507.40380    -999.25    0.08520    0.11850    6.40740    -999.25  293.80840  293.80840   75.00300   69.65190   75.00300    6.40740    5.86550    5.86550    -999.25    0.38580    0.33950 2507.40380    5.92270  -40.33140  -11.18570    5.92270
 1400.00000  371.16600  338.20280  371.16600    -999.25   86.90290   51.53510   51.53510 2553.46700    -999.25    0.06100    0.09150   11.50710    -999.25  258.98110  258.98110   87.93160   82.33430   87.93160   11.50710   10.36780   10.36780    -999.25    0.28470    0.23270 2553.46700   10.03610  -40.98030  -12.20600   10.03610
 1450.00000  313.28190  310.77420  313.28190    -999.25  104.96370   54.21660   54.21660 2509.07300    -999.25    0.08640    0.11750    9.52710    -999.25  296.96340  296.96340   98.32180   95.81260   98.32180    9.52710    8.74950    8.74950    -999.25    0.38920    0.34320 2509.07300    9.73680  -40.85310  -12.45020    9.73680
 1500.00000  330.31950  323.43170  330.31950    -999.25  108.50220   45.22600   45.22600 2539.29440    -999.25    0.06430    0.09980    9.21640    -999.25  286.89740  286.89740   99.49190   95.97390   99.49190    9.21640    8.29180    8.29180    -999.25    0.37880    0.33200 2539.29440    8.82600  -40.33800  -12.30650    8.82600
 1550.00000  344.26750  328.84640  344.26750    -999.25  117.79120   43.57990   43.57990 2588.82450    -999.25    0.03110    0.07090    8.48960    -999.25  262.24480  262.24480   86.43070   84.16220   86.43070    8.48960    7.62410    7.62410    -999.25    0.32830    0.27820 2588.82450    7.07040  -39.25920  -11.59910    7.07040
 1600.00000  318.30840  323.36170  318.30840    -999.25  124.82370   62.50630   62.50630 2392.85940    -999.25    0.15410    0.18550    8.01130    -999.25  275.23820  275.23820   79.64150   82.81400   79.64150    8.01130    7.31770    7.31770    -999.25    0.40200    0.35710 2392.85940    7.43760  -38.68900  -11.40040    7.43760
 1650.00000  382.80670  325.44440  382.80670    -999.25   38.99270  -23.36310  -23.36310 1868.49270    -999.25    0.47860    0.49210   25.64580    -999.25  270.69170  270.69170   48.79290   51.65620   48.79290   25.64580   20.73820   20.73820    -999.25    0.39730    0.35200 1868.49270   28.96020  -39.47480  -12.55760   28.96020
