~Version ---------------------------------------------------
VERS. 2.0 : CWLS log ASCII Standard -VERSION 2.0
WRAP.  NO : ONE LINE PER DEPTH STEP
~Well ------------------------------------------------------
STRT.F                             1050.0 : START DEPTH
STOP.F                            10300.0 : STOP DEPTH
STEP.F                           50.00000 : STEP LENGTH
NULL.                             -999.25 : NULL VALUE
COMP.        CANADIAN HOMESTEAD OILS LTD. : COMPANY
WELL. HOMESTEAD S. SNIPE LAKE 10-14-68-19 : WELL
FLD .                                     : FIELD
LOC .                                     : LOCATION
CTRY.                              CANADA : COUNTRY
SRVC.              Schlumberger of Canada : SERVICE COMPANY
DATE.                         04-Mar-1963 : LOGDATE
PROV.                             Alberta : PROVINCE
UWI .                    100101406819W500 : UNIQUE WELL ID
SLAT.WGS84                       54.88835 : SURFACE LATITUDE
SLON.WGS84                      -116.7806 : SURFACE LONGITUDE
~Curve Information -----------------------------------------
DEPT.F                 : 
DT  .US/F 60 520 00 00 : ACOUSTIC TRANSIT TIME SLOWNESS, DELTA T
DT_1.US/F 60 520 00 00 : ACOUSTIC TRANSIT TIME SLOWNESS, DELTA T
GRS .GAPI              : GAMMA RAY FROM SONIC LOG
CALS.IN   60 280 50 00 : CALIPER FROM SONIC LOG
ILD .OHMM              : DEEP INDUCTION RESISTIVITY
SN  .OHMM 01 040 00 00 : SHORT NORMAL
CILD.MMHO 07 110 46 00 : CONDUCTIVITY INDUCTION LOG DEEP
SPR .MV                : SPONTANEOUS POTENTIAL FROM RESISTIVITY
~Params ----------------------------------------------------
PD  .                     GL : PERMANENT DATUM
EPD .FT               2807.4 : ELEVATION PERMANENT DATUM
LMF .                     KB : LOG MEASURED FROM
DAPD.FT                 13.6 : FEET ABOVE PERMANENT DATUM
EKB .FT                 2821 : KELLY BUSHING
EDF .FT               2807.4 : DRILLING FLOOR
DATE.               03/04/63 : RUN DATE
RUN .                      1 : RUN NUMBER
DD  .FT                10320 : DEPTH DRILLER
DL  .FT                10325 : DEPTH LOGGER
BLI .FT                10324 : BOTTOM LOG INTERVAL
TLI .FT                 1073 : TOP LOG INTERVAL
CBD .FT                 1075 : CASING BOTTOM DRILLER
CBL .FT                 1073 : CASING BOTTOM LOGGER
BS  .IN                    9 : BIT SIZE
BSD .FT                10320 : BIT SIZE AT DEPTH
DFT .                    GEL : DRILLING FLUID TYPE
DFD .                    9.9 : DRILLING FLUID DENSITY
DFV .                     84 : DRILLING FLUID VISCOSITY
DFPH.                      9 : DRILLING FLUID PH
DFL .                    8.6 : DRILLING FLUID LOSS
RMS .OHMM               3.51 : RESISTIVITY MUD SAMPLE
MST .DEGF                 55 : MUD SAMPLE TEMPERATURE
RMF .OHMM               1.98 : RESISTIVITY MUD FILTRATE SAMPLE
MFST.DEGF                 74 : MUD FILTRATE SAMPLE TEMPERATURE
RMC .OHMM               1.05 : RESISTIVITY MUD CAKE
MCST.DEGF                171 : MUD CAKE SAMPLE TEMPERATURE
RMB .OHMM               1.15 : RESISTIVITY MUD AT BHT
TCS .HRS                 3.5 : TIME CIRCULATED STOPPED
LUN .                   1571 : LOGGING UNIT NUMBER
LUL .                    WCT : LOGGING UNIT LOCATION
ENGI.                 PAVLIN : RECORDING ENGINEER
WITN.                   EARL : WITNESSED BY
CLNT.                A2DTECH : CLIENT CODE
ORIG.            2" 5" PRINT : ORIGIN OF DATA
UWI .       100101406819W500 : UNIQUE WELL ID
DICO. A2D Technologies, Inc. : DIGITIZING COMPANY
~Other -----------------------------------------------------
~ASCII -----------------------------------------------------
# ...
 5050.00000   74.75830  126.22040   58.46530    9.32490    7.01410   13.77850  136.32670  -82.31520
 5100.00000   73.60920  121.61550   55.34380   10.59510   11.61790   16.01450   86.11940  -56.90690
 5150.00000   74.81730  126.52070   72.62830   10.47880    9.88280   15.62570  102.82610  -50.84430
 5200.00000   79.38370  133.38170   83.99450   12.66550    4.47960    8.22990  221.47120  -49.21550
 5250.00000   99.84960  139.48270   81.85360   11.72160    2.65490    6.65670  462.10360  -78.59090
 5300.00000   99.40060    -999.25  180.52980   10.43390   23.74010   37.77540   43.70410  -39.37380
 5350.00000   73.60370  123.54110  261.96090    9.31040  220.44880  119.54710    7.04440  -47.90030
 5400.00000  112.93600  139.67700  222.92200    9.88760  158.50360  100.95600    7.63180  -70.82430
 5450.00000   73.88980  123.86370   66.02560    9.43400    3.62180   17.12810  292.65380 -127.70530
 5500.00000   69.93290  113.99840   73.86200    9.77970    4.28730   14.11290  238.05670  -87.52550
 5550.00000   59.39400   88.51900   56.42380    8.66110    6.01170   12.81550  164.39270  -82.21610
 5600.00000   69.97610  112.38490   25.36600    8.49490    2.00110   14.83930  754.99850 -160.49280
 5650.00000   54.34350   75.77710   27.16640    8.55330   23.35660   90.64100   43.77780 -166.61500
 5700.00000   48.36710   60.93010   31.17810    8.77580   16.97320   81.85470   65.18130 -182.37000
 5750.00000   50.54710   66.29030   25.95080    9.96280   39.32770   61.19040   29.41200  -82.19330
 5800.00000   63.86500   98.14540   23.86750    8.38390    3.80690   35.14130  268.50760 -182.36800
 5850.00000   53.56340   73.58610   23.54830    8.91790   41.99180   96.99050   24.85010  -77.79080
 5900.00000   61.65330   93.62610   68.05660   11.04750   14.33220   21.03890   70.70450  -33.77090
 5950.00000   56.07970   79.59620   51.20730    9.86250   34.72290   62.61120   29.20130  -59.22210
 6000.00000   66.92040  106.82640   45.09830   10.08780    2.83720   18.84940  400.52630 -110.01010
 6050.00000   71.47670  122.69400   43.78080    9.86040    2.26950   13.66130  602.12730 -163.43720
 6100.00000   57.35090   82.13390   46.29940   11.19480   20.75740   29.96290   49.23480  -78.40940
 6150.00000   57.46090   82.88020   24.96590   10.66850   15.32610   74.69570   65.67030 -163.71210
 6200.00000   64.46810  100.02790   24.04120    9.59950    6.44360   45.01410  147.57080 -173.56740
 6250.00000   51.51150   68.09460   25.03020   10.98260   42.60920   72.45540   24.93590 -155.19310
 6300.00000   51.23680   68.22470   24.83830   11.29980   61.99770   79.37340   16.74080 -142.20770
 6350.00000   69.26260  112.99270   56.64690   11.36290    2.57090    4.11070  527.21310  -80.03660
 6400.00000   62.68240   96.08430   49.82030   10.63980    4.86160   10.74430  199.56380  -31.35360
 6450.00000   57.69100   83.73940   58.19060   11.61860   13.39180   18.97250   77.09870  -15.55030
 6500.00000   55.20210   76.69420   34.28490   11.85540   10.56760   16.89620  118.04680  -42.97740
 6550.00000   54.60150   75.68830   42.30830    9.66240   30.95100   44.81950   33.90760  -62.67600
 6600.00000   52.75260   71.50500   38.94500    9.57490   68.39440   74.31550   14.91270  -31.19930
 6650.00000   54.20560   75.24960   40.49800    9.18590   92.95400   88.49270   10.95110  -37.22000
 6700.00000   56.00150   79.51860   41.96200    9.31260   34.83880   42.74690   29.85820  -36.50030
 6750.00000   53.44850   73.10850   34.95280    9.18440   54.20370   73.14490   18.48710  -60.75150
 6800.00000   53.21470   72.64820   29.58870    9.01000   79.35950   99.46020   12.49400  -55.07700
 6850.00000   55.86990   78.81350   35.61170    9.14670   63.83430   76.34590   16.03850  -27.09590
 6900.00000   62.92190   96.58030   62.36820    9.99190   20.16650   29.12530   51.31980   -7.77140
 6950.00000   61.99700   93.96760   69.68830   11.00230   24.42550   37.69260   40.14340  -18.91730
 7000.00000   51.68370   68.70720   26.66940   10.55380  243.00490  178.52040    4.18460  -20.83440
 7050.00000   49.54000   63.92420   25.28150   10.54750  124.02230   92.42610    8.40480  -90.86100
 7100.00000   50.59790   66.58150   28.26200   10.03270  214.39950  144.96300    6.96380  -63.12610
 7150.00000   49.98540   64.45950   23.97060   10.07900  186.53400  134.57640    6.39420  -96.73450
 7200.00000   49.97450   64.75260   21.16430    9.79090  169.23750  129.06200    4.00300  -89.25050
 7250.00000   50.06700   64.86200   22.14980    9.77190  151.12540  135.57970    4.90930 -117.69250
 7300.00000   53.25020   72.51760   21.13590    9.50940   49.52950  106.02770   20.29990 -164.25930
 7350.00000   53.52490   72.87560   23.93650    8.99080   34.03680  114.32980   30.34320 -177.84600
 7400.00000   52.00450   69.73400   21.08550   10.18970   77.04890  113.79690   14.62040 -132.40360
 7450.00000   51.94090   69.32650   25.38990   10.15500  173.14460  117.25780    7.23640 -114.95660
 7500.00000   49.40700   63.22770   25.91790   10.13480  268.18630  161.72970    5.55670 -105.35460
 7550.00000   49.48310   63.21620   23.45900   10.28730  281.30220  172.01700    4.10200  -83.49980
 7600.00000   49.78880   63.73510   24.53070   10.27420  276.92070  169.01430    4.86790 -121.67470
 7650.00000   50.68140   66.66260   21.64730    9.71890   68.10030  107.03450   15.01900 -161.15210
 7700.00000   49.22810   63.15960   28.39830    9.76820   73.98020  117.49020   15.34880 -165.42830
 7750.00000   55.85960   79.66960   37.41690   10.56270   22.06600   49.78410   50.37450 -113.95780
 7800.00000   51.36670   68.14410   32.23080   10.02630    8.06760   34.34890  131.42900 -150.25440
 7850.00000   52.42860   71.66120   30.94990   10.25480   65.08590   56.59920   16.10930 -139.75490
 7900.00000   50.20750   65.19380   27.11230   10.35900   25.29200   37.63970   41.01980 -108.21880
 7950.00000   51.96650   69.40690   47.60920   10.21320   38.89350   48.86250   28.46760  -81.06420
 8000.00000   51.35540   67.82490   32.16100   10.28350   29.71640   36.31200   37.50490  -43.02160
 8050.00000   50.34020   65.35640   20.63620   10.05250  210.74510  155.97660    5.42610  -80.74860
 8100.00000   56.10800   79.25290   44.94550   10.40270   14.34910   18.27890   76.83680  -51.11530
 8150.00000   62.21610   92.64620   50.34940   11.41560   14.34920   18.14120   70.73870  -54.65170
 8200.00000   64.04110   98.51970   69.46140   12.23710    5.80010   10.67310  166.36060  -62.28540
 8250.00000   75.54980  127.79690   83.44430   14.01920    4.74030    6.46090  210.90520  -76.52400
 8300.00000   82.68240    -999.25   82.33200   14.38410    3.64660    4.73170  290.89840  -60.34730
 8350.00000   82.75630  139.49240   72.86240   14.27570    4.28550    5.25130  238.61600  -63.57060
 8400.00000   82.66820  139.59240   73.52400   14.23360    3.75490    5.16390  269.00420  -55.37320
 8450.00000   80.67130  141.09450   79.69310   14.24570    3.78990    4.90590  263.32970  -46.90890
 8500.00000   84.68190    -999.25   69.04810   14.33750    3.88890    4.83560  266.82330  -49.40020
 8550.00000   81.54590  139.63140   68.13350   14.05120    3.82840    5.22550  276.70490  -44.65610
 8600.00000   67.71790  108.71620   67.77870   10.56590    9.54620   15.27210   99.44580  -42.55730
 8650.00000   64.10690   99.76870   71.94010   10.41530   10.68370   16.22750   94.01680  -41.44270
 8700.00000   68.50190  110.36790   79.11120   10.94460    9.40160   13.92940  104.15250  -43.59770
 8750.00000   66.82360  106.17300   71.62710   11.03070    8.20940   12.75180  119.01080  -42.54190
 8800.00000   62.75600   95.94470   79.71700   10.84670   14.08160   18.65150   75.13230  -33.80620
 8850.00000   66.51000  105.34690   77.19300   11.15480    7.16260   11.37910  138.34860  -36.18920
 8900.00000   70.14440  112.52720   88.77380   11.33360    6.60540   10.41810  149.06730  -39.32530
 8950.00000   67.22350  107.24310   81.05870   10.14500    9.71160   15.47290  102.10380  -37.16230
 9000.00000   66.87520  107.62560   92.77020   10.74150    5.32460    7.88950  202.78200  -42.26030
