~Version ---------------------------------------------------
VERS.      2.0 : CWLS log ASCII Standard -VERSION 2.0
WRAP.       NO : One line per depth step
CREA. 10/08/14 : LAS Creation Date
~Well ------------------------------------------------------
STRT.M                                      3000.0 : START DEPTH
STOP.M                                      4800.0 : STOP DEPTH
STEP.M                                    50.00000 : STEP LENGTH
NULL.                                      -999.25 : NULL VALUE
COMP.             AMOCO CANADA PETROLEUM CO., LTD. : COMPANY
WELL.        AMOCO ET AL BLACKSTONE A11-22-44-16W5 : WELL
FLD .                                              : FIELD
LOC .                                              : LOCATION
CTRY.                                       CANADA : COUNTRY
SRVC. ATLAS WIRELINE SERVICES / WESTERN ATLAS INTL : SERVICE COMPANY
DATE.                                  06-Oct-1987 : LOGDATE
PROV.                                      Alberta : PROVINCE
UWI .                             102112204416W500 : UNIQUE WELL ID
SLAT.WGS84                                52.81052 : SURFACE LATITUDE
SLON.WGS84                               -116.2431 : SURFACE LONGITUDE
~Curve Information -----------------------------------------
DEPT    .M      : DEPTH METER
ACED    .US/M   : ACOUSTIC TIME FROM SONIC LOG
ACRED   .US/M   : ACOUSTIC TIME (REPEAT) FROM SONIC LOG [ADJ. TO ACED]
C13ED   .MM     : CALIPER 13 FROM CNL LOG [ADJ. TO DLL LOG]
C24ED   .MM     : CALIPER 24 FROM CNL LOG [ADJ. TO DLL LOG]
CALED   .MM     : CALIPER FROM CVL LOG [ADJ. TO DIL-DLL LOG]
CALSED  .MM     : CALIPER FROM SONIC LOG
CALWS   .MM     : CALIPER [CALSED SPL. TO CALXDED @ 4682 M & SPL. TO C13ED @ 4695 M]
CALXDED .MM     : CALIPER FROM X AXIS FROM ZDL-CNL LOG [ADJ. TO DIL-DLL LOG]
CALXED  .MM     : CALIPER X FROM CVL LOG [ADJ. TO DIL-DLL LOG]
CALYDED .MM     : CALIPER FROM Y AXIS FROM ZDL-CNL LOG [ADJ. TO DIL-DLL LOG]
CALYED  .MM     : CALIPER FROM CVL LOG [ADJ. TO DIL-DLL LOG]
CNCLSED .V/V    : NEUTRON POROSITY LIMESTONE FROM ZDL-CNL LOG [ADJ. TO DIL-DLL LOG]
CNCSSED .V/V    : NEUTRON POROSITY SANDSTONE FROM ZDL-CNL LOG [ADJ. TO DIL-DLL LOG]
CONDWS  .MMHO   : CONDUCTIVITY [1000/DRESWS]
DCORWS  .KG/M3  : DENSITY CORRECTION [ZCORED]
DENWS   .KG/M3  : FORMATION BULK DENSITY [CALC. FROM DPOLSWS,M=2710,F=1000]
DPOLSWS .V/V    : DENSITY POROSITY LIMESTONE [PORZSSED CONVERTED TO LIMESTONE MATRIX [M=2710,F=1000] & SPL. TO PORZLSED @ 3681.7 M]
DRESWS  .OHMM   : DEEP RESISTIVITY [RILDED SPL. TO RDED @ 4695.8 M & SPL. TO RDRED @ 4741.9 M]
DTWS    .US/M   : COMPRESSIONAL SONIC [ACED SPL. TO ACRED @ 4750.3 M]
GR1ED   .GAPI   : GAMMA RAY FROM CBL LOG [ADJ. TO DIL-DLL LOG]
GRDED   .GAPI   : GAMMA RAY FROM ZDL-CNL LOG [ADJ. TO DIL-DLL LOG]
GRED    .GAPI   : GAMMA RAY FROM CVL LOG [ADJ. TO DIL-DLL LOG]
GRSED   .GAPI   : GAMMA RAY FROM SONIC LOG
GRWS    .GAPI   : GAMMA RAY [GR1ED SPL. TO GRSED @ 3187 M] [GRWS IN CSG @ 2984.2 M -3187.2 M (+15 GAPI)]
MRESWS  .OHMM   : MEDIUM RESISTIVITY [RILMED]
NPOLSWS .V/V    : NEUTRON POROSITY LIMESTONE [CNCSSED MATRIX  CONVERSION FOR LIMESTONE MATRIX & SPL. TO CNCLSED @ 3684.2 M]
PEED    .B/E    : PHOTOELECTRIC FACTOR FROM ZDL-CNL LOG [ADJ. TO DIL-DLL LOG]
PEFWS   .B/E    : PHOTOELECTRIC FACTOR [PEED]
PORZLSED.V/V    : DENSITY POROSITY LIMESTONE [M=2710,F=1000] FROM ZDL-CNL LOG
PORZSSED.V/V    : DENSITY POROSITY SANDSTONE [M=2650,F=1000] FROM ZDL-CNL LOG [ADJ. TO DIL-DLL LOG]
RDED    .OHMM   : DEEP LATEROLOG RESISTIVITY FROM DLL LOG
RDRED   .OHMM   : DEEP LATEROLOG RESISTIVITY (REPEAT) FROM DLL LOG [ADJ. TO RDED]
RFOCED  .OHMM   : SHALLOW FOCUSED RESISTIVITY FROM DIL LOG
RILDED  .OHMM   : DEEP INDUCTION RESISTIVITY FROM DIL LOG
RILMED  .OHMM   : MEDIUM INDUCTION RESISTIVITY FROM DIL LOG
RSED    .OHMM   : SHALLOW LATEROLOG RESISTIVITY FROM DLL LOG
RSRED   .OHMM   : SHALLOW LATEROLOG RESISTIVITY (REPEAT) FROM DLL LOG [ADJ. TO RDED]
SPRED   .MV     : SPONTANEOUS POTENTIAL FROM DIL-DLL LOG
SPRRED  .MV     : SPONTANEOUS POTENTIAL (REPEAT) FROM DLL LOG
SPWS    .MV     : SPONTANEOUS POTENTIAL [BASELINE 0 MV,SPRED]
SRESWS  .OHMM   : SHALLOW RESISTIVITY [RFOCED SPL. TO RSED @ 4695.9 M & SPL. TO RSRED @ 4742 M]
TENDED  .N      : TENSION [KG*9.80665002864] FROM ZDL-CNL LOG [ADJ. TO DIL-DLL LOG]
TENRED  .N      : TENSION [KG*9.80665002864]  FROM DIL-DLLLOG
TENRRED .N      : TENSION [KG*9.80665002864]  (REPEAT) FROM DLL LOG [ADJ. TO RDED]
TENSED  .N      : TENSION [KG*9.80665002864]  FROM SONIC LOG
TENSRED .N      : TENSION [KG*9.80665002864]  (REPEAT) FROM SONIC LOG [ADJ. TO ACED]
ZCORED  .KG/M3  : DENSITY CORRECTION [G/C3*1000] FROM ZDL-CNL LOG [ADJ. TO DIL-DLL LOG]
ZDENED  .KG/M3  : BULK DENSITY [G/C3*1000] FROM ZDL-CNL LOG [ADJ. TO DIL-DLL LOG]
~Params ----------------------------------------------------
PD  .                         GL : PERMANENT DATUM
EPD .M                    1169.7 : ELEVATION PERMANENT DATUM
LMF .                         KB : LOG MEASURED FROM
DAPD.M                      7.63 : FEET ABOVE PERMANENT DATUM
DMF .                         KB : DRILLING MEASURED FROM
EKB .M                    1177.4 : KELLY BUSHING
EGL .M                   1169.77 : GROUND LEVEL
DATE.                   10/06/87 : RUN DATE
RUN .                          2 : RUN NUMBER
DD  .M                      4820 : DEPTH DRILLER
DL  .M                    4819.6 : DEPTH LOGGER
BLI .M                      4809 : BOTTOM LOG INTERVAL
TLI .M                      4695 : TOP LOG INTERVAL
CS  .MM                    177.8 : CASING SIZE
CBD .M                      4697 : CASING BOTTOM DRILLER
CBL .M                      4695 : CASING BOTTOM LOGGER
BS  .MM                      149 : BIT SIZE
BSD .M                      4820 : BIT SIZE AT DEPTH
DFT .                   GEL CHEM : DRILLING FLUID TYPE
DFD .                       1035 : DRILLING FLUID DENSITY
DFV .                         48 : DRILLING FLUID VISCOSITY
DFPH.                       11.2 : DRILLING FLUID PH
DFL .                        9.4 : DRILLING FLUID LOSS
MSS .                   FLOWLINE : MUD SAMPLE SOURCE
RMS .OHMM                    2.1 : RESISTIVITY MUD SAMPLE
MST .DEGC                     18 : MUD SAMPLE TEMPERATURE
RMF .OHMM                   2.35 : RESISTIVITY MUD FILTRATE SAMPLE
MFST.DEGC                     18 : MUD FILTRATE SAMPLE TEMPERATURE
RMC .OHMM                    2.0 : RESISTIVITY MUD CAKE
MCST.DEGC                     18 : MUD CAKE SAMPLE TEMPERATURE
MFSS.                    MEASURE : MUD FILTRATE SAMPLE SOURCE
MCSS.                    MEASURE : MUD CAKE SAMPLE SOURCE
RMB .OHMM                   0.53 : RESISTIVITY MUD AT BHT
TCS .HRS                     9.5 : TIME CIRCULATED STOPPED
LUN .                    HL 6438 : LOGGING UNIT NUMBER
LUL .                   RED DEER : LOGGING UNIT LOCATION
ENGI.                   FRENETTE : RECORDING ENGINEER
WITN.                    EASTMAN : WITNESSED BY
CLNT.                    A2DTECH : CLIENT CODE
ORIG. 6.5"/100M 16.5"/100M PRINT : ORIGIN OF DATA
UWI .           102112204416W500 : UNIQUE WELL ID
DICO.     A2D Technologies, Inc. : DIGITIZING COMPANY
~Other -----------------------------------------------------
DIL-DLL-ZDL-CNL-BHC LOG RUN
TENS DUPLICATE WITH TENR  & TENSR WITH TENRR
5% OIL IN MUD WHICH IS CAUSING PROBLEM TO SPR
ALL CVL DATA AND ZDEN FROM TOP TO BOTTOM FROM SMALL SCALE SECTION
DENSITY MISSING VELOW 4695M TO TD
~ASCII -----------------------------------------------------
 3000.00000    -999.25    -999.25    -999.25    -999.25    -999.25    -999.25    -999.25    -999.25    -999.25    -999.25    -999.25    -999.25    -999.25    -999.25    -999.25    -999.25    -999.25    -999.25    -999.25   37.14830    -999.25    -999.25    -999.25   52.14830    -999.25    -999.25    -999.25    -999.25    -999.25    -999.25    -999.25    -999.25    -999.25    -999.25    -999.25    -999.25    -999.25    -999.25    -999.25    -999.25    -999.25    -999.25    -999.25    -999.25    -999.25    -999.25    -999.25    -999.25
 3050.00000    -999.25    -999.25    -999.25    -999.25    -999.25    -999.25    -999.25    -999.25    -999.25    -999.25    -999.25    -999.25    -999.25    -999.25    -999.25    -999.25    -999.25    -999.25    -999.25   36.31610    -999.25    -999.25    -999.25   51.31610    -999.25    -999.25    -999.25    -999.25    -999.25    -999.25    -999.25    -999.25    -999.25    -999.25    -999.25    -999.25    -999.25    -999.25    -999.25    -999.25    -999.25    -999.25    -999.25    -999.25    -999.25    -999.25    -999.25    -999.25
 3100.00000    -999.25    -999.25    -999.25    -999.25    -999.25    -999.25    -999.25    -999.25    -999.25    -999.25    -999.25    -999.25    -999.25    -999.25    -999.25    -999.25    -999.25    -999.25    -999.25   37.96350    -999.25    -999.25    -999.25   52.96350    -999.25    -999.25    -999.25    -999.25    -999.25    -999.25    -999.25    -999.25    -999.25    -999.25    -999.25    -999.25    -999.25    -999.25    -999.25    -999.25    -999.25    -999.25    -999.25    -999.25    -999.25    -999.25    -999.25    -999.25
 3150.00000    -999.25    -999.25    -999.25    -999.25    -999.25    -999.25    -999.25    -999.25    -999.25    -999.25    -999.25    -999.25    -999.25    -999.25    -999.25    -999.25    -999.25    -999.25    -999.25   30.22140    -999.25    -999.25    -999.25   45.22140    -999.25    -999.25    -999.25    -999.25    -999.25    -999.25    -999.25    -999.25    -999.25    -999.25    -999.25    -999.25    -999.25    -999.25    -999.25    -999.25    -999.25    -999.25    -999.25    -999.25    -999.25    -999.25    -999.25    -999.25
 3200.00000    -999.25    -999.25    -999.25    -999.25    -999.25    -999.25    -999.25    -999.25    -999.25    -999.25    -999.25    -999.25    0.37730    -999.25    -999.25    -999.25    -999.25    -999.25    -999.25   33.16690   48.53990    -999.25   45.33450   45.33450    -999.25    0.33730    -999.25    -999.25    -999.25    -999.25    -999.25    -999.25    -999.25    -999.25    -999.25    -999.25    -999.25    -999.25    -999.25    -999.25    -999.25    -999.25    -999.25    -999.25    -999.25    -999.25    -999.25    -999.25
 3250.00000  214.66480    -999.25    -999.25    -999.25  262.52840  268.59850  268.59850  264.45160  140.08750  260.78710  134.80380    -999.25    0.12900    -999.25   54.90000 2552.48500    0.09210    -999.25  214.66480   19.24830   26.32400   24.92110   25.56730   25.56730    3.60440    0.08900    4.56670    4.56670    -999.25    0.05910    -999.25    -999.25   27.69530    -999.25    3.60440    -999.25    -999.25    -999.25    -999.25    -999.25    -999.25 -1114.87390 -1105.32220    -999.25 -1121.34240    -999.25   54.90000    -999.25
 3300.00000  213.05020    -999.25    -999.25    -999.25  295.05600  295.82970  295.82970  250.74470  128.88930  341.06770  167.58660    -999.25    0.19210   68.61910    7.60000 2650.82500    0.03460   14.57320  213.05020   32.74080   42.01600   40.93230   41.11100   41.11100   15.23650    0.15210    5.70630    5.70630    -999.25   -0.00050    -999.25    -999.25   16.51120   14.57320   15.23650    -999.25    -999.25  -56.60720    -999.25  -32.02530   16.51120 -753.65180 -698.34140    -999.25 -660.48870    -999.25    7.60000 2647.30000
 3350.00000  226.49420    -999.25    -999.25    -999.25  339.37070  330.26070  330.26070  279.91270  141.75770  403.72630  204.91110    -999.25    0.29940   93.78310   21.00000 2571.46000    0.08100   10.66290  226.49420   39.32650   51.93850   50.79960   49.91710   49.91710   10.37720    0.25940    7.46530    7.46530    -999.25    0.04760    -999.25    -999.25   13.08820   10.66290   10.37720    -999.25    -999.25  -61.01780    -999.25  -36.43590   13.08820 -1350.89740 -1102.13900    -999.25 -1101.49760    -999.25   21.00000 2572.30000
 3400.00000  218.67990    -999.25    -999.25    -999.25  296.43650  311.74160  311.74160  272.06010  139.51260  321.78570  159.00910    -999.25    0.18490   92.69560   11.20000 2621.62000    0.05170   10.78800  218.67990   41.74040   57.09710   56.34150   52.88890   52.88890   11.85050    0.14490    6.24040    6.24040    -999.25    0.01720    -999.25    -999.25   13.78550   10.78800   11.85050    -999.25    -999.25  -49.57190    -999.25  -24.99000   13.78550 -925.56730 -740.88160    -999.25 -668.42520    -999.25   11.20000 2613.30000
 3450.00000  240.86220    -999.25    -999.25    -999.25  345.56280  320.33870  320.33870  329.84070  167.48710  355.12680  180.91520    -999.25    0.25530  112.39620 -100.50000 2409.92500    0.17550    8.89710  240.86220   36.32480   43.12390   42.23450   44.39600   44.39600    6.72410    0.21530    9.19650    9.19650    -999.25    0.14550    -999.25    -999.25    9.82030    8.89710    6.72410    -999.25    -999.25  -60.85870    -999.25  -36.27680    9.82030 -1488.24940 -995.70940    -999.25 -997.86590    -999.25 -100.50000 2437.70000
 3500.00000  241.15900    -999.25    -999.25    -999.25  296.25410  302.61260  302.61260  290.69300  143.87250  302.85620  152.05530    -999.25    0.20930  102.35000  -91.70000 2183.87500    0.30770    9.77040  241.15900   35.53970   45.94670   46.84360   42.35770   42.35770    6.64470    0.16930    9.42450    9.42450    -999.25    0.28250    -999.25    -999.25   14.54840    9.77040    6.64470    -999.25    -999.25  -28.51840    -999.25   -3.46240   14.54840 -1249.81150 -1058.31010    -999.25 -1060.78040    -999.25  -91.70000 2174.20000
 3550.00000  215.77600    -999.25    -999.25    -999.25  278.62420  290.02470  290.02470  252.44130  129.69530  306.93900  151.25250    -999.25    0.16350   31.93350   63.50000 2735.63500   -0.01500   31.31510  215.77600   44.14430   58.51370   57.55520   57.05460   57.05460   29.52490    0.12350    5.63380    5.63380    -999.25   -0.05190    -999.25    -999.25   38.28220   31.31510   29.52490    -999.25    -999.25  -51.54960    -999.25  -17.01260   38.28220 -1315.98280 -1166.28330    -999.25 -1157.63290    -999.25   63.50000 2679.40000
 3600.00000  238.80470    -999.25    -999.25    -999.25  274.22310  289.53920  289.53920  266.74300  135.14840  282.59120  134.76710    -999.25    0.19350   62.12260   16.50000 2607.10000    0.06020   16.09720  238.80470   47.06690   63.13780   64.53670   58.35110   58.35110   15.85790    0.15350    6.83800    6.83800    -999.25    0.02600    -999.25    -999.25   22.65900   16.09720   15.85790    -999.25    -999.25  -58.21950    -999.25  -14.20150   22.65900 -724.13970 -863.00780    -999.25 -883.61740    -999.25   16.50000 2611.80000
 3650.00000    -999.25    -999.25    -999.25    -999.25  284.49810  255.33790  255.33790  243.59540  125.29540  330.74480  162.19780    -999.25    0.27060  121.42850   24.60000 2673.92500    0.02110    8.23530    -999.25   58.71510   76.26020   77.04290   73.83470   73.83470    7.68530    0.23060    7.92640    7.92640    -999.25   -0.01450    -999.25    -999.25   13.71360    8.23530    7.68530    -999.25    -999.25  -56.77200    -999.25   -3.27290   13.71360 -1444.22930 -908.43220    -999.25 -906.08440    -999.25   24.60000 2661.30000
 3700.00000  186.63900    -999.25    -999.25    -999.25  219.42450  221.77170  221.77170  219.47080  113.54560  221.91350  107.68300    0.01970    0.06110    0.50000   40.90000 2629.63000    0.04700 2000.00000  186.63900   13.64740   26.41260   26.59760   19.67600   19.67600 2000.00000    0.01970    4.57750    4.57750    0.04700    0.00330    -999.25    -999.25 2000.00000 2000.00000 2000.00000    -999.25    -999.25  -79.91320    -999.25  -25.78840 2000.00000 -965.62260 -1100.30020    -999.25 -1081.94710    -999.25   40.90000 2640.30000
