~Version ---------------------------------------------------
VERS.      2.0 : CWLS log ASCII Standard -VERSION 2.0
WRAP.       NO : One line per depth step
CREA. 12/29/17 : LAS Creation Date
~Well ------------------------------------------------------
STRT.FT                            300.0 : START DEPTH
STOP.FT                          10550.0 : STOP DEPTH
STEP.FT                         50.00000 : STEP LENGTH
NULL.                            -999.25 : NULL VALUE
COMP.      HUDSON'S BAY OIL & GAS CO LTD : COMPANY
WELL. HB PAN AM FINA KAYBOBS 10-29-59-18 : WELL
FLD .                                    : FIELD
LOC .                                    : LOCATION
CTRY.                             CANADA : COUNTRY
SRVC.                      Dresser Atlas : SERVICE COMPANY
DATE.                        20-Nov-1968 : LOGDATE
PROV.                            Alberta : PROVINCE
UWI .                   100102905918W500 : UNIQUE WELL ID
SLAT.WGS84                      54.13226 : SURFACE LATITUDE
SLON.WGS84                     -116.6597 : SURFACE LONGITUDE
~Curve Information -----------------------------------------
DEPT  .FT    : Depth Curve
ACED  .US/F  : DELTA TIME (ACOUSTIC) FROM SONIC LOG [ADJ TO ILDED]
CALWS .IN    : CALIPER [MCALED]
CILDED.MMHO  : CONDUCTIVITY FROM RESISTIVITY LOG
CONDWS.MMHO  : CONDUCTIVITY [1000/DRESWS]
DRESWS.OHMM  : DEEP RESISTIVITY [ILDED] IF ILDED<2;1000/CILDED;ELSE ILDED
DTWS  .US/F  : DELTA TIME [ACED]
GRED  .GAPI  : GAMMA RAY FROM GR LOG [ADJ TO GRSED]
GRSED .GAPI  : GAMMA RAY FROM SONIC LOG [ADJ TO ILDED]
GRWS  .GAPI  : GAMMA RAY [SPL GRD3ED <1112'> GRSED]
ILDED .OHMM  : INDUCTION LOG DEEP RESISTIVITY
ILMED .OHMM  : INDUCTION LOG MEDIUM RESISTIVITY
MCALED.IN    : CALIPER MICROLOG
MRESWS.OHMM  : MEDIUM RESISTIVITY [ILMED]
SFLED .OHMM  : SPHERICALLY FOCUSED LOG RESISTIVITY
SPRED .MV    : SPONTANEOUS POTENTIAL FROM RESISTIVITY LOG
SPWS  .MV    : SPONTANEOUS POTENTIAL [BASELINE 0 MV] [SPRED]
SRESWS.OHMM  : SHALLOW RESISTIVITY [SFLED]
~Params ----------------------------------------------------
PD  .                     GL : PERMANENT DATUM
EPD .FT               2683.7 : ELEVATION PERMANENT DATUM
LMF .                     KB : LOG MEASURED FROM
DAPD.FT                 13.3 : FEET ABOVE PERMANENT DATUM
DMF .                     KB : DRILLING MEASURED FROM
EKB .FT               2697.0 : KELLY BUSHING
EGL .FT               2683.7 : GROUND LEVEL
DATE.               11/20/68 : RUN DATE
RUN .                      1 : RUN NUMBER
DD  .FT                10598 : DEPTH DRILLER
DL  .FT                10592 : DEPTH LOGGER
BLI .FT                10588 : BOTTOM LOG INTERVAL
TLI .FT                 1145 : TOP LOG INTERVAL
CS  .IN                9.625 : CASING SIZE
CBD .FT                 1145 : CASING BOTTOM DRILLER
CBL .FT                 1145 : CASING BOTTOM LOGGER
BS  .IN                7.875 : BIT SIZE
BSD .FT                10598 : BIT SIZE AT DEPTH
DFT .                MUD GEL : DRILLING FLUID TYPE
DFD .                    9.7 : DRILLING FLUID DENSITY
DFV .                     68 : DRILLING FLUID VISCOSITY
DFPH.                   10.5 : DRILLING FLUID PH
DFL .                    9.8 : DRILLING FLUID LOSS
MSS .                   CIRC : MUD SAMPLE SOURCE
RMS .OHMM                2.2 : RESISTIVITY MUD SAMPLE
MST .DEGF                 55 : MUD SAMPLE TEMPERATURE
RMF .OHMM                1.9 : RESISTIVITY MUD FILTRATE SAMPLE
MFST.DEGF                 55 : MUD FILTRATE SAMPLE TEMPERATURE
RMC .OHMM                1.4 : RESISTIVITY MUD CAKE
MCST.DEGF                 55 : MUD CAKE SAMPLE TEMPERATURE
MFSS.                   MEAS : MUD FILTRATE SAMPLE SOURCE
MCSS.                   MEAS : MUD CAKE SAMPLE SOURCE
RMB .OHMM               0.51 : RESISTIVITY MUD AT BHT
TCS .HRS                 4.5 : TIME CIRCULATED STOPPED
LUN .                   6002 : LOGGING UNIT NUMBER
LUL .                    V V : LOGGING UNIT LOCATION
ENGI.              KOWALCHUK : RECORDING ENGINEER
WITN.                 HARRIS : WITNESSED BY
CLNT.                A2DTECH : CLIENT CODE
ORIG.            2" 5" PRINT : ORIGIN OF DATA
UWI .       100102905918W500 : UNIQUE WELL ID
DICO. A2D Technologies, Inc. : DIGITIZING COMPANY
~Other -----------------------------------------------------
IE-DIL-ML-SONIC LOGS RUN
RHOBED CURVE DATA FROM 2" SCALE
MCALED CURVE TOP-5380' FROM 2" SCALE
IE LOG ALL CURVES TOP-5300' FROM 2" SCALE
SONIC LOG ALL CURVES TOP-5300' FROM 2" SCALE
~ASCII -----------------------------------------------------
# ...
 6450.00000   85.91180   13.40270   71.47360   71.11040   14.06270   85.91180   69.95110   93.23790   93.23790   14.06270    -999.25   13.40270    -999.25   15.12920  -69.30850   -3.10950   15.12920
 6500.00000   62.35770   12.64360   89.89420   91.97770   10.87220   62.35770   61.21670   75.33460   75.33460   10.87220    -999.25   12.64360    -999.25   11.06000  -71.54990   -6.32990   11.06000
 6550.00000   58.76970   11.37790   50.15670   49.80720   20.07740   58.76970   62.94240   72.33770   72.33770   20.07740    -999.25   11.37790    -999.25   19.90050  -69.00430   -4.76820   19.90050
 6600.00000   61.46010   10.74070   42.35830   40.23300   24.85520   61.46010   60.34820   75.46630   75.46630   24.85520    -999.25   10.74070    -999.25   23.26560  -65.72980   -2.47760   23.26560
 6650.00000   74.03300   12.93320   76.02300   77.86770   12.84230   74.03300   91.09290  107.46920  107.46920   12.84230    -999.25   12.93320    -999.25   14.12730  -64.92600   -2.65770   14.12730
 6700.00000   77.09180   10.76850   50.71900   51.83750   19.29110   77.09180   62.40790   79.08240   79.08240   19.29110    -999.25   10.76850    -999.25   24.26490  -93.43660  -32.15710   24.26490
 6750.00000   81.43510   11.86610   60.43990   61.57860   16.23940   81.43510   92.49540  106.84250  106.84250   16.23940    -999.25   11.86610    -999.25   23.12370  -63.59880   -3.29820   23.12370
 6800.00000   80.72170   14.61890   74.19870   75.47970   13.24860   80.72170   86.44710  106.39710  106.39710   13.24860    -999.25   14.61890    -999.25   15.31110  -70.32760  -11.01090   15.31110
 6850.00000   76.21900    -999.25  160.81860  161.83320    6.17920   76.21900   92.58840  111.49730  111.49730    6.17920    -999.25    -999.25    -999.25    6.76510  -63.13510   -4.80230    6.76510
 6900.00000   84.03690    -999.25  243.04600  257.89150    3.87760   84.03690   66.08330   58.67700   58.67700    3.87760    -999.25    -999.25    -999.25    3.64860  -65.40480   -8.12190    3.64860
 6950.00000   71.39530   15.20210   75.38680   77.68950   12.87170   71.39530   81.82620   84.41030   84.41030   12.87170    -999.25   15.20210    -999.25    9.76820  -60.15870   -4.16650    9.76820
 7000.00000   62.16070    8.99680   12.81840   12.20440   81.93750   62.16070   41.81020   70.66230   70.66230   81.93750    -999.25    8.99680    -999.25   93.28880  -78.29300  -23.57850   93.28880
 7050.00000   60.10390    9.09690   20.87420   20.31410   49.22700   60.10390   87.71510   83.26910   83.26910   49.22700    -999.25    9.09690    -999.25   56.62830  -77.28190  -23.85160   56.62830
 7100.00000   64.99040    9.10010   25.20010   23.27270   42.96880   64.99040   70.03370   88.32950   88.32950   42.96880    -999.25    9.10010    -999.25   42.54750  -71.53750  -19.39140   42.54750
 7150.00000   62.65750    8.95680   24.66610   23.12570   43.24190   62.65750   80.24090   88.72760   88.72760   43.24190    -999.25    8.95680    -999.25   42.08950  -76.86780  -26.00590   42.08950
 7200.00000   63.41130    8.92770   34.00110   32.14180   31.11210   63.41130   89.16210  116.51070  116.51070   31.11210    -999.25    8.92770    -999.25   34.65600  -60.64490  -11.07370   34.65600
 7250.00000   63.58080   15.31390   23.72750   23.75490   42.09660   63.58080   47.88230   48.14320   48.14320   42.09660    -999.25   15.31390    -999.25   45.57450 -106.69200  -58.39860   45.57450
 7300.00000   58.10430   14.47770   41.13990   40.04340   24.97290   58.10430   34.10900   46.31650   46.31650   24.97290    -999.25   14.47770    -999.25   20.73780 -117.84060  -70.83140   20.73780
 7350.00000   57.41480   10.36000   24.61230   22.23130   44.98170   57.41480   46.50620   49.57660   49.57660   44.98170    -999.25   10.36000    -999.25   35.81880 -102.48050  -56.75550   35.81880
 7400.00000   56.92400    9.08080   11.90790   12.40590   80.60680   56.92400   70.26930   75.27050   75.27050   80.60680    -999.25    9.08080    -999.25   79.68760  -75.32060  -30.87980   79.68760
 7450.00000   54.03950    9.51410   11.29770   10.78110   92.75520   54.03950   24.55220   20.24810   20.24810   92.75520    -999.25    9.51410    -999.25  109.14100 -138.13720  -94.98700  109.14100
 7500.00000   50.78800   10.41430   15.73550   18.03860   55.43660   50.78800   25.43030   20.83840   20.83840   55.43660    -999.25   10.41430    -999.25  102.90050 -166.05590 -124.18350  102.90050
 7550.00000   60.74060   11.57400   41.92850   49.07640   20.37640   60.74060   43.64040   46.35890   46.35890   20.37640    -999.25   11.57400    -999.25   31.45530 -123.51260  -82.92440   31.45530
 7600.00000   67.78330    8.92520   70.36780   74.54730   13.41430   67.78330   99.36780   99.86590   99.86590   13.41430    -999.25    8.92520    -999.25   14.57590  -62.96120  -23.65720   14.57590
 7650.00000   64.49970   10.53530   34.65170   39.54290   25.28900   64.49970   90.35330   97.34410   97.34410   25.28900    -999.25   10.53530    -999.25   25.84250  -51.20650  -13.18670   25.84250
 7700.00000   52.17890    8.96550   19.00000   19.95290   50.11800   52.17890   38.49440   47.35980   47.35980   50.11800    -999.25    8.96550    -999.25   45.69850  -44.22710   -7.49790   45.69850
 7750.00000   56.60580    9.02320    5.58860   11.88310   84.15300   56.60580   33.16500   40.72700   40.72700   84.15300    -999.25    9.02320    -999.25   66.82050  -42.15500   -6.70360   66.82050
 7800.00000   54.80060    9.07900    8.97980   15.12300   66.12450   54.80060   41.92710   49.83720   49.83720   66.12450    -999.25    9.07900    -999.25   71.93140  -44.03010   -9.86290   71.93140
 7850.00000   54.30810    8.87940    4.24850    9.23890  108.23830   54.30810   39.87030   36.46750   36.46750  108.23830    -999.25    8.87940    -999.25  112.67310  -61.96360  -29.08060  112.67310
 7900.00000   53.56960    8.74350    7.37270   11.93710   83.77270   53.56960   30.19230   31.87050   31.87050   83.77270    -999.25    8.74350    -999.25  114.56520  -63.44910  -31.85030  114.56520
 7950.00000   55.23270    8.80140    9.67720   14.11490   70.84710   55.23270   32.27720   42.90340   42.90340   70.84710    -999.25    8.80140    -999.25   76.76430  -41.77210  -11.46390   76.76430
 8000.00000   57.23860    8.90450   12.65610   16.39860   60.98080   57.23860   44.83720   55.06130   55.06130   60.98080    -999.25    8.90450    -999.25   46.56990  -31.83840   -2.80800   46.56990
 8050.00000   55.92110    8.79090    8.33850   13.06550   76.53750   55.92110   36.03280   55.21830   55.21830   76.53750    -999.25    8.79090    -999.25   82.08140  -36.95160   -8.58630   82.08140
 8100.00000   54.59150    8.63130    4.57130    8.76470  114.09340   54.59150   38.23790   41.71810   41.71810  114.09340    -999.25    8.63130    -999.25  141.07850  -56.22630  -28.50020  141.07850
 8150.00000   55.71160    8.76760   12.23320   15.29640   65.37470   55.71160   65.53690   80.31450   80.31450   65.37470    -999.25    8.76760    -999.25   55.86240  -73.77570  -46.68880   55.86240
 8200.00000   52.98740   11.77660    0.73030    1.99310  501.72030   52.98740   34.10570   32.47730   32.47730  501.72030    -999.25   11.77660    -999.25  155.87300  -85.66210  -59.21760  155.87300
 8250.00000   50.96840   11.39580    3.07260    5.57040  179.52130   50.96840   24.46950   24.24340   24.24340  179.52130    -999.25   11.39580    -999.25  151.11380 -132.50330 -106.69490  151.11380
 8300.00000   53.51270   14.46050    3.47580    8.55180  116.93460   53.51270   27.50710   19.56080   19.56080  116.93460    -999.25   14.46050    -999.25  153.29460 -138.53590 -113.36670  153.29460
 8350.00000   52.88600   13.85780    1.13530    9.84110  101.61510   52.88600   19.28360   22.26420   22.26420  101.61510    -999.25   13.85780    -999.25  146.02210 -147.47750 -122.94750  146.02210
 8400.00000   51.91960   11.78450    7.36090   13.80440   72.44070   51.91960   19.53430   19.17560   19.17560   72.44070    -999.25   11.78450    -999.25   80.88270 -141.11330 -117.22260   80.88270
 8450.00000   50.55000   13.32150    1.14610    2.00450  498.88320   50.55000   28.11390   18.20240   18.20240  498.88320    -999.25   13.32150    -999.25  216.07640 -156.30650 -133.05820  216.07640
