~Version ---------------------------------------------------
VERS.      2.0 : CWLS log ASCII Standard -VERSION 2.0
WRAP.       NO : One line per depth step
CREA. 12/14/17 : LAS Creation Date
~Well ------------------------------------------------------
STRT.FT                        1500.0 : START DEPTH
STOP.FT                        9650.0 : STOP DEPTH
STEP.FT                      50.00000 : STEP LENGTH
NULL.                         -999.25 : NULL VALUE
COMP.           OCELOT INDUSTRIES LTD : COMPANY
WELL. OIL ET AL VIRGHILLS 11-15-63-13 : WELL
FLD .                                 : FIELD
LOC .                                 : LOCATION
CTRY.                          CANADA : COUNTRY
SRVC.                   Dresser Atlas : SERVICE COMPANY
DATE.                     19-Jun-1978 : LOGDATE
PROV.                         Alberta : PROVINCE
UWI .                100111506313W500 : UNIQUE WELL ID
SLAT.WGS84                   54.45302 : SURFACE LATITUDE
SLON.WGS84                  -115.8819 : SURFACE LONGITUDE
~Curve Information -----------------------------------------
DEPT     .FT    : Depth Curve
CALD1ED  .IN    : CALIPER FROM CNFD LOG [AJ. TO RESISTIVITY LOG]
CALDED   .IN    : CALIPER FROM CDL-CNL LOG [AJ. TO RESISTIVITY LOG]
CALWS    .IN    : CALIPER [CALD1ED SPL. TO CALDED @ 1881.3M]
CONDWS   .MMHO  : CONDUCTIVITY [1000/DRESWS]
CORRED   .G/C3  : DENSITY CORRECTION FROM CDL-CNL LOG [ADJ. TO RESISTIVITY LOG/DPHILSED/DPHISSED] [CORRED*1000]
DCORED   .G/C3  : DENSITY CORRECTION FROM CNFD LOG [ADJ. TO RESISTIVITY LOG/DPHISS1ED] [DCOR1ED*1000]
DCORWS   .G/C3  : DENSITY CORRECTION [DCORED SPL.TO CORRED @ 5900']
DENWS    .G/C3  : FORMATION BULK DENSITY [CALC. FROM DPOLSWS M=2.71,F=1.00]
DPHILSED .V/V   : DENSITY POROSITY LIMESTONE [M=2.71,F=1.0] FROM CDL-CNL LOG [AJ. TO RESISTIVITY LOG]
DPHISS1ED.V/V   : DENSITY POROSITY SANDSTONE [M=2.65,F=1.0] FROM CNFD LOG [AJ. TO RESISTIVITY LOG]
DPHISSED .V/V   : DENSITY POROSITY SANDSTONE [M=2.65,F=1.0] FROM CDL-CNL LOG [AJ. TO RESISTIVITY LOG]
DPOLSWS  .V/V   : DENSITY POROSITY LIMESTONE [DPHISS1ED CONVERTED TO LIMESTONE MATRIX, M=2.71,F=1.00, SPL. TO DPHILSED @ 5604']
DRESWS   .OHMM  : DEEP RESISTIVITY [ILDED]
GRD1ED   .GAPI  : GAMMA RAY FROM CNFD LOG [AJ. TO RESISTIVITY LOG]
GRDED    .GAPI  : GAMMA RAY FROM CDL-CNL LOG [AJ. TO RESISTIVITY LOG]
GRWS     .GAPI  : GAMMA RAY [GRD1ED SPL. TO GRDED @ 5873']
ILDED    .OHMM  : DEEP INDUCTION FROM RESISTIVITY LOG
ILMED    .OHMM  : MEDIUM INDUCTION FROM RESISTIVITY LOG
MRESWS   .OHMM  : MEDIUM RESISTIVITY [ILMED]
NPHILSED .V/V   : NEUTRON POROSITY LIMESTONE FROM CDL-CNL LOG [AJ. TO RESISTIVITY LOG]
NPHISS1ED.V/V   : NEUTRON POROSITY SANDSTONE FROM CNFD LOG [AJ. TO RESISTIVITY LOG]
NPHISSED .V/V   : NEUTRON POROSITY SANDSTONE FROM CDL-CNL LOG [AJ. TO RESISTIVITY LOG]
NPOLSWS  .V/V   : NEUTRON POROSITY LIMESTONE [NPHISSED MATRIX CONVERSION FOR LIMESTONE FROM SCHLUMBERGER (CNL), SPL. TO NPHILSED @ 5604']
RHOB1ED  .G/C3  : BULK DENSITY FROM CNFD LOG [ADJ. TO RESISTIVITY LOG/DPHISS1ED]
RHOBED   .G/C3  : BULK DENSITY FROM CDL-CNL LOG [ADJ. TO RESISTIVITY LOG/DPHILSED/DPHISSED]
SFLED    .OHMM  : SPHERICALLY FOCUSED FROM RESISTIVITY LOG
SPRED    .MV    : SPONTANEOUS POTENTIAL FROM RESISTIVITY LOG
SPWS     .MV    : SPONTANEOUS POTENTIAL [BASELINE 0 MV, SPRED]
SRESWS   .OHMM  : SHALLOW RESISTIVITY [SFLED]
~Params ----------------------------------------------------
PD  .                     GL : PERMANENT DATUM
EPD .FT               3435.5 : ELEVATION PERMANENT DATUM
LMF .                     KB : LOG MEASURED FROM
DAPD.FT                 15.5 : FEET ABOVE PERMANENT DATUM
DMF .                     KB : DRILLING MEASURED FROM
EKB .FT                 3451 : KELLY BUSHING
EGL .FT               3435.5 : GROUND LEVEL
DATE.               06/19/78 : RUN DATE
RUN .                      1 : RUN NUMBER
DD  .FT                 9683 : DEPTH DRILLER
DL  .FT                 9684 : DEPTH LOGGER
BLI .FT                 9681 : BOTTOM LOG INTERVAL
TLI .FT                 1517 : TOP LOG INTERVAL
CS  .IN                8.625 : CASING SIZE
CBD .FT                 1517 : CASING BOTTOM DRILLER
CBL .FT                 1517 : CASING BOTTOM LOGGER
BS  .IN                7.875 : BIT SIZE
BSD .FT                 9683 : BIT SIZE AT DEPTH
DFT .               GEL CHEM : DRILLING FLUID TYPE
DFD .                    9.1 : DRILLING FLUID DENSITY
DFV .                     65 : DRILLING FLUID VISCOSITY
DFPH.                      9 : DRILLING FLUID PH
DFL .                     11 : DRILLING FLUID LOSS
MSS .                   CIRC : MUD SAMPLE SOURCE
RMS .OHMM                  3 : RESISTIVITY MUD SAMPLE
MST .DEGF                 76 : MUD SAMPLE TEMPERATURE
RMF .OHMM                2.8 : RESISTIVITY MUD FILTRATE SAMPLE
MFST.DEGF                 72 : MUD FILTRATE SAMPLE TEMPERATURE
RMC .OHMM                2.5 : RESISTIVITY MUD CAKE
MCST.DEGF                 72 : MUD CAKE SAMPLE TEMPERATURE
MFSS.                   MEAS : MUD FILTRATE SAMPLE SOURCE
MCSS.                   MEAS : MUD CAKE SAMPLE SOURCE
RMB .OHMM               1.23 : RESISTIVITY MUD AT BHT
TCS .HRS                   5 : TIME CIRCULATED STOPPED
LUN .                HL 6155 : LOGGING UNIT NUMBER
LUL .                     VV : LOGGING UNIT LOCATION
ENGI.                 GORDON : RECORDING ENGINEER
WITN.                  BROCK : WITNESSED BY
CLNT.                A2DTECH : CLIENT CODE
ORIG.            2" 5" PRINT : ORIGIN OF DATA
UWI .       100111506313W500 : UNIQUE WELL ID
DICO. A2D Technologies, Inc. : DIGITIZING COMPANY
~Other -----------------------------------------------------
DIL-CNFD-CNL-CDL LOG RUN
RHOBED,RHOB1ED,CORRED & DCORED VERIFY FROM 2" SCALE
~ASCII -----------------------------------------------------
# ...
 5250.00000   10.45290    9.55950    9.55950  317.28910    0.01150    0.16090    0.16090    2.01670    -999.25    0.38380    0.20720    0.40540    3.15170   98.79040  125.51880   98.79040    3.15170    3.62490    3.62490    -999.25    0.57250    0.37280    0.53670    2.03880    2.29310    4.04150  -30.20780   -3.75350    4.04150
 5300.00000   10.08410    9.07690    9.07690  148.89190    0.06980    0.03520    0.03520    2.47890    -999.25    0.10370    0.09980    0.13510    6.71630   92.39340  105.92650   92.39340    6.71630    6.98320    6.98320    -999.25    0.34990    0.33740    0.30630    2.48210    2.47130    7.25490  -30.59340   -4.39760    7.25490
 5350.00000    9.59950    9.09100    9.09100  140.73600    0.02240    0.06650    0.06650    2.57620    -999.25    0.04470    0.09660    0.07830    7.10550   88.92060  107.95190   88.92060    7.10550    7.38580    7.38580    -999.25    0.31400    0.27870    0.27000    2.57500    2.47820    9.32130  -42.08000  -16.14430    9.32130
 5400.00000    8.61130    8.27990    8.27990  194.60280    0.01180    0.01500    0.01500    2.49490    -999.25    0.09400    0.13660    0.12580    5.13890   75.82580   92.79270   75.82580    5.13890    5.39000    5.39000    -999.25    0.29950    0.26810    0.25560    2.49240    2.41680    9.78040  -39.24250  -13.56520    9.78040
 5450.00000    8.71850    8.75410    8.75410  225.41820    0.04710    0.14850    0.14850    2.40380    -999.25    0.14920    0.19650    0.17910    4.43620   75.59770   86.94340   75.59770    4.43620    6.87990    6.87990    -999.25    0.32370    0.28710    0.27980    2.40810    2.31310   11.59540  -96.26370  -70.84660   11.59540
 5500.00000    9.01470    7.96410    7.96410  236.58000    0.02640    0.13860    0.13860    2.43950    -999.25    0.12760    0.15590    0.15820    4.22690   58.00310   72.00720   58.00310    4.22690    7.16590    7.16590    -999.25    0.32290    0.29510    0.27900    2.43700    2.37750   16.36840 -107.62500  -82.46630   16.36840
 5550.00000    9.08730    8.79040    8.79040  187.30820   -0.00750    0.02310    0.02310    2.57170    -999.25    0.04750    0.08160    0.08090    5.33900  101.63050  113.65090  101.63050    5.33900    5.56590    5.56590    -999.25    0.32540    0.25980    0.28160    2.56710    2.50190    6.07230  -34.25740   -9.35710    6.07230
 5600.00000    9.32600   10.28060   10.28060  487.63840    0.05070    0.19910    0.19910    2.36170    -999.25    0.17470    0.33700    0.20370    2.05070  108.02570  109.84970  108.02570    2.05070    2.17270    2.17270    -999.25    0.47190    0.37700    0.43090    2.35350    2.03890    4.10030  -28.48070   -3.84060    4.10030
 5650.00000    8.89520    8.66780    8.66780  173.40720    0.09820    0.05360    0.05360    2.45060    0.15170    0.02520    0.07540    0.15170    5.76760  106.58750  116.01230  106.58750    5.76760    6.03670    6.03670    0.30970    0.32220    0.28710    0.30970    2.60690    2.49940    6.53010  -32.99780   -8.61610    6.53010
 5700.00000    9.18900    9.41520    9.41520  192.16730    0.03970    0.09750    0.09750    2.22500    0.28360    0.07650    0.28440    0.28360    5.20380   99.28650  106.37840   99.28650    5.20380    5.40700    5.40700    0.32030    0.40600    0.27100    0.32030    2.52690    2.17590    5.46930  -30.78840   -6.66680    5.46930
 5750.00000    8.97180    8.49230    8.49230   73.79800    0.01400    0.00150    0.00150    2.52220    0.10980    0.06820    0.10900    0.10980   13.55050  104.24290  109.47040  104.24290   13.55050   15.00260   15.00260    0.18720    0.23240    0.20500    0.18720    2.54010    2.50970   13.09500  -34.29410  -10.43090   13.09500
 5800.00000    8.38230    9.00110    9.00110  142.11010    0.09090    0.04180    0.04180    2.49540    0.12550    0.01320    0.10270    0.12550    7.03680  104.87090  111.17080  104.87090    7.03680    7.45120    7.45120    0.25330    0.30250    0.24330    0.25330    2.63010    2.46920    8.99320  -26.02450   -2.41980    8.99320
 5850.00000    8.53900   12.13570   12.13570  228.02420    0.12690    0.08460    0.08460    2.41250    0.17400    0.00000    0.13690    0.17400    4.38550  124.59280  118.04500  124.59280    4.38550    4.55010    4.55010    0.32080    0.34100    0.34020    0.32080    2.69920    2.41170    6.08480  -26.74800   -3.40380    6.08480
 5900.00000    7.95610    9.81600    9.81600   81.45170    0.06380    0.00180    0.03640    2.34940    0.21080    0.09320    0.15570    0.21080   12.38560    -999.25  103.57200  103.57200   12.38560   14.06490   14.06490    0.30020    -999.25    0.33650    0.30020    2.51230    2.48920   23.82980  -24.82940   -1.74470   23.82980
 5950.00000    -999.25    8.09830    8.09830    3.77230   -0.00380    -999.25   -0.00380    2.57590    0.07840    -999.25    0.05180    0.07840  265.09070    -999.25   34.53050   34.53050  265.09070  785.36710  785.36710    0.08020    -999.25    0.09260    0.08020    -999.25    2.56700 2241.82980  -44.11320  -21.28970 2241.82980
 6000.00000    -999.25    9.32580    9.32580  130.37470    0.02530    -999.25    0.02530    2.66140    0.02840    -999.25    -999.25    0.02840    7.67020    -999.25   36.31260   36.31260    7.67020    9.62210    9.62210    0.14480    -999.25    -999.25    0.14480    -999.25    2.64930   16.19930  -66.36480  -43.80090   16.19930
 6050.00000    -999.25    9.45670    9.45670  243.17750    0.00460    -999.25    0.00460    2.66600    0.02580    -999.25    -999.25    0.02580    4.14290    -999.25   47.01210   47.01210    4.14290    5.92400    5.92400    0.12240    -999.25    -999.25    0.12240    -999.25    2.65190   11.17520  -64.30920  -42.00480   11.17520
 6100.00000    -999.25    7.92860    7.92860   45.14790    0.02310    -999.25    0.02310    2.57110    0.08120    -999.25    -999.25    0.08120   22.14940    -999.25   15.89360   15.89360   22.14940   28.44180   28.44180    0.11040    -999.25    -999.25    0.11040    -999.25    2.56710  133.38550 -139.66730 -117.62420  133.38550
 6150.00000    -999.25    8.20400    8.20400   44.01490    0.01430    -999.25    0.01430    2.54380    0.09720    -999.25    -999.25    0.09720   22.72240    -999.25   13.84760   13.84760   22.72240   34.78760   34.78760    0.08240    -999.25    -999.25    0.08240    -999.25    2.53190 1994.79950 -186.56440 -164.78080 1994.79950
 6200.00000    -999.25    8.98160    8.98160    4.68940    0.01870    -999.25    0.01870    2.68330    0.01560    -999.25    -999.25    0.01560  213.24820    -999.25    8.65210    8.65210  213.24820  206.36890  206.36890    0.03440    -999.25    -999.25    0.03440    -999.25    2.67340 2168.93820 -128.29430 -106.77190 2168.93820
 6250.00000    -999.25   10.11650   10.11650  493.48600    0.00530    -999.25    0.00530    2.60340    0.06240    -999.25    -999.25    0.06240    2.02640    -999.25   35.64540   35.64540    2.02640    2.31930    2.31930    0.20780    -999.25    -999.25    0.20780    -999.25    2.58980    4.58540  -79.52440  -58.26160    4.58540
 6300.00000    -999.25    9.01650    9.01650  152.12660    0.02940    -999.25    0.02940    2.60240    0.06290    -999.25    -999.25    0.06290    6.58250    -999.25   62.43250   62.43250    6.58250    7.28620    7.28620    0.15870    -999.25    -999.25    0.15870    -999.25    2.60150   11.16710  -53.18320  -32.17990   11.16710
 6350.00000    -999.25    9.04210    9.04210  208.40710   -0.00390    -999.25   -0.00390    2.56100    0.08720    -999.25    -999.25    0.08720    4.79830    -999.25   51.78440   51.78440    4.79830    5.22160    5.22160    0.16940    -999.25    -999.25    0.16940    -999.25    2.54840   10.62370  -74.76920  -54.02720   10.62370
 6400.00000    -999.25    8.98020    8.98020    7.88990    0.02510    -999.25    0.02510    2.71500   -0.00300    -999.25    -999.25   -0.00300  128.89300    -999.25    8.77530    8.77530  128.89300  258.72110  258.72110    0.05630    -999.25    -999.25    0.05630    -999.25    2.70580 1042.65940  -92.91860  -72.43610 1042.65940
 6450.00000    -999.25    8.51390    8.51390   11.30090   -0.00070    -999.25   -0.00070    2.70930    0.00040    -999.25    -999.25    0.00040   88.48860    -999.25   23.76700   23.76700   88.48860  101.15660  101.15660    0.07960    -999.25    -999.25    0.07960    -999.25    2.70010  242.62490  -45.85750  -25.63620  242.62490
