~Version ---------------------------------------------------
VERS.      2.0 : CWLS log ASCII Standard -VERSION 2.0
WRAP.       NO : ONE LINE PER DEPTH STEP
CREA. 08/08/13 : LAS CREATION DATE
~Well ------------------------------------------------------
STRT.M                         450.0 : START DEPTH
STOP.M                        3400.0 : STOP DEPTH
STEP.M                      50.00000 : STEP LENGTH
NULL.                        -999.25 : NULL VALUE
COMP.            CANTERRA ENERGY LTD : COMPANY
WELL. CANTERRA NORCEN ROSEVEAR 7-34- : WELL
FLD .                                : FIELD
LOC .                                : LOCATION
CTRY.                         CANADA : COUNTRY
SRVC.         Schlumberger of Canada : SERVICE COMPANY
DATE.                    18-Mar-1988 : LOGDATE
PROV.                        Alberta : PROVINCE
LOC1.                                : LOCATION 1
SECT.                                : SECTION
TOWN.                                : TOWNSHIP
RNGE.                                : RANGE
PDAT.                                : PERM DATUM
EPD .                          898.2 : ELEVATION
LMF .                             KB : LOG MEASURED FROM
DMF .                             KB : DRILL MEASURED FROM
APD .                                : ABOVE PERM DATUM
EKB .                            904 : ELEV-KELLY BUSHING.
EDF .                          903.7 : ELEV-DRILL FLOOR
EGL .                          898.2 : ELEV-GROUND LEVEL
UWI .               100073405315W500 : UNIQUE WELL ID
SLAT.WGS84                  53.61804 : SURFACE LATITUDE
SLON.WGS84                 -116.1237 : SURFACE LONGITUDE
~Curve Information -----------------------------------------
DEPT      .M      : DEPTH METERS
CALDED    .MM     : CALIPER FROM DENSITY LOG
CALSED    .MM     : CALIPER FROM BHC SONIC LOG
CALWS     .MM     : CALIPER [CALDED]
CONDWS    .MMHO   : CONDUCTIVITY [1000/DRESWS]
DENWS     .KG/M3  : BULK DENSITY[RHOBED]
DPHISSED  .V/V    : DENSITY POROSITY SANDSTONE[M=2650,F=1000] FROM CND LOG
DPOLSWS   .V/V    : DENSITY POROSITY LIMESTONE[CALCULATED FROM DENWS,M=2710;F=1000]
DRESWS    .OHMM   : DEEP RESISTIVITY [LLDED]
DRHOED    .KG/M3  : BULK DENSITY CORRECTION FROM CND LOG
DT1ED     .US/M   : DELTA-T (INTERVAL TRANSIT TIME) FROM ARRAY SONIC LOG
DTCO      .US/M   : DELTA-T COMPRESSIONAL FROM ARRAY SONIC LOG
DTED      .US/M   : DELTA-T (INTERVAL TRANSIT TIME)FROM BHC SONIC LOG
DTLED     .US/M   : DELTA-T LONG SPACING FROM ARRAY SONIC LOG
DTLFED    .US/M   : DELTA-T LONG SPACING FAR FROM ARRAY SONIC LOG
DTLNED    .US/M   : DELTA-T LONG SPACING NEAR FROM ARRAY SONIC LOG
DTSMAVERED.US     : SHEAR-WAVE INTERVAL TRANSIT TIME DELTA-T-AVERAGED FROM ARRAY SONIC LOG
DTSMCSUED .US/M   : SHEAR-WAVE INTERVAL TRANSIT TIME DELTA-T-CSU FROM ARRAY SONIC LOG
DTSMED    .US/M   : DELTA TIME SHEAR WAVE FROM ARRAY SONIC LOG
DTSMVAXED .US/M   : SHEAR-WAVE INTERVAL TRANSIT TIME DELTA-T-VAX FROM ARRAY SONIC LOG
DTSTAVERED.US     : STONLEY-WAVE INTERVAL TRANSIT TIME DELTA-T-CSU FROM ARRAY SONIC LOG
DTSTCSUED .US/M   : STONLEY-WAVE INTERVAL TRANSIT TIME DELTA-T-CSU FROM ARRAY SONIC LOG
DTSTVAXED .US/M   : STONLEY-WAVE INTERVAL TRANSIT TIME DELTA-T-AVERAGED FROM ARRAY SONIC LOG
DTSWS     .US/M   : DELTA-T SHEAR [DTSMED]
DTWS      .US/M   : DELTA-T COMPRESSIONAL [DTED]
GRDED     .GAPI   : GAMMA RAY FROM CND LOG
GRRED     .GAPI   : GAMMA RAY FROM RESISTIVITY LOG
GRS1ED    .GAPI   : GAMMA RAY FROM ARRAY SONIC LOG
GRSED     .GAPI   : GAMMA RAY FROM BHC SONIC LOG
GRWS      .GAPI   : GAMMA RAY [GRRED]
HDED      .MM     : HOLE DIAMETER FROM ARRAY SONIC LOG
LLDED     .OHMM   : LATEROLOG DEEP RESISTIVITY
LLSED     .OHMM   : LATEROLOG SHALLOW RESISTIVITY
NPHILSED  .V/V    : NEUTRON POROSITY LIMESTONE FROM CND LOG
NPHISSED  .V/V    : NEUTRON POROSITY SANDSTONE FROM CND LOG
NPOLSWS   .V/V    : NEUTRON POROSITY LIMESTONE [NPHILSED]
PEFED     .B/E    : PHOTOELECTRIC FACTOR FROM CND LOG
PEFWS     .B/E    : PHOTOELECTRIC FACTOR [PEFED]
RHOBED    .KG/M3  : BULK DENSITY FROM CND LOG
SPRED     .MV     : SPONTANEOUS POTENTIAL FROM DLL RESISTIVITY LOG
SPWS      .MV     : SPONTANEOUS POTENTIAL [BASELINE 0 MV] [SPRED]
SRESWS    .OHMM   : SHALLOW RESISTIVITY [LLSED]
TENDED    .KG     : TENSION FROM CND LOG
TENRED    .KG     : TENSION FROM DLL RESISTIVITY LOG
TENS1ED   .KG     : TENSION FROM ARRAY SONIC LOG
TENSED    .KG     : TENSION FROM BHC SONIC LOG
~Params ----------------------------------------------------
RUN .        1 : RUN #
DATE.          : DATE LOG WAS RUN
TDD .     3398 : DEPTH - DRILLER
TDL .     3400 : DEPTH - LOGGER
BLI .   3396.0 : BOTTOM LOG INTERVAL
TLI .    455.0 : TOP LOG INTERVAL
CBD .    454.8 : CASING - DRILLER
CBL .      455 : CASING - LOGGER
BS  .      222 : BIT SIZE
DFT . GEL CHEM : TYPE OF FLUID IN HOLE
DFD .     1090 : DRILLING FLUID DENSITY
DFV .       95 : DRILLING FLUID VISCOSITY
DFPH.       11 : DRILLING FLUID PH
DFL .      7.6 : DRILLING FLUID LOSS
MSS . FLOWLINE : SOURCE OF SAMPLE
RMS .    0.928 : MUD RESITIVITY
RMFS.    0.698 : MUD FILTRATE RESISTIVITY
RMCS.    0.745 : MUD CAKE RESITIVITY
MFSS. MEASURED : SOURCE OF RMF
MCSS. MEASURED : SOURCE OF RMC
RMBH.          : RM AT BHT
MRT .       96 : MAX RECORDED TEMPERATURE
CLNT.  A2DTECH : CLIENT CODE
~Other -----------------------------------------------------
~ASCII -----------------------------------------------------
# ...
 2050.00000  275.28290  274.35700  275.28290   40.73020 2548.11820    0.09120    0.09470   24.55180   10.89660    -999.25    -999.25  236.70970    -999.25    -999.25    -999.25    -999.25    -999.25    -999.25    -999.25    -999.25    -999.25    -999.25    -999.25  236.70970   62.82180   59.78380    -999.25   59.16750   59.78380    -999.25   24.55180   27.71050    0.16960    0.21700    0.16960    2.98070    2.98070 2548.11820  -84.60810  -14.54520   27.71050 1385.20890 1144.38830    -999.25 1178.53410
 2100.00000  282.38770  284.40750  282.38770   42.83660    -999.25    -999.25    -999.25   23.34450    -999.25    -999.25    -999.25  222.61820    -999.25    -999.25    -999.25    -999.25    -999.25    -999.25    -999.25    -999.25    -999.25    -999.25    -999.25  222.61820    -999.25   68.89180    -999.25   64.68780   68.89180    -999.25   23.34450   17.85200    -999.25    -999.25    -999.25    -999.25    -999.25    -999.25  -82.15400  -15.29070   17.85200 1451.87590 1169.89030    -999.25 1190.99870
 2150.00000  295.54840  304.84480  295.54840   31.25120    -999.25    -999.25    -999.25   31.99880    -999.25    -999.25    -999.25  301.46170    -999.25    -999.25    -999.25    -999.25    -999.25    -999.25    -999.25    -999.25    -999.25    -999.25    -999.25  301.46170    -999.25   90.28130    -999.25   93.29700   90.28130    -999.25   31.99880   19.46360    -999.25    -999.25    -999.25    -999.25    -999.25    -999.25  -74.90030  -11.23660   19.46360 1473.65610 1182.30090    -999.25 1212.32920
 2200.00000  275.27980  277.10030  275.27980   45.82890 2642.62960    -999.25    0.03940   21.82030   23.65240    -999.25    -999.25  222.51420    -999.25    -999.25    -999.25    -999.25    -999.25    -999.25    -999.25    -999.25    -999.25    -999.25    -999.25  222.51420   63.65900   63.89070    -999.25   68.84690   63.89070    -999.25   21.82030   20.05030    0.14650    -999.25    0.14650    1.64910    1.64910 2642.62960  -71.31400  -10.84990   20.05030 1472.62650 1200.55990    -999.25 1239.35100
 2250.00000  230.61660  272.31480  230.61660   30.51120 2564.45920    0.05280    0.08510   32.77480   23.80930    -999.25    -999.25  228.47200    -999.25    -999.25    -999.25    -999.25    -999.25    -999.25    -999.25    -999.25    -999.25    -999.25    -999.25  228.47200  102.75330   98.95380    -999.25   98.68250   98.95380    -999.25   32.77480   36.65810    0.25750    0.30110    0.25750    1.14670    1.14670 2564.45920  -76.01330  -18.74870   36.65810 1506.98500 1225.92160    -999.25 1250.47420
 2300.00000  250.53060  274.25040  250.53060   46.92040 2650.63600   -0.00040    0.03470   21.31270   40.09050    -999.25    -999.25  241.74230    -999.25    -999.25    -999.25    -999.25    -999.25    -999.25    -999.25    -999.25    -999.25    -999.25    -999.25  241.74230   90.36710   92.58880    -999.25  101.25920   92.58880    -999.25   21.31270   20.25990    0.20090    0.24190    0.20090    1.36270    1.36270 2650.63600  -68.31510  -14.25010   20.25990 1528.95620 1251.36070    -999.25 1267.57360
 2350.00000  227.17760  230.61720  227.17760    0.48630 2643.69750    0.00350    0.03880 2056.24610   22.82890    -999.25    -999.25  175.40920    -999.25    -999.25    -999.25    -999.25    -999.25    -999.25    -999.25    -999.25    -999.25    -999.25    -999.25  175.40920   17.97240   21.83350    -999.25   26.26230   21.83350    -999.25 2056.24610 2183.53050    0.01130    0.03980    0.01130    1.52440    1.52440 2643.69750  -80.87120  -30.00580 2183.53050 1541.14250 1274.37300    -999.25 1294.63950
 2400.00000  257.80630  252.14820  257.80630    0.29510 2925.22120    -999.25   -0.12590 3388.80590    6.79860    -999.25    -999.25  167.81860    -999.25    -999.25    -999.25    -999.25    -999.25    -999.25    -999.25    -999.25    -999.25    -999.25    -999.25  167.81860   12.96560    9.76940    -999.25    7.58710    9.76940    -999.25 3388.80590  938.73710    0.00210    -999.25    0.00210    2.58260    2.58260 2925.22120  -81.35330  -33.68750  938.73710 1569.91350 1292.60720    -999.25 1329.30220
 2450.00000  224.00680  241.80310  224.00680   25.59310 2719.62840    -999.25   -0.00560   39.07310   21.25230    -999.25    -999.25  179.04680    -999.25    -999.25    -999.25    -999.25    -999.25    -999.25    -999.25    -999.25    -999.25    -999.25    -999.25  179.04680   80.23830   65.24300    -999.25   76.31780   65.24300    -999.25   39.07310   39.65120    0.05050    -999.25    0.05050    1.64620    1.64620 2719.62840  -71.40300  -26.93680   39.65120 1566.02610 1308.19530    -999.25 1346.03480
 2500.00000  242.20240  263.96610  242.20240   37.19810 2694.15630    -999.25    0.00930   26.88310   13.42360    -999.25    -999.25   90.42240    -999.25    -999.25    -999.25    -999.25    -999.25    -999.25    -999.25    -999.25    -999.25    -999.25    -999.25   90.42240   69.04480   65.93000    -999.25   70.83010   65.93000    -999.25   26.88310   20.93980    0.10410    -999.25    0.10410    1.59440    1.59440 2694.15630  -49.22330   -7.95670   20.93980 1606.97780 1346.67980    -999.25 1363.19530
 2550.00000  228.70970  237.96450  228.70970    5.17680 2704.23440    -999.25    0.00340  193.16990   30.21270    -999.25    -999.25  177.97680    -999.25    -999.25    -999.25    -999.25    -999.25    -999.25    -999.25    -999.25    -999.25    -999.25    -999.25  177.97680   27.87430   27.90800    -999.25   31.81610   27.90800    -999.25  193.16990  215.46630    0.01870    -999.25    0.01870    1.92170    1.92170 2704.23440  -40.06140   -1.99430  215.46630 1619.65890 1358.21290    -999.25 1391.18700
 2600.00000  229.73340  241.93630  229.73340    8.03270 2646.53860    -999.25    0.03710  124.49190   32.25510  219.92780  218.04560  216.94870  218.52010  214.67950  215.22610  363.79970  369.09270  367.97010  362.62360  213.43490  214.34520  212.15050  367.97010  216.94870  119.06200  116.47340  116.15100  149.84230  116.47340  229.63080  124.49190  155.64570    0.12880    -999.25    0.12880    1.71620    1.71620 2646.53860  -60.10410  -24.96670  155.64570 1647.97910 1377.44960 1426.92770 1419.05980
 2650.00000  217.92390  244.54310  217.92390    0.48980 2721.87600    -999.25   -0.00690 2041.45970    6.83080  166.28160  156.62770  171.39040  163.60740  155.41070  157.38030  297.16980  299.28950  304.75910  298.59100  152.90860  153.81090  151.62030  304.75910  171.39040   13.58350   14.34770   13.31970   13.65820   14.34770  239.10380 2041.45970 1019.85910    0.00770    -999.25    0.00770    2.24090    2.24090 2721.87600 -106.56720  -73.23780 1019.85910 1661.29140 1393.56880 1457.06200 1432.34400
 2700.00000  218.18420  247.92170  218.18420    1.93700 2662.56270    -999.25    0.02770  516.25990   -0.41780  158.97840  171.74500  166.06480  163.42480  161.27180  161.54250  326.02450  318.43230  337.87560  326.13400  158.73720  147.69140  168.84030  337.87560  166.06480   10.92320    9.81050    9.66930    9.85000    9.81050  238.91420  516.25990  310.13220    0.00860    -999.25    0.00860    2.26320    2.26320 2662.56270 -105.74820  -74.22690  310.13220 1696.83790 1405.93690 1473.01070 1455.06820
 2750.00000  217.84790  250.86110  217.84790    0.16920 2700.53520    -999.25    0.00550 5910.44290   12.54740  168.41380  156.45550  172.44040  166.48770  159.54260  160.74810  311.83920  338.02340  335.07810  288.04110  154.57040  155.46400  153.30880  335.07810  172.44040   12.64380   11.53910   12.19910   12.45660   11.53910  232.75290 5910.44290  526.87240    0.00830    -999.25    0.00830    2.26810    2.26810 2700.53520  -97.29350  -67.58030  526.87240 1725.79020 1424.16360 1483.29440 1477.07010
 2800.00000  231.14620  247.99480  231.14620   11.61330 2685.51830    -999.25    0.01430   86.10790    9.44940  174.60220  169.44540  163.42320  166.76140  159.88130  163.36280  295.82190  312.54550  319.25310  279.29280  159.70760  165.38520  153.87430  319.25310  163.42320   10.74410    9.32210   10.40690   11.36030    9.32210  243.90840   86.10790   90.56190    0.00840    -999.25    0.00840    2.49560    2.49560 2685.51830 -122.34450  -94.43930   90.56190 1735.48470 1457.62240 1530.12790 1493.26940
