~Version ---------------------------------------------------
VERS.      2.0 : CWLS log ASCII Standard -VERSION 2.0
WRAP.       NO : One line per depth step
CREA. 09/16/14 : LAS Creation Date
~Well ------------------------------------------------------
STRT.FT                         1450.0 : START DEPTH
STOP.FT                        13550.0 : STOP DEPTH
STEP.FT                       50.00000 : STEP LENGTH
NULL.                          -999.25 : NULL VALUE
COMP. AMOCO CANADA PETROLEUM CO., LTD. : COMPANY
WELL.            AMOCO TONY 7-16-62-24 : WELL
FLD .                                  : FIELD
LOC .                                  : LOCATION
CTRY.                           CANADA : COUNTRY
SRVC.                     Schlumberger : SERVICE COMPANY
DATE.                      27-Nov-1977 : LOGDATE
PROV.                          Alberta : PROVINCE
UWI .                 100071606224W500 : UNIQUE WELL ID
SLAT.WGS84                    54.36239 : SURFACE LATITUDE
SLON.WGS84                   -117.5361 : SURFACE LONGITUDE
~Curve Information -----------------------------------------
DEPT   .FT    : DEPTH FEET
CALD   .IN    : CALIPER FROM DENSITY LOG
CALS   .IN    : CALIPER FROM SONIC LOG
DPHI_LS.V/V   : DENSITY POROSITY LIMESTONE [M=2.71,F=1.0] FROM DENSITY LOG
DPHI_SS.V/V   : DENSITY POROSITY SANDSTONE [M=2.65,F=1.0] FROM DENSITY LOG
DRHO   .G/C3  : DENSITY CORRECTION FROM DENSITY LOG
DT     .US/F  : DELTA TIME FROM SONIC LOG
GRD    .GAPI  : GAMMA RAY FROM DENSITY LOG
GRS    .GAPI  : GAMMA RAY FROM SONIC LOG
ILD    .OHMM  : DEEP INDUCTION FROM RESISTIVITY LOG
ILM    .OHMM  : MEDIUM INDUCTION FROM RESISTIVITY LOG
LL8    .OHMM  : 8 INCH LATEROLOG RESISTIVITY FROM RESISTIVITY LOG
NPHI_LS.V/V   : NEUTRON POROSITY LIMESTONE FROM DENSITY LOG
NPHI_SS.V/V   : NEUTRON POROSITY SANDSTONE FROM DENSITY LOG
RHOB   .G/C3  : BULK DENSITY FROM DENSITY LOG
SPR    .MV    : SPONTANEOUS POTENTIAL FROM RESISTIVITY LOG
~Params ----------------------------------------------------
PD  .                     GL : PERMANENT DATUM
EPD .FT                 5402 : ELEVATION PERMANENT DATUM
LMF .                     KB : LOG MEASURED FROM
DAPD.FT                   17 : FEET ABOVE PERMANENT DATUM
DATE.               11/27/77 : RUN DATE
RUN .                      2 : RUN NUMBER
DD  .FT                13685 : DEPTH DRILLER
DL  .FT                13579 : DEPTH LOGGER
BLI .FT                13573 : BOTTOM LOG INTERVAL
TLI .FT                 8448 : TOP LOG INTERVAL
CBD .FT                 8448 : CASING BOTTOM DRILLER
CBL .FT                 8448 : CASING BOTTOM LOGGER
BSD .FT                13685 : BIT SIZE AT DEPTH
DFT .                    8.6 : DRILLING FLUID TYPE
DFD .                     86 : DRILLING FLUID DENSITY
CLNT.                A2DTECH : CLIENT CODE
ORIG.          1" 2.5" PRINT : ORIGIN OF DATA
UWI .       100071606224W500 : UNIQUE WELL ID
DICO. A2D Technologies, Inc. : DIGITIZING COMPANY
~Other -----------------------------------------------------
~ASCII -----------------------------------------------------
# ...
 10650.00000   11.27600   10.06300    0.20470    -999.25    0.19570   50.16430   12.17170    9.27700 1520.70170 1573.42920  153.73380    0.01210    -999.25    2.32020 -112.52470
 10700.00000   11.77420   10.11860    0.07070    -999.25    0.20280   51.75470   11.02880    9.98370  993.94070  214.86350  131.13750    0.04260    -999.25    2.60290 -119.23460
 10750.00000   11.38930   10.23520    0.18230    -999.25    0.19460   48.51280   15.20210   12.50890 1535.64890 1674.14580 1611.41600    0.01220    -999.25    2.41580 -113.99780
 10800.00000   12.16130   10.23660    0.18620    -999.25    0.18800   47.67460   15.49580   13.89770 1455.82070 1573.64940  277.13620    0.01670    -999.25    2.37310 -141.66460
 10850.00000   11.20080   10.20670    0.19740    -999.25    -999.25   48.90270   15.68220   16.08660 1503.94270 1575.15250  162.86280    0.01040    -999.25    2.33760 -113.63890
 10900.00000   12.16800   10.08570    0.21030    -999.25    0.18000   49.29640   15.17640   14.80760 1476.59850 1506.02730  183.48170    0.01560    -999.25    2.35490 -111.70000
 10950.00000   10.98060   10.02000    0.22460    -999.25    0.18890   50.17720   13.87320    8.66470  437.40810  510.96510  159.21920    0.01430    -999.25    2.34250 -120.30140
 11000.00000   11.72360   10.25650    0.25090    -999.25    0.13360   49.16780   16.77700   14.30050 1438.82860 1520.19170  237.93010    0.02170    -999.25    2.37540    -999.25
 11050.00000   10.16320    9.99870    0.05120    -999.25    0.03040   50.21890   11.42450    9.14880   56.86350   61.42920  122.48420    0.02910    -999.25    2.66560 -120.72320
 11100.00000   10.87450   10.02170    0.23850    -999.25    0.19890   51.78740   22.12440   24.14890   25.81240   35.74570   58.01870    0.09490    -999.25    2.33120 -127.74910
 11150.00000   13.02950   10.17250    0.23900    -999.25    0.20190   48.61110   26.19100   19.29810  164.75870  287.11110  227.81640    0.07190    -999.25    2.27440 -136.86450
 11200.00000    8.30370    9.20870    0.05490    -999.25    0.16220   53.12480   15.38750   20.81330    9.37630   15.18880  109.64910    0.09710    -999.25    2.59880 -137.77740
 11250.00000   12.09360   10.32440    0.17500    -999.25    0.22850   53.15710   30.23540   29.10500   71.96570   60.89430   53.91960    0.07610    -999.25    2.29970  -78.98090
 11300.00000   10.72800   10.09020    0.11050    -999.25    -999.25   50.34020   24.67850   26.48960  436.04990 1366.66360  134.42650    0.01220    -999.25    2.52520  -75.39590
 11350.00000    8.95230    9.50290    0.00730    -999.25   -0.00680   57.49870   51.84230   57.82330   11.24470   12.27020   16.76200    0.07050    -999.25    2.71130  -55.05460
 11400.00000    8.98020    9.51680    0.00220    -999.25   -0.00530   54.83940   44.35140   47.98790   20.08150   22.25120   27.25260    0.05380    -999.25    2.68100  -62.68230
 11450.00000    9.98000    9.78140    0.02410    -999.25    0.20670   50.70690   25.69960   27.05000  180.77710  398.73220  287.41690    0.00670    -999.25    2.68130  -58.26910
 11500.00000    8.97070    9.71870   -0.00100    -999.25   -0.01560   52.47370   30.67030   32.14910   71.50470   76.86770   57.19870    0.02860    -999.25    2.69210  -45.04890
 11550.00000    9.22150    9.83980    0.01380    -999.25    0.00150   51.59660   26.25330   26.67220  111.56640  136.25160   92.51410    0.02930    -999.25    2.67430  -40.79600
 11600.00000    9.07930    9.71700   -0.01150    -999.25    0.00330   57.39170   43.35800   46.06190   32.52960   35.03260   54.64320    0.07390    -999.25    2.72490  -49.51830
 11650.00000    9.10620    9.69330    0.06790    -999.25    0.07950   54.55220   33.42820   35.87260   96.45660  138.04010  186.40690    0.05060    -999.25    2.61010  -44.81070
 11700.00000    9.33720    9.86190    0.00560    -999.25   -0.00130   53.19520   31.32320   32.13100  101.42390  122.75830  212.44370    0.02070    -999.25    2.69930  -56.24630
 11750.00000    9.73250   10.07320    0.04820    -999.25    0.01400   61.97670   65.21290   68.26300   29.42340   32.41260   49.70770    0.08990    -999.25    2.58900  -33.85720
 11800.00000   10.06750   10.37280    0.05910    -999.25    0.00550   70.82470   87.26990   96.73710   19.00080   19.76000   24.24400    0.19310    -999.25    2.62480  -43.54310
 11850.00000   14.83800   12.01580    0.37610    -999.25    0.14430   74.97720   86.06600   93.41460    4.12250    4.80910    5.21240    0.26010    -999.25    1.96370  -50.38460
 11900.00000   13.07330   11.34920    0.23970    -999.25    0.17500   75.28380  103.73530  108.89450   10.26780   12.82220   11.23390    0.21030    -999.25    2.04410  -48.59130
 11950.00000    9.79660   10.15930    0.01610    -999.25   -0.02460   63.33490   74.21460   80.18850   10.46100   11.59690   11.40260    0.12820    -999.25    2.67860  -32.62240
 12000.00000    9.51780   10.04970    0.00630    -999.25   -0.01720   62.88920   71.58600   73.51030   12.26840   13.81010   17.92460    0.13320    -999.25    2.69260  -35.99870
 12050.00000    9.96870   10.68430    0.03760    -999.25   -0.03350   64.74320   80.43330   87.65920    9.06110    9.92270   12.64070    0.14270    -999.25    2.65160  -33.98490
 12100.00000   10.14970   10.59430    0.10490    -999.25    0.11560   69.69930   97.50180  102.51990    6.94710    7.37100   10.13070    0.17200    -999.25    2.52060  -25.74620
 12150.00000   10.48430   10.40140    0.11690    -999.25    0.15560   68.03410   88.50630   93.46420   12.51730   14.88950   12.09800    0.16950    -999.25    2.48500  -31.28370
 12200.00000   14.98830   12.56930    0.20980    -999.25    0.24800   80.54190  110.62600  125.29670    6.95380    7.70020    9.55820    0.25520    -999.25    2.39860  -47.29000
 12250.00000    9.61420   11.27870    0.08220    -999.25   -0.01190   79.81070  134.01130  136.66100   22.28710   27.45590   47.52040    0.23380    -999.25    2.56740  -37.37560
 12300.00000    9.15370    9.73150    0.10080    -999.25    0.00240   71.18590  121.09380  120.07130  291.75640 1372.17410  651.96170    0.16810    -999.25    2.52160  -44.95570
 12350.00000    9.18150    9.71070    0.06650    -999.25    0.00480   72.44030  131.13140  165.34540  253.56330  371.37100  184.29970    0.11860    -999.25    2.59920  -39.23500
 12400.00000   10.57140   10.84730    0.19060    -999.25    0.14660   87.90300  175.27670  189.78550   15.99690   14.69570   42.61230    0.23640    -999.25    2.38510  -14.79720
 12450.00000   11.01070    9.73330    0.13830    -999.25    0.24620   53.62750   25.55520   37.11360   86.15130   72.08300   84.43160    0.04440    -999.25    2.49860  -13.08780
 12500.00000    9.22820    9.59980    0.03190    -999.25   -0.02060   50.19270   27.81870   22.58330  562.38850 1468.37660  869.28800    0.01900    -999.25    2.66310  -33.12850
 12550.00000   11.55970   10.13240    0.20350    -999.25    0.24990   50.34820   19.99990   21.16370 1483.63760 1567.28670  379.79900    0.01010    -999.25    2.36690  -51.30570
 12600.00000    9.21390    9.54710    0.03140    -999.25   -0.01900   57.46280   65.27730   72.43610   17.03090   20.82430   25.16580    0.09180    -999.25    2.66530  -50.22480
 12650.00000    9.28780    9.48380    0.04320    -999.25   -0.01040   56.64560   50.74230   56.09950   45.78070   55.19060   34.39220    0.07570    -999.25    2.65130  -54.76190
 12700.00000   11.74100    9.85970    0.23290    -999.25    0.24980   49.26800   16.39150   15.46930 1453.15450 1485.60670  179.38170    0.01280    -999.25    2.31710 -115.02680
 12750.00000   11.00220    9.89910    0.18170    -999.25    0.18510   49.31970   25.32140   24.10270  287.55910  272.70350  128.95480    0.01690    -999.25    2.40380 -109.57190
 12800.00000    9.37200    9.51020    0.11940    -999.25    0.01660   56.35740   44.98560   45.77280   27.60030   47.64810  106.55630    0.04030    -999.25    2.51250  -73.22870
 12850.00000   12.41460   10.17030    0.20750    -999.25    0.25000   47.82570   72.65430   78.43710  226.37180 1516.62230  283.01920    0.05630    -999.25    2.34510  -92.61470
