~Version ---------------------------------------------------
VERS. 2.0 : CWLS log ASCII Standard -VERSION 2.0
WRAP.  NO : ONE LINE PER DEPTH STEP
~Well ------------------------------------------------------
STRT.M                              300.0 : START DEPTH
STOP.M                             3350.0 : STOP DEPTH
STEP.M                           50.00000 : STEP LENGTH
NULL.                             -999.25 : NULL VALUE
COMP. UNION OIL COMPANY OF CANADA LIMITED : COMPANY
WELL.    UNION ET AL FOX CREEK 6-29-61-18 : WELL
FLD .                           FOX CREEK : FIELD
LOC .                                     : LOCATION
CTRY.                              CANADA : COUNTRY
SRVC.                        Schlumberger : SERVICE COMPANY
DATE.                         02-Nov-1982 : LOGDATE
PROV.                             Alberta : PROVINCE
UWI .                    100062906118W500 : UNIQUE WELL ID
SLAT.WGS84                       54.30155 : SURFACE LATITUDE
SLON.WGS84                      -116.6681 : SURFACE LONGITUDE
~Curve Information -----------------------------------------
DEPT    .M      : DEPTH METERS
CALDED  .MM     : CALIPER FROM DENSITY LOG
CALSED  .MM     : CALIPER FROM SONIC LOG
CALWS   .MM     : CALIPER [CALDED]
CONDWS  .MMHO   : CONDUCTIVITY [1000/DRESWS]
DCORED  .KG/M3  : DENSITY CORRECTION FROM DENSITY LOG
DCORWS  .KG/M3  : DENSITY CORRECTION [DCORED]
DENWS   .KG/M3  : BULK DENSITY [M=2650/2710 AT 2101 F=1000] [CALCULATED FROM DPHISSED/DPHILSED]
DPHILSED.V/V    : DENSITY POROSITY [M=2710 F=1000] FROM DENSITY LOG
DPHISSED.V/V    : DENSITY POROSITY [M=2650 F=1000] FROM DENSITY LOG
DPOLSWS .V/V    : DENSITY POROSITY [M=2710 F=1000] [CALCULATED FROM DENWS]
DRESWS  .OHMM   : DEEP RESISTIVITY [ILDED]
DTED    .US/M   : DELTA TIME FROM SONIC LOG
DTWS    .US/M   : DELTA TIME [DTED]
GRDED   .GAPI   : GAMMA RAY FROM DENSITY LOG
GRSED   .GAPI   : GAMMA RAY FROM SONIC LOG
GRWS    .GAPI   : GAMMA RAY [MERGED GRSED/GRDED AT 3364]  CSG @ 456m
HDED    .MM     : HOLD DIAMETER FROM DENSITY LOG
ILDED   .OHMM   : INDUCTION LOG DEEP RESISTIVITY
ILMED   .OHMM   : INDUCTION LOG MEDIUM RESISTIVITY
MRESWS  .OHMM   : MEDIUM RESISTIVITY [ILMED]
NPHILSED.V/V    : NEUTRON POROSITY LIMESTONE FROM DENSITY LOG
NPHISSED.V/V    : NEUTRON POROSITY SANDSTONE FROM DENSITY LOG
NPOLSWS .V/V    : NEUTON POROSITY LIMESTONE [NPHISSED CONVERTED TO LIMESTONE FROM POWER LOG FROM START TO 2101.2, THEN NPHILSED TO END]
RHOBED  .KG/M3  : BULK DENSITY FROM DENSITY LOG
SFLUED  .OHMM   : SPHERICALLY FOCUSED LOG RESISTIVITY
SPRED   .MV     : SPONTANEOUS POTENTIAL FROM RESISTIVITY LOG
SPWS    .MV     : SPONTANEOUS POTENTIAL [BASELINE 0 MV] [SPRED]
SRESWS  .OHMM   : SHALLOW RESISTIVITY [SFLUED]
~Params ----------------------------------------------------
PD  .                         GL : PERMANENT DATUM
EPD .M                     964.7 : ELEVATION PERMANENT DATUM
LMF .                         KB : LOG MEASURED FROM
DAPD.M                         7 : FEET ABOVE PERMANENT DATUM
DMF .                         KB : DRILLING MEASURED FROM
EKB .M                     971.7 : KELLY BUSHING
EGL .M                     964.7 : GROUND LEVEL
DATE.                   11/02/82 : RUN DATE
RUN .                          1 : RUN NUMBER
DD  .M                    3374.1 : DEPTH DRILLER
DL  .M                      3375 : DEPTH LOGGER
BLI .M                      3374 : BOTTOM LOG INTERVAL
TLI .M                       456 : TOP LOG INTERVAL
CS  .MM                      244 : CASING SIZE
CBD .M                       456 : CASING BOTTOM DRILLER
CBL .M                       456 : CASING BOTTOM LOGGER
BS  .MM                      222 : BIT SIZE
BSD .M                    3374.1 : BIT SIZE AT DEPTH
DFT .                   GEL CHEM : DRILLING FLUID TYPE
DFD .                       1110 : DRILLING FLUID DENSITY
DFV .                         95 : DRILLING FLUID VISCOSITY
DFPH.                         12 : DRILLING FLUID PH
DFL .                          8 : DRILLING FLUID LOSS
MSS .                   FLOWLINE : MUD SAMPLE SOURCE
RMS .OHMM                   1.74 : RESISTIVITY MUD SAMPLE
MST .DEGC                   18.9 : MUD SAMPLE TEMPERATURE
RMF .OHMM                   1.39 : RESISTIVITY MUD FILTRATE SAMPLE
MFST.DEGC                   18.3 : MUD FILTRATE SAMPLE TEMPERATURE
MFSS.                  MUD PRESS : MUD FILTRATE SAMPLE SOURCE
RMB .OHMM                  0.637 : RESISTIVITY MUD AT BHT
TCS .HRS                     700 : TIME CIRCULATED STOPPED
TLAB.HRS                    1630 : TIME LOGGER AT BOTTOM
LUN .                       8156 : LOGGING UNIT NUMBER
LUL .                        EDS : LOGGING UNIT LOCATION
ENGI.                  LABRECQUE : RECORDING ENGINEER
WITN.                     MACRAE : WITNESSED BY
CLNT.                    A2DTECH : CLIENT CODE
ORIG. 6.5"/100M 16.5"/100M PRINT : ORIGIN OF DATA
UWI .           100062906118W500 : UNIQUE WELL ID
DICO.     A2D Technologies, Inc. : DIGITIZING COMPANY
~Other -----------------------------------------------------
~ASCII -----------------------------------------------------
# ...
 1550.00000  214.29670  223.99750  214.29670   89.05910    1.86110    1.86110 2515.85500    -999.25    0.08130    0.11350   11.22850  307.17970  307.17970  126.52040  147.17700  147.17700  236.70790   11.22850   11.98090   11.98090    -999.25    0.36450    0.32100 2515.34740   15.38430  -75.89230   -3.86780   15.38430
 1600.00000  184.79300  230.43760  184.79300   52.07550   -5.26290   -5.26290 2413.06010    -999.25    0.14360    0.17360   19.20290  305.21710  305.21710  113.72550  122.06790  122.06790  250.09910   19.20290   21.77580   21.77580    -999.25    0.49070    0.44900 2416.80760   60.42740  -73.33220   -2.41520   60.42740
 1650.00000  182.99000  248.13930  182.99000  142.62280  118.56370  118.56370 2539.61500    -999.25    0.06690    0.09960    7.01150  265.94420  265.94420  104.97750  111.93870  111.93870  287.40910    7.01150    7.20240    7.20240    -999.25    0.29440    0.25040 2532.54170    7.69060  -75.03710   -5.22760    7.69060
 1700.00000  184.30470  296.30000  184.30470  232.82890   55.56000   55.56000 2371.64500    -999.25    0.16870    0.19790    4.29500  305.68610  305.68610   97.79100  111.63400  111.63400  444.25330    4.29500    4.43090    4.43090    -999.25    0.39720    0.35430 2365.64500    4.59840  -73.06550   -4.36360    4.59840
 1750.00000  182.38870  261.65340  182.38870  269.52730   85.39270   85.39270 2441.43990    -999.25    0.12640    0.15710    3.71020  304.82550  304.82550   99.15710  101.92320  101.92320  414.49560    3.71020    3.85330    3.85330    -999.25    0.35450    0.31090 2429.34300    4.20580  -68.82460   -1.33960    4.20580
 1800.00000  216.49530  232.08200  216.49530  671.72700    7.56590    7.56590 2192.45510    -999.25    0.27730    0.30270    1.48870  443.27510  443.27510   92.90930  107.29810  107.29810  253.57920    1.48870    1.29270    1.29270    -999.25    0.51000    0.46830 2183.94210    1.58350  -66.60490   -0.52600    1.58350
 1850.00000  252.31770  282.30570  252.31770  101.83920   34.99110   34.99110 1738.54000    -999.25    0.55240    0.56810    9.81940  354.22900  354.22900   55.74150   74.40120   74.40120  310.29080    9.81940    9.87300    9.87300    -999.25    0.59730    0.55560 1756.19070   13.25050  -70.96180   -3.79200   13.25050
 1900.00000  253.00930  295.74940  253.00930  133.60050    6.15620    6.15620 2558.75490    -999.25    0.05530    0.08840    7.48500  100.10520  100.10520   55.51180   60.84770   60.84770  318.49240    7.48500    7.68710    7.68710    -999.25    0.30700    0.26300 2556.19430    7.98370  -74.83860   -5.63100    7.98370
 1950.00000  250.97310  285.11560  250.97310   85.49130   42.33410   42.33410 2527.24000    -999.25    0.07440    0.10690   11.69710  236.82530  236.82530   73.69070   89.58170   89.58170  313.27600   11.69710   11.47760   11.47760    -999.25    0.30400    0.26000 2523.50560   11.25280  -78.44320   -5.91160   11.25280
 2000.00000  304.77560  281.43970  304.77560  158.92690  163.67200  163.67200 2530.54000    -999.25    0.07240    0.10490    6.29220  263.52600  263.52600   73.61170   80.81290   80.81290  277.62910    6.29220    6.72960    6.72960    -999.25    0.38770    0.34460 2531.78980    7.08680  -74.99480   -0.05660    7.08680
 2050.00000  236.90540  236.39570  236.90540  102.81830  135.86100  135.86100 2507.27490    -999.25    0.08650    0.11860    9.72590  232.36350  232.36350   36.47760   34.71730   34.71730  245.24980    9.72590   11.48350   11.48350    -999.25    0.16660    0.12370 2497.26030   15.95090 -132.63210  -58.61730   15.95090
 2100.00000  285.10330  293.51660  285.10330  163.09490  154.24240  154.24240 2011.78000    -999.25    0.38680    0.40830    6.13140  226.39450  226.39450   86.58910  122.50570  122.50570  337.09950    6.13140    6.34410    6.34410    -999.25    0.33690    0.29310 2042.99190    8.62420  -75.34560   -2.25410    8.62420
 2150.00000  203.97720  229.18180  203.97720   20.56480   -9.59020   -9.59020 2518.99290    0.11170    -999.25    0.11170   48.62670  208.00400  208.00400  172.64280  172.50180  172.50180  240.92470   48.62670   62.99070   62.99070    0.13600    -999.25    0.13600 2517.51170  577.12400  -80.28690   -4.97790  577.12400
 2200.00000  218.97650  215.45970  218.97650  294.53340   29.06990   29.06990 2587.22190    0.07180    -999.25    0.07180    3.39520  185.92510  185.92510   18.26150   18.69590   18.69590  229.13880    3.39520    4.71830    4.71830    0.15350    -999.25    0.15350 2576.51490   13.87570 -196.64750 -117.97110   13.87570
 2250.00000  213.47810  246.59000  213.47810   32.32640  129.21760  129.21760 2769.50810   -0.03480    -999.25   -0.03480   30.93450  170.78980  170.78980   22.68190   24.43200   24.43200  277.13160   30.93450   49.75650   49.75650    0.01540    -999.25    0.01540 2774.27120  186.13230 -146.42570  -66.46340  186.13230
 2300.00000  216.71620  267.11770  216.71620    6.35550  185.47490  185.47490 2568.58300    0.08270    -999.25    0.08270  157.34420  169.28460  169.28460   13.34900   12.97840   12.97840  321.59340  157.34420  205.84810  205.84810    0.00720    -999.25    0.00720 2566.19700  932.59110 -114.97600  -40.41840  932.59110
 2350.00000  206.04380  241.05400  206.04380  163.81630    9.38070    9.38070 2697.17500    0.00750    -999.25    0.00750    6.10440  194.09880  194.09880   58.44100   61.98350   61.98350  247.72200    6.10440    6.64290    6.64290    0.13560    -999.25    0.13560 2689.98190   10.47730  -90.26030  -30.88260   10.47730
 2400.00000  206.37280  247.79140  206.37280   14.62820    0.58090    0.58090 2683.49510    0.01550    -999.25    0.01550   68.36100  178.19660  178.19660   40.07880   40.14750   40.14750  265.28930   68.36100   71.57280   71.57280    0.04180    -999.25    0.04180 2689.07200  141.80860  -38.63990   -2.40960  141.80860
 2450.00000  204.70100  247.81140  204.70100   13.35120   -1.48400   -1.48400 2686.74390    0.01360    -999.25    0.01360   74.89980  169.37070  169.37070   16.05850   14.47500   14.47500  276.77660   74.89980   84.83490   84.83490    0.00630    -999.25    0.00630 2686.20140  187.66260  -92.63490  -52.79010  187.66260
 2500.00000  253.58380  228.08630  253.58380   10.41280    2.14470    2.14470 2705.72510    0.00250    -999.25    0.00250   96.03590  174.71350  174.71350   33.87300   33.81160   33.81160  242.53930   96.03590  115.66110  115.66110    0.03800    -999.25    0.03800 2704.81960  228.45310  -53.83660  -10.37730  228.45310
 2550.00000  229.49450  238.71070  229.49450    8.12670    0.85130    0.85130 2714.44600   -0.00260    -999.25   -0.00260  123.05160  164.16420  164.16420   12.09610   14.07310   14.07310  265.74370  123.05160   98.27480   98.27480    0.01940    -999.25    0.01940 2710.72020  241.56310  -96.46260  -39.83810  241.56310
 2600.00000  227.09610  240.59880  227.09610    9.03250  249.83000  249.83000 2715.81400   -0.00340    -999.25   -0.00340  110.71110  163.27400  163.27400   11.11010   13.36230   13.36230  305.66350  110.71110   69.67800   69.67800    0.02120    -999.25    0.02120 2709.82980  152.16380  -84.66630  -10.47710  152.16380
 2650.00000  220.81690  245.51670  220.81690    5.91770   96.94670   96.94670 2456.23610    0.14840    -999.25    0.14840  168.98460  170.82530  170.82530   14.15090   11.69980   11.69980  344.64220  168.98460  182.59490  182.59490    0.04070    -999.25    0.04070 2451.47490  380.41690  -95.29380   -8.44060  380.41690
 2700.00000  215.53120  239.72730  215.53120    6.24110   88.25440   88.25440 2515.40210    0.11380    -999.25    0.11380  160.22760  163.59960  163.59960   13.97660   13.77330   13.77330  341.79970  160.22760  148.72000  148.72000    0.04890    -999.25    0.04890 2544.35790  339.21790 -108.80790  -16.28850  339.21790
 2750.00000  208.51330  243.56750  208.51330   84.75510   15.26550   15.26550 2739.58300   -0.01730    -999.25   -0.01730   11.79870  178.80310  178.80310   38.46950   37.19700   37.19700  259.21970   11.79870   11.93770   11.93770    0.02800    -999.25    0.02800 2732.50490   26.89930  -88.64570    7.40230   26.89930
