~Version ---------------------------------------------------
VERS.      2.0 : CWLS log ASCII Standard -VERSION 2.0
WRAP.       NO : One line per depth step
CREA. 09/22/17 : LAS Creation Date
~Well ------------------------------------------------------
STRT.FT                1200.0 : START DEPTH
STOP.FT               10800.0 : STOP DEPTH
STEP.FT              50.00000 : STEP LENGTH
NULL.                 -999.25 : NULL VALUE
COMP. SUN OIL COMPANY LIMITED : COMPANY
WELL. BEC ROSEVEAR 6-34-54-15 : WELL
FLD .                         : FIELD
LOC .                         : LOCATION
CTRY.                  CANADA : COUNTRY
SRVC.  Schlumberger of Canada : SERVICE COMPANY
DATE.             25-Mar-1971 : LOGDATE
PROV.                 Alberta : PROVINCE
UWI .        100063405415W500 : UNIQUE WELL ID
SLAT.WGS84           53.70553 : SURFACE LATITUDE
SLON.WGS84          -116.1304 : SURFACE LONGITUDE
~Curve Information -----------------------------------------
DEPT   .FT    : Depth Curve
CALIED .IN    : CALIPER FROM SNP LOG [ADJ. TO RESISTIVITY LOG]
CALSED .IN    : CALIPER FROM SONIC LOG [ADJ. TO RESISTIVITY LOG]
CALWS  .IN    : CALIPER [CALSED]
CILDED .MMHO  : CONDUCTIVITY FROM RESISTIVITY LOG
CONDWS .MMHO  : CONDUCTIVITY [1000/DRESWS]
DRESWS .OHMM  : DEEP RESISTIVITY [1000/CILDED IF ILDED<=5, ILDED]
DTED   .US/F  : DELTA T FROM SONIC LOG [ADJ. TO RESISTIVITY LOG]
DTWS   .US/F  : COMPRESSIONAL SONIC [DTED]
GRED   .GAPI  : GAMMA RAY FROM SNP LOG [ADJ. TO RESISTIVITY LOG]
GRNED  .GAPI  : GAMMA RAY NEUTRON FROM GRN LOG [ADJ. TO RESISTIVITY LOG]
GRSED  .GAPI  : GAMMA RAY FROM SONIC LOG [ADJ. TO RESISTIVITY LOG]
GRWS   .GAPI  : GAMMA RAY [GRSED SPL. TO GRNED @ 10735']
ILDED  .OHMM  : DEEP INDUCTION FROM RESISTIVITY LOG
ILMED  .OHMM  : MEDIUM INDUCTION FROM RESISTIVITY LOG
LL8ED  .OHMM  : LATEROLOG 8' FROM RESISTIVITY LOG
MRESWS .OHMM  : MEDIUM RESISTIVITY [ILMED]
NEUTED .NAPI  : NEUTRON FROM GRN LOG [ADJ. TO RESISTIVITY LOG]
NEUTWS .NAPI  : NEUTRON [NEUTED]
NPOLSWS.V/V   : NEUTRON POROSITY LIMESTONE [SNPLSED]
SNED   .OHMM  : SHORT NORMAL FROM RESISTIVITY LOG
SNPLSED.V/V   : SIDEWALL NEUTRON POROSITY LIMESTONE FROM SNP LOG [ADJ. TO RESISTIVITY LOG]
SPRED  .MV    : SPONTANEOUS POTENTIAL FROM RESISTIVITY LOG
SPWS   .MV    : SPONTANEOUS POTENTIAL [BASELINE 0 MV, SPRED]
SRESWS .OHMM  : SHALLOW RESISTIVITY [SNED SPL. TO LL8ED @ 4794']
~Params ----------------------------------------------------
PD  .                     GL : PERMANENT DATUM
EPD .FT               2803.5 : ELEVATION PERMANENT DATUM
LMF .                     KB : LOG MEASURED FROM
DAPD.FT                 15.5 : FEET ABOVE PERMANENT DATUM
EKB .FT                 2819 : KELLY BUSHING
EGL .FT               2803.5 : GROUND LEVEL
DATE.               03/25/71 : RUN DATE
RUN .                      1 : RUN NUMBER
DD  .FT                10590 : DEPTH DRILLER
DL  .FT                10587 : DEPTH LOGGER
BLI .FT                10581 : BOTTOM LOG INTERVAL
TLI .FT                 1243 : TOP LOG INTERVAL
CBD .FT                 1243 : CASING BOTTOM DRILLER
CBL .FT                 1243 : CASING BOTTOM LOGGER
BS  .IN                 8.75 : BIT SIZE
BSD .FT                10590 : BIT SIZE AT DEPTH
DFT .                    GEL : DRILLING FLUID TYPE
DFD .                   11.1 : DRILLING FLUID DENSITY
DFV .                    127 : DRILLING FLUID VISCOSITY
DFPH.                     10 : DRILLING FLUID PH
DFL .                      6 : DRILLING FLUID LOSS
MSS .                   CIRC : MUD SAMPLE SOURCE
RMS .OHMM               1.34 : RESISTIVITY MUD SAMPLE
MST .DEGF                 68 : MUD SAMPLE TEMPERATURE
RMF .OHMM               0.95 : RESISTIVITY MUD FILTRATE SAMPLE
MFST.DEGF                 50 : MUD FILTRATE SAMPLE TEMPERATURE
RMC .OHMM               1.98 : RESISTIVITY MUD CAKE
MCST.DEGF                 52 : MUD CAKE SAMPLE TEMPERATURE
RMB .OHMM               0.32 : RESISTIVITY MUD AT BHT
TCS .HRS                   4 : TIME CIRCULATED STOPPED
LUN .                   5628 : LOGGING UNIT NUMBER
ENGI.               PUOURSON : RECORDING ENGINEER
WITN.                 BAANUT : WITNESSED BY
CLNT.                A2DTECH : CLIENT CODE
ORIG.            2" 5" PRINT : ORIGIN OF DATA
UWI .       100063405415W500 : UNIQUE WELL ID
DICO. A2D Technologies, Inc. : DIGITIZING COMPANY
~Other -----------------------------------------------------
DIL-GRN-SNP-BCS LOG RAN.
~ASCII -----------------------------------------------------
# ...
 2650.00000    -999.25   11.15810   11.15810  294.57550  326.20660    3.06910   93.78240   93.78240    -999.25    -999.25   71.78450   71.78450    3.06910    -999.25    -999.25    -999.25    -999.25    -999.25    -999.25    4.20630    -999.25  -63.76590   -2.15550    4.20630
 2700.00000    -999.25   10.81040   10.81040  107.46120  107.42980    9.30840   82.16650   82.16650    -999.25    -999.25   83.13760   83.13760    9.30840    -999.25    -999.25    -999.25    -999.25    -999.25    -999.25    9.78330    -999.25  -72.26090   -7.71130    9.78330
 2750.00000    -999.25   11.22950   11.22950  245.59120  245.70020    4.07000   98.90950   98.90950    -999.25    -999.25   78.09690   78.09690    4.07000    -999.25    -999.25    -999.25    -999.25    -999.25    -999.25    4.35280    -999.25  -72.72260   -4.25480    4.35280
 2800.00000    -999.25   11.23630   11.23630  175.15180  175.33850    5.70570   85.01340   85.01340    -999.25    -999.25   73.99550   73.99550    5.70570    -999.25    -999.25    -999.25    -999.25    -999.25    -999.25    6.38520    -999.25  -75.20410   -3.39780    6.38520
 2850.00000    -999.25   11.44820   11.44820  162.65730  162.60430    6.14990   92.11960   92.11960    -999.25    -999.25   72.18680   72.18680    6.14990    -999.25    -999.25    -999.25    -999.25    -999.25    -999.25    6.38880    -999.25  -75.49880   -2.01040    6.38880
 2900.00000    -999.25   10.66350   10.66350   77.20220   78.81200   12.69790   79.96680   79.96680    -999.25    -999.25   77.66160   77.66160   12.69790    -999.25    -999.25    -999.25    -999.25    -999.25    -999.25   12.76770    -999.25  -78.21580   -5.95220   12.76770
 2950.00000    -999.25   10.65910   10.65910  322.65080  341.53010    2.92800   95.72120   95.72120    -999.25    -999.25   80.87330   80.87330    2.92800    -999.25    -999.25    -999.25    -999.25    -999.25    -999.25    3.70580    -999.25  -74.78830   -2.38100    3.70580
 3000.00000    -999.25   11.02020   11.02020  225.52110  237.33800    4.21340   88.28740   88.28740    -999.25    -999.25   64.08120   64.08120    4.21340    -999.25    -999.25    -999.25    -999.25    -999.25    -999.25    4.91100    -999.25  -74.65340   -2.40610    4.91100
 3050.00000    -999.25   11.27180   11.27180  233.58640  246.54330    4.05730   95.90360   95.90360    -999.25    -999.25   61.41940   61.41940    4.05730    -999.25    -999.25    -999.25    -999.25    -999.25    -999.25    4.76220    -999.25  -73.77650   -2.35500    4.76220
 3100.00000    -999.25   11.34540   11.34540  192.38620  188.36650    5.30880   85.71520   85.71520    -999.25    -999.25   53.67300   53.67300    5.30880    -999.25    -999.25    -999.25    -999.25    -999.25    -999.25    6.02420    -999.25  -74.68160   -4.01240    6.02420
 3150.00000    -999.25   11.56210   11.56210  187.80910  200.05220    5.00230   96.87600   96.87600    -999.25    -999.25   59.96870   59.96870    5.00230    -999.25    -999.25    -999.25    -999.25    -999.25    -999.25    5.34060    -999.25  -72.71250   -2.39870    5.34060
 3200.00000    -999.25   10.80120   10.80120  118.69340  118.70000    8.42460   83.91000   83.91000    -999.25    -999.25   57.45710   57.45710    8.42460    -999.25    -999.25    -999.25    -999.25    -999.25    -999.25    8.57150    -999.25  -81.67290  -10.88120    8.57150
 3250.00000    -999.25   10.75780   10.75780  118.61370  118.67600    8.42630   73.87570   73.87570    -999.25    -999.25   46.09180   46.09180    8.42630    -999.25    -999.25    -999.25    -999.25    -999.25    -999.25    8.92840    -999.25  -74.09520   -2.92100    8.92840
 3300.00000    -999.25    9.85210    9.85210   53.99480   46.70300   21.41940   79.65620   79.65620    -999.25    -999.25   43.13220   43.13220   21.41940    -999.25    -999.25    -999.25    -999.25    -999.25    -999.25   15.87420    -999.25  -76.63930   -6.44280   15.87420
 3350.00000    -999.25   10.63410   10.63410   93.50700   90.23480   11.08220   76.17180   76.17180    -999.25    -999.25   49.31880   49.31880   11.08220    -999.25    -999.25    -999.25    -999.25    -999.25    -999.25   14.87590    -999.25  -75.98180   -4.87070   14.87590
 3400.00000    -999.25   10.66340   10.66340  113.01420  106.27490    9.41360   85.09850   85.09850    -999.25    -999.25   51.47020   51.47020    9.41360    -999.25    -999.25    -999.25    -999.25    -999.25    -999.25    8.10430    -999.25  -72.63310   -2.91700    8.10430
 3450.00000    -999.25   10.58180   10.58180  226.98300  240.03840    4.16600  121.30620  121.30620    -999.25    -999.25   58.71850   58.71850    4.16600    -999.25    -999.25    -999.25    -999.25    -999.25    -999.25    4.92100    -999.25  -71.44290   -2.40970    4.92100
 3500.00000    -999.25   10.62540   10.62540  105.14380  104.73950    9.54750   78.66800   78.66800    -999.25    -999.25   50.34880   50.34880    9.54750    -999.25    -999.25    -999.25    -999.25    -999.25    -999.25    9.95850    -999.25  -72.38350   -3.70740    9.95850
 3550.00000    -999.25   10.86760   10.86760   93.40570   93.23210   10.72760   78.04190   78.04190    -999.25    -999.25   43.57800   43.57800   10.72760    -999.25    -999.25    -999.25    -999.25    -999.25    -999.25   10.85970    -999.25  -72.11160   -3.55110   10.85970
 3600.00000    -999.25   10.83620   10.83620  110.90440  115.98910    8.62150   79.97250   79.97250    -999.25    -999.25   50.70000   50.70000    8.62150    -999.25    -999.25    -999.25    -999.25    -999.25    -999.25    9.01600    -999.25  -72.21590   -3.47470    9.01600
 3650.00000    -999.25   11.32100   11.32100  185.04640  185.06990    5.40360   90.57340   90.57340    -999.25    -999.25   58.48950   58.48950    5.40360    -999.25    -999.25    -999.25    -999.25    -999.25    -999.25    5.62110    -999.25  -73.53030   -3.52380    5.62110
 3700.00000    -999.25   11.25140   11.25140  187.12290  187.26940    5.33990   90.90240   90.90240    -999.25    -999.25   68.15190   68.15190    5.33990    -999.25    -999.25    -999.25    -999.25    -999.25    -999.25    5.64910    -999.25  -73.32340   -1.83980    5.64910
 3750.00000    -999.25   10.64070   10.64070  104.40700  100.53890    9.94640   81.13210   81.13210    -999.25    -999.25   44.69370   44.69370    9.94640    -999.25    -999.25    -999.25    -999.25    -999.25    -999.25   10.84430    -999.25  -77.01220   -4.07370   10.84430
 3800.00000    -999.25   10.29950   10.29950  156.98420  159.71360    6.26380  103.17470  103.17470    -999.25    -999.25   64.27810   64.27810    6.26380    -999.25    -999.25    -999.25    -999.25    -999.25    -999.25    6.42150    -999.25  -76.92180   -4.75520    6.42150
 3850.00000    -999.25   10.55070   10.55070   33.84230   30.06260   33.26390   66.84560   66.84560    -999.25    -999.25   36.36150   36.36150   33.26390    -999.25    -999.25    -999.25    -999.25    -999.25    -999.25   37.27570    -999.25  -95.55400  -23.06230   37.27570
 3900.00000    -999.25   10.64900   10.64900  151.85820  162.57540    6.15110   89.50690   89.50690    -999.25    -999.25   56.58690   56.58690    6.15110    -999.25    -999.25    -999.25    -999.25    -999.25    -999.25    7.01310    -999.25  -74.12780   -2.55430    7.01310
 3950.00000    -999.25    9.18920    9.18920   54.89640   48.51350   20.61280   77.26720   77.26720    -999.25    -999.25   38.16230   38.16230   20.61280    -999.25    -999.25    -999.25    -999.25    -999.25    -999.25   22.97780    -999.25  -84.63460  -19.18130   22.97780
 4000.00000    -999.25   11.06280   11.06280  243.05590  245.56150    4.07230  139.15090  139.15090    -999.25    -999.25   59.84430   59.84430    4.07230    -999.25    -999.25    -999.25    -999.25    -999.25    -999.25    5.07470    -999.25  -61.85940   -2.49440    5.07470
 4050.00000    -999.25   10.63100   10.63100   49.74520   45.64050   21.92260   74.49480   74.49480    -999.25    -999.25   40.42650   40.42650   21.92260    -999.25    -999.25    -999.25    -999.25    -999.25    -999.25   19.70070    -999.25  -68.29760  -15.39110   19.70070
