~Version ---------------------------------------------------
VERS.      2.0 : CWLS log ASCII Standard -VERSION 2.0
WRAP.       NO : One line per depth step
CREA. 08/22/14 : LAS Creation Date
~Well ------------------------------------------------------
STRT.FT                 1143.82546 : START DEPTH
STOP.FT                11159.82546 : STOP DEPTH
STEP.FT                    0.50000 : STEP LENGTH
NULL.                      -999.25 : NULL VALUE
COMP.            TRIAD OIL CO. LTD : COMPANY
WELL. TRIAD PAN AM ANTE 2-27-66-25 : WELL
FLD .                              : FIELD
LOC .                              : LOCATION
CTRY.                       CANADA : COUNTRY
SRVC.                   Lane Wells : SERVICE COMPANY
DATE.                  15-Aug-1967 : LOGDATE
PROV.                      Alberta : PROVINCE
UWI .             100022706625W500 : UNIQUE WELL ID
SLAT.WGS84                54.73614 : SURFACE LATITUDE
SLON.WGS84                 -117.69 : SURFACE LONGITUDE
~Curve Information -----------------------------------------
DEPT.FT    : DEPTH FEET
CALS.IN    : CALIPER FROM SONIC LOG
DT  .US/F  : DELTA TIME FROM SONIC LOG
GRS .GAPI  : GAMMA RAY FROM SONIC LOG
ILD .OHMM  : INDUCTION LOG DEEP RESISTIVITY
SN  .OHMM  : 16 INCH SHORT NORMAL RESISTIVITY FROM IEL
SPR .MV    : SPONTANEOUS POTENTIAL FROM RESISTIVITY LOG
~Params ----------------------------------------------------
PD  .                     GL : PERMANENT DATUM
EPD .FT               2399.7 : ELEVATION PERMANENT DATUM
LMF .                     KB : LOG MEASURED FROM
DAPD.FT                   15 : FEET ABOVE PERMANENT DATUM
DMF .                     KB : DRILLING MEASURED FROM
EKB .FT               2414.7 : KELLY BUSHING
EGL .FT               2399.7 : GROUND LEVEL
DATE.               08/15/67 : RUN DATE
RUN .                      1 : RUN NUMBER
DD  .FT                11172 : DEPTH DRILLER
DL  .FT                11160 : DEPTH LOGGER
BLI .FT                11156 : BOTTOM LOG INTERVAL
TLI .FT                 1144 : TOP LOG INTERVAL
CS  .IN                9.625 : CASING SIZE
CBD .FT                 1145 : CASING BOTTOM DRILLER
CBL .FT                 1144 : CASING BOTTOM LOGGER
BS  .IN                7.625 : BIT SIZE
BSD .FT                11172 : BIT SIZE AT DEPTH
DFT .                MUD GEL : DRILLING FLUID TYPE
DFD .                    9.9 : DRILLING FLUID DENSITY
DFV .                     89 : DRILLING FLUID VISCOSITY
DFPH.                      9 : DRILLING FLUID PH
DFL .                    7.2 : DRILLING FLUID LOSS
MSS .                   CIRC : MUD SAMPLE SOURCE
RMS .OHMM                3.0 : RESISTIVITY MUD SAMPLE
MST .DEGF                 86 : MUD SAMPLE TEMPERATURE
RMF .OHMM                2.4 : RESISTIVITY MUD FILTRATE SAMPLE
MFST.DEGF                 86 : MUD FILTRATE SAMPLE TEMPERATURE
RMC .OHMM                3.2 : RESISTIVITY MUD CAKE
MCST.DEGF                 86 : MUD CAKE SAMPLE TEMPERATURE
MFSS.                   MEAS : MUD FILTRATE SAMPLE SOURCE
MCSS.                   MEAS : MUD CAKE SAMPLE SOURCE
RMB .OHMM                1.2 : RESISTIVITY MUD AT BHT
TCS .HRS                   6 : TIME CIRCULATED STOPPED
LUN .                   1256 : LOGGING UNIT NUMBER
LUL .                    EDM : LOGGING UNIT LOCATION
ENGI.      KOWALCHUK DOMSTAD : RECORDING ENGINEER
WITN.            DANIELEWICZ : WITNESSED BY
CLNT.                A2DTECH : CLIENT CODE
ORIG.            2" 5" PRINT : ORIGIN OF DATA
UWI .       100022706625W500 : UNIQUE WELL ID
DICO. A2D Technologies, Inc. : DIGITIZING COMPANY
~Other -----------------------------------------------------
~ASCII -----------------------------------------------------
# ...
 7787.32546    9.23540   65.84070   29.60610   83.07970  112.00300  -69.07880
 7787.82546    9.24210   65.72990   30.23790   68.87900  112.27780  -70.09660
 7788.32546    9.31410   65.64800   32.96100   45.29060  108.24030  -72.14800
 7788.82546    9.35120   65.78010   34.52230   38.17380  104.22090  -73.22540
 7789.32546    9.41760   66.61660   39.52920   26.62750   94.70480  -75.43700
 7789.82546    9.44450   67.15330   42.65230   23.43660   90.12430  -75.81910
 7790.32546    9.49140   68.86240   48.87050   21.30840   82.65130  -73.40290
 7790.82546    9.48750   70.02310   51.93370   21.31440   80.88970  -71.16090
 7791.32546    9.40370   71.96310   55.99460   23.14910   82.85530  -66.29090
 7791.82546    9.34300   72.51570   55.08820   24.77530   85.70590  -63.73830
 7792.32546    9.28610   72.26180   47.29450   32.21940   94.10800  -58.61160
 7792.82546    9.32600   70.93400   36.99800   47.89300  104.31700  -57.43200
 7793.32546    9.34380   70.45230   33.72620   61.98910  107.60350  -57.99240
 7793.82546    9.24900   67.57100   29.28300   95.68000  115.70000  -58.86700
 7794.32546    9.19070   66.62640   29.13790  106.51340  118.95800  -58.31110
 7794.82546    9.09200   64.55000   29.68500  102.29500  121.24300  -56.01800
 7795.32546    9.08040   64.60510   30.57530   94.04230  117.85650  -54.39450
 7795.82546    9.09870   65.10020   33.82140   77.83890  110.08560  -52.16910
 7796.32546    9.10140   65.49010   35.66060   72.71650  106.30680  -52.08570
 7796.82546    9.07090   66.29650   39.67380   61.91530   98.29730  -53.30780
 7797.32546    9.04650   66.59770   42.33750   56.01820   93.56760  -53.85490
 7797.82546    8.99820   66.68090   43.27890   45.28900   83.70180  -54.02880
 7798.32546    8.99510   66.94270   43.96870   40.58790   79.02820  -54.25450
 7798.82546    9.02460   67.85360   47.75760   31.43260   66.53500  -55.67170
 7799.32546    9.04560   68.41700   49.91910   26.84420   58.69380  -56.60280
 7799.82546    9.08760   68.23950   53.18200   20.37990   47.65490  -58.78020
 7800.32546    9.10740   67.85410   53.09310   17.67780   44.00490  -60.04460
 7800.82546    9.14120   67.39020   53.55700   13.82120   39.08940  -62.63660
 7801.32546    9.15670   65.98910   54.72870   13.22950   37.82820  -63.84180
 7801.82546    9.18890   60.97050   56.97370   12.72330   36.40290  -65.58230
 7802.32546    9.19730   60.44460   58.14160   12.67960   36.36530  -65.74230
 7802.82546    9.19670   59.86420   59.83710   13.26720   37.16470  -62.93860
 7803.32546    9.21800   61.21000   59.18600   14.25600   38.85400  -57.58000
 7803.82546    9.25290   63.62800   58.58240   15.24420   39.93340  -54.62570
 7804.32546    9.33800   70.69700   61.04100   18.65900   43.43800  -47.67300
 7804.82546    9.35130   72.25850   62.84890   20.36370   45.21930  -44.70310
 7805.32546    9.32300   73.22200   67.00500   24.53700   54.97900  -40.94900
 7805.82546    9.29890   73.67610   65.72060   26.15040   60.24200  -40.14450
 7806.32546    9.24460   73.67790   59.43450   30.01180   70.53650  -38.88780
 7806.82546    9.26280   73.02270   53.57310   32.03140   75.38700  -38.58700
 7807.32546    9.32730   71.51530   43.54570   40.43290   85.24280  -38.63640
 7807.82546    9.36610   70.76100   42.93800   45.03100   90.10720  -39.11550
 7808.32546    9.36290   69.43560   44.90110   60.36320   99.78280  -40.41220
 7808.82546    9.31130   68.11740   45.94080   70.18600  104.63730  -41.10900
 7809.32546    9.25770   65.90920   45.50940   76.30980  111.94480  -42.93560
 7809.82546    9.25780   65.79100   44.40100   73.81990  114.39580  -44.43080
 7810.32546    9.25610   66.10600   43.31770   69.86980  118.91710  -47.88400
 7810.82546    9.25700   66.03260   43.13280   69.32300  120.35130  -49.61220
 7811.32546    9.25580   65.21230   42.75800   72.17340  119.34530  -52.39660
 7811.82546    9.27980   64.72220   43.15550   74.72660  117.60020  -53.27590
 7812.32546    9.42880   64.67870   44.73150   78.49650  113.31930  -54.66880
 7812.82546    9.54960   64.62030   44.52740   77.99430  110.77640  -55.36460
 7813.32546    9.82670   64.64100   41.72450   70.95810  103.85150  -55.96450
 7813.82546   10.11400   65.37800   42.85600   48.83000   94.25300  -53.85900
 7814.32546   10.47550   65.92520   46.37580   45.31320   89.85850  -52.64110
 7814.82546   10.95200   67.39400   54.73500   37.27300   79.81400  -50.04500
 7815.32546   11.08950   67.71880   58.31900   34.17840   75.64170  -49.40930
 7815.82546   11.42700   68.49500   67.04000   29.16800   65.37300  -47.83500
 7816.32546   11.50280   69.09940   69.65360   28.65470   61.55990  -47.23660
 7816.82546   11.42610   71.49650   75.06430   28.73260   54.97970  -45.15520
 7817.32546   10.95620   72.94400   74.02800   28.44080   51.52510  -43.74100
 7817.82546    9.94670   73.75040   67.41460   25.97350   47.05300  -43.25220
 7818.32546    9.59970   72.99800   62.78960   23.32990   45.22880  -43.71810
 7818.82546    9.35920   71.63530   53.41630   17.55390   41.28100  -45.15650
 7819.32546    9.36530   71.09810   51.88260   16.07740   39.11660  -46.22830
 7819.82546    9.37300   70.61660   58.09980   14.41200   34.73510  -48.54860
 7820.32546    9.39020   70.64950   64.13320   13.93040   33.09950  -49.70840
 7820.82546    9.43820   70.73770   72.26540   13.51450   31.64440  -52.04260
 7821.32546    9.46450   70.36150   71.54250   13.56660   31.87060  -52.73530
 7821.82546    9.51580   66.57390   66.02040   14.24860   33.13790  -52.83820
 7822.32546    9.53780   64.23780   63.05640   15.20230   34.36270  -52.20010
 7822.82546    9.50410   64.91550   56.39300   18.35280   39.34590  -50.34170
 7823.32546    9.45160   67.53430   53.63460   20.38000   42.28460  -49.82620
 7823.82546    9.40670   71.33490   51.76850   24.74980   46.89160  -49.53950
 7824.32546    9.43900   71.12500   56.00500   30.21100   49.07800  -49.24200
 7824.82546    9.48440   70.69490   57.67390   33.03390   55.21440  -48.89790
 7825.32546    9.58500   69.85000   57.48600   33.18900   58.52300  -47.11000
 7825.82546    9.62520   69.39690   55.29060   31.26960   57.93650  -47.32040
 7826.32546    9.61100   68.55000   53.15500   26.43300   56.35200  -47.84500
 7826.82546    9.56260   68.56790   56.85960   24.61170   54.73060  -47.39460
 7827.32546    9.51090   68.89690   65.80550   21.15710   48.88800  -46.09980
 7827.82546    9.51920   69.28270   70.28090   20.21830   46.83550  -45.95420
 7828.32546    9.56030   70.21850   79.63490   18.67550   44.63840  -44.99650
 7828.82546    9.59820   71.14110   79.65320   18.23950   44.37160  -44.23910
 7829.32546    9.68110   73.24960   71.66250   18.57190   45.44020  -42.71660
 7829.82546    9.73350   74.10390   66.61000   19.22800   46.56900  -42.54220
 7830.32546    9.83530   74.09360   56.90900   21.12390   54.29230  -43.61680
 7830.82546    9.78900   73.42150   52.66960   22.41530   59.32820  -45.07410
 7831.32546    9.65070   71.95480   47.22960   25.61560   68.64860  -48.85180
 7831.82546    9.63470   71.27650   48.59230   27.41240   73.43290  -50.08910
 7832.32546    9.66130   70.25130   55.12070   31.98770   81.24630  -51.22210
 7832.82546    9.70010   69.85020   57.34720   34.21510   85.52250  -51.63920
 7833.32546    9.83430   69.36330   58.11780   37.96240   95.48460  -52.47830
 7833.82546    9.91110   69.42530   54.54240   39.60320   99.88150  -53.22830
 7834.32546   10.01430   69.89630   42.46730   44.22810  108.73660  -56.58450
 7834.82546   10.10900   69.35800   30.91200   57.29100  123.41300  -61.41600
 7835.32546   10.16030   68.44790   27.62040   66.25990  130.20200  -63.98280
 7835.82546   10.32300   63.45000   26.99800   87.14600  142.46600  -69.99400
 7836.32546   10.49810   59.45890   28.30530   97.52590  146.43530  -72.46840
 7836.82546   10.67600   51.15000   28.06300  101.40000  155.01200  -78.64400
 7837.32546   10.69490   51.25810   27.06850   97.84420  159.42340  -80.98160
 7837.82546   10.48590   50.61680   24.34820   89.32370  167.44530  -86.65720
 7838.32546   10.33910   50.01160   23.69620   87.76780  170.73400  -89.49430
