~Version ---------------------------------------------------
VERS.      2.0 : CWLS log ASCII Standard -VERSION 2.0
WRAP.       NO : One line per depth step
CREA. 08/01/17 : LAS Creation Date
~Well ------------------------------------------------------
STRT.FT                          1050.0 : START DEPTH
STOP.FT                         10150.0 : STOP DEPTH
STEP.FT                        50.00000 : STEP LENGTH
NULL.                           -999.25 : NULL VALUE
COMP.        WESTCOAST PETROLEUM CO LTD : COMPANY
WELL. WESTCOAST FINA HSOUND 10-19-61-16 : WELL
FLD .                                WC : FIELD
LOC .                                   : LOCATION
CTRY.                            CANADA : COUNTRY
SRVC.                      Schlumberger : SERVICE COMPANY
DATE.                       26-Jun-1972 : LOGDATE
PROV.                           Alberta : PROVINCE
UWI .                  100101906116W500 : UNIQUE WELL ID
SLAT.WGS84                     54.29359 : SURFACE LATITUDE
SLON.WGS84                    -116.3826 : SURFACE LONGITUDE
~Curve Information -----------------------------------------
DEPT  .FT    : Depth Curve
CALSED.IN    : CALIPER FROM BCS LOG
CALWS .IN    : CALIPER [CALSED]
CILDED.MMHO  : DEEP INDUCTION CONDUCTIVITY FROM DILL LOG
CONDWS.MMHO  : CONDUCTIVITY [1000/DRESWS]
DRESWS.OHMM  : DEEP RESISTIVITY [1000/CILDED IF ILDED<1, ILDED]
DTED  .US/F  : DELTA T FROM BCS LOG [ADJ. TO ILDED]
DTWS  .US/F  : COMPRESSIONAL SONIC [DTED]
GRSED .GAPI  : GAMMA RAY FROM BCS LOG [ADJ. TO ILDED]
GRWS  .GAPI  : GAMMA RAY [GRSED]
ILDED .OHMM  : DEEP INDUCTION RESISTIVITY FROM DILL LOG
ILMED .OHMM  : MEDIUM INDUCTION RESISTIVITY FROM DILL LOG
LL8ED .OHMM  : LATEROLOG 8 FROM DILL LOG
MCALED.IN    : MLT (MICROLOG) CALIPER FROM MCL LOG
MRESWS.OHMM  : MEDIUM RESISTIVITY [ILMED]
SPRED .MV    : SPONTANEOUS POTENTIAL FROM DILL LOG
SPWS  .MV    : SPONTANEOUS POTENTIAL [BASELINED 0 MV, SPRED]
SRESWS.OHMM  : SHALLOW RESISTIVITY [LL8ED]
~Params ----------------------------------------------------
PD  .                     GL : PERMANENT DATUM
EPD .FT                 2935 : ELEVATION PERMANENT DATUM
LMF .                     KB : LOG MEASURED FROM
DAPD.FT                   18 : FEET ABOVE PERMANENT DATUM
EKB .FT                 2953 : KELLY BUSHING
EGL .FT                 2935 : GROUND LEVEL
DATE.               06/26/72 : RUN DATE
RUN .                      1 : RUN NUMBER
DD  .FT                10200 : DEPTH DRILLER
DL  .FT                10200 : DEPTH LOGGER
BLI .FT                10194 : BOTTOM LOG INTERVAL
TLI .FT                 1040 : TOP LOG INTERVAL
CBD .FT                 1040 : CASING BOTTOM DRILLER
CBL .FT                 1040 : CASING BOTTOM LOGGER
BS  .IN                 8.75 : BIT SIZE
BSD .FT                10200 : BIT SIZE AT DEPTH
DFT .               CHEM GEL : DRILLING FLUID TYPE
DFD .                    8.9 : DRILLING FLUID DENSITY
DFV .                     90 : DRILLING FLUID VISCOSITY
DFPH.                   10.5 : DRILLING FLUID PH
DFL .                    9.6 : DRILLING FLUID LOSS
MSS .               FLOWLINE : MUD SAMPLE SOURCE
RMS .OHMM               1.97 : RESISTIVITY MUD SAMPLE
MST .DEGF                 74 : MUD SAMPLE TEMPERATURE
RMF .OHMM               1.62 : RESISTIVITY MUD FILTRATE SAMPLE
MFST.DEGF                 75 : MUD FILTRATE SAMPLE TEMPERATURE
RMC .OHMM                  2 : RESISTIVITY MUD CAKE
MCST.DEGF                 73 : MUD CAKE SAMPLE TEMPERATURE
RMB .OHMM              0.667 : RESISTIVITY MUD AT BHT
TCS .HRS                 3.5 : TIME CIRCULATED STOPPED
LUN .                   5628 : LOGGING UNIT NUMBER
LUL .                    EDM : LOGGING UNIT LOCATION
ENGI.                  LEITH : RECORDING ENGINEER
WITN.    CHAUDHRY BERTHIAUME : WITNESSED BY
CLNT.                A2DTECH : CLIENT CODE
ORIG.            2" 5" PRINT : ORIGIN OF DATA
UWI .       100101906116W500 : UNIQUE WELL ID
DICO. A2D Technologies, Inc. : DIGITIZING COMPANY
~Other -----------------------------------------------------
~ASCII -----------------------------------------------------
 1050.00000    8.78920    8.78920  265.90810  240.66810    4.15510    -999.25    -999.25   55.16020   55.16020    4.15510    -999.25    6.40180    -999.25    -999.25  -69.99940   -0.32260    6.40180
 1100.00000    9.52570    9.52570  198.96610  185.83560    5.38110  121.11870  121.11870   76.30620   76.30620    5.38110    -999.25    6.55520    -999.25    -999.25  -74.37810   -4.70130    6.55520
 1150.00000    9.60040    9.60040  220.12110  227.15910    4.40220  110.36240  110.36240   67.65440   67.65440    4.40220    -999.25    4.87400    -999.25    -999.25  -74.72590   -5.48230    4.87400
 1200.00000    9.38510    9.38510  164.33700  168.43240    5.93710   98.25190   98.25190   58.77670   58.77670    5.93710    -999.25    6.86290    -999.25    -999.25  -71.78880   -5.52280    6.86290
 1250.00000    9.62130    9.62130  191.36650  188.39840    5.30790  103.26020  103.26020   73.33860   73.33860    5.30790    -999.25    5.90580    -999.25    -999.25  -66.39890   -3.14540    5.90580
 1300.00000    9.57990    9.57990  250.46770  264.92870    3.77460  113.27160  113.27160   72.10240   72.10240    3.77460    -999.25    4.67780    -999.25    -999.25  -64.36290   -4.12180    4.67780
 1350.00000    9.63770    9.63770  231.71820  220.70180    4.53100  116.49780  116.49780   72.66890   72.66890    4.53100    -999.25    5.07880    -999.25    -999.25  -64.73310   -5.03520    5.07880
 1400.00000    9.82100    9.82100  330.71010  302.50780    3.30570  107.35260  107.35260  106.23580  106.23580    3.30570    -999.25    3.90650    -999.25    -999.25  -65.48190   -5.82150    3.90650
 1450.00000   10.65680   10.65680  226.74040  215.99210    4.62980  106.88150  106.88150   71.69800   71.69800    4.62980    -999.25    5.27590    -999.25    -999.25  -65.73720   -6.11420    5.27590
 1500.00000   10.18670   10.18670  379.36800  358.21750    2.79160  126.46760  126.46760   71.07670   71.07670    2.79160    -999.25    3.40820    -999.25    -999.25  -66.35830   -6.77280    3.40820
 1550.00000    9.61220    9.61220  220.48440  212.68450    4.70180   99.80640   99.80640   63.72130   63.72130    4.70180    -999.25    5.31650    -999.25    -999.25  -64.92000   -5.37200    5.31650
 1600.00000    9.96330    9.96330  268.72490  275.23950    3.63320  108.92690  108.92690   70.90370   70.90370    3.63320    -999.25    4.16810    -999.25    -999.25  -65.88680   -6.37620    4.16810
 1650.00000    9.68880    9.68880  182.28910  188.45170    5.30640  101.70550  101.70550   62.71160   62.71160    5.30640    -999.25    6.03230    -999.25    -999.25  -66.77910   -7.30600    6.03230
 1700.00000    9.39960    9.39960  134.74340  124.49890    8.03220   81.34970   81.34970   60.79760   60.79760    8.03220    -999.25    8.75110    -999.25    -999.25  -66.65820   -7.22250    8.75110
 1750.00000    9.28570    9.28570  242.35240  237.42250    4.21190  101.90220  101.90220   70.64300   70.64300    4.21190    -999.25    5.00400    -999.25    -999.25  -65.20960   -5.81130    5.00400
 1800.00000    9.47530    9.47530  242.05840  228.27400    4.38070  100.90240  100.90240   72.34450   72.34450    4.38070    -999.25    4.87900    -999.25    -999.25  -65.35840   -5.99760    4.87900
 1850.00000    8.90950    8.90950  237.66310  245.36260    4.07560  105.12440  105.12440   67.07090   67.07090    4.07560    -999.25    4.84960    -999.25    -999.25  -64.41950   -5.09620    4.84960
 1900.00000    9.23760    9.23760  222.85330  216.15550    4.62630   99.56170   99.56170   63.38570   63.38570    4.62630    -999.25    5.14460    -999.25    -999.25  -64.74300   -5.51870    5.14460
 1950.00000    9.69240    9.69240  237.20750  215.04450    4.65020  119.17370  119.17370   63.62540   63.62540    4.65020    -999.25    5.23280    -999.25    -999.25  -64.93560   -5.82200    5.23280
 2000.00000    9.22800    9.22800  259.61810  265.71720    3.76340  108.44180  108.44180   70.78640   70.78640    3.76340    -999.25    4.58390    -999.25    -999.25  -64.21320   -5.21030    4.58390
 2050.00000    9.75980    9.75980  200.62440  200.65820    4.98360  103.15760  103.15760   82.45540   82.45540    4.98360    -999.25    5.63600    -999.25    -999.25  -64.34160   -5.44950    5.63600
 2100.00000    9.48170    9.48170  446.85890  355.65670    2.81170  135.65560  135.65560   89.20970   89.20970    2.81170    -999.25    3.86020    -999.25    -999.25  -64.67700   -5.89550    3.86020
 2150.00000   10.65760   10.65760  276.99120  275.64920    3.62780  115.88510  115.88510   72.11480   72.11480    3.62780    -999.25    4.03290    -999.25    -999.25  -65.94450   -7.27370    4.03290
 2200.00000    9.43000    9.43000  174.57100  143.98020    6.94540   95.54880   95.54880   66.61540   66.61540    6.94540    -999.25    5.73590    -999.25    -999.25  -64.68970   -6.12970    5.73590
 2250.00000   10.66070   10.66070  355.61050  289.62000    3.45280  108.82180  108.82180   68.31980   68.31980    3.45280    -999.25    2.95570    -999.25    -999.25  -65.41000   -6.96070    2.95570
 2300.00000    9.79220    9.79220  244.77450  209.07820    4.78290   99.20140   99.20140   55.79600   55.79600    4.78290    -999.25    4.09390    -999.25    -999.25  -65.37390   -7.03530    4.09390
 2350.00000   11.70980   11.70980  265.64790  232.13170    4.30790  103.04540  103.04540   66.66970   66.66970    4.30790    -999.25    3.75500    -999.25    -999.25  -63.44170   -5.21390    3.75500
 2400.00000    9.77820    9.77820  137.77800  123.76540    8.07980   96.57520   96.57520   66.81380   66.81380    8.07980    -999.25    7.01940    -999.25    -999.25  -63.61690   -5.49980    7.01940
 2450.00000    9.70860    9.70860  112.51760   99.75660   10.02440   88.91080   88.91080   67.93110   67.93110   10.02440    -999.25    8.57490    -999.25    -999.25  -63.80980   -5.80340    8.57490
 2500.00000   10.95130   10.95130  405.43810  315.81610    3.16640  147.76910  147.76910   61.23410   61.23410    3.16640    -999.25    2.59870    -999.25    -999.25  -63.12730   -5.23160    2.59870
 2550.00000    9.53280    9.53280   78.52420   65.06860   15.36840   86.32780   86.32780   51.24100   51.24100   15.36840    -999.25   13.81550    -999.25    -999.25  -68.66380  -10.87880   13.81550
 2600.00000    9.30980    9.30980  183.35790  167.94300    5.95440   92.61410   92.61410   49.73350   49.73350    5.95440    -999.25    5.12860    -999.25    -999.25  -62.60170   -4.92740    5.12860
 2650.00000    9.15360    9.15360   98.65460   83.37090   11.99460   89.95810   89.95810   49.76010   49.76010   11.99460    -999.25   11.44110    -999.25    -999.25  -66.56240   -8.99890   11.44110
 2700.00000    9.97100    9.97100  178.37080  178.80130    5.59280   92.61160   92.61160   48.34230   48.34230    5.59280    -999.25    5.08850    -999.25    -999.25  -61.51750   -4.06470    5.08850
 2750.00000    8.93730    8.93730  119.19320  101.20230    9.88120   89.93270   89.93270   41.36650   41.36650    9.88120    -999.25    9.45410    -999.25    -999.25  -63.24690   -5.90480    9.45410
 2800.00000   10.62110   10.62110  242.33690  243.21430    4.11160  104.41170  104.41170   57.42870   57.42870    4.11160    -999.25    4.46400    -999.25    -999.25  -60.87400   -3.64270    4.46400
 2850.00000   11.86070   11.86070  238.51480  207.05650    4.82960   98.66950   98.66950   56.87000   56.87000    4.82960    -999.25    4.21970    -999.25    -999.25  -61.55660   -4.43600    4.21970
 2900.00000    9.76540    9.76540  221.27110  196.01690    5.10160   91.74860   91.74860   50.94500   50.94500    5.10160    -999.25    4.77090    -999.25    -999.25  -60.43240   -3.42240    4.77090
 2950.00000    9.64950    9.64950  212.11770  183.28110    5.45610   95.61810   95.61810   56.84110   56.84110    5.45610    -999.25    5.02080    -999.25    -999.25  -60.24410   -3.34490    5.02080
 3000.00000    9.37090    9.37090  153.74350  144.73870    6.90900   87.17710   87.17710   54.05420   54.05420    6.90900    -999.25    7.42650    -999.25    -999.25  -61.30820   -4.51970    7.42650
 3050.00000    9.00240    9.00240  118.24970  101.42500    9.85950   85.12240   85.12240   57.20490   57.20490    9.85950    -999.25   10.99360    -999.25    -999.25  -63.76820   -7.09040   10.99360
