~Version ---------------------------------------------------
VERS. 2.0 : CWLS log ASCII Standard -VERSION 2.0
WRAP.  NO : ONE LINE PER DEPTH STEP
~Well ------------------------------------------------------
STRT.F                             1500.0 : START DEPTH
STOP.F                            12250.0 : STOP DEPTH
STEP.F                           50.00000 : STEP LENGTH
NULL.                             -999.25 : NULL VALUE
COMP.            CHEVRON STANDARD LIMITED : COMPANY
WELL. CHEVRON NORCEN PL BRAZEAU 7-4-49-12 : WELL
FLD .                                     : FIELD
LOC .                                     : LOCATION
CTRY.                              CANADA : COUNTRY
SRVC.                        Schlumberger : SERVICE COMPANY
DATE.                         05-Jun-1978 : LOGDATE
PROV.                             Alberta : PROVINCE
UWI .                    100070404912W500 : UNIQUE WELL ID
SLAT.WGS84                       53.19691 : SURFACE LATITUDE
SLON.WGS84                      -115.6898 : SURFACE LONGITUDE
~Curve Information -----------------------------------------
DEPT   .F     : 
CALD   .IN    : CALIPER FROM DENSITY LOG
DCOR   .G/C3  : DENSITY CORRECTION
GRD    .GAPI  : GAMMA RAY FROM DENSITY LOG
RHOB   .G/C3  : BULK DENSITY
NPHI_SS.DEC   : NEUTRON POROSITY SANDSTONE
DPHI_SS.DEC   : DENSITY POROSITY SANDSTONE
NPHI_LS.DEC   : NEUTRON POROSITY LIMESTONE
DPHI_LS.DEC   : DENSITY POROSITY LIMESTONE
GRS    .GAPI  : GAMMA RAY FROM SONIC LOG
DT     .US/F  : DELTA TIME
CALS   .IN    : CALIPER FROM SONIC LOG
ILD    .OHMM  : DEEP INDUCTION RESISTIVITY
ILM    .OHMM  : INDUCTION MEDIUM RESISTIVITY
LL8    .OHMM  : LATEROLOG-8 RESISTIVITY
SPR    .MV    : SPONTANEOUS POTENTIAL FROM RESISTIVITY LOG
~Params ----------------------------------------------------
PD  .                     GL : PERMANENT DATUM
EPD .FT               3221.1 : ELEVATION PERMANENT DATUM
LMF .                     KB : LOG MEASURED FROM
DAPD.FT                 18.9 : FEET ABOVE PERMANENT DATUM
DMF .                     KB : DRILLING MEASURED FROM
EKB .FT                 3240 : KELLY BUSHING
EGL .FT               3221.1 : GROUND LEVEL
DATE.               06/05/78 : RUN DATE
RUN .                      1 : RUN NUMBER
DD  .FT                12300 : DEPTH DRILLER
DL  .FT                12303 : DEPTH LOGGER
BLI .FT                12297 : BOTTOM LOG INTERVAL
TLI .FT                 1518 : TOP LOG INTERVAL
CBD .FT                 1518 : CASING BOTTOM DRILLER
CBL .FT                 1518 : CASING BOTTOM LOGGER
BS  .IN                 8.75 : BIT SIZE
BSD .FT                12300 : BIT SIZE AT DEPTH
DFT .                    GEL : DRILLING FLUID TYPE
DFD .                     11 : DRILLING FLUID DENSITY
DFV .                     68 : DRILLING FLUID VISCOSITY
DFPH.                   10.5 : DRILLING FLUID PH
MSS .               FLOWLINE : MUD SAMPLE SOURCE
RMS .OHMM               3.34 : RESISTIVITY MUD SAMPLE
MST .DEGF                 68 : MUD SAMPLE TEMPERATURE
TCS .HRS                 350 : TIME CIRCULATED STOPPED
LUN .                   7802 : LOGGING UNIT NUMBER
LUL .                    EDM : LOGGING UNIT LOCATION
ENGI.            STEENBERGEN : RECORDING ENGINEER
WITN.             RICHARDSON : WITNESSED BY
CLNT.                A2DTECH : CLIENT CODE
ORIG.            2" 5" PRINT : ORIGIN OF DATA
UWI .       100070404912W500 : UNIQUE WELL ID
DICO. A2D Technologies, Inc. : DIGITIZING COMPANY
~Other -----------------------------------------------------
~ASCII -----------------------------------------------------
# ...
 10700.00000    -999.25    -999.25    -999.25    -999.25    -999.25    -999.25    -999.25    -999.25   90.54300   71.21250   10.65620    4.78800    5.09670    6.52940  -30.91060
 10750.00000    -999.25    -999.25    -999.25    -999.25    -999.25    -999.25    -999.25    -999.25   78.60800   73.84730   10.56970    4.03630    4.56020    5.69730  -92.48770
 10800.00000    -999.25    -999.25    -999.25    -999.25    -999.25    -999.25    -999.25    -999.25   97.19750   72.40640   10.33500    4.56270    5.13770    6.75650 -158.01670
 10850.00000    -999.25    -999.25    -999.25    -999.25    -999.25    -999.25    -999.25    -999.25   87.34490   75.50850   10.48420    3.51650    4.12090    5.59720  -62.06060
 10900.00000    -999.25    -999.25    -999.25    -999.25    -999.25    -999.25    -999.25    -999.25   98.13030   76.98800   10.48110    4.83180    5.21380    6.65630  -98.61300
 10950.00000   14.01260    0.14790   98.23290    2.58200    -999.25    -999.25    0.22090    0.06470  101.32660   76.30460   10.47760    6.88930    7.67190   10.56080 -135.25790
 11000.00000   11.12480    0.01560   74.41970    2.71440    -999.25    -999.25    0.12060    0.00460   76.69650   66.04670    9.85540   12.14530   13.63090   18.94200 -140.17880
 11050.00000   10.71050    0.02620   60.64140    2.71350    -999.25    -999.25    0.07880    0.02090   60.23220   64.67290    9.73660   54.66840   70.61630  123.98030 -113.10760
 11100.00000   11.96140    0.02790  137.37020    2.56240    -999.25    -999.25    0.20520    0.09970  140.94710   83.13780   10.25360   25.25910   27.49580   52.53160 -116.10940
 11150.00000    -999.25    0.08540  105.56340    2.46860    -999.25    -999.25    0.27150    0.15890  111.49890   85.28440   11.74740    3.86050    4.22350    5.16000 -103.46470
 11200.00000   13.73740    0.13140  116.69400    2.49620    -999.25    -999.25    0.23770    0.14560  118.99260   81.61120   10.24340   10.34580   11.69960   13.77640  -99.67290
 11250.00000   12.58570    0.01390   29.07110    2.71530    -999.25    -999.25    0.01320   -0.01680   34.20200   54.34220   10.30820   62.72370   68.37380  149.62240  -96.72990
 11300.00000   11.81990    0.03550   48.04990    2.74280    -999.25    -999.25    0.07740   -0.00590   32.47060   53.02400   10.22980   19.84780   19.46010   25.85050 -110.26310
 11350.00000   12.42490    0.05710   23.61030    2.68110    -999.25    -999.25    0.01420    0.01700   23.02350   49.94310    9.85990  106.08850  178.26500  324.08200 -110.96330
 11400.00000   10.82950    0.04120   51.55130    2.75120    -999.25    -999.25    0.08580   -0.01370   50.48540   57.55740    9.67930   19.11830   21.57830   27.31040  -93.45410
 11450.00000   10.15260    0.04860   57.34790    2.74840    -999.25    -999.25    0.03000   -0.02460   50.59220   57.32910    9.59630   23.35200   29.08080   43.19760  -91.12400
 11500.00000   11.46140    0.01420   37.21760    2.75380    -999.25    -999.25    0.02150   -0.01370   38.77910   51.37600    9.75670   81.40690   90.01630  129.31920    5.18370
 11550.00000   11.92910    0.04820   19.41360    2.66890    -999.25    -999.25   -0.00030    0.01060   19.20770   49.52700    9.75930  102.23460  178.15110  978.01330  -99.10760
 11600.00000   10.31440    0.00490   47.34580    2.76200    -999.25    -999.25    0.04220   -0.02760   48.09090   54.37110    9.44290   50.14730   55.63120   74.47650  -95.98330
 11650.00000   11.79630    0.09670   18.84150    2.68810    -999.25    -999.25    0.00720    0.04610   20.08390   49.87100    9.74200  709.38390  415.54150 1403.69520  -91.44890
 11700.00000   10.16020    0.03760   48.64680    2.72880    -999.25    -999.25    0.00530   -0.00740   52.17680   52.00060    9.40710  785.83540  683.74910  735.10190 -127.14760
 11750.00000    9.87710    0.02770   81.94230    2.78510    -999.25    -999.25    0.09180   -0.06080   89.65190   51.51130    9.25190  222.06520  186.42790  265.31490  -69.02040
 11800.00000   10.05720    0.02940   59.27870    2.76570    -999.25    -999.25    0.00540   -0.02840   56.03280   50.62930    9.23500  437.38500  290.24050  565.22590  138.33270
 11850.00000    9.90240    0.02440   71.74060    2.75360    -999.25    -999.25    0.05700   -0.01450   78.86080   52.03170    9.29980  324.26920  278.87800  544.32550  140.48260
 11900.00000    9.61750    0.05000   51.01660    2.71260    -999.25    -999.25    0.00650    0.00090   54.18920   52.92430    9.13370   81.92750   69.73800  130.07120   74.39790
 11950.00000    9.46690    0.01680   57.61950    2.72690    -999.25    -999.25    0.05150   -0.02640   58.66930   53.27300    9.00490   14.55270   17.01170   44.07680   -8.86580
 12000.00000    9.76480    0.05190   92.89080    2.71910    -999.25    -999.25    0.02670   -0.01150   97.42170   53.12710    9.22670   67.03970  104.36700  241.79740  -16.96740
 12050.00000    9.50500    0.01540  113.43930    2.72950    -999.25    -999.25    0.01440   -0.01190  137.59370   52.81810    9.04140   26.43690   40.67930  101.12620 -109.05230
 12100.00000   10.14120    0.03180   21.42890    2.74930    -999.25    -999.25    0.00680   -0.02330   21.00960   50.31820    9.23820   60.31400   58.25480  194.55710 -155.64410
 12150.00000   11.04310    0.04580   28.00120    2.73970    -999.25    -999.25    0.00790   -0.03580   29.40650   51.21280    9.35820  108.98170  127.15590  197.05110 -168.96100
 12200.00000   10.65900    0.10600  197.18040    2.62210    -999.25    -999.25    0.10150    0.05240  198.37540   57.39280    9.29540   31.27150   36.71340   46.47570  -82.64800
 12250.00000    9.81980    0.14020  155.97400    2.72060    -999.25    -999.25    0.05080    0.10350  166.07280   57.44870    9.14340  203.84630   84.63250  703.00920  -76.91100
