~Version ---------------------------------------------------
VERS.      2.0 : CWLS log ASCII Standard -VERSION 2.0
WRAP.       NO : One line per depth step
CREA. 08/31/17 : LAS Creation Date
~Well ------------------------------------------------------
STRT.FT                                       1500.0 : START DEPTH
STOP.FT                                      11100.0 : STOP DEPTH
STEP.FT                                     50.00000 : STEP LENGTH
NULL.                                        -999.25 : NULL VALUE
COMP. GREAT PLAINS DEVELOPMENT COMPANY OF CANADA LTD : COMPANY
WELL.                 GPD ET AL ROSEVEAR 10-14-54-16 : WELL
FLD .                                                : FIELD
LOC .                                                : LOCATION
CTRY.                                         CANADA : COUNTRY
SRVC.                                   Schlumberger : SERVICE COMPANY
DATE.                                    01-Feb-1978 : LOGDATE
PROV.                                        Alberta : PROVINCE
UWI .                               100101405416W500 : UNIQUE WELL ID
SLAT.WGS84                                  53.66484 : SURFACE LATITUDE
SLON.WGS84                                 -116.2439 : SURFACE LONGITUDE
~Curve Information -----------------------------------------
DEPT    .FT    : Depth Curve
CALDED  .IN    : CALIPER FROM DENSITY LOG
CALSED  .IN    : CALIPER FROM SONIC LOG [ADJ. TO RESISTIVITY LOG]
CALWS   .IN    : CALIPER [CALDED]
CONDWS  .MMHO  : CONDUCTIVITY [1000/DRESWS]
DCORWS  .G/C3  : DENSITY CORRECTION [DRHOED]
DENWS   .G/C3  : FORMATION BULK DENSITY [RHOBED]
DPHILSED.V/V   : DENSITY POROSITY LIME [M=2.71, F=1.0] FROM DENSITY LOG [ADJ. TO RHOBED]
DPHISSED.V/V   : DENSITY POROSITY SAND [M=2.65, F=1.0] FROM DENSITY LOG [ADJ. TO RHOBED]
DPOLSWS .V/V   : DENSITY POROSITY LIME [CALC FROM DENWS, M=2.71, F=1.0]
DRESWS  .OHMM  : DEEP RESISTIVITY [LLDED]
DRHOED  .G/C3  : DENSITY CORRECTION FROM DENSITY LOG
DTED    .US/F  : DELTA TIME FROM SONIC LOG [ADJ. TO RESISTIVITY LOG]
DTWS    .US/F  : COMPRESSIONAL SONIC [DTED]
GRDED   .GAPI  : GAMMA RAY FROM DENSITY LOG
GRSED   .GAPI  : GAMMA RAY FROM SONIC LOG [ADJ. TO RESISTIVITY LOG]
GRWS    .GAPI  : GAMMA RAY [GRSED]
LLDED   .OHMM  : LATEROLOG DEEP RESISTIVITY FROM RESISTIVITY LOG
LLSED   .OHMM  : LATEROLOG SHALLOW RESISTIVITY FROM RESISTIVITY LOG
NPHILSED.V/V   : NEUTRON POROSITY LIME FROM DENSITY LOG [ADJ. TO RHOBED]
NPOLSWS .V/V   : NEUTRON POROSITY LIME [SS MATRIX(SLB) CONVERTED TO LS, SPL. TO NPHILSED @ 7520']
NPORSSED.V/V   : NEUTRON POROSITY  SAND FROM DENSITY LOG [ADJ. TO RHOBED]
RHOBED  .G/C3  : BULK DENSITY FROM DENSITY LOG
SPRED   .MV    : SPONTANEOUS POTENTIAL FROM RESISTIVITY LOG
SPWS    .MV    : SPONTANEOUS POTENTIAL [BASELINE 0 MV, SPRED]
SRESWS  .OHMM  : SHALLOW RESISTIVITY [LLSED]
~Params ----------------------------------------------------
PD  .                     GL : PERMANENT DATUM
EPD .FT                 2743 : ELEVATION PERMANENT DATUM
LMF .                     KB : LOG MEASURED FROM
DAPD.FT                 21.4 : FEET ABOVE PERMANENT DATUM
EKB .FT               2764.4 : KELLY BUSHING
EGL .FT                 2743 : GROUND LEVEL
DATE.               02/01/78 : RUN DATE
RUN .                      1 : RUN NUMBER
DD  .FT                11140 : DEPTH DRILLER
DL  .FT                11134 : DEPTH LOGGER
BLI .FT                11133 : BOTTOM LOG INTERVAL
TLI .FT                 1512 : TOP LOG INTERVAL
CBD .FT                 1512 : CASING BOTTOM DRILLER
CBL .FT                 1512 : CASING BOTTOM LOGGER
BS  .IN                 8.75 : BIT SIZE
BSD .FT                11140 : BIT SIZE AT DEPTH
DFT .            KCL POLYMER : DRILLING FLUID TYPE
DFD .                    9.4 : DRILLING FLUID DENSITY
DFV .                     45 : DRILLING FLUID VISCOSITY
DFPH.                    9.5 : DRILLING FLUID PH
DFL .                     16 : DRILLING FLUID LOSS
RMS .OHMM              0.205 : RESISTIVITY MUD SAMPLE
MST .DEGF                 39 : MUD SAMPLE TEMPERATURE
RMF .OHMM              0.163 : RESISTIVITY MUD FILTRATE SAMPLE
MFST.DEGF                 38 : MUD FILTRATE SAMPLE TEMPERATURE
RMC .OHMM              0.032 : RESISTIVITY MUD CAKE
MCST.DEGF                118 : MUD CAKE SAMPLE TEMPERATURE
RMB .OHMM              0.032 : RESISTIVITY MUD AT BHT
TCS .HRS                   7 : TIME CIRCULATED STOPPED
LUN .                   7772 : LOGGING UNIT NUMBER
LUL .                    EDM : LOGGING UNIT LOCATION
ENGI.                BODYMAN : RECORDING ENGINEER
WITN.                  BATES : WITNESSED BY
CLNT.                A2DTECH : CLIENT CODE
ORIG.               5" PRINT : ORIGIN OF DATA
UWI .       100101405416W500 : UNIQUE WELL ID
DICO. A2D Technologies, Inc. : DIGITIZING COMPANY
~Other -----------------------------------------------------
~ASCII -----------------------------------------------------
# ...
 9900.00000    9.12750    8.82330    9.12750   69.86900    0.02320    2.72220   -0.01060    -999.25   -0.00500   14.31250    0.02320   65.75980   65.75980   89.20280   81.62960   81.62960   14.31250   16.46410    0.15560    0.15560    -999.25    2.72220  -64.92230   -6.66520   16.46410
 9950.00000    9.16020    8.91710    9.16020   66.69970    0.01610    2.74140   -0.01990    -999.25   -0.01880   14.99710    0.01610   64.92640   64.92640   92.16880   85.65890   85.65890   14.99710   17.46310    0.17820    0.17820    -999.25    2.74140  -63.21000   -5.44420   17.46310
 10000.00000    9.09250    8.88500    9.09250   45.15750    0.01730    2.75400   -0.02630    -999.25   -0.02620   22.14980    0.01730   60.98740   60.98740   76.40950   78.22990   78.22990   22.14980   26.45130    0.12420    0.12420    -999.25    2.75400  -60.42760   -3.14980   26.45130
 10050.00000    9.37510    8.84140    9.37510   93.82180    0.01220    2.78240   -0.04760    -999.25   -0.04160   10.65850    0.01220   69.19340   69.19340  102.06420  109.32570  109.32570   10.65850   12.94820    0.14500    0.14500    -999.25    2.78240  -60.53170   -3.74200   12.94820
 10100.00000    9.16690    8.78190    9.16690   66.55980    0.01500    2.75220   -0.02580    -999.25   -0.02450   15.02610    0.01500   66.93510   66.93510  106.56650  110.15670  110.15670   15.02610   19.14350    0.17720    0.17720    -999.25    2.75220  -59.53030   -3.23190   19.14350
 10150.00000    9.20550    8.77600    9.20550  103.64950   -0.00200    2.74380   -0.02120    -999.25   -0.02080    9.64790   -0.00200   68.99940   68.99940  117.07010  112.38940  112.38940    9.64790   12.64870    0.22440    0.22440    -999.25    2.74380  -60.38250   -4.57220   12.64870
 10200.00000    9.12460    8.77080    9.12460   80.90440   -0.01200    2.67630    0.02450    -999.25    0.01830   12.37210   -0.01200   66.03900   66.03900   89.26420   88.33860   88.33860   12.37210   15.16440    0.15670    0.15670    -999.25    2.67630  -57.92950   -2.61050   15.16440
 10250.00000    9.10860    8.75470    9.10860   81.85940    0.02070    2.73490   -0.01710    -999.25   -0.01530   12.21620    0.02070   68.13760   68.13760  105.31420   98.68180   98.68180   12.21620   14.88020    0.19200    0.19200    -999.25    2.73490  -55.03170   -0.20070   14.88020
 10300.00000    9.25680    8.75060    9.25680   97.10430    0.01070    2.73130   -0.01730    -999.25   -0.01080   10.29820    0.01070   72.29180   72.29180  121.23120  124.41630  124.41630   10.29820   12.96210    0.20920    0.20920    -999.25    2.73130  -55.38640   -1.04350   12.96210
 10350.00000    9.23840    8.80870    9.23840   80.81360    0.02680    2.73710   -0.01620    -999.25   -0.01500   12.37760    0.02680   67.43090   67.43090  102.47260   99.69040   99.69040   12.37760   15.43660    0.17970    0.17970    -999.25    2.73710  -55.53990   -1.68830   15.43660
 10400.00000    9.11590    8.70670    9.11590   68.41770    0.01130    2.75340   -0.02170    -999.25   -0.02530   14.61610    0.01130   65.65390   65.65390   87.29060   88.98640   88.98640   14.61610   16.83090    0.14700    0.14700    -999.25    2.75340  -56.88780   -3.52430   16.83090
 10450.00000    8.98500    8.75130    8.98500   12.15750    0.01940    2.69060    0.01100    -999.25    0.01050   87.89800    0.01940   67.87230   67.87230  111.43610  100.66450  100.66450   87.89800  107.10120    0.12250    0.12250    -999.25    2.69060  -65.35470  -12.48240  107.10120
 10500.00000    9.15360    8.61880    9.15360    8.46380   -0.00210    2.66250    0.02880    -999.25    0.02870  119.16850   -0.00210   59.44490   59.44490   91.34130   79.86110   79.86110  119.16850  132.21380    0.10590    0.10590    -999.25    2.66250  -59.99570   -7.61150  132.21380
 10550.00000    9.43090    8.54340    9.43090    0.30250    0.01520    2.61350    0.04970    -999.25    0.06020 3306.06710    0.01520   49.97320   49.97320   14.23980   12.38570   12.38570 3306.06710 1218.39270    0.00190    0.00190    -999.25    2.61350  -59.36550   -7.46940 1218.39270
 10600.00000    9.04310    8.76140    9.04310    0.03000    0.09600    2.74120   -0.01730    -999.25   -0.01660 33891.69220    0.09600   49.24240   49.24240   19.68750   18.78530   18.78530 33891.69220 1052.48570    0.00510    0.00510    -999.25    2.74120  -64.29710  -12.89230 1052.48570
 10650.00000    9.76120    9.10210    9.76120    0.06560    0.13180    2.60660    0.06440    -999.25    0.06050 15241.61820    0.13180   49.01140   49.01140   22.82050   19.45580   19.45580 15241.61820  979.19150    0.00540    0.00540    -999.25    2.60660  -64.52600  -13.60920  979.19150
 10700.00000   10.28570    9.16720   10.28570    0.39680    0.08150    2.61930    0.05860    -999.25    0.05340 2548.76010    0.08150   49.73740   49.73740   20.19570   21.59550   21.59550 2548.76010  509.19660    0.00200    0.00200    -999.25    2.61930  -58.05220   -7.62670  509.19660
 10750.00000   10.64030    9.22340   10.64030    0.02720    0.18920    2.64500    0.03660    -999.25    0.03990 36757.32500    0.18920   48.00280   48.00280   20.13310   18.51410   18.51410 36757.32500 1540.42300   -0.00180   -0.00180    -999.25    2.64500  -68.53020  -18.59280 1540.42300
 10800.00000    8.83560    7.74280    8.83560    4.15880   -0.02040    2.67840    0.02140    -999.25    0.01820  240.45160   -0.02040   51.79300   51.79300   15.89230   17.36580   17.36580  240.45160   89.37430    0.00970    0.00970    -999.25    2.67840  -61.05410  -11.60480   89.37430
 10850.00000   12.20540    9.44260   12.20540    0.06820    0.07470    2.55990    0.09040    -999.25    0.09000 14671.39490    0.07470   52.25870   52.25870   24.36860   21.00020   21.00020 14671.39490  307.49550    0.00630    0.00630    -999.25    2.55990  -52.67110   -3.71310  307.49550
 10900.00000   14.20300    9.72800   14.20300    0.03750    0.13110    2.56830    0.08180    -999.25    0.07820 26701.43750    0.13110   53.22880   53.22880   24.72180   23.56550   23.56550 26701.43750  226.58460    0.02300    0.02300    -999.25    2.56830  -54.67230   -5.90050  226.58460
 10950.00000   11.48190    9.63920   11.48190    0.04440    0.21800    2.44970    0.14160    -999.25    0.15060 22512.88510    0.21800   49.31760   49.31760   25.06730   24.15470   24.15470 22512.88510  521.88530    0.00230    0.00230    -999.25    2.44970  -54.24070   -5.46890  521.88530
 11000.00000   10.00630    8.84430   10.00630    0.02620    0.10650    2.55980    0.09650    -999.25    0.08380 38130.64300    0.10650   52.32420   52.32420   35.52540   30.63090   30.63090 38130.64300 1024.28950    0.01040    0.01040    -999.25    2.55980  -68.04500  -19.27320 1024.28950
 11050.00000    9.14030    8.78540    9.14030   28.41310   -0.00210    2.63240    0.04710    -999.25    0.04640   35.19500   -0.00210   62.13680   62.13680  136.21880  127.60930  127.60930   35.19500   51.80780    0.04250    0.04250    -999.25    2.63240  -62.00230  -13.23050   51.80780
 11100.00000    9.02480    8.72060    9.02480   39.73480    0.01420    2.70140    0.00750    -999.25    0.00560   26.30730    0.01420   47.13310   47.13310   24.37760    -999.25    -999.25   26.30730   32.94370    0.08750    0.08750    -999.25    2.70140    -999.25    -999.25   32.94370
