~Version ---------------------------------------------------
VERS.      2.0 : CWLS log ASCII Standard -VERSION 2.0
WRAP.       NO : One line per depth step
CREA. 10/26/17 : LAS Creation Date
~Well ------------------------------------------------------
STRT.FT                           1550.0 : START DEPTH
STOP.FT                          15350.0 : STOP DEPTH
STEP.FT                         50.00000 : STEP LENGTH
NULL.                            -999.25 : NULL VALUE
COMP.   AMOCO CANADA PETROLEUM CO., LTD. : COMPANY
WELL. AMOCO CHEVRON A-1 WAWA 10-13-43-15 : WELL
FLD .                                    : FIELD
LOC .                                    : LOCATION
CTRY.                             CANADA : COUNTRY
SRVC.             Schlumberger of Canada : SERVICE COMPANY
DATE.                        16-Jan-1970 : LOGDATE
PROV.                            Alberta : PROVINCE
UWI .                   100101304315W500 : UNIQUE WELL ID
SLAT.WGS84                      52.70789 : SURFACE LATITUDE
SLON.WGS84                     -116.0388 : SURFACE LONGITUDE
~Curve Information -----------------------------------------
DEPT    .FT    : Depth Curve
CALDED  .IN    : CALIPER FROM DENSITY LOG [DEP. ADJ. TO DIL LOG]
CALMED  .IN    : CALIPER FROM MICROLOG
CALNED  .IN    : CALIPER FROM SNP LOG [DEP. ADJ. TO DIL LOG]
CALSED  .IN    : CALIPER FROM SONIC LOG
CALWS   .IN    : CALIPER [1640' CALMED 14068' CALDED]
CILDED  .MMHO  : CONDUCTIVITY FROM RESISTIVITY LOG
CONDWS  .MMHO  : CONDUCTIVITY [1000/DRESWS]
DCORWS  .G/C3  : DENSITY CORRECTION [DRHOED]
DENWS   .G/C3  : BULK DENSITY [M=2.71, F=1.00] [RHOBED]
DPHILSED.V/V   : DENSITY POROSITY [M=2.71, F=1.00] FROM DENSITY LOG [DEP. ADJ. TO DIL LOG]
DPOLSWS .V/V   : DENSITY POROSITY [M=2.71, F=1.00] [DPHILSED]
DRESWS  .OHMM  : DEEP RESISTIVITY [1650' 1000/CILDED 14058' ILDED][VALUES >2000 ARE REDUCED TO 2000 OHMM]
DRHOED  .G/C3  : DENSITY CORRECTION FROM DENSITY LOG [DEP. ADJ. TO DIL LOG]
DTED    .US/F  : DELTA TIME FROM SONIC LOG
DTWS    .US/F  : DELTA TIME [DTED]
GRDED   .GAPI  : GAMMA RAY FROM DENSITY LOG [DEP. ADJ. TO DIL LOG]
GRNED   .GAPI  : GAMMA RAY FROM SNP LOG [DEP. ADJ. TO DIL LOG]
GRSED   .GAPI  : GAMMA RAY FROM SONIC LOG
GRWS    .GAPI  : GAMMA RAY [1529' GRSED 14072' GRDED]
ILDED   .OHMM  : INDUCTION LOG DEEP RESISTIVITY
ILMED   .OHMM  : INDUCTION LOG MEDIUM RESISTIVITY
LL8ED   .OHMM  : 8 INCH LATEROLOG RESISTIVITY
MRESWS  .OHMM  : MEDIUM RESISTIVITY [ILMED]
NPOLSWS .V/V   : NEUTRON POROSITY LIMESTONE [SNPLSED]
RHOBED  .G/C3  : BULK DENSITY FROM DENSITY LOG [DEP. ADJ. TO DIL LOG]
SNPLSED .V/V   : SIDEWALL NEUTRON POROSITY [LIMESTONE][DEP. ADJ. TO DIL LOG]
SPRED   .MV    : SPONTANEOUS POTENTIAL FROM RESISTIVITY LOG
SPWS    .MV    : SPONTANEOUS POTENTIAL [BASELINE 0 MV] [SPRED]
SRESWS  .OHMM  : SHALLOW RESISTIVITY [LL8ED]
~Params ----------------------------------------------------
PD  .                     GL : PERMANENT DATUM
EPD .FT               4009.5 : ELEVATION PERMANENT DATUM
LMF .                     KB : LOG MEASURED FROM
DAPD.FT                 22.4 : FEET ABOVE PERMANENT DATUM
EKB .FT               4031.9 : KELLY BUSHING
EGL .FT               4009.5 : GROUND LEVEL
DATE.               01/16/70 : RUN DATE
RUN .                      2 : RUN NUMBER
DD  .FT                15390 : DEPTH DRILLER
DL  .FT                15386 : DEPTH LOGGER
BLI .FT                15383 : BOTTOM LOG INTERVAL
TLI .FT                14060 : TOP LOG INTERVAL
CBD .FT                14065 : CASING BOTTOM DRILLER
CBL .FT                14060 : CASING BOTTOM LOGGER
BS  .IN                    6 : BIT SIZE
BSD .FT                15390 : BIT SIZE AT DEPTH
DFT .                    GEL : DRILLING FLUID TYPE
DFD .                   13.9 : DRILLING FLUID DENSITY
DFV .                     92 : DRILLING FLUID VISCOSITY
DFPH.                   11.5 : DRILLING FLUID PH
DFL .                   14.0 : DRILLING FLUID LOSS
MSS .               FLOWLINE : MUD SAMPLE SOURCE
RMS .OHMM               0.21 : RESISTIVITY MUD SAMPLE
MST .DEGF                 52 : MUD SAMPLE TEMPERATURE
RMF .OHMM                0.1 : RESISTIVITY MUD FILTRATE SAMPLE
MFST.DEGF                 60 : MUD FILTRATE SAMPLE TEMPERATURE
RMB .OHMM              0.022 : RESISTIVITY MUD AT BHT
TCS .HRS                 3.5 : TIME CIRCULATED STOPPED
LUN .                   7003 : LOGGING UNIT NUMBER
LUL .                     RD : LOGGING UNIT LOCATION
ENGI.              MCQUILLAN : RECORDING ENGINEER
WITN.                 MURRAY : WITNESSED BY
CLNT.                A2DTECH : CLIENT CODE
ORIG.            2" 5" PRINT : ORIGIN OF DATA
UWI .       100101304315W500 : UNIQUE WELL ID
DICO. A2D Technologies, Inc. : DIGITIZING COMPANY
~Other -----------------------------------------------------
~ASCII -----------------------------------------------------
# ...
 14050.00000    -999.25    9.65130    -999.25    9.19640    9.65130    0.00000    0.50000    -999.25    -999.25    -999.25    -999.25 2000.00000    -999.25   49.59710   49.59710   14.82760    -999.25   16.30770   16.30770  641.91120    -999.25  650.72240    -999.25    -999.25    -999.25    -999.25 -148.70710 -128.01820  650.72240
 14100.00000    8.69520    8.44280    8.77320    9.31460    8.69520    -999.25    1.25590    0.01020    2.71640   -0.00370   -0.00370  796.25030    0.01020   50.91390   50.91390   14.73360   17.04260   11.76470   14.73360  796.25030    5.92930 1605.10160    5.92930    0.00670    2.71640    0.00670 -137.04280 -116.49970 1605.10160
 14150.00000    7.49400    6.73490    7.47080    -999.25    7.49400    -999.25    7.75600    0.00860    2.68650    0.01370    0.01370  128.93230    0.00860   48.37520   48.37520   24.96610   25.61200   21.63410   24.96610  128.93230 1964.79530 1436.07760 1964.79530    0.02360    2.68650    0.02360 -129.31710 -108.91890 1436.07760
 14200.00000    6.18510    6.38180    6.34990    -999.25    6.18510    -999.25    0.64490    0.02910    2.73460   -0.01440   -0.01440 1550.51150    0.02910   49.36610   49.36610   19.11400   17.97330   19.16700   19.11400 1550.51150  125.19670 1345.93630  125.19670    0.01380    2.73460    0.01380  -68.26060  -48.00820 1345.93630
 14250.00000    6.35320    6.41420    6.13250    -999.25    6.35320    -999.25  186.30650    0.03570    2.73370   -0.01390   -0.01390    5.36750    0.03570   66.41550   66.41550   67.54340   74.98720   65.94270   67.54340    5.36750    5.92260    9.21010    5.92260    0.08160    2.73370    0.08160  -67.40620  -47.29870    9.21010
 14300.00000    6.12460    6.26730    6.06130    -999.25    6.12460    -999.25  202.20810    0.02160    2.71280   -0.00160   -0.00160    4.94540    0.02160   69.72850   69.72850   87.49610   91.00960   85.37250   87.49610    4.94540    5.19300    8.25760    5.19300    0.09790    2.71280    0.09790  -85.89270  -65.93000    8.25760
 14350.00000    6.10270    6.21040    6.05840    -999.25    6.10270    -999.25  181.13650    0.00980    2.69730    0.00740    0.00740    5.52070    0.00980   65.58070   65.58070   68.15160   62.61710   65.35940   68.15160    5.52070    6.71760    7.48910    6.71760    0.07870    2.69730    0.07870 -127.68510 -107.86820    7.48910
 14400.00000    6.11000    6.26150    6.05550    -999.25    6.11000    -999.25  326.95770    0.03830    2.72580   -0.00920   -0.00920    3.05850    0.03830   74.21320   74.21320   95.03000   98.54780   92.42280   95.03000    3.05850    3.44980    5.05450    3.44980    0.12680    2.72580    0.12680 -113.57820  -93.90620    5.05450
 14450.00000    6.01460    6.25300    6.05080    -999.25    6.01460    -999.25  388.81760    0.01330    2.68330    0.01560    0.01560    2.57190    0.01330   77.05000   77.05000   99.70860  102.40170  103.04840   99.70860    2.57190    2.83030    4.44160    2.83030    0.13510    2.68330    0.13510 -113.90010  -94.37390    4.44160
 14500.00000    5.86980    6.25270    6.04350    -999.25    5.86980    -999.25  399.76010    0.04920    2.73610   -0.01530   -0.01530    2.50150    0.04920   76.72780   76.72780   96.09080   89.36830   96.00480   96.09080    2.50150    2.81560    4.18670    2.81560    0.12400    2.73610    0.12400  -84.87070  -65.48930    4.18670
 14550.00000    6.03870    6.17740    6.03640    -999.25    6.03870    -999.25  266.85170    0.02640    2.72340   -0.00780   -0.00780    3.74740    0.02640   70.62500   70.62500   85.87230   89.81820   87.60560   85.87230    3.74740    4.05550    6.19690    4.05550    0.10830    2.72340    0.10830  -68.57220  -49.33570    6.19690
 14600.00000    5.59690    6.22940    6.01020    -999.25    5.59690    -999.25  279.03340    0.01560    2.70810    0.00110    0.00110    3.58380    0.01560   72.32290   72.32290   89.27840   88.41500   87.91730   89.27840    3.58380    3.90410    5.78260    3.90410    0.11920    2.70810    0.11920  -49.93890  -30.84820    5.78260
 14650.00000    6.07840    6.22490    5.93820    -999.25    6.07840    -999.25  195.94400    0.01170    2.69150    0.01080    0.01080    5.10350    0.01170   72.73150   72.73150   94.25330  102.04600   92.39860   94.25330    5.10350    4.74290    7.22430    4.74290    0.11200    2.69150    0.11200  -40.88970  -21.94390    7.22430
 14700.00000    6.00640    6.22360    5.86620    -999.25    6.00640    -999.25  284.86780    0.01050    2.71150   -0.00090   -0.00090    3.51040    0.01050   73.23380   73.23380   85.18170   83.54090   83.63010   85.18170    3.51040    3.71760    5.76660    3.71760    0.10680    2.71150    0.10680  -32.70810  -13.90810    5.76660
 14750.00000    5.93530    6.21250    5.91260    -999.25    5.93530    -999.25  234.05500    0.04550    2.74330   -0.01950   -0.01950    4.27250    0.04550   70.79860   70.79860   77.92150   75.61060   78.29340   77.92150    4.27250    4.44090    6.93640    4.44090    0.09620    2.74330    0.09620  -26.33160   -7.67640    6.93640
 14800.00000    5.84660    6.18290    5.89570    -999.25    5.84660    -999.25  259.30250    0.03530    2.72730   -0.01010   -0.01010    3.85650    0.03530   73.05500   73.05500   81.02350   80.49120   79.10690   81.02350    3.85650    4.06600    6.06420    4.06600    0.10950    2.72730    0.10950  -22.91950   -4.40920    6.06420
 14850.00000    6.05230    6.17020    5.94480    -999.25    6.05230    -999.25  193.69330    0.02740    2.72770   -0.01040   -0.01040    5.16280    0.02740   69.23190   69.23190   76.60360   74.92620   74.26800   76.60360    5.16280    5.55170    8.90790    5.55170    0.08930    2.72770    0.08930  -21.93000   -3.56550    8.90790
 14900.00000    6.09800    6.20470    5.93990    -999.25    6.09800    -999.25  191.85760    0.02720    2.70730    0.00160    0.00160    5.21220    0.02720   73.09420   73.09420   84.88030   82.21140   83.18520   84.88030    5.21220    4.66640    7.76810    4.66640    0.10950    2.70730    0.10950  -21.95420   -3.73450    7.76810
 14950.00000    6.33190    6.20200    5.94460    -999.25    6.33190    -999.25  197.54260    0.02400    2.61650    0.05470    0.05470    5.06220    0.02400   88.55000   88.55000  122.04030  119.83750  119.86370  122.04030    5.06220    5.67590    6.78620    5.67590    0.12690    2.61650    0.12690  -21.18970   -3.20270    6.78620
 15000.00000    6.14630    6.19690    5.94150    -999.25    6.14630    -999.25   68.64080    0.03200    2.54030    0.09920    0.09920   14.56860    0.03200   99.17200   99.17200  131.16800  134.40140  139.37800  131.16800   14.56860   10.02460   15.30520   10.02460    0.13950    2.54030    0.13950  -33.18180  -15.44450   15.30520
 15050.00000    5.64210    6.21950    5.95290    -999.25    5.64210    -999.25  352.05070    0.04910    2.59230    0.06880    0.06880    2.84050    0.04910   99.24380   99.24380  111.70180  114.43840  107.05030  111.70180    2.84050    3.13360    4.75850    3.13360    0.14810    2.59230    0.14810  -20.15000   -2.66230    4.75850
 15100.00000    6.03660    6.16410    5.97920    -999.25    6.03660    -999.25  118.20190    0.00910    2.64570    0.03760    0.03760    8.46010    0.00910   68.79150   68.79150   68.04990   61.39140   79.81120   68.04990    8.46010    9.91880   29.35470    9.91880    0.09670    2.64570    0.09670  -20.65120   -3.41480   29.35470
 15150.00000    6.03300    6.17080    5.97670    -999.25    6.03300    -999.25   53.27420    0.00220    2.70230    0.00450    0.00450   18.77080    0.00220   58.68310   58.68310   41.45120   41.78020   38.63190   41.45120   18.77080   17.93240   26.00960   17.93240    0.04310    2.70230    0.04310  -30.16730  -13.18050   26.00960
 15200.00000    5.99540    6.18220    5.95560    -999.25    5.99540    -999.25  150.69320    0.01300    2.71560   -0.00330   -0.00330    6.63600    0.01300   60.51430   60.51430   53.67120   48.39430   46.88540   53.67120    6.63600    7.39180    9.98540    7.39180    0.05570    2.71560    0.05570  -23.70240   -6.96690    9.98540
 15250.00000    5.99510    6.14620    5.97100    -999.25    5.99510    -999.25   84.03860    0.02460    2.71360   -0.00210   -0.00210   11.89930    0.02460   60.38180   60.38180   46.30400   57.37220   45.04310   46.30400   11.89930   14.59590   18.40420   14.59590    0.02000    2.71360    0.02000  -24.35830   -7.87250   18.40420
