~Version ---------------------------------------------------
VERS.      2.0 : CWLS log ASCII Standard -VERSION 2.0
WRAP.       NO : One line per depth step
CREA. 12/12/17 : LAS Creation Date
~Well ------------------------------------------------------
STRT.FT                        1050.0 : START DEPTH
STOP.FT                       10050.0 : STOP DEPTH
STEP.FT                      50.00000 : STEP LENGTH
NULL.                         -999.25 : NULL VALUE
COMP.        SKELLY OIL OF CANADA LTD : COMPANY
WELL. SKELLY A3 TWO CREEK 10-17-62-16 : WELL
FLD .                                 : FIELD
LOC .                                 : LOCATION
CTRY.                          CANADA : COUNTRY
SRVC.                         Unknown : SERVICE COMPANY
DATE.                     26-Aug-1976 : LOGDATE
PROV.                         Alberta : PROVINCE
UWI .                100101706216W500 : UNIQUE WELL ID
SLAT.WGS84                   54.36596 : SURFACE LATITUDE
SLON.WGS84                   -116.357 : SURFACE LONGITUDE
~Curve Information -----------------------------------------
DEPT    .FT    : Depth Curve
CALDED  .IN    : CALIPER FROM DENSITY LOG [ADJ. TO RESISTIVITY LOG]
CALSED  .IN    : CALIPER FROM SONIC LOG [ADJ. TO RESISTIVITY LOG]
CALWS   .IN    : CALIPER [CALSED SPL. TO CALDED @ 10018']
CILDED  .MMHO  : CONDUCTIVITY FROM RESISTIVITY LOG
CONDWS  .MMHO  : CONDUCTIVITY [1000/DRESWS]
DCORWS  .G/C3  : DENSITY CORRECTION [DRHOED]
DENWS   .G/C3  : FORMATION BULK DENSITY [RHOBED]
DPHILSED.V/V   : DENSITY POROSITY LIMESTONE [MATRIX ASSUMED, M=2.71, F=1.00] FROM DENSITY  [ADJ. TO RESISTIVITY LOG]
DPHISSED.V/V   : DENSITY POROSITY SANDSTONE [MATRIX ASSUMED, M=2.65, F=1.00] FROM DENSITY LOG [ADJ. TO RESISTIVITY LOG]
DPOLSWS .V/V   : DENSITY POROSITY LIMESTONE [CALC. FROM DENWS, M=2.71, F=1.00]
DRESWS  .OHMM  : DEEP RESUISTIVITY [1000/CILDED IF ILDED < 1, ILDED & SPL. TO ILDED @ 3970']
DRHOED  .G/C3  : DENSITY CORRECTION  FROM DENSITY LOG [ADJ. TO RESISTIVITY LOG]
DTED    .US/F  : DELTA-TIME FROM SONIC LOG [ADJ. TO RESISTIVITY LOG]
DTWS    .US/F  : COMPRESSIONAL SONIC [DTED]
GRDED   .GAPI  : GAMMA RAY FROM DENSITY LOG [ADJ. TO RESISTIVITY LOG]
GRSED   .GAPI  : GAMMA RAY FROM SONIC LOG [ADJ. TO RESISTIVITY LOG]
GRWS    .GAPI  : GAMMA RAY [GRSED SPL. TO GRDED @ 10023']
ILDED   .OHMM  : DEEP INDUCTION RESISTIVITY FROM RESISTIVITY LOG
ILMED   .OHMM  : MEDIUM INDUCTION RESISTIVITY FROM RESISTIVITY LOG
LL8ED   .OHMM  : LATEROLOG 8 RESISTIVITY FROM RESISTIVITY LOG
MRESWS  .OHMM  : MEDIUM RESISTIVITY [ILMED]
NPHILSED.V/V   : NEUTRON POROSITY LIMESTONE FROM DENSITY LOG [ADJ. TO RESISTIVITY LOG]
NPHISSED.V/V   : NEUTRON POROSITY SANDSTONE FROM DENSITY LOG [ADJ. TO RESISTIVITY LOG]
NPOLSWS .V/V   : NEUTRON POROSITY LIMESTONE [NPHISSED MATRIX CONVERSION FOR LIMESTONE, SPL. TO NPHILSED @ 6448']
RHOBED  .G/C3  : BULK DENSITY FROM DENSITY LOG [ADJ. TO RESISTIVITY LOG]
SPRED   .MV    : SPONTANEOUS POTENTIAL FROM RESISTIVITY LOG
SPWS    .MV    : SPONTANEOUS POTENTIAL [BASELINE 0 MV, SPRED]
SRESWS  .OHMM  : SHALLOW RESISTIVITY [LL8ED]
~Params ----------------------------------------------------
PD  .                     GL : PERMANENT DATUM
EPD .FT               3020.5 : ELEVATION PERMANENT DATUM
LMF .                     KB : LOG MEASURED FROM
DAPD.FT                 14.9 : FEET ABOVE PERMANENT DATUM
EKB .FT               3035.4 : KELLY BUSHING
EGL .FT               3020.5 : GROUND LEVEL
DATE.               08/26/76 : RUN DATE
RUN .                      1 : RUN NUMBER
DD  .FT                10065 : DEPTH DRILLER
DL  .FT                10059 : DEPTH LOGGER
BLI .FT                10053 : BOTTOM LOG INTERVAL
TLI .FT                 1048 : TOP LOG INTERVAL
CBD .FT                 1047 : CASING BOTTOM DRILLER
CBL .FT                 1048 : CASING BOTTOM LOGGER
BS  .IN                7.875 : BIT SIZE
BSD .FT                10065 : BIT SIZE AT DEPTH
DFT .               GEL CHEM : DRILLING FLUID TYPE
DFD .                    9.9 : DRILLING FLUID DENSITY
DFV .                    2.2 : DRILLING FLUID VISCOSITY
DFPH.                      9 : DRILLING FLUID PH
DFL .                    6.2 : DRILLING FLUID LOSS
MSS .             CIRCULATED : MUD SAMPLE SOURCE
RMS .OHMM               2.55 : RESISTIVITY MUD SAMPLE
MST .DEGF                 57 : MUD SAMPLE TEMPERATURE
RMF .OHMM               2.27 : RESISTIVITY MUD FILTRATE SAMPLE
MFST.DEGF                 60 : MUD FILTRATE SAMPLE TEMPERATURE
RMC .OHMM               2.87 : RESISTIVITY MUD CAKE
MCST.DEGF                 55 : MUD CAKE SAMPLE TEMPERATURE
RMB .OHMM               0.77 : RESISTIVITY MUD AT BHT
TCS .HRS                   3 : TIME CIRCULATED STOPPED
LUN .                   7691 : LOGGING UNIT NUMBER
LUL .                    WCT : LOGGING UNIT LOCATION
ENGI.              CROCKFORD : RECORDING ENGINEER
WITN.                   BALL : WITNESSED BY
CLNT.                A2DTECH : CLIENT CODE
ORIG.        2" 5" 10" PRINT : ORIGIN OF DATA
UWI .       100101706216W500 : UNIQUE WELL ID
DICO. A2D Technologies, Inc. : DIGITIZING COMPANY
~Other -----------------------------------------------------
DIL-LL-CNL-FDC-BCS LOG RUN
~ASCII -----------------------------------------------------
# ...
 6050.00000    8.27900    8.83190    8.83190    -999.25  120.63450    0.08570    1.99460    -999.25    0.45140    0.41840    8.28950    0.08570   96.00910   96.00910   74.23700   76.18500   76.18500    8.28950    8.13530   28.49890    8.13530    -999.25    0.42510    0.38280    1.99460 -139.35920  -40.88110   28.49890
 6100.00000   15.00000   12.42800   12.42800    -999.25  274.47640    0.13340    1.68140    -999.25    0.45000    0.60150    3.64330    0.13340   82.85630   82.85630   98.26500   94.92530   94.92530    3.64330    3.37790    4.39370    3.37790    -999.25    0.46550    0.42430    1.68140 -115.56170  -17.69310    4.39370
 6150.00000    9.40690    8.68290    8.68290    -999.25  101.75940    0.07760    2.60780    -999.25    0.02780    0.05980    9.82710    0.07760   75.16060   75.16060   96.51570   93.78430   93.78430    9.82710    9.30600   16.68100    9.30600    -999.25    0.27120    0.22720    2.60780 -106.69730   -9.43420   16.68100
 6200.00000    9.58480   10.45470   10.45470    -999.25  119.89450    0.16920    2.72210    -999.25   -0.05140   -0.00710    8.34230    0.16920   75.11760   75.11760   81.91800   80.88360   80.88360    8.34230    7.40450   13.70570    7.40450    -999.25    0.27080    0.22680    2.72210 -103.42400   -9.24130   13.70570
 6250.00000    8.88000    8.83010    8.83010    -999.25   97.90960    0.04010    2.57930    -999.25    0.03870    0.07640   10.21350    0.04010   73.00250   73.00250   88.17010   82.08810   82.08810   10.21350    8.41440   20.00230    8.41440    -999.25    0.23920    0.19530    2.57930 -104.52000  -13.85430   20.00230
 6300.00000    8.05700    8.11800    8.11800    -999.25    2.94690    0.01020    2.53700    -999.25    0.07670    0.10120  339.33740    0.01020   62.86750   62.86750  157.94010  149.78490  149.78490  339.33740  724.84160 1300.04060  724.84160    -999.25    0.16850    0.12560    2.53700  -92.24390   -5.09520 1300.04060
 6350.00000    8.31290    8.28370    8.28370    -999.25    3.98310    0.01510    2.45770    -999.25    0.11930    0.14750  251.06210    0.01510   74.90570   74.90570  300.21320  300.00000  300.00000  251.06210  479.26510 1343.94490  479.26510    -999.25    0.28240    0.23840    2.45770 -120.61000  -33.71520 1343.94490
 6400.00000    8.13090    7.60740    7.60740    -999.25  183.12000    0.14850    2.54560    -999.25    0.06650    0.09610    5.46090    0.14850   59.23530   59.23530   59.58540   50.08550   50.08550    5.46090    9.41800   65.57280    9.41800    -999.25    0.20370    0.16020    2.54560 -185.94620  -98.84080   65.57280
 6450.00000    8.32920    8.26030    8.26030    -999.25   87.52430    0.01870    2.76520   -0.04010    -999.25   -0.03230   11.45720    0.01870   56.82160   56.82160   54.36610   54.72800   54.72800   11.45720   10.55510   25.23040   10.55510    0.10080    -999.25    0.10080    2.76520 -132.37830  -45.06090   25.23040
 6500.00000    8.52810    8.56690    8.56690    -999.25  109.53140    0.04590    2.74080   -0.01440    -999.25   -0.01800    9.12980    0.04590   60.72440   60.72440   54.83000   53.45630   53.45630    9.12980    8.39040   13.38560    8.39040    0.13000    -999.25    0.13000    2.74080 -127.00700  -39.47900   13.38560
 6550.00000    8.36070    8.30930    8.30930    -999.25   53.34160    0.03420    2.80020   -0.05890    -999.25   -0.05270   18.74710    0.03420   48.53880   48.53880   24.59390   23.80160   23.80160   18.74710   28.22950  457.21150   28.22950    0.02930    -999.25    0.02930    2.80020 -139.13690  -51.39820  457.21150
 6600.00000    8.33580    8.39030    8.39030    -999.25  150.56840    0.03700    2.84720   -0.07830    -999.25   -0.08020    6.64150    0.03700   57.19780   57.19780   38.55400   37.12740   37.12740    6.64150    8.63180   22.00560    8.63180    0.09130    -999.25    0.09130    2.84720 -168.58890  -80.63820   22.00560
 6650.00000    8.69620    8.54300    8.54300    -999.25    5.27240    0.02150    2.87720   -0.09270    -999.25   -0.09780  189.66820    0.02150   50.33940   50.33940   15.29400   16.63290   16.63290  189.66820  744.29220 1511.37440  744.29220    0.00360    -999.25    0.00360    2.87720 -173.39830  -85.23700 1511.37440
 6700.00000    8.24520    8.19750    8.19750    -999.25   43.24090    0.04510    2.66690    0.02150    -999.25    0.02520   23.12850    0.04510   51.22070   51.22070   17.59260   17.76180   17.76180   23.12850   33.33740  379.81280   33.33740    0.03100    -999.25    0.03100    2.66690 -294.82740 -206.45410  379.81280
 6750.00000    8.06160    7.75420    7.75420    -999.25   60.77220    0.10670    2.59900    0.06100    -999.25    0.06490   16.45490    0.10670   54.51040   54.51040   17.02050   15.65480   15.65480   16.45490   26.80200  183.52200   26.80200    0.05590    -999.25    0.05590    2.59900 -285.21800 -196.63410  183.52200
 6800.00000    8.55320    8.57690    8.57690    -999.25  229.20010    0.07570    2.68890    0.01810    -999.25    0.01240    4.36300    0.07570   65.97000   65.97000   83.54170   83.76220   83.76220    4.36300    4.43830    6.19860    4.43830    0.18360    -999.25    0.18360    2.68890 -132.26860  -43.47400    6.19860
 6850.00000    8.44580    8.40360    8.40360    -999.25   68.99740    0.05010    2.75740   -0.04010    -999.25   -0.02770   14.49330    0.05010   56.30130   56.30130   78.04980   74.63580   74.63580   14.49330   15.12460   27.03600   15.12460    0.07540    -999.25    0.07540    2.75740 -138.15720  -49.15060   27.03600
 6900.00000    8.66540    8.45670    8.45670    -999.25  182.79860    0.06930    2.73840   -0.01830    -999.25   -0.01660    5.47050    0.06930   61.68400   61.68400   54.11950   49.21060   49.21060    5.47050    6.34980    8.56050    6.34980    0.10870    -999.25    0.10870    2.73840 -182.95180  -93.73460    8.56050
 6950.00000    8.52990    8.46000    8.46000    -999.25    8.51180    0.03670    2.75110   -0.02210    -999.25   -0.02400  117.55300    0.03670   53.12150   53.12150   32.24330   28.90940   28.90940  117.55300  170.98840  365.36210  170.98840    0.01860    -999.25    0.01860    2.75110 -146.48110  -57.05190  365.36210
 7000.00000    8.98610    8.65430    8.65430    -999.25   27.43090    0.02000    2.72560   -0.01100    -999.25   -0.00910   36.45530    0.02000   55.65440   55.65440   47.50890   44.64680   44.64680   36.45530   31.90330   50.46710   31.90330    0.03870    -999.25    0.03870    2.72560 -125.05090  -35.41110   50.46710
 7050.00000    8.15910    8.22130    8.22130    -999.25   41.81700    0.00250    2.67160    0.01530    -999.25    0.02250   23.91370    0.00250   58.50210   58.50210   24.36320   23.39420   23.39420   23.91370   19.41190   38.30350   19.41190    0.03500    -999.25    0.03500    2.67160 -188.79900  -98.94860   38.30350
 7100.00000    8.17980    7.92840    7.92840    -999.25   24.87050    0.00600    2.73410   -0.01020    -999.25   -0.01410   40.20830    0.00600   53.82470   53.82470   27.77740   27.18400   27.18400   40.20830   43.40120   94.24270   43.40120    0.02400    -999.25    0.02400    2.73410 -169.35610  -79.29370   94.24270
 7150.00000    8.14310    8.05100    8.05100    -999.25   10.09250    0.01950    2.69850   -0.00140    -999.25    0.00670   99.08350    0.01950   52.88520   52.88520   30.13940   30.19690   30.19690   99.08350  127.70140  254.31470  127.70140    0.02020    -999.25    0.02020    2.69850 -147.27530  -57.00220  254.31470
 7200.00000    8.13370    8.06530    8.06530    -999.25    8.39470    0.01500    2.69630    0.00820    -999.25    0.00800  119.12390    0.01500   53.01230   53.01230   27.54340   28.34110   28.34110  119.12390  125.47740  213.97870  125.47740    0.01890    -999.25    0.01890    2.69630 -109.99820  -19.51310  213.97870
 7250.00000    8.13870    8.11080    8.11080    -999.25    6.17530    0.04620    2.76360   -0.02940    -999.25   -0.03130  161.93650    0.04620   52.22150   52.22150   26.12230   26.19640   26.19640  161.93650  149.87620  215.91100  149.87620    0.01370    -999.25    0.01370    2.76360 -143.89920  -53.20350  215.91100
