~Version ---------------------------------------------------
VERS.      2.0 : CWLS log ASCII Standard -VERSION 2.0
WRAP.       NO : One line per depth step
CREA. 01/02/18 : LAS Creation Date
~Well ------------------------------------------------------
STRT.FT                          1500.0 : START DEPTH
STOP.FT                         13000.0 : STOP DEPTH
STEP.FT                        50.00000 : STEP LENGTH
NULL.                           -999.25 : NULL VALUE
COMP.  AMOCO CANADA PETROLEUM CO., LTD. : COMPANY
WELL. AMOCO ET AL BERLAND D-1 6-7-60-22 : WELL
FLD .                                   : FIELD
LOC .                                   : LOCATION
CTRY.                            CANADA : COUNTRY
SRVC.                      Schlumberger : SERVICE COMPANY
DATE.                       10-Dec-1976 : LOGDATE
PROV.                           Alberta : PROVINCE
UWI .                  100060706022W500 : UNIQUE WELL ID
SLAT.WGS84                     54.17117 : SURFACE LATITUDE
SLON.WGS84                    -117.2921 : SURFACE LONGITUDE
~Curve Information -----------------------------------------
DEPT    .FT    : Depth Curve
CALDED  .IN    : CALIPER FROM DENSITY LOG
CALSED  .IN    : CALIPER FROM SONIC LOG
CALWS   .IN    : CALIPER [CALDED]
CONDWS  .MMHO  : CONDUCTIVITY [1000/DRESWS]
DCORED  .G/C3  : DENSITY CORRECTION FROM DENSITY LOG
DCORWS  .G/C3  : DENSITY CORRECTION [DCORED]
DENWS   .G/C3  : BULK DENSITY [M=2.71 F=1.00] [TOP RHOBED 2287.5 M CALC. DPHISSED 7505' DPHILSED]
DPHILSED.V/V   : DENSITY POROSITY [M=2.71 F=1.00] FROM DENSITY LOG
DPHISSED.V/V   : DENSITY POROSITY [M=2.65 F=1.00] FROM DENSITY LOG
DPOLSWS .V/V   : DENSITY POROSITY [M=2.71 F=1.00] [CALC. FROM DENWS]
DRESWS  .OHMM  : DEEP RESISTIVITY [ILDED]
DTED    .US/F  : DELTA TIME FROM SONIC LOG [DEPTH ADJ TO LL8]
DTWS    .US/F  : DELTA TIME [DTED]
GRDED   .GAPI  : GAMMA RAY FROM DENSITY LOG
GRSED   .GAPI  : GAMMA RAY FROM SONIC LOG
GRWS    .GAPI  : GAMMA RAY [GRSED]
ILDED   .OHMM  : INDUCTION LOG DEEP RESISTIVITY
ILMED   .OHMM  : INDUCTION LOG MEDIUM RESISTIVITY
LL8ED   .OHMM  : 8 INCH LATEROLOG RESISTIVITY
MRESWS  .OHMM  : MEDIUM RESISTIVITY [ILMED]
NPHILSED.V/V   : NEUTRON POROSITY LIMESTONE FROM DENSITY LOG
NPHISSED.V/V   : NEUTRON POROSITY SANDSTONE FROM DENSITY LOG
NPOLSWS .V/V   : NEUTRON POROSITY LIMESTONE [TOP NPHISSED CONVERTED TO LIME FROM POWER LOG, 8750' NPHILSED]
RHOBED  .G/C3  : BULK DENSITY FROM DENSITY LOG [DEPTH ADJ TO LL8]
SPRED   .MV    : SPONTANEOUS POTENTIAL FROM RESISTIVITY LOG
SPWS    .MV    : SPONTANEOUS POTENTIAL [BASELINE 0 MV] [SPRED]
SRESWS  .OHMM  : SHALLOW RESISTIVITY [LL8ED]
~Params ----------------------------------------------------
PD  .                     GL : PERMANENT DATUM
EPD .M                  3639 : ELEVATION PERMANENT DATUM
LMF .                     KB : LOG MEASURED FROM
DAPD.M                    16 : FEET ABOVE PERMANENT DATUM
EKB .M                  3655 : KELLY BUSHING
EGL .M                  3639 : GROUND LEVEL
DATE.             12/10/1976 : RUN DATE
RUN .                      2 : RUN NUMBER
DD  .M                 12990 : DEPTH DRILLER
DL  .M                 13000 : DEPTH LOGGER
BLI .M                 12994 : BOTTOM LOG INTERVAL
TLI .M                  7504 : TOP LOG INTERVAL
CBD .M                  7499 : CASING BOTTOM DRILLER
CBL .M                  7504 : CASING BOTTOM LOGGER
BS  .MM                  8.5 : BIT SIZE
BSD .M                 13000 : BIT SIZE AT DEPTH
DFT .             GEL BARITE : DRILLING FLUID TYPE
DFD .                    9.1 : DRILLING FLUID DENSITY
DFV .                     73 : DRILLING FLUID VISCOSITY
DFPH.                    9.5 : DRILLING FLUID PH
DFL .                    8.9 : DRILLING FLUID LOSS
MSS .               FLOWLINE : MUD SAMPLE SOURCE
RMS .OHMM               1.44 : RESISTIVITY MUD SAMPLE
MST .DEGC                 60 : MUD SAMPLE TEMPERATURE
RMF .OHMM               1.12 : RESISTIVITY MUD FILTRATE SAMPLE
MFST.DEGC                 55 : MUD FILTRATE SAMPLE TEMPERATURE
RMB .OHMM               0.26 : RESISTIVITY MUD AT BHT
TCS .HRS                 6.5 : TIME CIRCULATED STOPPED
LUN .                   7635 : LOGGING UNIT NUMBER
LUL .                    EDM : LOGGING UNIT LOCATION
ENGI.                 MACKAY : RECORDING ENGINEER
WITN.                SHIRLEY : WITNESSED BY
CLNT.                A2DTECH : CLIENT CODE
ORIG.            2" 5" PRINT : ORIGIN OF DATA
UWI .       100060706022W500 : UNIQUE WELL ID
DICO. A2D Technologies, Inc. : DIGITIZING COMPANY
~Other -----------------------------------------------------
SPRED INTERFERENCE CAUSING RANDOM DRIFTING OF THE BASE LINE ABOVE 7218'
~ASCII -----------------------------------------------------
# ...
 2800.00000   15.00000    -999.25   15.00000  256.39710    0.08280    0.08280    1.62630    -999.25    0.58980    0.63370    3.90020  111.65930  111.65930   81.60760   72.21350   72.21350    3.90020    3.41740    4.59700    3.41740    -999.25    0.49050    0.45530    1.62630  -31.02020   -7.40750    4.59700
 2850.00000   13.08790    -999.25   13.08790   89.08770    0.03360    0.03360    2.46210    -999.25    0.12210    0.14500   11.22490   84.60770   84.60770   80.72570   69.92210   69.92210   11.22490    9.31310    8.54600    9.31310    -999.25    0.26380    0.21120    2.46210  -27.49660   -5.41210    8.54600
 2900.00000   12.75990    -999.25   12.75990  121.83090    0.06670    0.06670    2.48200    -999.25    0.10500    0.13330    8.20810   81.69900   81.69900   94.99860   83.35900   83.35900    8.20810    7.37690    7.16010    7.37690    -999.25    0.32960    0.27960    2.48200  -27.45060   -6.89440    7.16010
 2950.00000   12.60230    -999.25   12.60230   59.62530    0.04050    0.04050    2.51640    -999.25    0.08940    0.11320   16.77140   77.70300   77.70300   67.85790   52.65820   52.65820   16.77140   16.35050   17.73160   16.35050    -999.25    0.26040    0.20780    2.51640  -26.28970   -6.13490   17.73160
 3000.00000   13.03170    -999.25   13.03170  160.67100    0.02920    0.02920    2.44010    -999.25    0.12960    0.15780    6.22390   87.83370   87.83370   86.18890   80.42870   80.42870    6.22390    5.70310    6.01090    5.70310    -999.25    0.39280    0.34710    2.44010  -26.66930   -5.64520    6.01090
 3050.00000   15.00000    -999.25   15.00000  200.55350    0.12900    0.12900    1.62530    -999.25    0.60010    0.63430    4.98620   99.86060   99.86060   77.37120   69.46080   69.46080    4.98620    4.72790    4.51320    4.72790    -999.25    0.50900    0.47590    1.62530  -21.06300    0.83040    4.51320
 3100.00000   15.00000    -999.25   15.00000  209.27070    0.16900    0.16900    1.70140    -999.25    0.56460    0.58980    4.77850   98.21450   98.21450   83.77610   70.98840   70.98840    4.77850    4.04680    4.46620    4.04680    -999.25    0.50370    0.47000    1.70140  -27.51920   -4.75650    4.46620
 3150.00000   13.54810    -999.25   13.54810  211.95870    0.06820    0.06820    2.06660    -999.25    0.36220    0.37630    4.71790   99.25760   99.25760   86.29240   81.13590   81.13590    4.71790    4.38310    5.11480    4.38310    -999.25    0.41260    0.36870    2.06660  -31.88450   -6.39860    5.11480
 3200.00000   15.00000    -999.25   15.00000  202.91800    0.20230    0.20230    1.86910    -999.25    0.47280    0.49180    4.92810   93.91790   93.91790   86.56980   81.61360   81.61360    4.92810    4.60470    5.08590    4.60470    -999.25    0.41080    0.36680    1.86910  -35.41860   -7.07000    5.08590
 3250.00000   15.00140    -999.25   15.00140   93.38290    0.20740    0.20740    2.27890    -999.25    0.19960    0.25210   10.70860   81.14000   81.14000   77.60960   64.35710   64.35710   10.70860   10.28240   12.83940   10.28240    -999.25    0.34180    0.29240    2.27890  -38.07560   -6.86430   12.83940
 3300.00000   15.00000    -999.25   15.00000  101.61160    0.15560    0.15560    1.67030    -999.25    0.54490    0.60800    9.84140   85.72740   85.72740   78.36960   79.32090   79.32090    9.84140    8.93520   10.29150    8.93520    -999.25    0.49260    0.45770    1.67030  -37.75430   -3.68030   10.29150
 3350.00000   15.00000    -999.25   15.00000  232.15320    0.09440    0.09440    2.02890    -999.25    0.37890    0.39830    4.30750   89.53890   89.53890   93.85710   84.54140   84.54140    4.30750    4.17330    4.69300    4.17330    -999.25    0.36650    0.31880    2.02890  -64.15690   -2.55370    4.69300
 3400.00000   15.00000    -999.25   15.00000  320.14340    0.15560    0.15560    1.72020    -999.25    0.55850    0.57880    3.12360  113.73800  113.73800   96.96020   85.10490   85.10490    3.12360    2.84790    3.21440    2.84790    -999.25    0.50810    0.47490    1.72020  -60.79950   -0.53430    3.21440
 3450.00000   13.48940    -999.25   13.48940  287.85260    0.06680    0.06680    2.22470    -999.25    0.27110    0.28380    3.47400  127.38210  127.38210  105.12260   95.28440   95.28440    3.47400    3.20440    3.85620    3.20440    -999.25    0.52630    0.49510    2.22470  -59.06960   -0.14240    3.85620
 3500.00000   13.08050    -999.25   13.08050   32.65430    0.07290    0.07290    2.44670    -999.25    0.13220    0.15400   30.62380   72.49830   72.49830   67.39750   57.15010   57.15010   30.62380   26.78050   21.65710   26.78050    -999.25    0.25280    0.20010    2.44670  -61.99970   -4.41050   21.65710
 3550.00000   13.28550    -999.25   13.28550  182.48510    0.04750    0.04750    2.43280    -999.25    0.13060    0.16210    5.47990   96.03120   96.03120   95.13650   85.17990   85.17990    5.47990    5.20860    5.65960    5.20860    -999.25    0.35920    0.31100    2.43280  -60.50760   -4.25640    5.65960
 3600.00000   13.74510    -999.25   13.74510  261.26710    0.17740    0.17740    2.32150    -999.25    0.19960    0.22720    3.82750  104.31700  104.31700  102.59720   88.76080   88.76080    3.82750    3.59600    4.00960    3.59600    -999.25    0.48810    0.45260    2.32150  -63.15730  -10.85010    4.00960
 3650.00000   13.34110    -999.25   13.34110  225.68270    0.05260    0.05260    2.40600    -999.25    0.14410    0.17780    4.43100   92.12010   92.12010  118.06540  100.57840  100.57840    4.43100    4.13380    4.65690    4.13380    -999.25    0.37930    0.33250    2.40600  -58.39560  -12.16450    4.65690
 3700.00000   13.23970    -999.25   13.23970   89.36150    0.07640    0.07640    2.47140    -999.25    0.10800    0.13950   11.19050   88.34780   88.34780   94.46190   83.48350   83.48350   11.19050   11.41190    9.43990   11.41190    -999.25    0.37880    0.33200    2.47140  -47.03990   -6.88490    9.43990
 3750.00000   15.00000    -999.25   15.00000  182.61840    0.17420    0.17420    1.89340    -999.25    0.45670    0.47750    5.47590   91.76640   91.76640   86.76530   78.73610   78.73610    5.47590    5.12260    5.53030    5.12260    -999.25    0.40990    0.36580    1.89340  -33.18750   -4.23340    5.53030
 3800.00000   12.89990    -999.25   12.89990  180.82530    0.22300    0.22300    1.88580    -999.25    0.43310    0.48200    5.53020   82.75530   82.75530   84.31910   78.37350   78.37350    5.53020    5.29640    5.84830    5.29640    -999.25    0.36620    0.31840    1.88580  -16.63060   -1.28890    5.84830
 3850.00000   14.88080    -999.25   14.88080  227.78010    0.15390    0.15390    1.71030    -999.25    0.57420    0.58460    4.39020  113.74850  113.74850   96.04630   93.24210   93.24210    4.39020    3.77940    4.21430    3.77940    -999.25    0.51220    0.47940    1.71030   -5.58400  -14.41110    4.21430
 3900.00000   13.89520    -999.25   13.89520   91.51640    0.22500    0.22500    2.30670    -999.25    0.21750    0.23580   10.92700   81.04660   81.04660   72.23940   67.67310   67.67310   10.92700    9.11580   10.32410    9.11580    -999.25    0.37470    0.32760    2.30670  -11.77120   -5.70770   10.32410
 3950.00000   15.00890    -999.25   15.00890  125.74660    0.24740    0.24740    2.14780    -999.25    0.30170    0.32880    7.95250   80.06860   80.06860   70.26570   61.56830   61.56830    7.95250    7.40090    8.73240    7.40090    -999.25    0.38830    0.34230    2.14780  -25.89280   -8.28730    8.73240
 4000.00000   15.00000    -999.25   15.00000  178.81410    0.20260    0.20260    1.96680    -999.25    0.41970    0.43460    5.59240   87.21740   87.21740   77.44910   69.20030   69.20030    5.59240    5.43100    5.27120    5.43100    -999.25    0.44060    0.39960    1.96680  -35.85290   -7.70570    5.27120
 4050.00000   12.70470    -999.25   12.70470  100.87970    0.07310    0.07310    2.49260    -999.25    0.09790    0.12710    9.91280   80.61940   80.61940   82.88300   86.70520   86.70520    9.91280    9.30290    8.61950    9.30290    -999.25    0.34800    0.29900    2.49260  -39.18620   -2.83260    8.61950
