~Version ---------------------------------------------------
VERS.      2.0 : CWLS log ASCII Standard -VERSION 2.0
WRAP.       NO : One line per depth step
CREA. 12/11/17 : LAS Creation Date
~Well ------------------------------------------------------
STRT.FT                         700.0 : START DEPTH
STOP.FT                        9950.0 : STOP DEPTH
STEP.FT                      50.00000 : STEP LENGTH
NULL.                         -999.25 : NULL VALUE
COMP.      CANADIAN SUPERIOR OIL LTD. : COMPANY
WELL. CDN. SUP. SAKWATAMAU 10-4-63-15 : WELL
FLD .                  SAKWATAMAU  WC : FIELD
LOC .                                 : LOCATION
CTRY.                          CANADA : COUNTRY
SRVC.                      Lane Wells : SERVICE COMPANY
DATE.                     12-Feb-1963 : LOGDATE
PROV.                         Alberta : PROVINCE
UWI .                100100406315W500 : UNIQUE WELL ID
SLAT.WGS84                   54.42373 : SURFACE LATITUDE
SLON.WGS84                  -116.2015 : SURFACE LONGITUDE
~Curve Information -----------------------------------------
DEPT  .FT    : Depth Curve
CALWS .IN    : CALIPER [MCALED]
CILED .MMHO  : CONDUCTIVITY FROM RESISTIVITY LOG
CONDWS.MMHO  : CONDUCTIVITY [1000/DRESWS]
DRESWS.OHMM  : DEEP RESISTIVITY [1000/CILED IF ILED<=5, ILED]
DTED  .US/F  : DELTA-T FROM SONIC LOG [ADJ. TO RESISTIVITY LOG]
DTWS  .US/F  : COMPRESSIONAL SONIC [DTED]
GRSED .GAPI  : GAMMA RAY FROM SONIC LOG
GRWS  .GAPI  : GAMMA RAY [GRSED]
ILED  .OHMM  : INDUCTION RESISTIVITY FROM RESISTIVITY LOG
MCALED.IN    : MICRO CALIPER FROM ML LOG
MINVED.OHMM  : MICRO INVERSE FROM ML LOG
MNORED.OHMM  : MICRO NORMAL FROM ML LOG
SNED  .OHMM  : SHORT NORMAL RESISTIVITY FROM RESISTIVITY LOG
SPRED .MV    : SPONTANEOUS POTENTIAL FROM RESISTIVITY LOG
SPWS  .MV    : SPONTANEOUS POTENTIAL [BASELINE 0 MV, SPRED]
SRESWS.OHMM  : SHALLOW RESISTIVITY [SNED]
~Params ----------------------------------------------------
PD  .                     GL : PERMANENT DATUM
EPD .FT                 3236 : ELEVATION PERMANENT DATUM
LMF .                     KB : LOG MEASURED FROM
DAPD.FT                   13 : FEET ABOVE PERMANENT DATUM
DMF .                     KB : DRILLING MEASURED FROM
EKB .FT                 3249 : KELLY BUSHING
EGL .FT                 3236 : GROUND LEVEL
DATE.               02/12/63 : RUN DATE
RUN .                      2 : RUN NUMBER
DD  .FT                 9959 : DEPTH DRILLER
DL  .FT                 9954 : DEPTH LOGGER
BLI .FT                 9953 : BOTTOM LOG INTERVAL
TLI .FT                 6500 : TOP LOG INTERVAL
CS  .IN                10.75 : CASING SIZE
CBD .FT                  679 : CASING BOTTOM DRILLER
CBL .FT                  678 : CASING BOTTOM LOGGER
BS  .IN                    9 : BIT SIZE
BSD .FT                 9959 : BIT SIZE AT DEPTH
DFT .                MUD GEL : DRILLING FLUID TYPE
DFD .                   10.2 : DRILLING FLUID DENSITY
DFV .                     98 : DRILLING FLUID VISCOSITY
DFPH.                     10 : DRILLING FLUID PH
DFL .                    6.8 : DRILLING FLUID LOSS
MSS .                   CIRC : MUD SAMPLE SOURCE
RMS .OHMM                2.2 : RESISTIVITY MUD SAMPLE
MST .DEGF                 70 : MUD SAMPLE TEMPERATURE
RMF .OHMM                2.5 : RESISTIVITY MUD FILTRATE SAMPLE
MFST.DEGF                 52 : MUD FILTRATE SAMPLE TEMPERATURE
RMC .OHMM                2.8 : RESISTIVITY MUD CAKE
MCST.DEGF                 61 : MUD CAKE SAMPLE TEMPERATURE
MFSS.                   MEAS : MUD FILTRATE SAMPLE SOURCE
MCSS.                   MEAS : MUD CAKE SAMPLE SOURCE
RMB .OHMM               0.83 : RESISTIVITY MUD AT BHT
TCS .HRS                   7 : TIME CIRCULATED STOPPED
LUN .                   8035 : LOGGING UNIT NUMBER
LUL .                    EDM : LOGGING UNIT LOCATION
ENGI.                  BLAND : RECORDING ENGINEER
WITN.                SIEMENS : WITNESSED BY
CLNT.                A2DTECH : CLIENT CODE
ORIG.            2" 5" PRINT : ORIGIN OF DATA
UWI .       100100406315W500 : UNIQUE WELL ID
DICO. A2D Technologies, Inc. : DIGITIZING COMPANY
~Other -----------------------------------------------------
IEL-ML-ADSL LOG RUN
RESISTIVITY DATA FROM LINEAR SCALE OF 5" and 2" SECTION LOG
~ASCII -----------------------------------------------------
# ...
 2850.00000    -999.25  159.83410  132.11610    7.56910    -999.25    -999.25    -999.25    -999.25    7.56910    -999.25    -999.25    -999.25    6.97900  -44.47820  -11.02150    6.97900
 2900.00000    -999.25  157.93120  132.27340    7.56010    -999.25    -999.25    -999.25    -999.25    7.56010    -999.25    -999.25    -999.25    6.99490  -47.17390  -14.03870    6.99490
 2950.00000    -999.25  195.81190  152.83740    6.54290    -999.25    -999.25    -999.25    -999.25    6.54290    -999.25    -999.25    -999.25    6.19550  -45.57220  -12.75850    6.19550
 3000.00000    -999.25  215.69990  178.51720    5.60170    -999.25    -999.25    -999.25    -999.25    5.60170    -999.25    -999.25    -999.25    5.11030  -38.84740   -5.72620    5.11030
 3050.00000    -999.25  210.34310  198.03620    5.04960    -999.25    -999.25    -999.25    -999.25    5.04960    -999.25    -999.25    -999.25    6.14670  -40.70740   -6.41590    6.14670
 3100.00000    -999.25  152.55360  134.37610    7.44180   73.58270   73.58270   91.68310   91.68310    7.44180    -999.25    -999.25    -999.25    6.77870  -43.02190   -7.54840    6.77870
 3150.00000    -999.25   48.93640   44.83740   22.30280   64.56260   64.56260   66.38930   66.38930   22.30280    -999.25    -999.25    -999.25   19.85730  -64.08390  -28.21750   19.85730
 3200.00000    -999.25  187.58860  148.54210    6.73210   67.86910   67.86910   93.00590   93.00590    6.73210    -999.25    -999.25    -999.25    5.98380  -43.62210   -7.86350    5.98380
 3250.00000    -999.25   98.96650   90.20140   11.08630   62.56040   62.56040   85.59900   85.59900   11.08630    -999.25    -999.25    -999.25    9.91960  -47.56490  -11.91410    9.91960
 3300.00000    -999.25  149.70190  125.21670    7.98820   64.63270   64.63270   90.43640   90.43640    7.98820    -999.25    -999.25    -999.25    7.07280  -43.57410   -8.03060    7.07280
 3350.00000    -999.25  146.78040  126.70420    7.89240    -999.25    -999.25    -999.25    -999.25    7.89240    -999.25    -999.25    -999.25    7.18850  -44.71440   -9.27920    7.18850
 3400.00000    -999.25  106.77800   95.44170   10.47760    -999.25    -999.25    -999.25    -999.25   10.47760    -999.25    -999.25    -999.25    8.12260  -38.96320   -3.63570    8.12260
 3450.00000    -999.25   92.50290   80.58020   12.41000    -999.25    -999.25    -999.25    -999.25   12.41000    -999.25    -999.25    -999.25    9.71840  -45.12750   -9.90780    9.71840
 3500.00000    -999.25  126.95230  110.71990    9.03180    -999.25    -999.25    -999.25    -999.25    9.03180    -999.25    -999.25    -999.25    7.77180  -41.85200   -6.74010    7.77180
 3550.00000    -999.25  135.12200  119.88680    8.34120    -999.25    -999.25    -999.25    -999.25    8.34120    -999.25    -999.25    -999.25    8.90440  -40.94530   -5.94070    8.90440
 3600.00000    -999.25   61.15270   56.96350   17.55510    -999.25    -999.25    -999.25    -999.25   17.55510    -999.25    -999.25    -999.25   14.57230  -45.44800  -10.55170   14.57230
 3650.00000    -999.25  104.06720   93.98050   10.64050    -999.25    -999.25    -999.25    -999.25   10.64050    -999.25    -999.25    -999.25    8.85220  -36.48880   -1.48540    8.85220
 3700.00000    -999.25   87.71360   80.25040   12.46100    -999.25    -999.25    -999.25    -999.25   12.46100    -999.25    -999.25    -999.25    9.22280  -41.63600   -6.18910    9.22280
 3750.00000    -999.25  100.17570   91.16680   10.96890    -999.25    -999.25    -999.25    -999.25   10.96890    -999.25    -999.25    -999.25    8.24970  -40.02380   -4.13350    8.24970
 3800.00000    -999.25  115.28210   99.60670   10.03950    -999.25    -999.25    -999.25    -999.25   10.03950    -999.25    -999.25    -999.25    7.51580  -40.80240   -4.47090    7.51580
 3850.00000    -999.25   99.25780   90.86450   11.00540    -999.25    -999.25    -999.25    -999.25   11.00540    -999.25    -999.25    -999.25    8.48900  -43.80220   -7.02510    8.48900
 3900.00000    -999.25  104.48110   94.61900   10.56870    -999.25    -999.25    -999.25    -999.25   10.56870    -999.25    -999.25    -999.25    8.23110  -43.35620   -6.13570    8.23110
 3950.00000    -999.25  104.63380   92.19730   10.84630    -999.25    -999.25    -999.25    -999.25   10.84630    -999.25    -999.25    -999.25    7.79460  -45.13550   -7.47150    7.79460
 4000.00000    -999.25   93.87070   84.98700   11.76650    -999.25    -999.25    -999.25    -999.25   11.76650    -999.25    -999.25    -999.25    8.66730  -46.23060   -8.12320    8.66730
 4050.00000    -999.25  127.94450  114.30630    8.74900    -999.25    -999.25    -999.25    -999.25    8.74900    -999.25    -999.25    -999.25    7.27380  -45.73030   -7.18170    7.27380
 4100.00000    -999.25   87.71790   80.47120   12.42680    -999.25    -999.25    -999.25    -999.25   12.42680    -999.25    -999.25    -999.25   10.33710  -46.84240   -7.84820   10.33710
 4150.00000    -999.25  104.24660   90.44780   11.05610    -999.25    -999.25    -999.25    -999.25   11.05610    -999.25    -999.25    -999.25    9.43120  -46.83890   -7.40130    9.43120
 4200.00000    -999.25   93.03960   84.40310   11.84790    -999.25    -999.25    -999.25    -999.25   11.84790    -999.25    -999.25    -999.25    9.45340  -47.61710   -7.73600    9.45340
 4250.00000    -999.25   95.59100   87.87350   11.38000    -999.25    -999.25    -999.25    -999.25   11.38000    -999.25    -999.25    -999.25    9.32520  -48.96740   -8.64290    9.32520
 4300.00000    -999.25  112.82210  103.68220    9.64540    -999.25    -999.25    -999.25    -999.25    9.64540    -999.25    -999.25    -999.25    8.87030  -50.10240   -9.33670    8.87030
 4350.00000    -999.25  106.07510   97.79380   10.22560    -999.25    -999.25    -999.25    -999.25   10.22560    -999.25    -999.25    -999.25    9.47760  -49.98450   -8.77320    9.47760
 4400.00000    -999.25  106.92790   95.40260   10.48190    -999.25    -999.25    -999.25    -999.25   10.48190    -999.25    -999.25    -999.25   10.20230  -50.27490   -8.62010   10.20230
 4450.00000    -999.25  100.68150   92.39410   10.82320    -999.25    -999.25    -999.25    -999.25   10.82320    -999.25    -999.25    -999.25   11.68550  -48.95460   -6.85640   11.68550
 4500.00000    -999.25   77.23950   73.23860   13.65400    -999.25    -999.25    -999.25    -999.25   13.65400    -999.25    -999.25    -999.25   15.01640  -50.00390   -7.46230   15.01640
 4550.00000    -999.25  132.38070  122.54240    8.16050    -999.25    -999.25    -999.25    -999.25    8.16050    -999.25    -999.25    -999.25    8.64400  -49.37590   -6.39320    8.64400
 4600.00000    -999.25  168.55840  140.31740    7.12670    -999.25    -999.25    -999.25    -999.25    7.12670    -999.25    -999.25    -999.25    6.65550  -50.75820   -7.32980    6.65550
 4650.00000    -999.25  120.24540  106.38300    9.40000    -999.25    -999.25    -999.25    -999.25    9.40000    -999.25    -999.25    -999.25    8.74060  -50.15110   -6.27920    8.74060
 4700.00000    -999.25  140.91790  119.85380    8.34350    -999.25    -999.25    -999.25    -999.25    8.34350    -999.25    -999.25    -999.25    7.78170  -50.54440   -6.22910    7.78170
 4750.00000    -999.25  121.52320  108.14790    9.24660    -999.25    -999.25    -999.25    -999.25    9.24660    -999.25    -999.25    -999.25    8.32520  -52.33970   -7.58100    8.32520
 4800.00000    -999.25  173.31510  144.25770    6.93220    -999.25    -999.25    -999.25    -999.25    6.93220    -999.25    -999.25    -999.25    6.36480  -50.84910   -5.64920    6.36480
 4850.00000    -999.25  143.80890  130.30330    7.67440    -999.25    -999.25    -999.25    -999.25    7.67440    -999.25    -999.25    -999.25    8.13790  -51.29900   -5.65350    8.13790
 4900.00000    -999.25  197.24600  173.99780    5.74720    -999.25    -999.25    -999.25    -999.25    5.74720    -999.25    -999.25    -999.25    6.32020  -50.14520   -4.05620    6.32020
 4950.00000    -999.25  287.42170  287.42170    3.47920    -999.25    -999.25    -999.25    -999.25    4.33670    -999.25    -999.25    -999.25    4.90930  -50.29850   -3.76610    4.90930
