~Version ---------------------------------------------------
VERS.      2.0 : CWLS log ASCII Standard -VERSION 2.0
WRAP.       NO : One line per depth step
CREA. 08/02/17 : LAS Creation Date
~Well ------------------------------------------------------
STRT.FT                    300.0 : START DEPTH
STOP.FT                  10400.0 : STOP DEPTH
STEP.FT                 50.00000 : STEP LENGTH
NULL.                    -999.25 : NULL VALUE
COMP.     PHILLIPS PETROLEUM CO. : COMPANY
WELL. PHILLIPS KAYBOB 7-22-64-19 : WELL
FLD .                     KAYBOB : FIELD
LOC .                            : LOCATION
CTRY.                     CANADA : COUNTRY
SRVC.               Schlumberger : SERVICE COMPANY
DATE.                14-Jun-1957 : LOGDATE
PROV.                    Alberta : PROVINCE
UWI .           100072206419W500 : UNIQUE WELL ID
SLAT.WGS84              54.55064 : SURFACE LATITUDE
SLON.WGS84             -116.7821 : SURFACE LONGITUDE
~Curve Information -----------------------------------------
DEPT  .FT    : Depth Curve
CALED .IN    : CALIPER FROM CALIPER LOG
CALWS .IN    : CALIPER [CALED SPL. TO MCALED @ 9798']
CONDWS.MMHO  : CONDUCTIVITY [1000/DRESWS]
DRESWS.OHMM  : DEEP RESISTIVITY [LNED]
GRED  .CPS   : GAMMA RAY FROM RADIOACTIVITY LOG
GRNED .GAPI  : GAMMA RAY FROM GRN LOG
GRWS  .GAPI  : GAMMA RAY [GRED SPL. TO GRNED @ 196.5']
LNED  .OHMM  : LONG NORMAL RESISTIVITY FROM IEL LOG
LT18ED.OHMM  : LATERAL 18' FROM IEL LOG
MCALED.IN    : MLT (MICROLOG) CALIPER FROM MLL-CAL LOG
MLLED .OHMM  : MICRO FOCUSED LATEROLOG RESISTIVITY FROM MLL LOG
NEUTED.NAPI  : NEUTRON FROM GRN LOG
NEUTWS.NAPI  : NEUTRON [NEUTED]
SNED  .OHMM  : SHORT NORMAL RESISTIVITY FROM IEL LOG
SPRED .MV    : SPONTANEOUS POTENTIAL FROM IEL LOG
SPWS  .MV    : SPONTANEOUS POTENTIAL [BASELINE 0 MV, SPRED]
SRESWS.OHMM  : SHALLOW RESISTIVITY [SNED]
~Params ----------------------------------------------------
LMF .                     KB : LOG MEASURED FROM
DMF .                     KB : DRILLING MEASURED FROM
EKB .FT                 2450 : KELLY BUSHING
EGL .FT               2435.4 : GROUND LEVEL
DATE.               06/14/57 : RUN DATE
RUN .                      2 : RUN NUMBER
DD  .FT                10445 : DEPTH DRILLER
DL  .FT                10449 : DEPTH LOGGER
BLI .FT                10448 : BOTTOM LOG INTERVAL
TLI .FT                 9798 : TOP LOG INTERVAL
CBD .FT                 9803 : CASING BOTTOM DRILLER
CBL .FT                 9798 : CASING BOTTOM LOGGER
BS  .IN                    6 : BIT SIZE
BSD .FT                10445 : BIT SIZE AT DEPTH
DFT .                    GEL : DRILLING FLUID TYPE
DFD .                   10.6 : DRILLING FLUID DENSITY
DFV .                     96 : DRILLING FLUID VISCOSITY
DFPH.                    9.5 : DRILLING FLUID PH
DFL .                    4.2 : DRILLING FLUID LOSS
RMS .OHMM                2.3 : RESISTIVITY MUD SAMPLE
MST .DEGF                 62 : MUD SAMPLE TEMPERATURE
RMF .OHMM                2.3 : RESISTIVITY MUD FILTRATE SAMPLE
MFST.DEGF                 62 : MUD FILTRATE SAMPLE TEMPERATURE
RMC .OHMM               0.64 : RESISTIVITY MUD CAKE
MCST.DEGF                219 : MUD CAKE SAMPLE TEMPERATURE
RMB .OHMM               0.66 : RESISTIVITY MUD AT BHT
TCS .HRS                   2 : TIME CIRCULATED STOPPED
LUN .                   1534 : LOGGING UNIT NUMBER
LUL .                    V V : LOGGING UNIT LOCATION
ENGI.               THOMPSON : RECORDING ENGINEER
WITN.                HANKINS : WITNESSED BY
CLNT.                A2DTECH : CLIENT CODE
ORIG.            2" 5" PRINT : ORIGIN OF DATA
UWI .       100072206419W500 : UNIQUE WELL ID
DICO. A2D Technologies, Inc. : DIGITIZING COMPANY
~Other -----------------------------------------------------
~ASCII -----------------------------------------------------
# ...
 4400.00000   11.51490   11.51490  308.35650    3.24300   51.52620  135.42370  135.42370    3.24300    8.03110   13.98270    1.24150  190.68330  190.68330    4.77190  -75.85420   -8.06970    4.77190
 4450.00000   11.84540   11.84540  301.43180    3.31750   51.88040  108.10470  108.10470    3.31750    3.81480   14.70250    1.16900  194.72730  194.72730    3.67870  -76.29270   -8.70400    3.67870
 4500.00000   11.93730   11.93730  172.35730    5.80190   64.98060   97.88960   97.88960    5.80190    5.59880   14.53520    2.19100  203.43680  203.43680    5.17020  -76.63820   -9.24390    5.17020
 4550.00000   11.15940   11.15940  148.11120    6.75180   50.92300   99.49750   99.49750    6.75180    5.50320   12.91580    2.69460  199.54130  199.54130    6.25130  -76.26610   -9.06630    6.25130
 4600.00000   10.29970   10.29970   80.43760   12.43200   35.87720   75.68720   75.68720   12.43200   19.79290   11.00060    6.54080  227.96140  227.96140   14.08450  -86.19380  -19.18980   14.08450
 4650.00000   10.78340   10.78340  345.59030    2.89360   49.58350  100.52290  100.52290    2.89360    3.29630   11.65130    1.03110  186.42920  186.42920    2.18910  -80.13790  -13.32830    2.18910
 4700.00000    9.96910    9.96910   62.67510   15.95530   26.82300   88.13150   88.13150   15.95530    3.89500    9.63140   12.33980  218.95320  218.95320   13.48510  -86.45720  -19.84340   13.48510
 4750.00000    9.76300    9.76300   52.64570   18.99490   39.14300   81.17670   81.17670   18.99490    6.28860    9.62720   10.21630  258.37190  258.37190   12.28710  -91.29820  -24.87890   12.28710
 4800.00000   10.23680   10.23680   30.84890   32.42090   43.03730   80.67020   80.67020   32.42090    8.67960   10.02150   27.43570  277.86460  277.86460   28.62330  -93.29540  -27.07050   28.62330
 4850.00000   10.67460   10.67460   34.77810   28.75370   37.81580   95.22650   95.22650   28.75370   14.44010   10.95490   13.20430  198.54160  198.54160   15.54800  -82.11320  -16.08410   15.54800
 4900.00000   10.59970   10.59970   35.74530   27.97570   41.36310   79.39310   79.39310   27.97570   20.79010   10.88990   21.03690  224.05820  224.05820   21.32170  -94.49030  -28.65570   21.32170
 4950.00000   10.45380   10.45380   33.78300   29.60070   40.99430   90.44150   90.44150   29.60070   54.67300   10.87540   15.79280  214.47820  214.47820   18.53610  -85.48310  -19.84420   18.53610
 5000.00000   10.00630   10.00630   43.72360   22.87090   32.04750   99.45210   99.45210   22.87090    9.46520    9.61030   10.56480  225.84080  225.84080   15.34410  -75.13680   -9.69240   15.34410
 5050.00000    8.91800    8.91800   32.73030   30.55410   28.55030   78.57300   78.57300   30.55410   39.69130    9.15660   30.71090  227.43370  227.43370   24.56450  -82.70240  -17.45250   24.56450
 5100.00000    9.84270    9.84270   54.56700   18.32610   34.68930   91.63110   91.63110   18.32610   41.83590   10.03460   30.81100  212.29120  212.29120   15.62360  -66.43820   -1.70020   15.62360
 5150.00000    9.07320    9.07320   54.89290   18.21730   33.44650   85.57390   85.57390   18.21730   14.56620    9.56080   43.32770  263.84030  263.84030   13.88130  -90.39480  -27.94100   13.88130
 5200.00000    8.80080    8.80080   41.10200   24.32970   24.34360   61.82880   61.82880   24.32970    5.79380    9.21560   42.26640  256.64730  256.64730   28.28790 -130.52640  -70.37180   28.28790
 5250.00000   10.06300   10.06300   73.04980   13.68930   33.26620   94.23480   94.23480   13.68930   12.10560   10.63300   10.99800  241.87270  241.87270   11.13570  -64.05860   -6.18820   11.13570
 5300.00000    9.64520    9.64520   77.96210   12.82710   40.47610   90.35150   90.35150   12.82710   14.77360   10.11910   12.24150  228.22940  228.22940   12.23730  -63.81340   -8.22720   12.23730
 5350.00000    9.58610    9.58610   64.48780   15.50680   41.04520  100.80350  100.80350   15.50680   17.12210   10.02590   11.60080  239.59530  239.59530   14.01670  -56.60830   -3.32130   14.01670
 5400.00000    9.50960    9.50960   97.55050   10.25110   54.54890   85.01790   85.01790   10.25110   12.78310    9.97390    8.21350  216.86280  216.86280   12.62430  -56.20410   -5.20130   12.62430
 5450.00000    8.82640    8.82640   63.52880   15.74090   21.61550   67.68630   67.68630   15.74090    9.30880    9.09130   55.76660  243.96250  243.96250   18.35740  -87.79370  -38.10660   18.35740
 5500.00000    9.08710    9.08710   30.17290   33.14230   31.62270   86.48640   86.48640   33.14230   23.57020    9.51790   71.43210  237.15290  237.15290   25.18450  -68.44790  -19.92110   25.18450
 5550.00000    9.81460    9.81460   44.60960   22.41790   24.98150  110.38010  110.38010   22.41790    7.01270    9.96860   11.15650  229.00120  229.00120   13.08820  -60.87160  -13.50510   13.08820
 5600.00000   10.02920   10.02920   45.95060   21.76250   38.77030   94.98220   94.98220   21.76250    3.72520    9.53510   40.29870  240.80170  240.80170   15.86160  -62.50390  -16.30530   15.86160
 5650.00000   13.20310   13.20310  192.23380    5.20200   63.70280  105.87060  105.87060    5.20200    6.64920   14.72120    2.22220  190.36680  190.36680    4.00810  -67.20460  -22.16630    4.00810
 5700.00000   11.95210   11.95210  206.07930    4.85250   80.24440   98.98020   98.98020    4.85250    6.11610   15.04200    2.06170  187.14160  187.14160    4.65370  -69.91550  -26.04510    4.65370
 5750.00000   11.24040   11.24040   17.75010   56.33780   68.21510  163.08930  163.08930   56.33780   14.72770   11.27100   72.45910  198.82580  198.82580   41.94030  -63.11350  -20.40330   41.94030
 5800.00000   10.07380   10.07380   22.11270   45.22750   46.81860  109.76540  109.76540   45.22750   77.23430   11.34500   43.67080  188.72870  188.72870   26.19040  -67.75600  -26.20610   26.19040
 5850.00000   10.01150   10.01150    1.13770  878.99500  105.44720  198.36300  198.36300  878.99500 1907.26280    9.62570 1293.33280  245.58620  245.58620  202.95570  -77.99990  -37.61790  202.95570
 5900.00000   10.00010   10.00010   45.25460   22.09720   40.44240   92.27630   92.27630   22.09720   17.95910    9.80950   20.73390  257.61420  257.61420   20.05610  -84.12200  -44.90030   20.05610
 5950.00000    9.66910    9.66910   35.67580   28.03020   51.79410  109.72340  109.72340   28.03020   27.23720   10.03180   23.78070  249.44470  249.44470   23.11340  -74.45350  -36.39970   23.11340
 6000.00000    8.79000    8.79000   26.77090   37.35400   39.43370   85.23240   85.23240   37.35400   33.64080    9.45590   42.88480  276.42830  276.42830   29.48600  -92.88250  -55.98900   29.48600
 6050.00000    9.05570    9.05570   18.03590   55.44940   17.61710   40.49100   40.49100   55.44940   41.04070    9.45780   80.89380  301.54340  301.54340   40.90050 -131.44990  -95.71660   40.90050
 6100.00000    9.18630    9.18630    6.95990  143.68080   10.97020   48.96540   48.96540  143.68080   89.64910   10.01850  277.00730  330.08750  330.08750   81.32130 -111.03320  -76.46780   81.32130
 6150.00000    9.75200    9.75200    7.99010  125.15480   15.55260   47.49030   47.49030  125.15480   24.92260    9.60870  634.43680  366.58610  366.58610   90.80850 -193.94110 -160.53600   90.80850
 6200.00000    9.33280    9.33280   10.45980   95.60430   19.94170  119.87580  119.87580   95.60430   39.48250   10.21350  160.99050  310.21380  310.21380   52.72820  -77.16200  -44.92480   52.72820
 6250.00000    9.31270    9.31270   10.47800   95.43780   39.76860   78.87170   78.87170   95.43780  382.47240    9.81000   65.34870  317.14080  317.14080   47.36510  -72.35430  -41.27740   47.36510
 6300.00000    9.18540    9.18540    3.02330  330.76490   28.46050   46.75030   46.75030  330.76490  202.75570   10.26390  281.90080  406.09800  406.09800  148.30560 -148.06760 -118.15100  148.30560
 6350.00000    8.97790    8.97790   27.85550   35.89950   31.60670   62.02350   62.02350   35.89950    5.13300    9.67010  246.89230  307.01240  307.01240   32.96970 -146.72170 -117.97300   32.96970
 6400.00000    9.29470    9.29470   24.98990   40.01620   30.63950   58.35390   58.35390   40.01620   25.09860   10.16580   47.60370  276.57360  276.57360   32.01080 -168.46500 -140.87650   32.01080
