~Version ---------------------------------------------------
VERS. 2.0 : CWLS log ASCII Standard -VERSION 2.0
WRAP.  NO : ONE LINE PER DEPTH STEP
~Well ------------------------------------------------------
STRT.F                 1150.0 : START DEPTH
STOP.F                11250.0 : STOP DEPTH
STEP.F               50.00000 : STEP LENGTH
NULL.                 -999.25 : NULL VALUE
COMP.      ARC RESOURCES LTD. : COMPANY
WELL. ARC RES ANTE 2-23-66-25 : WELL
FLD .                      WC : FIELD
LOC .                         : LOCATION
CTRY.                  CANADA : COUNTRY
SRVC.            Schlumberger : SERVICE COMPANY
DATE.             03-Oct-1966 : LOGDATE
PROV.                 Alberta : PROVINCE
UWI .        100022306625W500 : UNIQUE WELL ID
SLAT.WGS84      54.7214917116 : SURFACE LATITUDE
SLON.WGS84    -117.6660237751 : SURFACE LONGITUDE
~Curve Information -----------------------------------------
DEPT.F    0   1   0  0 : 1 MEASURED DEPTH
GRS .GAPI 60 310 01 00 : GAMMA RAY FROM SONIC LOG
DT  .US/F 60 500 00 00 : DELTA-T (INTERVAL TRANSIT TIME)
CALS.IN   60 280 01 00 : CALIPER FROM SONIC LOG
CILD.MMHO 05 110 46 00 : INDUCTION DEEP CONDUCTIVITY
ILD .OHMM 05 120 46 00 : INDUCTION DEEP RESISTIVITY
SN  .OHMM 05 040 16 00 : SHORT NORMAL RESISTIVITY
SPR .MV   05 010 01 00 : SPONTANEOUS POTENTIAL FROM RESISTIVITY LOG
~Params ----------------------------------------------------
PD  .                     GL : PERMANENT DATUM
EPD .FT               2460.3 : ELEVATION PERMANENT DATUM
LMF .                     KB : LOG MEASURED FROM
DAPD.FT                 13.7 : FEET ABOVE PERMANENT DATUM
DMF .                     KB : DRILLING MEASURED FROM
EKB .FT                 2474 : KELLY BUSHING
EGL .FT               2460.3 : GROUND LEVEL
DATE.               10/03/66 : RUN DATE
RUN .                      1 : RUN NUMBER
DD  .FT                11270 : DEPTH DRILLER
DL  .FT                11270 : DEPTH LOGGER
BLI .FT                11269 : BOTTOM LOG INTERVAL
TLI .FT                 1156 : TOP LOG INTERVAL
CBD .FT                 1155 : CASING BOTTOM DRILLER
CBL .FT                 1156 : CASING BOTTOM LOGGER
BS  .IN                7.625 : BIT SIZE
BSD .FT                11270 : BIT SIZE AT DEPTH
DFT .                    GEL : DRILLING FLUID TYPE
DFD .                   10.1 : DRILLING FLUID DENSITY
DFV .                     75 : DRILLING FLUID VISCOSITY
DFPH.                      9 : DRILLING FLUID PH
DFL .                      8 : DRILLING FLUID LOSS
RMS .OHMM               2.75 : RESISTIVITY MUD SAMPLE
MST .DEGF                 62 : MUD SAMPLE TEMPERATURE
RMF .OHMM               2.53 : RESISTIVITY MUD FILTRATE SAMPLE
MFST.DEGF                 76 : MUD FILTRATE SAMPLE TEMPERATURE
RMC .OHMM               2.47 : RESISTIVITY MUD CAKE
MCST.DEGF                 68 : MUD CAKE SAMPLE TEMPERATURE
RMB .OHMM               0.93 : RESISTIVITY MUD AT BHT
TCS .HRS                   3 : TIME CIRCULATED STOPPED
LUN .                   3705 : LOGGING UNIT NUMBER
LUL .                    WCT : LOGGING UNIT LOCATION
ENGI.              DEMETRICK : RECORDING ENGINEER
WITN.            GOGOL BAHAN : WITNESSED BY
CLNT.                A2DTECH : CLIENT CODE
ORIG.            2" 5" PRINT : ORIGIN OF DATA
UWI .       100022306625W500 : UNIQUE WELL ID
DICO. A2D Technologies, Inc. : DIGITIZING COMPANY
~Other -----------------------------------------------------
~ASCII -----------------------------------------------------
# ...
 5650.00000   52.41190   73.16490   11.76840   84.23110   12.02960   17.99170  -98.09560
 5700.00000   47.90740   72.90750   10.69040  105.23910    9.96890   17.93520  -97.16600
 5750.00000   60.36470   75.36710   11.16910   79.67200   12.80150   13.59230  -77.48680
 5800.00000   65.61210   72.56720   11.08100   68.20670   14.83320   16.40230  -78.56950
 5850.00000   75.07380   82.60500   13.21060  102.03220    9.92230   10.70490  -74.68100
 5900.00000   24.49290   71.77430    9.48770   71.82420   14.08930   32.49270 -121.34120
 5950.00000   40.79720   71.78230   10.64410   73.85820   13.86030   23.06660 -104.38080
 6000.00000   13.87590  125.78460   12.13040   39.04140   24.90480   45.28890  -82.98230
 6050.00000   76.34720   68.90270   11.32090   58.33950   17.14130   25.88140  -74.02970
 6100.00000   73.36020   85.99240   11.34160   28.30790   34.44820   31.39900  -74.51500
 6150.00000   72.62100   71.82320   11.15600   55.55420   18.18900   21.74020  -80.88250
 6200.00000   50.12750   66.36200   11.37690   86.15040   11.48220   13.21270  -77.21810
 6250.00000   58.28370   65.29930   10.68760   44.39270   22.78630   19.36450  -76.07330
 6300.00000   67.30640   70.91470   11.96250   91.54170   11.27540   10.90960  -74.12210
 6350.00000   23.22350   69.85790    9.41520  176.71330    5.86410   26.68710 -140.11100
 6400.00000   70.01640   98.91790   14.17730  493.20120    2.51580    3.43520  -76.69450
 6450.00000  125.39030  122.59710   10.67020   11.27050   87.88880  129.41740  -75.75560
 6500.00000    -999.25   76.95390    9.90670    4.44790  257.90620  228.72630  -86.76070
 6550.00000   67.04490   67.22190   10.05570   31.05410   32.28680   44.62730  -92.86910
 6600.00000   70.88990   64.72790   10.15850   39.90220   25.56320   29.55330  -64.19300
 6650.00000   68.41370   62.77880    9.88750  101.23010    9.83970   23.84980  -92.08580
 6700.00000   77.29420   62.24460    9.92180  117.22900    8.54220   18.92760  -91.83730
 6750.00000   69.86060   60.44480    9.92350   35.48400   28.37720   33.14750  -82.79030
 6800.00000   73.99790   63.51960   10.48920   41.59410   24.31300   27.25810  -77.95590
 6850.00000   73.72610   61.64770    9.92540   36.59590   27.21970   29.10220  -80.10840
 6900.00000   60.36460   63.65180    9.94920  119.58450    8.77380   20.05470  -97.95120
 6950.00000   79.03830   62.32450   10.09370   34.85650   28.49170   33.23590  -74.45770
 7000.00000   12.30200   58.14930    9.06210  197.50400    5.13810   42.21650 -153.55090
 7050.00000   13.66580   69.43480    9.17230  249.60930    4.20650   30.85670 -152.18120
 7100.00000   24.65250   49.37080   10.08720   47.29550   20.66030   31.82760  -96.34080
 7150.00000   33.90380   52.05230    9.78230    6.73900  133.46990  127.23770  -80.97280
 7200.00000   48.00240   52.33810    9.83120   11.92620   80.61790  122.39400  -77.38590
 7250.00000   37.78470   59.25310   10.17460   91.43380   13.00270   35.75090 -108.38800
 7300.00000   20.60580   55.75280    9.80590  126.99700    7.71790   44.15380 -133.78590
 7350.00000   21.85930   50.88550   10.08520   63.86330   14.68180   34.52480 -103.13160
 7400.00000   24.16670   59.93980    9.25650   96.53440   10.30570   61.40960 -141.89040
 7450.00000   14.42130   52.61960   10.58250   12.42350   79.18430   85.48280  -94.97560
 7500.00000   19.08480   50.30900    9.68680  569.66530    2.15420   23.81860 -135.69450
 7550.00000   20.84530   54.94800    9.61680  125.66540    7.95390   45.51430 -114.48600
 7600.00000   21.21820   49.55360   10.28550   17.66180   54.36570   79.49970  -68.05940
 7650.00000   40.36970   54.66380   10.82410   19.86490   56.37800   82.22640  -49.34960
 7700.00000   31.59220   64.27640   10.71080  245.34810    4.26060   19.70800  -95.87040
 7750.00000   12.57640   53.45770    9.94090   99.67290    9.84350   49.18040 -121.95950
 7800.00000   19.05390   53.25560   10.24650   14.47090   69.26030   84.47060  -72.11690
 7850.00000   28.10820   53.12530    9.68220   21.63690   46.22540   58.31500  -70.70420
 7900.00000   14.91470   53.32740    9.67430    4.84420  201.65620  247.70500 -114.47850
 7950.00000   12.54020   49.31250    9.94250   23.00660   43.54480  120.98330 -135.28810
 8000.00000   11.47520   50.67260   10.88790    5.39170  165.18330  147.02900 -121.95320
 8050.00000   58.89970   58.62280   10.63640   80.83810   12.37150   20.91330  -67.50580
 8100.00000   48.36050   60.11610    9.89100   99.88110   10.08230   14.70700  -63.17830
 8150.00000   36.96720   51.31750   10.00670   76.04590   13.19890   22.91040  -52.71250
 8200.00000   41.77450   55.13570   10.68530   70.62280   14.32800   20.79450  -45.01430
 8250.00000   16.18800   55.24140   10.25420   30.58670   32.73730   39.47580  -40.89790
 8300.00000   32.65580   55.42410    9.70420   30.21050   33.43470   46.03370  -46.24540
 8350.00000   12.45910   49.81270   11.29650    9.96290   98.44380  117.07180  -61.25130
 8400.00000   42.35740   55.71370    9.70120   19.11290    -999.25   66.81590  -42.99780
 8450.00000   40.52040   56.94190   10.14360   29.14140   34.53020   43.43740  -46.29290
 8500.00000   68.13610   62.44270   11.39870   53.33160   18.80080   22.30460  -49.30430
 8550.00000   53.87030   58.62240    9.80350   33.30160   30.01440   38.27600  -54.69760
 8600.00000   25.63620   52.53290    9.64830    7.16700  126.84920  141.46190  -52.70400
 8650.00000   53.51420   60.31170   10.10710   37.94280   25.77670   37.35320  -58.06020
 8700.00000   17.69080   51.96590   11.90150    8.52910  109.69270  107.63660  -93.43120
 8750.00000   13.82090   50.87640   10.83970    5.17000  211.12070  441.01590  -95.90320
 8800.00000   13.03200   49.26560   10.47500    4.63710  309.60180  256.67500 -106.05480
 8850.00000   13.26890   49.55720   10.53170    3.83720  289.16330  263.20540 -105.00720
 8900.00000   11.25650   50.38670   10.60660    4.51660  297.88890  246.97020 -101.79520
 8950.00000    8.24230   48.29140   10.44200    1.00130  378.13850  289.39420  -84.43740
 9000.00000    8.02370   49.18360   10.22710   19.15430   61.43890  109.05400  -98.41430
 9050.00000    7.68850   49.70970    9.68560    7.42570  211.50340  160.84550 -103.64080
 9100.00000    8.98560   49.33520   10.28460    6.20810  176.43070  157.35490  -99.79890
 9150.00000   12.01150   49.37820   10.45480    1.58690  429.47960  379.83670  -85.01990
 9200.00000   13.02230   48.93070   10.12880    6.25130  211.38900  209.82470  -89.40900
 9250.00000   10.76030   47.84350   10.37360    1.27690  415.49850  330.11120  -83.07730
 9300.00000   13.10170   49.46220   10.42860    2.23670    -999.25  321.65950  -88.41130
 9350.00000   13.09900   48.86970   10.42660    1.34460  545.32040  327.21660  -81.08190
 9400.00000   14.93010   49.80400   10.19230    2.12170  496.04130  204.90840  -96.15120
 9450.00000   12.75650   49.90450    9.54070   29.60540   32.90990   72.87580 -103.58650
 9500.00000   13.05310   50.08110    9.43380   35.68250   27.47370  112.01710 -124.71670
 9550.00000   12.82190   49.47870    9.66230   15.44590   62.04370  156.60240 -112.06790
 9600.00000   18.04460   52.33420    9.11010   79.21990   12.74100   59.38320 -122.18600
 9650.00000   14.28690   54.32750    9.24520   54.33240   21.55260   70.98260 -131.75400
 9700.00000   22.14740   51.75790   10.10820   23.54650   42.36150   65.59180 -114.29140
 9750.00000   19.00280   49.37700   10.11180    2.04590  495.63480  402.26690  -83.96580
 9800.00000   24.68190   50.74140    9.54490    2.53870  236.53370  145.23370  -55.24140
 9850.00000   26.01450   50.99660   10.13220    7.73500  171.79080  143.39470  -55.75400
 9900.00000   28.88590   51.34440    9.65060    6.12310  145.19120  121.39720  -62.19780
 9950.00000   24.90550   52.20100    9.69050    6.59840  203.50250  136.29020  -68.64250
 10000.00000   33.91360   52.78350    9.70160   11.53750   85.53310   90.18210  -53.95030
 10050.00000   31.35540   54.34740    9.71210   18.13960   55.12980   66.87290  -53.77560
 10100.00000   27.58670   53.28970    9.74980   10.77320   90.92390  102.52250  -69.65580
