~Version ---------------------------------------------------
VERS.      2.0 : CWLS log ASCII Standard -VERSION 2.0
WRAP.       NO : One line per depth step
CREA. 09/27/17 : LAS Creation Date
~Well ------------------------------------------------------
STRT.FT                        300.0 : START DEPTH
STOP.FT                      12850.0 : STOP DEPTH
STEP.FT                     50.00000 : STEP LENGTH
NULL.                        -999.25 : NULL VALUE
COMP.  WESTERN DECALTA PETROLEUM LTD : COMPANY
WELL. DECALTA ET AL BRAZR 6-31-47-13 : WELL
FLD .                  BRAZEAU RIVER : FIELD
LOC .                                : LOCATION
CTRY.                         CANADA : COUNTRY
SRVC.                   Schlumberger : SERVICE COMPANY
DATE.                    15-Mar-1978 : LOGDATE
PROV.                        Alberta : PROVINCE
UWI .               100063104713W500 : UNIQUE WELL ID
SLAT.WGS84                  53.09535 : SURFACE LATITUDE
SLON.WGS84                 -115.8946 : SURFACE LONGITUDE
~Curve Information -----------------------------------------
DEPT    .FT    : Depth Curve
CALDED  .IN    : CALIPER FROM DENSITY LOG [ADJ. TO RESISTIVITY LOG]
CALSED  .IN    : CALIPER FROM SONIC LOG [ADJ. TO RESISTIVITY LOG]
CALWS   .IN    : CALIPER [CALSED]
CONDWS  .MMHO  : CONDUCTIVITY [1000/DRESWS]
DCORWS  .G/C3  : DENSITY CORRECTION [DRHOED]
DENWS   .G/C3  : FORAMTION BULK DENSITY [CALC FROM DPOLSWS,M=2.71, F=1.00]
DPHILSED.V/V   : DENSITY POROSITY LIMESTONE [M=2.71, F=1.00] FROM DENSITY LOG [ADJ. TO RESISTIVITY LOG]
DPHISSED.V/V   : DENSITY POROSITY SANDSTONE [M=2.65, F=1.00] FROM DENSITY LOG [ADJ. TO RESISTIVITY LOG]
DPOLSWS .V/V   : DENSITY POROSITY LIMESTONE [DPHISSED MATRIX CONVERTED TO LS & SPL. TO DPHILSED @ 9450']
DRESWS  .OHMM  : DEEP RESISTIVITY [ILDED]
DRHOED  .G/C3  : DENSITY CORRECTION FROM DENSITY LOG [ADJ. TO RESISTIVITY LOG]
DTED    .US/F  : DELTA TIME FROM SONIC LOG [ADJ. TO RESISTIVITY LOG]
DTWS    .US/F  : COMPRESSIONAL SONIC [DTED]
GRDED   .GAPI  : GAMMA RAY FROM DENSITY LOG [ADJ. TO RESISTIVITY LOG]
GRSED   .GAPI  : GAMMA RAY FROM SONIC LOG [ADJ. TO RESISTIVITY LOG]
GRWS    .GAPI  : GAMMA RAY [GRSED SPL. TO GRDED @ 12818']
ILDED   .OHMM  : DEEP INDUCTION RESISTIVITY FROM RESISTIVITY LOG
ILMED   .OHMM  : MEDIUM INDUCTION RESISTIVITY FROM RESISTIVITY LOG
LL8ED   .OHMM  : 8 INCH LATEROLOG RESISTIVITY FROM RESISTIVITY LOG
MRESWS  .OHMM  : MEDIUM RESISTIVITY [ILMED]
NPHILSED.V/V   : NEUTRON POROSITY LIMESTONE FROM DENSITY LOG [ADJ. TO RESISTIVITY LOG]
NPHISSED.V/V   : NEUTRON POROSITY SANDSTONE FROM DENSITY LOG [ADJ. TO RESISTIVITY LOG]
NPOLSWS .V/V   : NEUTRON POROSITY LIMESTONE [NPHISSED MATRIX CONVERTED TO LS & SPL. TO NPHILSED @ 9350']
RHOBED  .G/C3  : BULK DENSITY FROM DENSITY LOG [ADJ. TO RESISTIVITY LOG]
SPRED   .MV    : SPONTANEOUS POTENTIAL FROM RESISTIVITY LOG
SPWS    .MV    : SPONTANEOUS POTENTIAL [BASELINE 0 MV, SPRED]
SRESWS  .OHMM  : SHALLOW RESISTIVITY [LL8ED]
~Params ----------------------------------------------------
PD  .                     GL : PERMANENT DATUM
EPD .FT                 3420 : ELEVATION PERMANENT DATUM
LMF .                     KB : LOG MEASURED FROM
DAPD.FT                   27 : FEET ABOVE PERMANENT DATUM
DMF .                     KB : DRILLING MEASURED FROM
EGL .FT                 3420 : GROUND LEVEL
DATE.               03/15/78 : RUN DATE
RUN .                      2 : RUN NUMBER
DD  .FT                12857 : DEPTH DRILLER
DL  .FT                12856 : DEPTH LOGGER
BLI .FT                12850 : BOTTOM LOG INTERVAL
TLI .FT                10390 : TOP LOG INTERVAL
CS  .IN                9.625 : CASING SIZE
CBD .FT                10395 : CASING BOTTOM DRILLER
CBL .FT                10390 : CASING BOTTOM LOGGER
BS  .IN                6.125 : BIT SIZE
BSD .FT                12857 : BIT SIZE AT DEPTH
DFT .                    GEL : DRILLING FLUID TYPE
DFD .                   10.3 : DRILLING FLUID DENSITY
DFV .                     44 : DRILLING FLUID VISCOSITY
DFPH.                   11.5 : DRILLING FLUID PH
DFL .                    8.8 : DRILLING FLUID LOSS
MSS .               FLOWLINE : MUD SAMPLE SOURCE
RMS .OHMM               0.89 : RESISTIVITY MUD SAMPLE
MST .DEGF                 62 : MUD SAMPLE TEMPERATURE
TCS .HRS                 2.5 : TIME CIRCULATED STOPPED
LUN .                   7687 : LOGGING UNIT NUMBER
LUL .                    EDA : LOGGING UNIT LOCATION
ENGI.               BERNISKY : RECORDING ENGINEER
WITN.                  COWAN : WITNESSED BY
CLNT.                A2DTECH : CLIENT CODE
ORIG.            2" 5" PRINT : ORIGIN OF DATA
UWI .       100063104713W500 : UNIQUE WELL ID
DICO. A2D Technologies, Inc. : DIGITIZING COMPANY
~Other -----------------------------------------------------
DIL-LL-CNL-FDC-BHC LOG RUN
NEUTRON CONVERSION: SCHLUMBERGER, DESCRIPTION: CNL(NPHI)
~ASCII -----------------------------------------------------
# ...
 12000.00000    7.42270    6.51710    6.51710  206.67140    0.08610    2.75780   -0.02400    -999.25   -0.02400    4.83860    0.08610   69.94250   69.94250   78.81310   71.89020   71.89020    4.83860    4.32480    6.89440    4.32480    0.16350    -999.25    0.16350    2.75570 -293.89610 -144.18550    6.89440
 12050.00000   10.07070    7.53810    7.53810  257.03640    0.26710    2.52950    0.10090    -999.25    0.10090    3.89050    0.26710   80.59160   80.59160  105.40890   96.96610   96.96610    3.89050    3.61030    5.47490    3.61030    0.23420    -999.25    0.23420    2.55500 -314.74300 -168.45410    5.47490
 12100.00000    7.69340    6.39010    6.39010  209.50740    0.05930    2.76390   -0.03150    -999.25   -0.03150    4.77310    0.05930   71.57950   71.57950   97.29600   84.12730   84.12730    4.77310    4.20410    7.45050    4.20410    0.16460    -999.25    0.16460    2.76190 -327.21590 -184.34880    7.45050
 12150.00000    8.34280    6.64360    6.64360  254.49180    0.05050    2.78370   -0.05030    -999.25   -0.05030    3.92940    0.05050   73.43210   73.43210   82.80370   78.99520   78.99520    3.92940    3.80180    5.76660    3.80180    0.16400    -999.25    0.16400    2.78890 -247.70260 -108.25720    5.76660
 12200.00000    8.55110    6.59160    6.59160   51.93810    0.02540    2.54140    0.09860    -999.25    0.09860   19.25370    0.02540   91.58770   91.58770  191.19160  203.96760  203.96760   19.25370   22.49850   43.46270   22.49850    0.22900    -999.25    0.22900    2.54620 -241.67400 -105.65030   43.46270
 12250.00000    7.91730    6.15060    6.15060   32.57380    0.24500    2.50110    0.13250    -999.25    0.13250   30.69950    0.24500   73.44990   73.44990   90.58160   83.18100   83.18100   30.69950   30.25670   63.89520   30.25670    0.11460    -999.25    0.11460    2.49710 -156.42640  -23.82450   63.89520
 12300.00000   11.24900    7.24490    7.24490  175.97270    0.27530    2.40310    0.19350    -999.25    0.19350    5.68270    0.27530   87.47540   87.47540  110.02870   98.64020   98.64020    5.68270    5.03660    8.84960    5.03660    0.20360    -999.25    0.20360    2.37450 -161.92400  -40.07290    8.84960
 12350.00000   12.33290    7.85770    7.85770  367.02640    0.20230    2.12060    0.34470    -999.25    0.34470    2.72460    0.20230   87.26140   87.26140   90.61730   77.77930   77.77930    2.72460    2.86840    4.43780    2.86840    0.28320    -999.25    0.28320    2.13150 -167.62230  -63.56360    4.43780
 12400.00000    8.55350    6.97500    6.97500   51.56130    0.03380    2.71970   -0.00890    -999.25   -0.00890   19.39440    0.03380   55.63630   55.63630   32.78170   32.88570   32.88570   19.39440   21.12330   38.79020   21.12330    0.05140    -999.25    0.05140    2.73330 -169.61980  -83.35360   38.79020
 12450.00000    8.34170    6.80930    6.80930  144.32930    0.03800    2.70560    0.00260    -999.25    0.00260    6.92860    0.03800   63.49300   63.49300   68.09930   61.37460   61.37460    6.92860    7.77790   12.77610    7.77790    0.10270    -999.25    0.10270    2.69820 -140.88870  -72.41500   12.77610
 12500.00000    8.54520    6.78050    6.78050   14.27050    0.02710    2.75200   -0.01140    -999.25   -0.01140   70.07470    0.02710   51.08630   51.08630   18.64020   14.88890   14.88890   70.07470   78.08930  402.41740   78.08930    0.01300    -999.25    0.01300    2.72730 -152.22150 -101.54020  402.41740
 12550.00000    7.14630    6.51880    6.51880   67.29110    0.05140    2.79510   -0.05090    -999.25   -0.05090   14.86080    0.05140   60.37430   60.37430   65.12780   60.73710   60.73710   14.86080   14.29900   23.63280   14.29900    0.09670    -999.25    0.09670    2.78250 -150.39270 -117.50390   23.63280
 12600.00000    7.12170    6.49810    6.49810   35.68040    0.00570    2.68140    0.01670    -999.25    0.01670   28.02660    0.00570   56.43400   56.43400   49.45040   44.67760   44.67760   28.02660   38.76460   54.04690   38.76460    0.06100    -999.25    0.06100    2.68780 -100.89740  -85.80110   54.04690
 12650.00000    7.58470    6.53720    6.53720   18.10820    0.01630    2.74300   -0.01830    -999.25   -0.01830   55.22360    0.01630   52.80850   52.80850   35.24620   31.29110   31.29110   55.22360   84.62310  136.00940   84.62310    0.02960    -999.25    0.02960    2.73140  -22.39540  -25.09160  136.00940
 12700.00000    7.61410    6.59850    6.59850    0.59650    0.06730    2.75430   -0.02590    -999.25   -0.02590 1676.51040    0.06730   49.56750   49.56750   16.63610   10.98550   10.98550 1676.51040 1616.46550 1413.69230 1616.46550    0.00840    -999.25    0.00840    2.75070  -28.62880  -39.50950 1413.69230
 12750.00000    8.16940    6.45590    6.45590    0.64080    0.28450    2.61510    0.05980    -999.25    0.05980 1560.43840    0.28450   49.93710   49.93710   13.78690   10.88680   10.88680 1560.43840 1384.32400 1470.22130 1384.32400    0.00930    -999.25    0.00930    2.60560 -172.87400 -183.75470 1470.22130
 12800.00000    6.58480    6.83890    6.83890    0.68820    0.04530    2.74690   -0.03510    -999.25   -0.03510 1453.15610    0.04530   52.88110   52.88110   33.00310   29.87910   29.87910 1453.15610 1635.18190  941.44290 1635.18190    0.01520    -999.25    0.01520    2.76960 -255.41960 -266.30030  941.44290
 12850.00000    6.05130    8.30790    8.30790    -999.25    0.03550    2.76420   -0.03170    -999.25   -0.03170    -999.25    0.03550    -999.25    -999.25    -999.25    -999.25    -999.25    -999.25    -999.25    -999.25    -999.25    -999.25    -999.25    -999.25    2.75310    -999.25    -999.25    -999.25
