~Version ---------------------------------------------------
VERS. 2.0 : CWLS log ASCII Standard -VERSION 2.0
WRAP.  NO : ONE LINE PER DEPTH STEP
~Well ------------------------------------------------------
STRT.F                              1100.0 : START DEPTH
STOP.F                             11250.0 : STOP DEPTH
STEP.F                            50.00000 : STEP LENGTH
NULL.                              -999.25 : NULL VALUE
COMP.                 PETROFINA CANADA LTD : COMPANY
WELL. FINA AMOCO HB SAKWATAMAU 10-21-62-15 : WELL
FLD .                                   WC : FIELD
LOC .                                      : LOCATION
CTRY.                               CANADA : COUNTRY
SRVC.                         Schlumberger : SERVICE COMPANY
DATE.                          21-Aug-1976 : LOGDATE
PROV.                              Alberta : PROVINCE
UWI .                     100102106215W500 : UNIQUE WELL ID
SLAT.WGS84                        54.37886 : SURFACE LATITUDE
SLON.WGS84                       -116.1857 : SURFACE LONGITUDE
~Curve Information -----------------------------------------
DEPT   .F    0   1   0  0 : 1 MEASURED DEPTH
SPR    .MV   07 010 01 00 : SPONTANEOUS POTENTIAL FROM RESISTIVITY LOG
ILD    .OHMM 07 120 46 00 : INDUCTION DEEP RESISTIVITY
ILM    .OHMM 07 120 44 00 : INDUCTION MEDIUM RESISTIVITY
LL8    .OHMM 07 220 08 00 : LATEROLOG 8
CILD   .MMHO 07 110 46 00 : INDUCTION DEEP CONDUCTIVITY
GRS    .GAPI 60 310 01 00 : GAMMA RAY FROM SONIC LOG
CALS   .IN   60 280 50 00 : CALIPER FROM SONIC LOG
DT     .US/F 60 500 00 00 : DELTA-T (INTERVAL TRANSIT TIME)
CALD   .IN   45 280 60 00 : CALIPER FROM DENSITY LOG
DRHO   .G/C3 45 356 01 00 : BULK DENSITY CORRECTION
GRD    .GAPI 45 310 01 00 : GAMMA RAY FROM DENSITY LOG
RHOB   .G/C3 45 350 01 00 : BULK DENSITY
DPHI_SS.DEC  45 890 12 00 : DENSITY POROSITY SANDSTONE
NPHI_SS.DEC  42 890 03 00 : NEUTRON POROSITY SANDSTONE
NPHI_LS.DEC  42 890 01 00 : NEUTRON POROSITY LIMESTONE
DPHI_LS.DEC  45 890 10 00 : DENSITY POROSITY LIMESTONE
~Params ----------------------------------------------------
PD  .                     GL : PERMANENT DATUM
EPD .FT               3315.9 : ELEVATION PERMANENT DATUM
LMF .                     KB : LOG MEASURED FROM
DAPD.FT                 15.1 : FEET ABOVE PERMANENT DATUM
EKB .FT                 3331 : KELLY BUSHING
EGL .FT               3315.9 : GROUND LEVEL
DATE.               08/21/76 : RUN DATE
RUN .                      1 : RUN NUMBER
DD  .FT                11275 : DEPTH DRILLER
DL  .FT                11270 : DEPTH LOGGER
BLI .FT                11267 : BOTTOM LOG INTERVAL
TLI .FT                 1134 : TOP LOG INTERVAL
CBD .FT                 1134 : CASING BOTTOM DRILLER
CBL .FT                 1134 : CASING BOTTOM LOGGER
BS  .IN                 8.75 : BIT SIZE
BSD .FT                11275 : BIT SIZE AT DEPTH
DFT .               GEL CHEM : DRILLING FLUID TYPE
DFD .                    9.5 : DRILLING FLUID DENSITY
DFV .                     95 : DRILLING FLUID VISCOSITY
DFPH.                   10.5 : DRILLING FLUID PH
DFL .                      7 : DRILLING FLUID LOSS
MSS .               FLOWLINE : MUD SAMPLE SOURCE
RMS .OHMM                2.7 : RESISTIVITY MUD SAMPLE
MST .DEGF                 55 : MUD SAMPLE TEMPERATURE
RMF .OHMM               2.65 : RESISTIVITY MUD FILTRATE SAMPLE
MFST.DEGF                 56 : MUD FILTRATE SAMPLE TEMPERATURE
RMB .OHMM               0.56 : RESISTIVITY MUD AT BHT
TCS .HRS                 3.5 : TIME CIRCULATED STOPPED
LUN .                   7691 : LOGGING UNIT NUMBER
LUL .                    WCT : LOGGING UNIT LOCATION
ENGI.                GOODMAN : RECORDING ENGINEER
WITN.                 TIFFIN : WITNESSED BY
CLNT.                A2DTECH : CLIENT CODE
ORIG.            2" 5" PRINT : ORIGIN OF DATA
UWI .       100102106215W500 : UNIQUE WELL ID
DICO. A2D Technologies, Inc. : DIGITIZING COMPANY
~Other -----------------------------------------------------
~ASCII -----------------------------------------------------
# ...
 9700.00000  -90.15190  874.80400 1401.12610  978.02350    -999.25   12.81760    9.45730   48.40690   10.09200    0.03200   13.24420    2.73620    -999.25    -999.25   -0.00600   -0.01300
 9750.00000 -108.23820  901.94130 1058.19850  947.78400    -999.25   22.66540    9.60560   48.65850   10.01900    0.03240   22.70950    2.74130    -999.25    -999.25   -0.00190   -0.04080
 9800.00000 -126.49100   59.66560   57.80920  267.72330    -999.25   11.78260    9.55400   49.03180   10.06210    0.03120   15.75590    2.78150    -999.25    -999.25    0.00320   -0.04040
 9850.00000 -141.32800   59.70240   81.73520  101.76890    -999.25   11.87930    9.71220   52.09760   10.54490    0.04440   13.02070    2.73660    -999.25    -999.25    0.00580   -0.01920
 9900.00000 -110.53370  267.69220  917.38040  968.71030    -999.25   12.49010    9.56780   48.24620   10.29440    0.08660   19.30390    2.82840    -999.25    -999.25   -0.00120   -0.09310
 9950.00000  -91.16850 1368.86510 1442.22030 1513.76260    -999.25   17.78150    9.56120   48.57840   10.09780    0.14050   17.07800    2.77680    -999.25    -999.25   -0.00110   -0.03130
 10000.00000  -35.64410   59.39660   39.05350  114.69850    -999.25   82.12540    9.34790   53.44650    9.48170    0.07320  125.63880    2.83740    -999.25    -999.25    0.13950   -0.05730
 10050.00000  -30.43200   29.92140   39.39510   58.63970    -999.25  101.35560    8.79790   57.42880    9.32570    0.04900  149.18240    2.70250    -999.25    -999.25    0.14420   -0.00370
 10100.00000  -76.00110   13.94690   20.25880   39.46640    -999.25  119.77970    8.96040   57.78360    9.10290    0.06030   67.57170    2.63720    -999.25    -999.25    0.01050    0.04720
 10150.00000  -86.64170    9.19800   11.22230   24.20260    -999.25   94.18850    8.44000   64.27660    8.49870    0.21910   57.75270    2.59030    -999.25    -999.25    0.04870    0.06750
 10200.00000  -97.14360    9.82810   15.18820   28.68770    -999.25   47.70520    9.27170   50.59210    9.53350    0.08980   73.52970    2.82830    -999.25    -999.25    0.15910   -0.06800
 10250.00000  -74.89390   30.40400   92.93380  295.57510    -999.25  113.34690   10.42960   61.37100   10.04620    0.17350  118.33720    2.68660    -999.25    -999.25    0.06610   -0.00130
 10300.00000  -65.48750   34.28790   43.44720   92.51290    -999.25  153.42930    9.03590   55.60160    9.07540    0.07880  194.58490    2.69440    -999.25    -999.25    0.03700    0.02700
 10350.00000 -114.05770    5.15440    8.00940   67.06760    -999.25  132.04390    8.34720   60.88460    8.64380    0.10230  128.49940    2.56590    -999.25    -999.25    0.10290    0.07150
 10400.00000 -143.15840    4.39130    6.81340   38.77610    -999.25  143.07340    8.59250   66.19060    8.37340    0.20770  186.73580    2.53060    -999.25    -999.25    0.14690    0.12720
 10450.00000 -173.21560    1.85890    3.17520   32.17790    -999.25  139.18320    8.09630   64.28330    8.29150    0.18050  148.92870    2.52200    -999.25    -999.25    0.13160    0.11790
 10500.00000 -135.26320    9.39890   12.41480   32.66420    -999.25   34.57660    9.21360   53.06250    9.31570    0.11770   41.00430    2.75760    -999.25    -999.25    0.11890   -0.01500
 10550.00000  -31.41710   21.06070   22.20700   36.02390    -999.25  165.71840    9.02230   59.39150    9.22920    0.07870  146.33900    2.70670    -999.25    -999.25    0.08070   -0.01080
 10600.00000  -33.10120    8.52240    9.62770   11.85260    -999.25  124.56720   12.22640   73.24790   13.58210    0.22800  145.82980    2.36320    -999.25    -999.25    0.23220    0.21520
 10650.00000  -50.16650    3.73490    5.73000    9.61390    -999.25  121.16190   11.97380   68.54680   13.63470    0.18500   99.23390    2.35290    -999.25    -999.25    0.17920    0.18870
 10700.00000  -58.17630    8.90100   10.08610   14.89390    -999.25  102.69950   11.39820   67.66680   12.43150    0.15020   98.60690    2.57320    -999.25    -999.25    0.19700    0.14230
 10750.00000  -57.58710   16.80190   13.14290   17.73180    -999.25  144.69950   11.39550   82.88310   10.96760    0.24880  142.19480    2.53620    -999.25    -999.25    0.29690    0.17570
 10800.00000  -58.21290   33.74600   39.06850   42.80650    -999.25  163.59570    8.97130   56.44810    9.15510    0.05110  165.63290    2.69790    -999.25    -999.25    0.04280    0.02470
 10850.00000  -66.49680   50.94500   57.95470   76.13440    -999.25   65.85480    9.06920   47.06280    9.29600    0.05630   95.45060    2.77730    -999.25    -999.25    0.05490   -0.05800
 10900.00000 -118.12040    1.79420    2.45700    6.96050    -999.25   68.36860    9.10360   73.30770   11.11230    0.24560  126.57630    2.36580    -999.25    -999.25    0.20690    0.24600
 10950.00000 -179.76830    6.11300    8.92700   65.05760    -999.25   16.51180    8.39820   61.56290    8.38040    -999.25   20.19870    2.59840    -999.25    -999.25    0.02370    0.06970
 11000.00000  -30.02590   17.22610   18.66090   26.10170    -999.25  170.37800    9.21570   68.11820    9.41500    0.02920  185.03450    2.68910    -999.25    -999.25    0.12800   -0.00840
 11050.00000  -32.34280   22.97690   26.65920   36.07380    -999.25  177.96840    9.22530   69.95770    9.85570    0.16880  201.31820    2.64800    -999.25    -999.25    0.16850    0.02090
 11100.00000 -108.86100   26.59130   23.77480   34.15680    -999.25   27.94300    8.58130   57.96910    8.80370    0.07380   27.56680    2.65210    -999.25    -999.25    0.00310    0.03810
 11150.00000  -57.40700   30.89860   40.13270   56.45270    -999.25  196.82350    8.53860   60.13580    8.79170    0.07770  240.65390    2.67520    -999.25    -999.25    0.04270    0.02470
 11200.00000 -101.54020    4.33280    5.00870    7.70900    -999.25   86.69550    8.57190   62.15720    8.76380    0.07830  126.70550    2.59250    -999.25    -999.25    0.05370    0.05020
 11250.00000  -93.52280   68.54530    7.28020 1932.54110    -999.25   74.61780    8.50510   54.07600    9.25140    0.10010  184.55210    2.61560    -999.25    -999.25    0.14780    0.04420
