~Version ---------------------------------------------------
VERS.      2.0 : CWLS log ASCII Standard -VERSION 2.0
WRAP.       NO : One line per depth step
CREA. 09/22/17 : LAS Creation Date
~Well ------------------------------------------------------
STRT.FT                            1200.0 : START DEPTH
STOP.FT                           11700.0 : STOP DEPTH
STEP.FT                          50.00000 : STEP LENGTH
NULL.                             -999.25 : NULL VALUE
COMP.        PAN AMERICAN PETROLEUM CORP. : COMPANY
WELL. PAN AM FINA G-1 KAYBOBS 10-19-58-18 : WELL
FLD .                                  WC : FIELD
LOC .                                     : LOCATION
CTRY.                              CANADA : COUNTRY
SRVC.                        Schlumberger : SERVICE COMPANY
DATE.                         16-Apr-1969 : LOGDATE
PROV.                             Alberta : PROVINCE
UWI .                    100101905818W500 : UNIQUE WELL ID
SLAT.WGS84                       54.03118 : SURFACE LATITUDE
SLON.WGS84                      -116.6587 : SURFACE LONGITUDE
~Curve Information -----------------------------------------
DEPT    .FT    : Depth Curve
CALDED  .IN    : CALIPER FROM DENSITY LOG [DEP. ADJ. TO RESIS. LOG]
CALNED  .IN    : CALIPER FROM SNP LOG [DEP. ADJ. TO RESIS. LOG]
CALSED  .IN    : CALIPER FROM SONIC LOG
CALWS   .IN    : CALIPER [1200' CALSED 10727' CALDED]
CONDWS  .MMHO  : CONDUCTIVITY [1000/DRESWS]
DCORED  .G/C3  : DENSITY CORRECTION FROM DENSITY LOG [DEP. ADJ. TO RESIS. LOG]
DCORWS  .G/C3  : DENSITY CORRECTION [DCORED]
DENWS   .G/C3  : BULK DENSITY [M=2.71, F=1.00] [RHOBED]
DPHILSED.V/V   : DENSITY POROSITY [M=2.71, F=1.00] FROM DENSITY LOG [DEP. ADJ. TO RESIS. LOG]
DPOLSWS .V/V   : DENSITY POROSITY [M=2.71, F=1.00] [DPHILSED]
DRESWS  .OHMM  : DEEP RESISTIVITY [ILDED]
DTED    .US/F  : DELTA TIME FROM SONIC LOG
DTWS    .US/F  : DELTA TIME [DTED]
GRNED   .GAPI  : GAMMA RAY FROM SNP LOG [DEP. ADJ. TO RESIS. LOG]
GRSED   .GAPI  : GAMMA RAY FROM SONIC LOG
GRWS    .GAPI  : GAMMA RAY [1178' GRSED 11700' GRNED]
ILDED   .OHMM  : INDUCTION LOG DEEP RESISTIVITY
ILMED   .OHMM  : INDUCTION LOG MEDIUM RESISTIVITY
LL8ED   .OHMM  : 8 INCH LATEROLOG RESISTIVITY
MRESWS  .OHMM  : MEDIUM RESISTIVITY [ILMED]
NPOLSWS .V/V   : NEUTRON POROSITY LIMESTONE [SNPLSED]
RHOBED  .G/C3  : BULK DENSITY FROM DENSITY LOG [DEP. ADJ. TO RESIS. LOG]
SNPLSED .V/V   : SIDEWALL NEUTRON POROSITY [LIMESTONE] [DEP. ADJ. TO RESIS. LOG]
SPRED   .MV    : SPONTANEOUS POTENTIAL FROM RESISTIVITY LOG
SPWS    .MV    : SPONTANEOUS POTENTIAL [BASELINE 0 MV] [SPRED]
SRESWS  .OHMM  : SHALLOW RESISTIVITY [LL8ED]
~Params ----------------------------------------------------
PD  .                     GL : PERMANENT DATUM
EPD .FT                 3475 : ELEVATION PERMANENT DATUM
LMF .                     KB : LOG MEASURED FROM
DAPD.FT                   12 : FEET ABOVE PERMANENT DATUM
EKB .FT                 3487 : KELLY BUSHING
EGL .FT                 3475 : GROUND LEVEL
DATE.               04/16/69 : RUN DATE
RUN .                      1 : RUN NUMBER
DD  .FT                11735 : DEPTH DRILLER
DL  .FT                11734 : DEPTH LOGGER
BLI .FT                11729 : BOTTOM LOG INTERVAL
TLI .FT                 1202 : TOP LOG INTERVAL
CBD .FT                 1202 : CASING BOTTOM DRILLER
CBL .FT                 1202 : CASING BOTTOM LOGGER
BS  .IN                 8.75 : BIT SIZE
BSD .FT                11735 : BIT SIZE AT DEPTH
DFT .              GEL BENEX : DRILLING FLUID TYPE
DFD .                    9.3 : DRILLING FLUID DENSITY
DFV .                     90 : DRILLING FLUID VISCOSITY
DFPH.                    8.0 : DRILLING FLUID PH
DFL .                   11.2 : DRILLING FLUID LOSS
RMS .OHMM               2.37 : RESISTIVITY MUD SAMPLE
MST .DEGF                 67 : MUD SAMPLE TEMPERATURE
RMF .OHMM               1.81 : RESISTIVITY MUD FILTRATE SAMPLE
MFST.DEGF                 66 : MUD FILTRATE SAMPLE TEMPERATURE
RMC .OHMM               2.83 : RESISTIVITY MUD CAKE
MCST.DEGF                 68 : MUD CAKE SAMPLE TEMPERATURE
RMB .OHMM               0.62 : RESISTIVITY MUD AT BHT
TCS .HRS                   2 : TIME CIRCULATED STOPPED
LUN .                   7502 : LOGGING UNIT NUMBER
LUL .                    EDM : LOGGING UNIT LOCATION
ENGI.               ARMENTAN : RECORDING ENGINEER
WITN.                   CHUK : WITNESSED BY
CLNT.                A2DTECH : CLIENT CODE
ORIG.            2" 5" PRINT : ORIGIN OF DATA
UWI .       100101905818W500 : UNIQUE WELL ID
DICO. A2D Technologies, Inc. : DIGITIZING COMPANY
~Other -----------------------------------------------------
~ASCII -----------------------------------------------------
# ...
 9300.00000    -999.25    -999.25   10.17160   10.17160    2.09280    -999.25    -999.25    -999.25    -999.25    -999.25  477.83160   49.96250   49.96250    -999.25   17.41150   17.41150  477.83160  712.95270  507.95200  712.95270    -999.25    -999.25    -999.25 -140.65780 -286.97740  507.95200
 9350.00000    -999.25    -999.25   10.30910   10.30910    1.64930    -999.25    -999.25    -999.25    -999.25    -999.25  606.32750   50.10760   50.10760    -999.25   12.10220   12.10220  606.32750 1002.60880  498.10700 1002.60880    -999.25    -999.25    -999.25 -163.36340 -305.72810  498.10700
 9400.00000    -999.25    -999.25   10.46450   10.46450    3.22190    -999.25    -999.25    -999.25    -999.25    -999.25  310.46150   68.25070   68.25070    -999.25   10.33440   10.33440  310.46150  228.33990  509.64710  228.33990    -999.25    -999.25    -999.25 -184.57760 -323.01320  509.64710
 9450.00000    -999.25    -999.25   10.32040   10.32040    2.67670    -999.25    -999.25    -999.25    -999.25    -999.25  373.59480   54.01300   54.01300    -999.25   11.69760   11.69760  373.59480  641.26860  237.68150  641.26860    -999.25    -999.25    -999.25 -143.87030 -278.35100  237.68150
 9500.00000    -999.25    -999.25   10.68220   10.68220    2.54210    -999.25    -999.25    -999.25    -999.25    -999.25  393.37820   55.27780   55.27780    -999.25   13.52930   13.52930  393.37820  423.53750  449.74690  423.53750    -999.25    -999.25    -999.25 -174.71750 -305.26920  449.74690
 9550.00000    -999.25    -999.25    9.64940    9.64940   11.97020    -999.25    -999.25    -999.25    -999.25    -999.25   83.70960   50.90840   50.90840    -999.25    7.25320    7.25320   83.70960   82.06770  128.60390   82.06770    -999.25    -999.25    -999.25 -162.50740 -289.13000  128.60390
 9600.00000    -999.25    -999.25   10.66240   10.66240    3.00840    -999.25    -999.25    -999.25    -999.25    -999.25  332.40570   73.24480   73.24480    -999.25    8.41440    8.41440  332.40570  203.45770  272.24770  203.45770    -999.25    -999.25    -999.25 -167.67060 -290.33830  272.24770
 9650.00000    -999.25    -999.25   10.42330   10.42330    2.29100    -999.25    -999.25    -999.25    -999.25    -999.25  436.49710   50.99750   50.99750    -999.25   13.20170   13.20170  436.49710  266.91180  318.68140  266.91180    -999.25    -999.25    -999.25 -181.53490 -300.27350  318.68140
 9700.00000    -999.25    -999.25   10.46030   10.46030    2.75710    -999.25    -999.25    -999.25    -999.25    -999.25  362.69710   65.40820   65.40820    -999.25   10.96910   10.96910  362.69710  378.17800  414.33010  378.17800    -999.25    -999.25    -999.25 -188.09470 -302.87840  414.33010
 9750.00000    -999.25    -999.25   10.54580   10.54580    1.94950    -999.25    -999.25    -999.25    -999.25    -999.25  512.96170   51.79870   51.79870    -999.25   15.77400   15.77400  512.96170  221.42180  620.42370  221.42180    -999.25    -999.25    -999.25 -173.64380 -284.49850  620.42370
 9800.00000    -999.25    -999.25   10.19160   10.19160    3.17700    -999.25    -999.25    -999.25    -999.25    -999.25  315.14020   50.48600   50.48600    -999.25    8.63810    8.63810  315.14020  265.06410  320.37380  265.06410    -999.25    -999.25    -999.25 -159.88050 -266.80610  320.37380
 9850.00000    -999.25    -999.25   10.39640   10.39640    1.57020    -999.25    -999.25    -999.25    -999.25    -999.25  636.85240   50.26840   50.26840    -999.25    9.19830    9.19830  636.85240  258.92310  420.21980  258.92310    -999.25    -999.25    -999.25 -146.34610 -249.31680  420.21980
 9900.00000    -999.25    -999.25   10.56570   10.56570    2.30350    -999.25    -999.25    -999.25    -999.25    -999.25  434.31150   50.67290   50.67290    -999.25   14.63050   14.63050  434.31150  369.05530  500.37760  369.05530    -999.25    -999.25    -999.25 -180.66630 -279.70800  500.37760
 9950.00000    -999.25    -999.25    9.48080    9.48080   99.64030    -999.25    -999.25    -999.25    -999.25    -999.25   10.03610   57.30590   57.30590    -999.25   43.19480   43.19480   10.03610    8.53770   15.41480    8.53770    -999.25    -999.25    -999.25 -114.44240 -209.52920   15.41480
 10000.00000    -999.25    -999.25    9.68800    9.68800    4.81250    -999.25    -999.25    -999.25    -999.25    -999.25  207.79170   48.98390   48.98390    -999.25   19.45300   19.45300  207.79170  303.58780 1032.91210  303.58780    -999.25    -999.25    -999.25 -157.09590 -248.25360 1032.91210
 10050.00000    -999.25    -999.25   10.19630   10.19630    3.54040    -999.25    -999.25    -999.25    -999.25    -999.25  316.63400   50.90920   50.90920    -999.25   18.37030   18.37030  316.63400  337.61430  659.43070  337.61430    -999.25    -999.25    -999.25 -132.33060 -219.55930  659.43070
 10100.00000    -999.25    -999.25   10.06330   10.06330   10.06220    -999.25    -999.25    -999.25    -999.25    -999.25   99.38150   50.02390   50.02390    -999.25   22.54440   22.54440   99.38150   90.17770  229.24960   90.17770    -999.25    -999.25    -999.25 -126.55510 -209.82890  229.24960
 10150.00000    -999.25    -999.25    9.94440    9.94440    3.52590    -999.25    -999.25    -999.25    -999.25    -999.25  283.67620   50.96980   50.96980    -999.25   24.28730   24.28730  283.67620  272.96010  325.96700  272.96010    -999.25    -999.25    -999.25  -94.19070 -173.53540  325.96700
 10200.00000    -999.25    -999.25    9.81770    9.81770   13.96420    -999.25    -999.25    -999.25    -999.25    -999.25   71.61150   52.65170   52.65170    -999.25   26.36080   26.36080   71.61150   73.09110   99.06130   73.09110    -999.25    -999.25    -999.25  -75.51430 -150.90410   99.06130
 10250.00000    -999.25    -999.25    9.75830    9.75830    9.84290    -999.25    -999.25    -999.25    -999.25    -999.25  101.59630   52.23990   52.23990    -999.25   29.59380   29.59380  101.59630  110.35060  146.03010  110.35060    -999.25    -999.25    -999.25  -56.31130 -127.77210  146.03010
 10300.00000    -999.25    -999.25    9.78220    9.78220   13.09040    -999.25    -999.25    -999.25    -999.25    -999.25   76.39160   52.30480   52.30480    -999.25   26.49530   26.49530   76.39160   84.07110  106.37300   84.07110    -999.25    -999.25    -999.25  -32.72130 -100.25300  106.37300
 10350.00000    -999.25    -999.25    9.31790    9.31790   13.63350    -999.25    -999.25    -999.25    -999.25    -999.25   73.34900   53.26580   53.26580    -999.25   28.09910   28.09910   73.34900   79.52840   93.13780   79.52840    -999.25    -999.25    -999.25  -25.09430  -88.67110   93.13780
 10400.00000    -999.25    -999.25    9.92570    9.92570   12.22340    -999.25    -999.25    -999.25    -999.25    -999.25   81.81030   52.04690   52.04690    -999.25   23.25030   23.25030   81.81030   90.27870  124.38040   90.27870    -999.25    -999.25    -999.25  -31.41190  -91.05970  124.38040
 10450.00000    -999.25    -999.25   10.03490   10.03490   47.29270    -999.25    -999.25    -999.25    -999.25    -999.25   21.14490   58.89280   58.89280    -999.25   44.53480   44.53480   21.14490   21.77900   26.53180   21.77900    -999.25    -999.25    -999.25  -20.30980  -76.00270   26.53180
 10500.00000    -999.25    -999.25   10.00110   10.00110   45.10680    -999.25    -999.25    -999.25    -999.25    -999.25   22.16960   58.73860   58.73860    -999.25   44.65780   44.65780   22.16960   23.57080   30.92880   23.57080    -999.25    -999.25    -999.25  -25.28720  -77.05100   30.92880
 10550.00000    -999.25    -999.25   10.13830   10.13830   60.18150    -999.25    -999.25    -999.25    -999.25    -999.25   16.61650   61.08130   61.08130    -999.25   49.39620   49.39620   16.61650   17.62120   24.06240   17.62120    -999.25    -999.25    -999.25  -35.16470  -82.99940   24.06240
 10600.00000    -999.25    -999.25   10.37350   10.37350   71.67070    -999.25    -999.25    -999.25    -999.25    -999.25   13.95270   62.90050   62.90050    -999.25   82.26150   82.26150   13.95270   16.01150   26.50710   16.01150    -999.25    -999.25    -999.25  -37.44870  -81.32850   26.50710
