~Version ---------------------------------------------------
VERS.      2.0 : CWLS log ASCII Standard -VERSION 2.0
WRAP.       NO : One line per depth step
CREA. 11/15/17 : LAS Creation Date
~Well ------------------------------------------------------
STRT.FT                         300.0 : START DEPTH
STOP.FT                        9050.0 : STOP DEPTH
STEP.FT                      50.00000 : STEP LENGTH
NULL.                         -999.25 : NULL VALUE
COMP.      TEXACO EXPLORATION COMPANY : COMPANY
WELL. TEXACO C&E WIMBORNE 13-25-32-26 : WELL
FLD .                                 : FIELD
LOC .                                 : LOCATION
CTRY.                          CANADA : COUNTRY
SRVC.          Schlumberger of Canada : SERVICE COMPANY
DATE.                     20-Oct-1957 : LOGDATE
PROV.                         Alberta : PROVINCE
UWI .                100132503226W400 : UNIQUE WELL ID
SLAT.WGS84                   51.77784 : SURFACE LATITUDE
SLON.WGS84                  -113.5678 : SURFACE LONGITUDE
~Curve Information -----------------------------------------
DEPT  .FT         : Depth Curve
CALWS .IN         : CALIPER [MCALED]
CILDED.MMHO       : INDUCTION DEEP CONDUCTIVITY FROM RESISTIVITY LOG
CONDWS.MMHO       : CONDUCTIVITY [1000/DRESWS]
DRESWS.OHMM       : DEEP RESISTIVITY [1000/CILDED IF ILDED <5, ILDED]
GRNED .UgRa-Eq/T  : GAMMA RAY FROM GRN LOG
GRWS  .GAPI       : GAMMA RAY [GRNED*16.50]
ILDED .OHMM       : INDUCTION DEEP RESISTIVITY FROM RESISTIVITY LOG
MCALED.IN         : MLT (MICROLOG) CALIPER FROM MICROLOG
NEUTED.CPS        : NEUTRON FROM GRN LOG
NEUTWS.CPS        : NEUTRON [NEUTED]
SNED  .OHMM       : SHORT NORMAL RESISTIVITY FROM RESISTIVITY LOG
SPRED .MV         : SPONTANEOUS POTENTIAL FROM RESISTIVITY LOG
SPWS  .MV         : SPONTANEOUS POTENTIAL [SPRED]
SRESWS.OHMM       : SHALLOW RESISTIVITY [SNED]
~Params ----------------------------------------------------
LMF .                     KB : LOG MEASURED FROM
DMF .                     KB : DRILLING MEASURED FROM
EKB .FT                 3183 : KELLY BUSHING
EGL .FT                 3170 : GROUND LEVEL
DATE.               10/20/57 : RUN DATE
RUN .                      1 : RUN NUMBER
DD  .FT                 9085 : DEPTH DRILLER
DL  .FT                 9088 : DEPTH LOGGER
BLI .FT                 9083 : BOTTOM LOG INTERVAL
TLI .FT                 1204 : TOP LOG INTERVAL
CBD .FT                 1204 : CASING BOTTOM DRILLER
CBL .FT                 1204 : CASING BOTTOM LOGGER
BS  .IN                    9 : BIT SIZE
BSD .FT                 9085 : BIT SIZE AT DEPTH
DFT .               GYP BASE : DRILLING FLUID TYPE
DFD .                   10.3 : DRILLING FLUID DENSITY
DFV .                     80 : DRILLING FLUID VISCOSITY
DFPH.                      8 : DRILLING FLUID PH
DFL .                    5.6 : DRILLING FLUID LOSS
RMS .OHMM                1.3 : RESISTIVITY MUD SAMPLE
MST .DEGF                 77 : MUD SAMPLE TEMPERATURE
RMF .OHMM                0.8 : RESISTIVITY MUD FILTRATE SAMPLE
MFST.DEGF                 81 : MUD FILTRATE SAMPLE TEMPERATURE
RMC .OHMM                1.7 : RESISTIVITY MUD CAKE
MCST.DEGF                 79 : MUD CAKE SAMPLE TEMPERATURE
RMB .OHMM                0.6 : RESISTIVITY MUD AT BHT
TCS .HRS                   4 : TIME CIRCULATED STOPPED
LUN .                  15750 : LOGGING UNIT NUMBER
LUL .                     RD : LOGGING UNIT LOCATION
ENGI.                BOSWELL : RECORDING ENGINEER
WITN.                 GOTAAS : WITNESSED BY
CLNT.                A2DTECH : CLIENT CODE
ORIG.            2" 5" PRINT : ORIGIN OF DATA
UWI .       100132503226W400 : UNIQUE WELL ID
DICO. A2D Technologies, Inc. : DIGITIZING COMPANY
~Other -----------------------------------------------------
~ASCII -----------------------------------------------------
  300.00000    -999.25    -999.25    -999.25    -999.25    4.39810   72.56870    -999.25    -999.25  174.00770  174.00770    -999.25    -999.25    -999.25    -999.25
  350.00000    -999.25    -999.25    -999.25    -999.25    2.40930   39.75350    -999.25    -999.25  157.38460  157.38460    -999.25    -999.25    -999.25    -999.25
  400.00000    -999.25    -999.25    -999.25    -999.25    3.37170   55.63310    -999.25    -999.25  166.07020  166.07020    -999.25    -999.25    -999.25    -999.25
  450.00000    -999.25    -999.25    -999.25    -999.25    3.40580   56.19570    -999.25    -999.25  161.73890  161.73890    -999.25    -999.25    -999.25    -999.25
  500.00000    -999.25    -999.25    -999.25    -999.25    2.49950   41.24170    -999.25    -999.25  173.38710  173.38710    -999.25    -999.25    -999.25    -999.25
  550.00000    -999.25    -999.25    -999.25    -999.25    3.97960   65.66340    -999.25    -999.25  182.17530  182.17530    -999.25    -999.25    -999.25    -999.25
  600.00000    -999.25    -999.25    -999.25    -999.25    3.28350   54.17780    -999.25    -999.25  155.89110  155.89110    -999.25    -999.25    -999.25    -999.25
  650.00000    -999.25    -999.25    -999.25    -999.25    4.16060   68.64990    -999.25    -999.25  168.13000  168.13000    -999.25    -999.25    -999.25    -999.25
  700.00000    -999.25    -999.25    -999.25    -999.25    3.11200   51.34800    -999.25    -999.25  172.30780  172.30780    -999.25    -999.25    -999.25    -999.25
  750.00000    -999.25    -999.25    -999.25    -999.25    3.17460   52.38090    -999.25    -999.25  171.13720  171.13720    -999.25    -999.25    -999.25    -999.25
  800.00000    -999.25    -999.25    -999.25    -999.25    4.47660   73.86390    -999.25    -999.25  158.98960  158.98960    -999.25    -999.25    -999.25    -999.25
  850.00000    -999.25    -999.25    -999.25    -999.25    3.24340   53.51610    -999.25    -999.25  149.22440  149.22440    -999.25    -999.25    -999.25    -999.25
  900.00000    -999.25    -999.25    -999.25    -999.25    3.41080   56.27820    -999.25    -999.25  167.77730  167.77730    -999.25    -999.25    -999.25    -999.25
  950.00000    -999.25    -999.25    -999.25    -999.25    2.72870   45.02360    -999.25    -999.25  168.88690  168.88690    -999.25    -999.25    -999.25    -999.25
 1000.00000    -999.25    -999.25    -999.25    -999.25    2.02760   33.45540    -999.25    -999.25  179.43680  179.43680    -999.25    -999.25    -999.25    -999.25
 1050.00000    -999.25    -999.25    -999.25    -999.25    3.27350   54.01270    -999.25    -999.25  157.59140  157.59140    -999.25    -999.25    -999.25    -999.25
 1100.00000    -999.25    -999.25    -999.25    -999.25    3.40480   56.17920    -999.25    -999.25  169.40280  169.40280    -999.25    -999.25    -999.25    -999.25
 1150.00000    -999.25    -999.25    -999.25    -999.25    3.45020   56.92830    -999.25    -999.25  165.51180  165.51180    -999.25    -999.25    -999.25    -999.25
 1200.00000    -999.25    -999.25    -999.25    -999.25    3.69130   60.90650    -999.25    -999.25  163.96480  163.96480    -999.25    -999.25    -999.25    -999.25
 1250.00000    -999.25  177.98590  186.68210    5.35670    6.01330   99.21940    5.35670    -999.25  194.36370  194.36370    6.47910  -79.31200   -3.68210    6.47910
 1300.00000    -999.25  224.38510  224.38510    4.45660    5.36160   88.46640    4.09920    -999.25  195.01590  195.01590    5.60830  -78.85370   -3.39700    5.60830
 1350.00000    -999.25  196.63910  196.63910    5.08550    4.89280   80.73120    4.64700    -999.25  193.18400  193.18400    5.41170  -80.25430   -5.03010    5.41170
 1400.00000    -999.25  250.50070  250.50070    3.99200    5.45930   90.07850    3.50720    -999.25  191.79280  191.79280    7.28900  -78.61550   -3.62220    7.28900
 1450.00000    -999.25  237.56350  237.56350    4.20940    5.13920   84.79680    4.09020    -999.25  174.37830  174.37830    6.54670  -79.74480   -4.98400    6.54670
 1500.00000    -999.25  212.13530  212.13530    4.71400    5.35970   88.43510    4.30120    -999.25  190.92370  190.92370    5.29760  -79.94940   -5.41960    5.29760
 1550.00000    -999.25  204.76410  204.76410    4.88370    5.20520   85.88580    4.60490    -999.25  216.33690  216.33690    5.74140  -80.29950   -6.00060    5.74140
 1600.00000    -999.25  200.87050  200.87050    4.97830    5.93480   97.92420    4.87560    -999.25  206.07110  206.07110    7.52380  -79.91540   -5.84900    7.52380
 1650.00000    -999.25  300.62360  300.62360    3.32640    6.47090  106.76990    3.02530    -999.25  201.80270  201.80270    4.19680  -76.95910   -3.12370    4.19680
 1700.00000    -999.25  274.24610  274.24610    3.64640    5.77520   95.29080    3.20930    -999.25  172.11920  172.11920    4.44340  -78.78170   -5.17870    4.44340
 1750.00000    -999.25  356.47580  356.47580    2.80520    5.10460   84.22590    2.63710    -999.25  174.03280  174.03280    4.20560  -77.09730   -3.72530    4.20560
 1800.00000    -999.25  282.64680  282.64680    3.53800    4.85040   80.03160    3.26150    -999.25  188.07910  188.07910    5.97620  -77.15420   -4.01310    5.97620
 1850.00000    -999.25  167.58300  185.73550    5.38400    5.02880   82.97520    5.38400    -999.25  182.06630  182.06630    7.20510  -76.95690   -4.04830    7.20510
 1900.00000    -999.25  234.50000  234.50000    4.26440    5.27170   86.98310    3.86760    -999.25  186.97780  186.97780    5.65060  -77.26260   -4.12340    5.65060
 1950.00000    -999.25  111.55130  111.19760    8.99300    4.37550   72.19570    8.99300    -999.25  242.86380  242.86380   10.89210  -81.07350   -6.75450   10.89210
 2000.00000    -999.25  232.51070  232.51070    4.30090    5.46770   90.21710    3.86230    -999.25  211.38550  211.38550    6.19840  -78.60480   -3.11370    6.19840
 2050.00000    -999.25  191.75950  191.75950    5.21490    5.33520   88.03080    4.91080    -999.25  190.48180  190.48180    5.97070  -79.09600   -3.63060    5.97070
 2100.00000    -999.25  258.45930  258.45930    3.86910    5.24510   86.54420    3.33610    -999.25  183.37420  183.37420    7.01990  -78.95600   -3.67840    7.01990
 2150.00000    -999.25  271.27900  271.27900    3.68620    5.00870   82.64360    3.24320    -999.25  192.54600  192.54600    5.65940  -79.59900   -4.50800    5.65940
 2200.00000    -999.25  271.41540  271.41540    3.68440    3.78260   62.41290    3.22490    -999.25  159.80390  159.80390    6.72030  -79.69800   -4.79480    6.72030
 2250.00000    -999.25  370.15360  370.15360    2.70160    4.76300   78.58950    2.45400    -999.25  171.15370  171.15370    4.92040  -79.10380   -4.38720    4.92040
 2300.00000    -999.25  206.94190  206.94190    4.83230    4.81220   79.40130    4.61700    -999.25  196.20080  196.20080    7.76910  -79.04870   -4.51870    7.76910
 2350.00000    -999.25  149.06830  156.35020    6.39590    5.67060   93.56490    6.39590    -999.25  215.53840  215.53840    8.38640  -79.35490   -5.01270    8.38640
 2400.00000    -999.25  239.63770  239.63770    4.17300    5.25770   86.75200    3.75800    -999.25  185.17430  185.17430    4.74460  -78.44490   -4.28930    4.74460
 2450.00000    -999.25  291.48550  291.48550    3.43070    6.59500  108.81750    3.08490    -999.25  192.15220  192.15220    4.15030  -77.87430   -3.90660    4.15030
 2500.00000   11.88130  243.47740  243.47740    4.10720    4.54660   75.01890    3.67790   11.88130  212.75560  212.75560    4.71400  -78.59430   -4.81320    4.71400
 2550.00000   10.17700   76.00080   79.36700   12.59970    3.87670   63.96560   12.59970   10.17700  236.04000  236.04000   13.03900  -88.02620  -14.35200   13.03900
 2600.00000    9.25440  100.06820  104.68460    9.55250    4.70680   77.66220    9.55250    9.25440  198.37550  198.37550    9.93020  -81.15260   -7.53930    9.93020
 2650.00000    8.88480   69.21690   72.23820   13.84310    3.33160   54.97140   13.84310    8.88480  215.45010  215.45010   14.47310  -82.82380   -9.27110   14.47310
 2700.00000   10.59140  145.25640  150.66370    6.63730    4.16440   68.71260    6.63730   10.59140  195.47900  195.47900    9.54010  -79.88010   -6.38830    9.54010
