~Version ---------------------------------------------------
VERS. 2.0 : CWLS log ASCII Standard -VERSION 2.0
WRAP.  NO : ONE LINE PER DEPTH STEP
~Well ------------------------------------------------------
STRT.F                      1150.0 : START DEPTH
STOP.F                     11800.0 : STOP DEPTH
STEP.F                    50.00000 : STEP LENGTH
NULL.                      -999.25 : NULL VALUE
COMP.         PETROFINA CANADA LTD : COMPANY
WELL. PCI AMMIN ECONOMY 11-15-68-2 : WELL
FLD .                              : FIELD
LOC .                              : LOCATION
CTRY.                       CANADA : COUNTRY
SRVC.                      Unknown : SERVICE COMPANY
DATE.                  01-Jan-1900 : LOGDATE
PROV.                      Alberta : PROVINCE
UWI .             100111506802W600 : UNIQUE WELL ID
SLAT.WGS84                54.88852 : SURFACE LATITUDE
SLON.WGS84               -118.2198 : SURFACE LONGITUDE
~Curve Information -----------------------------------------
DEPT   .F     : 
GRS    .GAPI  : GAMMA RAY FROM SONIC LOG
CALS   .IN    : CALIPER FROM SONIC LOG
DT     .US/F  : DELTA TIME FROM SONIC LOG
RHOB   .G/C3  : BULK DENSITY
DRHO   .G/C3  : DENSITY CORRECTION
CALD   .IN    : CALIPER FROM DENSITY LOG
GRD    .GAPI  : GAMMA RAY FROM DENSITY LOG
NPHI_SS.DEC   : NEUTRON POROSITY SANDSTONE
DPHI_SS.DEC   : DENSITY POROSITY SANDSTONE
DPHI_LS.DEC   : DENSITY POROSITY LIMESTONE
NPHI_LS.DEC   : NEUTRON POROSITY LIMESTONE
SPR    .MV    : SPONTANEOUS POTENTIAL FROM RESISTIVITY LOG
ILD    .OHMM  : DEEP INDUCTION RESISTIVITY
LL8    .OHMM  : LATEROLOG-8 RESISTIVITY
ILM    .OHMM  : INDUCTION MEDIUM RESISTIVITY
~Params ----------------------------------------------------
PD  .                     GL : PERMANENT DATUM
EPD .FT               2259.3 : ELEVATION PERMANENT DATUM
LMF .                     KB : LOG MEASURED FROM
DAPD.FT                 13.7 : FEET ABOVE PERMANENT DATUM
EKB .FT                 2273 : KELLY BUSHING
EGL .FT               2259.3 : GROUND LEVEL
DATE.               10/12/76 : RUN DATE
RUN .                      1 : RUN NUMBER
DD  .FT                11825 : DEPTH DRILLER
DL  .FT                11801 : DEPTH LOGGER
BLI .FT                11795 : BOTTOM LOG INTERVAL
TLI .FT                 1228 : TOP LOG INTERVAL
CBD .FT                 1232 : CASING BOTTOM DRILLER
CBL .FT                 1228 : CASING BOTTOM LOGGER
BS  .IN                 8.75 : BIT SIZE
BSD .FT                11825 : BIT SIZE AT DEPTH
DFT .                    GEL : DRILLING FLUID TYPE
DFD .                    8.9 : DRILLING FLUID DENSITY
DFV .                    150 : DRILLING FLUID VISCOSITY
DFPH.                   10.5 : DRILLING FLUID PH
DFL .                    5.8 : DRILLING FLUID LOSS
MSS .               FLOWLINE : MUD SAMPLE SOURCE
RMF .OHMM               0.71 : RESISTIVITY MUD FILTRATE SAMPLE
MFST.DEGF                 76 : MUD FILTRATE SAMPLE TEMPERATURE
RMB .OHMM               0.28 : RESISTIVITY MUD AT BHT
TCS .HRS                 4.5 : TIME CIRCULATED STOPPED
LUN .                   7803 : LOGGING UNIT NUMBER
LUL .                     OC : LOGGING UNIT LOCATION
ENGI.                STADNYK : RECORDING ENGINEER
WITN.                  CLARK : WITNESSED BY
CLNT.                A2DTECH : CLIENT CODE
ORIG.          1" 2.5" PRINT : ORIGIN OF DATA
UWI .       100111506802W600 : UNIQUE WELL ID
DICO. A2D Technologies, Inc. : DIGITIZING COMPANY
~Other -----------------------------------------------------
~ASCII -----------------------------------------------------
# ...
 10350.00000  150.64700   11.46810   82.03160    2.49890    0.17900   11.06320  171.66490    -999.25    -999.25    0.15760    0.33130 -140.23630   12.71970   34.73550   13.08670
 10400.00000   19.70840    9.38750   50.39570    2.85070    0.05440    9.57290   24.32460    -999.25    -999.25   -0.08070    0.01420 -157.69740  521.79130 1471.11270  577.71260
 10450.00000   36.43750    9.46690   49.37620    2.86260    0.04730    9.55620   40.78700    -999.25    -999.25   -0.07220    0.00200 -211.72380  763.41680 1449.87230 1547.12230
 10500.00000   12.54930    9.43290   49.70540    2.93850    0.02830    9.69770   18.19720    -999.25    -999.25   -0.14430   -0.00490 -199.12700 1541.79520 1466.56880 1525.35300
 10550.00000   12.91260    9.61000   50.36460    2.87200    0.11060    9.82230   14.99110    -999.25    -999.25   -0.09990   -0.00780 -177.80170    -999.25 1468.42820    -999.25
 10600.00000   27.07020   10.17050   48.29740    2.52060    0.24660   11.62190   30.52720    -999.25    -999.25    0.05290    0.00040 -209.31670 1427.34070 1436.16360    -999.25
 10650.00000   25.30180   10.73690   51.01550    2.40110    0.25410   13.05120   26.74420    -999.25    -999.25    0.15980    0.00640 -188.16550 1569.58310 1430.72440    -999.25
 10700.00000   35.72350   10.72750   55.46410    2.39200    0.29250   14.35320   43.50090    -999.25    -999.25    0.18990    0.04360 -198.15370  131.17900  468.87460  222.57080
 10750.00000   63.57150    9.73820   55.23540    2.60320    0.16060   11.02050   65.06720    -999.25    -999.25    0.10670    0.05490 -152.67600   97.90550  424.49860    -999.25
 10800.00000  100.75390   11.17230   74.78940    2.50870    0.23320   10.32070  111.55530    -999.25    -999.25    0.15300    0.24130  -77.18970    5.86600   26.57200    6.44620
 10850.00000  119.19040   13.31880   83.10490    2.25940    0.23340   14.30790  131.32760    -999.25    -999.25    0.27560    0.30360 -116.22860    3.02760    6.09730    3.16460
 10900.00000  100.47760   13.62870   79.22010    2.35270    0.25210    -999.25  120.36710    -999.25    -999.25    0.20450    0.32760 -129.36080    3.29340    6.10200    3.34980
 10950.00000  116.12810   12.83920   82.88000    2.29340    0.31030   14.26560  125.51890    -999.25    -999.25    0.26370    0.28530 -120.79940    5.24060   13.46720    4.02950
 11000.00000  119.53580   12.89350   77.53230    2.20300    0.29330   14.54700  141.33160    -999.25    -999.25    0.21590    0.27420  -89.74260    4.52090    8.75230    4.79460
 11050.00000   79.71550    9.50270   63.10230    2.69630    0.20660    9.86330   96.11310    -999.25    -999.25    0.01260    0.12770  -76.83770    9.33430   19.12090   10.17250
 11100.00000   75.83490    9.87180   66.97360    2.52290    0.29610   10.41550   96.10410    -999.25    -999.25    0.06530    0.12280  -84.05130    7.15910   15.97650    7.87890
 11150.00000   77.99300    9.47610   62.57350    2.67330    0.01540    9.74540   87.73800    -999.25    -999.25   -0.00510    0.10500  -78.78060   10.50010   23.22080   12.00730
 11200.00000   84.69070    9.44800   62.20270    2.70210    0.03170    9.67200   89.78950    -999.25    -999.25   -0.01000    0.10720  -86.10570   10.44060   22.24000   11.14550
 11250.00000   90.96840    9.37820   65.13210    2.69380    0.03700    9.53640  112.34460    -999.25    -999.25   -0.01300    0.13330    8.79250    8.90630   19.20680    9.62790
 11300.00000  123.20710   10.17600   74.92570    2.57650    0.25730   11.44060  140.36390    -999.25    -999.25    0.09860    0.21940  -24.69060    4.90220   10.01800    5.16320
 11350.00000   99.73800    9.80950   69.96890    2.54820    0.26320    9.87300  116.99130    -999.25    -999.25    0.08280    0.16330  -68.46110    6.44630   14.34490    7.23640
 11400.00000  295.97800    9.52580   81.54720    2.51980    0.23750   10.20740  300.19420    -999.25    -999.25    0.09010    0.21220  -59.26250   19.81820   34.51680   19.33190
 11450.00000   42.68410    9.88070   52.62870    2.64740    0.25200   11.13690   51.00730    -999.25    -999.25    0.10170    0.05770  -72.06060   25.01270   34.51230   27.00020
 11500.00000   31.29860   10.27340   51.45630    2.49590    0.29620   13.35030   34.36560    -999.25    -999.25    0.12280    0.00780  -30.35730  102.63020  320.27790  170.28210
 11550.00000   24.77710    9.98510   50.50680    2.62120    0.24830   11.49180   28.00460    -999.25    -999.25    0.06470   -0.00010 -101.34900  171.59060  202.00630  111.31040
 11600.00000   68.65240    9.71100   56.16020    2.68290    0.28510   10.94790   73.40860    -999.25    -999.25    0.01790    0.05800  -54.65650   84.01520  218.23570   90.86160
 11650.00000   85.52270    9.21980   57.26380    2.72520    0.04120    9.59860   92.32680    -999.25    -999.25   -0.02120    0.08120  -29.51690   68.82270  155.01420   91.31200
 11700.00000   21.91620    9.80200   50.78120    2.66890    0.26500   10.59530   23.99160    -999.25    -999.25    0.03050    0.00230  -29.00330  291.18280  713.83310 1183.45650
 11750.00000  115.19470    9.81630   67.78680    2.14190    0.26240   11.69040  163.67280    -999.25    -999.25    0.29380    0.04860  -78.51120   17.66950   81.32860   15.50970
 11800.00000    -999.25    -999.25    -999.25    2.54340    0.31300    8.45280  147.47410    -999.25    -999.25    0.11980    0.18060    -999.25    -999.25    -999.25    -999.25
