~Version ---------------------------------------------------
VERS.      2.0 : CWLS log ASCII Standard -VERSION 2.0
WRAP.       NO : One line per depth step
CREA. 12/21/17 : LAS Creation Date
~Well ------------------------------------------------------
STRT.FT                         300.0 : START DEPTH
STOP.FT                        9800.0 : STOP DEPTH
STEP.FT                      50.00000 : STEP LENGTH
NULL.                         -999.25 : NULL VALUE
COMP. CHAMPLIN OIL & REFINING COMPANY : COMPANY
WELL.      CHAMPLIN KAYBOB 2-28-64-19 : WELL
FLD .                                 : FIELD
LOC .                                 : LOCATION
CTRY.                          CANADA : COUNTRY
SRVC.          Schlumberger of Canada : SERVICE COMPANY
DATE.                     06-Jul-1960 : LOGDATE
PROV.                         Alberta : PROVINCE
UWI .                100022806419W500 : UNIQUE WELL ID
SLAT.WGS84                   54.56169 : SURFACE LATITUDE
SLON.WGS84                  -116.8075 : SURFACE LONGITUDE
~Curve Information -----------------------------------------
DEPT  .FT    : Depth Curve
CALWS .IN    : CALIPER [MCALED
CILDED.MMHO  : INDUCTION CONDUCTIVITY FROM IEL
CONDWS.MMHO  : CONDUCTIVITY [1000/DRESWS]
DRESWS.OHMM  : DEEP RESISTIVITY [IF ILDED LESS THAN 2, THEN 1000/CILDED. ELSE, ILDED]
GRED  .GAPI  : GAMMA RAY FROM CASED CALIPER LOG [DEPTH SHIFTRED TO RES.]
GRWS  .GAPI  : GAMMA RAY [GRED]
ILDED .OHMM  : INDUCTION LOG RESISTIVITY
MCALED.IN    : MLT (MICROLOG) CALIPER
NEUTED.NAPI  : NEUTRON FROM NEUTRON LOG [SLIGHT DEPTH SHIFT TO SNED]
NEUTWS.NAPI  : NEUTRON [NEUTED]
SNED  .OHMM  : SHORT NORMAL RESISTIVITY FROM IEL
SPRED .MV    : SPONTANEOUS POTENTIAL FROM IEL
SPWS  .MV    : SPONTANEOUS POTENTIAL [SPRED. BASELINE "0" MV]
SRESWS.OHMM  : SHALLOW RESISTIVITY [SNED]
~Params ----------------------------------------------------
LMF .                     KB : LOG MEASURED FROM
DMF .                     KB : DRILLING MEASURED FROM
EKB .FT                 2447 : KELLY BUSHING
EGL .FT                 2432 : GROUND LEVEL
DATE.               07/06/60 : RUN DATE
RUN .                      1 : RUN NUMBER
DD  .FT                 9825 : DEPTH DRILLER
DL  .FT                 9824 : DEPTH LOGGER
BLI .FT                 9818 : BOTTOM LOG INTERVAL
TLI .FT                 1034 : TOP LOG INTERVAL
CBD .FT                 1034 : CASING BOTTOM DRILLER
CBL .FT                 1034 : CASING BOTTOM LOGGER
BS  .IN                7.875 : BIT SIZE
BSD .FT                 9825 : BIT SIZE AT DEPTH
DFT .                    GEL : DRILLING FLUID TYPE
DFD .                   10.4 : DRILLING FLUID DENSITY
DFV .                     90 : DRILLING FLUID VISCOSITY
DFPH.                   10.5 : DRILLING FLUID PH
DFL .                    6.4 : DRILLING FLUID LOSS
MSS .            CIRCULATION : MUD SAMPLE SOURCE
RMS .OHMM                1.5 : RESISTIVITY MUD SAMPLE
MST .DEGF                 90 : MUD SAMPLE TEMPERATURE
RMF .OHMM                0.9 : RESISTIVITY MUD FILTRATE SAMPLE
MFST.DEGF                 88 : MUD FILTRATE SAMPLE TEMPERATURE
RMC .OHMM                2.2 : RESISTIVITY MUD CAKE
MCST.DEGF                 88 : MUD CAKE SAMPLE TEMPERATURE
RMB .OHMM                0.7 : RESISTIVITY MUD AT BHT
TCS .HRS                 2.5 : TIME CIRCULATED STOPPED
LUN .                   1573 : LOGGING UNIT NUMBER
LUL .                     WC : LOGGING UNIT LOCATION
ENGI.                  GOETZ : RECORDING ENGINEER
WITN.                  NAMEE : WITNESSED BY
CLNT.                A2DTECH : CLIENT CODE
ORIG.            2" 5" PRINT : ORIGIN OF DATA
UWI .       100022806419W500 : UNIQUE WELL ID
DICO. A2D Technologies, Inc. : DIGITIZING COMPANY
~Other -----------------------------------------------------
~ASCII -----------------------------------------------------
# ...
 2750.00000    -999.25  167.18960  192.10820    5.20540   81.28710   81.28710    5.20540    -999.25    -999.25    -999.25    6.67760  -74.80780   -6.54480    6.67760
 2800.00000    -999.25  177.77470  204.25670    4.89580   88.37700   88.37710    4.89580    -999.25    -999.25    -999.25    6.92480  -73.45020   -5.09040    6.92480
 2850.00000    -999.25  127.54090  135.02570    7.40600   97.15070   97.15070    7.40600    -999.25    -999.25    -999.25   10.45620  -73.63310   -5.17540   10.45620
 2900.00000    -999.25  149.17480  164.14030    6.09230   90.80490   90.80490    6.09230    -999.25    -999.25    -999.25    8.29650  -73.26650   -4.71200    8.29660
 2950.00000    -999.25  175.56710  206.15160    4.85080   86.31240   86.31240    4.85080    -999.25    -999.25    -999.25    6.80130  -74.19830   -5.54590    6.80130
 3000.00000    -999.25  167.58540  187.34660    5.33770   88.19700   88.19700    5.33770    -999.25    -999.25    -999.25    6.49970  -74.86780   -6.11810    6.49970
 3050.00000    -999.25  103.99550  105.97260    9.43640   70.86940   70.86940    9.43640    -999.25    -999.25    -999.25   10.04850  -78.12130   -9.27480   10.04850
 3100.00000    -999.25  107.08230  110.12120    9.08090   73.67380   73.67380    9.08090    -999.25    -999.25    -999.25    9.34830  -77.38740   -8.44300    9.34830
 3150.00000    -999.25  151.11860  167.26460    5.97860   82.44830   82.44830    5.97860    -999.25    -999.25    -999.25    7.33300  -75.76190   -6.72060    7.33300
 3200.00000    -999.25  187.73920  206.58600    4.84060   85.54430   85.54430    4.84060    -999.25    -999.25    -999.25    6.24630  -74.34410   -5.20510    6.24630
 3250.00000    -999.25  160.61860  169.76780    5.89040   76.14310   76.14310    5.89040    -999.25    -999.25    -999.25    7.07920  -74.16530   -4.92890    7.07920
 3300.00000    -999.25  157.37720  169.57490    5.89710   81.87300   81.87300    5.89710    -999.25    -999.25    -999.25    7.19910  -74.36750   -5.03420    7.19910
 3350.00000    -999.25   91.36300   96.02180   10.41430   77.84910   77.84910   10.41430    -999.25    -999.25    -999.25   12.14390  -75.50270   -6.07160   12.14390
 3400.00000    -999.25  126.82000  133.15850    7.50980   87.34480   87.34480    7.50990    -999.25    -999.25    -999.25    8.73400  -73.64420   -4.11630    8.73400
 3450.00000    -999.25  137.01540  150.28330    6.65410   90.20630   90.20630    6.65410    -999.25    -999.25    -999.25    8.46250  -73.40090   -3.77520    8.46250
 3500.00000    -999.25  132.34160  140.28980    7.12810   74.62110   74.62110    7.12810    -999.25    -999.25    -999.25    8.44630  -72.67500   -2.95190    8.44630
 3550.00000    -999.25  163.75130  177.97240    5.61890   84.33680   84.33680    5.61880    -999.25    -999.25    -999.25    7.50020  -71.28260   -1.46260    7.50030
 3600.00000    -999.25  166.79180  180.88420    5.52840   84.69300   84.69300    5.52840    -999.25    -999.25    -999.25    7.83220  -71.47360   -1.56850    7.83220
 3650.00000    -999.25  167.04040  185.34310    5.39540   92.55600   92.55600    5.39540    -999.25    -999.25    -999.25    7.65360  -74.49170   -4.58660    7.65360
 3700.00000    -999.25  137.08990  145.53290    6.87130   84.53040   84.53040    6.87130    -999.25    -999.25    -999.25    9.91110  -74.11750   -4.21240    9.91110
 3750.00000    -999.25  131.47630  141.16720    7.08380   84.82730   84.82730    7.08380    -999.25    -999.25    -999.25   10.33800  -74.17760   -4.27250   10.33800
 3800.00000    -999.25  120.31770  126.75150    7.88950  106.44110  106.44110    7.88940    -999.25    -999.25    -999.25   12.25160  -73.68240   -3.77730   12.25170
 3850.00000    -999.25  118.06320  124.78630    8.01370   96.14700   96.14700    8.01370    -999.25    -999.25    -999.25   13.10720  -73.13820   -3.23310   13.10720
 3900.00000    -999.25  158.72970  174.88940    5.71790   80.97670   80.97670    5.71790    -999.25    -999.25    -999.25    8.81600  -71.42240   -1.51730    8.81610
 3950.00000    -999.25  138.22570  157.22530    6.36030   74.37360   74.37360    6.36030    -999.25    -999.25    -999.25    8.24960  -73.73810   -3.83300    8.24960
 4000.00000    -999.25  172.48940  200.92830    4.97690   69.00200   69.00200    4.97690    -999.25    -999.25    -999.25    6.65110  -72.88660   -2.98150    6.65110
 4050.00000    -999.25  164.45960  185.18690    5.40000   83.49110   83.49110    5.39990    -999.25    -999.25    -999.25    7.56010  -71.62070   -1.71560    7.56020
 4100.00000    -999.25  183.18630  206.05390    4.85310   89.80830   89.80830    4.85310    -999.25    -999.25    -999.25    6.69720  -72.64710   -2.74200    6.69720
 4150.00000    -999.25  118.48780  119.77630    8.34890   80.02740   80.02740    8.34890    -999.25    -999.25    -999.25   10.73960  -76.62520   -6.72010   10.73960
 4200.00000    -999.25  172.68850  194.35210    5.14530   92.47600   92.47600    5.14530    -999.25    -999.25    -999.25    6.86040  -71.85500   -1.94990    6.86040
 4250.00000    -999.25  194.26810  216.81630    4.61220   78.07450   78.07450    4.61220    -999.25    -999.25    -999.25    6.46470  -70.47780   -0.66440    6.46470
 4300.00000   13.40620  210.43590  250.78680    3.98740   81.51670   81.51670    3.98750   13.40620    -999.25    -999.25    5.99740  -71.87610   -2.42750    5.99730
 4350.00000   13.19350  390.18350  448.47070    2.22980  104.27990  104.27990    2.22980   13.19350    -999.25    -999.25    3.58220  -75.07970   -5.99950    3.58220
 4400.00000   13.26470  406.22160  478.91570    2.08800   77.88300   77.88310    2.08810   13.26470    -999.25    -999.25    3.24170  -74.69710   -5.98170    3.24180
 4450.00000   13.01980  388.81480  432.58210    2.31170   82.76220   82.76220    2.31170   13.01980    -999.25    -999.25    3.63730  -77.02340   -8.95790    3.63730
 4500.00000   12.41090  214.07690  248.35470    4.02650   74.86800   74.86800    4.02650   12.41090    -999.25    -999.25    5.43950  -83.95160  -17.59250    5.43950
 4550.00000   11.25830  182.74600  214.88970    4.65350   63.63490   63.63490    4.65360   11.25830    -999.25    -999.25    6.60780  -84.38570  -19.72450    6.60770
 4600.00000    9.74030   93.20520   94.49210   10.58290   62.94650   62.94650   10.58290    9.74030    -999.25    -999.25   14.27580  -88.30850  -25.36230   14.27580
 4650.00000   10.07610  546.61950  546.61950    1.82940   64.10440   64.10450    1.53600   10.07610    -999.25    -999.25    3.11530  -81.44710  -20.19880    3.11540
 4700.00000   10.82180  155.27800  177.50950    5.63350   57.65040   57.65040    5.63350   10.82180    -999.25    -999.25    9.30000  -90.35820  -30.82490    9.30000
 4750.00000   10.55880  113.27720  122.64220    8.15380   54.80480   54.80480    8.15380   10.55880    -999.25    -999.25   10.80060  -84.86790  -27.04110   10.80060
 4800.00000    9.68240   73.80790   77.33530   12.93070   50.93820   50.93830   12.93070    9.68240    -999.25    -999.25   20.51870  -98.97820  -42.84930   20.51860
 4850.00000    9.53490   85.11750   91.15110   10.97080   58.01140   58.01140   10.97080    9.53490    -999.25    -999.25   19.18650  -82.91390  -28.50000   19.18650
 4900.00000   10.16210  149.34860  152.61820    6.55230   62.16640   62.16640    6.55230   10.16210    -999.25    -999.25   10.72990  -79.88230  -27.16630   10.72990
 4950.00000    9.07300   71.80590   72.78340   13.73940   49.67800   49.67800   13.73940    9.07300    -999.25    -999.25   18.41830  -84.84040  -33.83940   18.41830
 5000.00000   10.12010   45.28310   41.66200   24.00270   26.46640   26.46640   24.00270   10.12010    -999.25    -999.25   25.92130  -77.30330  -28.00870   25.92130
 5050.00000    9.29700   87.46670   90.26980   11.07790   64.04890   64.04890   11.07790    9.29700    -999.25    -999.25   16.90570  -61.68450  -14.08780   16.90570
 5100.00000    9.08940  100.89150   88.84550   11.25550   33.78560   33.78560   11.25550    9.08940    -999.25    -999.25   18.96920  -48.18460   -2.41740   18.96920
 5150.00000    9.30060  109.64320  114.49700    8.73380   67.73810   67.73810    8.73390    9.30060    -999.25    -999.25   11.70410  -52.08410   -8.61420   11.70410
