~Version ---------------------------------------------------
VERS.      2.0 : CWLS log ASCII Standard -VERSION 2.0
WRAP.       NO : One line per depth step
CREA. 08/19/14 : LAS Creation Date
~Well ------------------------------------------------------
STRT.FT                        1500.0 : START DEPTH
STOP.FT                       15000.0 : STOP DEPTH
STEP.FT                      50.00000 : STEP LENGTH
NULL.                         -999.25 : NULL VALUE
COMP.         UNO-TEX PETROLEUM CORP. : COMPANY
WELL. UNO-TEX NUMAC ANCONA 7-25-40-12 : WELL
FLD .                                 : FIELD
LOC .                                 : LOCATION
CTRY.                          CANADA : COUNTRY
SRVC.                         Unknown : SERVICE COMPANY
DATE.                     31-Dec-1970 : LOGDATE
PROV.                         Alberta : PROVINCE
UWI .                100072504012W500 : UNIQUE WELL ID
SLAT.WGS84                   52.47006 : SURFACE LATITUDE
SLON.WGS84                  -115.5904 : SURFACE LONGITUDE
~Curve Information -----------------------------------------
DEPT   .FT     : DEPTH FEET
CALD   .IN     : CALIPER FROM DENSITY LOG
CALS   .IN     : CALIPER FROM SONIC LOG
CILD   .MMHO   : CONDUCTIVITY FROM RESISTIVITY LOG
DCOR   .G/C3   : DENSITY CORRECTION FROM DENSITY LOG
DPHI_LS.DEC    : DENSITY POROSITY LIMESTONE [M=2.71,F=1.0] FROM DENSITY LOG
DT     .US/FT  : DELTA TIME FROM SONIC LOG
GRD    .GAPI   : GAMMA RAY FROM DENSITY LOG
GRS    .GAPI   : GAMMA RAY FROM SONIC LOG
ILD    .OHMM   : DEEP INDUCTION RESISTIVITY FROM RESISTIVITY LOG
ILM    .OHMM   : MEDIUM INDUCTION RESISTIVITY FROM RESISTIVITY LOG
LL8    .OHMM   : LATEROLOG-8 RESISTIVITY FROM RESISTIVITY LOG
RHOB   .G/C3   : BULK DENSITY FROM DENSITY LOG
SN     .OHMM   : SHORT NORMAL 16" FROM RESISTIVITY LOG
SPR    .MV     : SPONTANEOUS POTENTIAL FROM RESISTIVITY LOG
~Params ----------------------------------------------------
PD  .                     GL : PERMANENT DATUM
EPD .FT                 3930 : ELEVATION PERMANENT DATUM
LMF .                     KB : LOG MEASURED FROM
DAPD.FT                   19 : FEET ABOVE PERMANENT DATUM
EKB .FT                 3949 : KELLY BUSHING
EGL .FT                 3930 : GROUND LEVEL
DATE.               12/31/70 : RUN DATE
RUN .                      2 : RUN NUMBER
DD  .FT                15010 : DEPTH DRILLER
DL  .FT                15009 : DEPTH LOGGER
BLI .FT                15003 : BOTTOM LOG INTERVAL
TLI .FT                13473 : TOP LOG INTERVAL
CBD .FT                13473 : CASING BOTTOM DRILLER
CBL .FT                13473 : CASING BOTTOM LOGGER
BS  .IN                5.968 : BIT SIZE
BSD .FT                15010 : BIT SIZE AT DEPTH
DFT .                    GEL : DRILLING FLUID TYPE
DFD .                   11.3 : DRILLING FLUID DENSITY
DFV .                     55 : DRILLING FLUID VISCOSITY
DFPH.                   10.5 : DRILLING FLUID PH
DFL .                   11.5 : DRILLING FLUID LOSS
MSS .               FLOWLINE : MUD SAMPLE SOURCE
RMS .OHMM               0.84 : RESISTIVITY MUD SAMPLE
MST .DEGF                 68 : MUD SAMPLE TEMPERATURE
RMF .OHMM               0.47 : RESISTIVITY MUD FILTRATE SAMPLE
MFST.DEGF                 70 : MUD FILTRATE SAMPLE TEMPERATURE
RMC .OHMM               0.13 : RESISTIVITY MUD CAKE
MCST.DEGF                259 : MUD CAKE SAMPLE TEMPERATURE
TCS .HRS                   3 : TIME CIRCULATED STOPPED
LUN .                7002 RD : LOGGING UNIT NUMBER
ENGI.                 TALBOT : RECORDING ENGINEER
WITN.        BINNIE LEVEILLE : WITNESSED BY
CLNT.                A2DTECH : CLIENT CODE
ORIG.            2" 5" PRINT : ORIGIN OF DATA
UWI .       100072504012W500 : UNIQUE WELL ID
DICO. A2D Technologies, Inc. : DIGITIZING COMPANY
~Other -----------------------------------------------------
~ASCII -----------------------------------------------------
# ...
 11300.00000   14.07100    8.97510    -999.25   -0.04590    0.29970   71.49460   68.48260   82.48330    4.45450    5.93370    7.80380    1.87280    7.39670    0.56050
 11350.00000    8.45030    8.20130    -999.25   -0.05040    0.05000   54.82660   21.60520   28.75240   10.33270   14.55700   11.56580    2.64280   29.80630    2.50560
 11400.00000    8.86300    8.54350    -999.25   -0.08720    0.20080   52.79900   49.05010   43.47480  926.58670 1047.07510 1418.90230    2.31480  153.91440  -47.37910
 11450.00000    8.22400    8.30120    -999.25   -0.06420    0.00110   59.67750   14.65540   11.59260   65.57520   45.59960   38.71330    2.68190   43.15690  -67.00550
 11500.00000    7.77370    8.00380    -999.25   -0.08320    0.14220   60.03200   10.28190    9.14640  154.28520  182.53890  109.82560    2.46380   88.80420  -65.84310
 11550.00000   11.88230    8.97520    -999.25   -0.12440    0.20610   50.52680   16.41950   24.51970  102.63890   56.31590   82.40870    2.35760   83.01820  -25.02370
 11600.00000    8.34070    8.52910    -999.25   -0.05770   -0.07810   51.51680   50.27940   35.29200 1802.24710 1543.88120  287.43840    2.83640  113.92390   -8.32120
 11650.00000    8.92210    9.03630    -999.25   -0.02650   -0.07230   52.79240   39.65310   46.82470  100.16330  296.70250 1211.32400    2.80630    -999.25    -999.25
 11700.00000    9.85430    9.12580    -999.25   -0.17040    0.05540   56.07470   73.65660   49.16180  106.56820   64.86980  168.15140    2.62350    -999.25    -999.25
 11750.00000    8.26150    8.98270    -999.25   -0.03330    0.06900   49.18240    6.35710    5.40170  187.47440  128.19870  261.90250    2.59080    -999.25    -999.25
 11800.00000    8.43010    8.83880    -999.25   -0.09210    0.03720   50.14990    6.09830    5.62590   69.26590   62.95480  165.30200    2.64060    -999.25    -999.25
 11850.00000    9.42580    8.86940    -999.25   -0.09340    0.00300   48.99790    8.06030    5.00190  375.06000 1079.69800  900.49810    2.69660    -999.25    -999.25
 11900.00000   12.07870    9.81740    -999.25   -0.08450    0.27530   53.86440   48.28310   29.15150   12.15330   16.08390   15.82150    2.23940    -999.25    -999.25
 11950.00000    8.53550    9.04090    -999.25   -0.06810   -0.05340   51.90300   43.59440   36.19180  162.76260  137.75130  150.30250    2.78090    -999.25    -999.25
 12000.00000    8.79650    8.86890    -999.25   -0.07670   -0.00320   51.12160   11.21810    9.84160 1447.90120  425.07390  439.85600    2.69910    -999.25    -999.25
 12050.00000    8.97400    8.84640    -999.25   -0.23950   -0.01090   51.36180   23.06380   21.93000  485.94280  377.58990 1136.64100    2.70570    -999.25    -999.25
 12100.00000    9.56250    9.32060    -999.25   -0.16580    0.19340   51.14080   25.90330   25.13060  216.35000  817.63330  953.52630    2.38040    -999.25    -999.25
 12150.00000    8.29250    8.72480    -999.25   -0.03630   -0.02780   52.31180   25.39290   24.84540  166.43250  301.54140  243.32870    2.74240    -999.25    -999.25
 12200.00000    8.30280    8.62310    -999.25   -0.03180   -0.01440   53.42530   30.30130   28.50290  150.30130  181.40680  211.73400    2.72590    -999.25    -999.25
 12250.00000    8.23050    8.66490    -999.25   -0.02440   -0.01830   52.11050   25.57410   19.33860 1105.37650 1612.78600  916.14330    2.72260    -999.25    -999.25
 12300.00000    8.33670    8.66950    -999.25   -0.02450   -0.02490   53.10610   29.31490   22.53550 1349.73730 1508.57760  554.29080    2.73790    -999.25    -999.25
 12350.00000    8.31790    8.70750    -999.25   -0.01590   -0.00750   54.75670   32.82900   34.14350  266.71540  157.51910  195.51090    2.70430    -999.25    -999.25
 12400.00000    8.35370    8.68300    -999.25   -0.04160   -0.02650   57.00020   61.97330   58.09630   39.64110   34.24240   35.50880    2.73020    -999.25    -999.25
 12450.00000    8.77260    8.67680    -999.25   -0.11780    0.01830   49.10420   26.47270   18.97850 1548.45970 1680.68580 1466.40540    2.67470    -999.25    -999.25
 12500.00000   10.17610    9.79620    -999.25   -0.08030    0.21130   50.71370   10.65130    7.68340   50.16900 1824.40810  682.49470    2.35420    -999.25    -999.25
 12550.00000   10.36360    8.90590    -999.25   -0.14050    0.14330   51.22620    8.63810    9.55200  490.58700 1770.76270  570.65720    2.46570    -999.25    -999.25
 12600.00000    8.83760    8.86280    -999.25   -0.08960    0.02130   48.48130   13.76890   11.47620 1095.44980 1653.34970 1418.98800    2.66230    -999.25    -999.25
 12650.00000    9.76940    8.75880    -999.25   -0.14890    0.03550   49.31080    9.80120   10.52290  151.34190  405.91420  481.33420    2.60500    -999.25    -999.25
 12700.00000   11.72020    9.31710    -999.25   -0.10620    0.30080   51.36470   13.89190   10.76910   49.52200  413.42040  946.72160    2.12470    -999.25    -999.25
 12750.00000    8.16650    8.91950    -999.25   -0.14230    0.06350   52.13940   10.89390    9.89250  302.79600 1727.17610  287.48110    2.60150    -999.25    -999.25
 12800.00000    7.22770    7.27960    -999.25   -0.11060    0.08520   49.57470    9.76110    6.45140  109.16970   61.47810  198.54800    2.55900    -999.25    -999.25
 12850.00000    8.18700    7.87320    -999.25   -0.10870    0.25340   47.95200   13.53570   10.13000  120.58060 1164.18540 1254.61780    2.28760    -999.25    -999.25
 12900.00000   10.41920   10.52930    -999.25   -0.10670    0.28490   59.08620   12.29950   12.30830   35.99150  259.53520  167.89470    2.24130    -999.25    -999.25
 12950.00000   10.64770    9.17460    -999.25   -0.15600    0.16520   47.96800   12.80380   11.87890  533.97710 1680.05930 1478.35210    2.42750    -999.25    -999.25
 13000.00000    8.48810    8.47690    -999.25   -0.12300    0.04720   52.45280    9.84050    9.28890   63.29720   80.69640  134.88520    2.60700    -999.25    -999.25
 13050.00000   10.26290    8.91590    -999.25   -0.17450    0.09190   48.29330   12.25350   13.90320 1785.43590 1640.99120 1237.74340    2.55280    -999.25    -999.25
 13100.00000   11.17060    9.25220    -999.25   -0.12390    0.24500   49.66800    7.95730    6.74130   75.99600  476.09050  369.14910    2.29100    -999.25    -999.25
 13150.00000   10.31630    9.26610    -999.25   -0.18650    0.10630   50.95760   17.18590   17.83910 1232.70240 1676.47720  513.93800    2.52820    -999.25    -999.25
 13200.00000    9.05400    8.81190    -999.25   -0.15640    0.08780   52.40600   46.11410   39.50730  104.60820  101.34810  229.82820    2.47530    -999.25    -999.25
 13250.00000   11.66020    9.44820    -999.25   -0.08090    0.25730   52.03570   20.76390   13.33450   58.96200  155.74950  252.62940    2.27570    -999.25    -999.25
 13300.00000    8.42700    8.59280    -999.25   -0.10930    0.04560   51.41090   37.92570   93.91500 1231.03940 1570.24240  331.62100    2.66060    -999.25    -999.25
 13350.00000    7.29760    7.62920    -999.25   -0.06680    0.10170   47.95930    8.54630    9.85110  106.77690  191.28950  165.58920    2.53410    -999.25    -999.25
 13400.00000    8.57770    8.78530    -999.25   -0.19460    0.04460   47.95740   44.43890   24.58710  929.39580  798.41790  584.87060    2.66180    -999.25    -999.25
 13450.00000   10.11250    8.95300    -999.25   -0.15250    0.17680   46.79440   15.53520   17.29100  131.94260 1742.03890 1193.39010    2.42110    -999.25    -999.25
 13500.00000    -999.25    6.39260    -999.25    -999.25    -999.25   46.96540    -999.25   22.89380   76.54090  167.00840  282.24120    -999.25    -999.25    -999.25
 13550.00000    -999.25    6.47040    -999.25    -999.25    -999.25   55.68020    -999.25   40.96090    9.45030   12.95800   35.73140    -999.25    -999.25    -999.25
 13600.00000    -999.25    6.47250    -999.25    -999.25    -999.25   65.77180    -999.25   68.79420    5.90830    6.72380    9.15580    -999.25    -999.25    -999.25
 13650.00000    -999.25    6.48810    -999.25    -999.25    -999.25   71.82100    -999.25   96.11680    3.72610    4.11530    5.67910    -999.25    -999.25    -999.25
