~Version ---------------------------------------------------
VERS.      2.0 : CWLS log ASCII Standard -VERSION 2.0
WRAP.       NO : One line per depth step
CREA. 11/14/17 : LAS Creation Date
~Well ------------------------------------------------------
STRT.FT                         300.0 : START DEPTH
STOP.FT                       10450.0 : STOP DEPTH
STEP.FT                      50.00000 : STEP LENGTH
NULL.                         -999.25 : NULL VALUE
COMP.      THE CALIFORNIA STANDARD CO : COMPANY
WELL. CALSTAN B.A. LOSEGUN 12-5-63-19 : WELL
FLD .                                 : FIELD
LOC .                                 : LOCATION
CTRY.                          CANADA : COUNTRY
SRVC.          Schlumberger of Canada : SERVICE COMPANY
DATE.                     10-Jan-1958 : LOGDATE
PROV.                         Alberta : PROVINCE
UWI .                100120506319W500 : UNIQUE WELL ID
SLAT.WGS84                    54.4238 : SURFACE LATITUDE
SLON.WGS84                  -116.8449 : SURFACE LONGITUDE
~Curve Information -----------------------------------------
DEPT  .FT         : Depth Curve
CALWS .IN         : CALIPER [MCALED]
CONDWS.MMHO       : CONDUCTIVITY [1000/DRESWS]
DRESWS.OHMM       : DEEP RESISTIVITY [LNED]
GRNED .UgRa-Eq/T  : GAMMA RAY FROM GRN LOG
GRWS  .GAPI       : GAMMA RAY [GRNED*16.50]
LNED  .OHMM       : LONG NORMAL RESISTIVITY FROM EL LOG
LT18ED.OHMM       : LATERAL 18' FROM EL LOG
MCALED.IN         : MICROLOG CALIPER FROM ML LOG
NEUTED.CPS        : NEUTRON FROM GRN LOG
NEUTWS.CPS        : NEUTRON [NEUTED]
SNED  .OHMM       : SHORT NORMAL RESISTIVITY FROM EL LOG
SPRED .MV         : SPONTANEOUS POTENTIAL FROM EL LOG
SPWS  .MV         : SPONTANEOUS POTENTIAL [BASELINE 0 MV, SPRED]
SRESWS.OHMM       : SHALLOW RESISTIVITY [SNED]
~Params ----------------------------------------------------
LMF .                     KB : LOG MEASURED FROM
DMF .                     KB : DRILLING MEASURED FROM
EKB .FT                 2631 : KELLY BUSHING
DATE.               01/10/58 : RUN DATE
RUN .                      1 : RUN NUMBER
DD  .FT                10462 : DEPTH DRILLER
DL  .FT                10466 : DEPTH LOGGER
BLI .FT                10465 : BOTTOM LOG INTERVAL
TLI .FT                  827 : TOP LOG INTERVAL
CBD .FT                  828 : CASING BOTTOM DRILLER
CBL .FT                  827 : CASING BOTTOM LOGGER
BS  .IN                    9 : BIT SIZE
BSD .FT                10462 : BIT SIZE AT DEPTH
DFT .                    GEL : DRILLING FLUID TYPE
DFD .                   10.7 : DRILLING FLUID DENSITY
DFV .                    130 : DRILLING FLUID VISCOSITY
DFPH.                    9.5 : DRILLING FLUID PH
DFL .                    5.7 : DRILLING FLUID LOSS
MSS .             CIRCULATED : MUD SAMPLE SOURCE
RMS .OHMM               2.32 : RESISTIVITY MUD SAMPLE
MST .DEGF                 68 : MUD SAMPLE TEMPERATURE
RMF .OHMM               1.16 : RESISTIVITY MUD FILTRATE SAMPLE
MFST.DEGF                 76 : MUD FILTRATE SAMPLE TEMPERATURE
RMC .OHMM               2.52 : RESISTIVITY MUD CAKE
MCST.DEGF                 76 : MUD CAKE SAMPLE TEMPERATURE
TCS .HRS                   5 : TIME CIRCULATED STOPPED
LUN .                   1534 : LOGGING UNIT NUMBER
LUL .                     VV : LOGGING UNIT LOCATION
ENGI.                DEMAERE : RECORDING ENGINEER
WITN.                JOHNSON : WITNESSED BY
CLNT.                A2DTECH : CLIENT CODE
ORIG.            2" 5" PRINT : ORIGIN OF DATA
UWI .       100120506319W500 : UNIQUE WELL ID
DICO. A2D Technologies, Inc. : DIGITIZING COMPANY
~Other -----------------------------------------------------
~ASCII -----------------------------------------------------
# ...
 5200.00000   10.28930   52.50560   19.04560    4.92700   81.29550   19.04560    5.27410   10.28930  190.97850  190.97850   15.64710  -67.15720   -8.09180   15.64710
 5250.00000   10.13710  128.01800    7.81140    5.53200   91.27800    7.81140   16.33050   10.13710  159.58790  159.58790    6.03850  -65.69230   -6.30940    6.03850
 5300.00000   10.12250   51.59840   19.42040    2.91700   48.13050   19.42040   21.01730   10.12250  205.23410  205.23410   20.26850 -118.50830  -58.80780   20.26850
 5350.00000   10.18730   49.61080   20.15690    4.06010   66.99170   20.15690   11.17720   10.18730  194.51690  194.51690   12.83930  -78.70220  -18.68200   12.83930
 5400.00000   10.42470   50.39800   19.84250    5.23970   86.45590   19.84250   10.33500   10.42470  199.37510  199.37510   15.89460  -67.78900   -7.45120   15.89460
 5450.00000    8.67610   28.50890   35.07680    2.94950   48.66680   35.07680   11.25150    8.67610  199.71440  199.71440   24.26580 -130.45520  -69.79770   24.26580
 5500.00000   10.37350   36.16110   27.65400    5.05000   83.32500   27.65400    9.18030   10.37350  186.87220  186.87220   15.94590  -69.60630   -8.63120   15.94590
 5550.00000   10.59530   61.49860   16.27370    5.09930   84.13760   16.27370   25.46830   10.59530  165.40410  165.40410   12.92460  -68.74000   -7.44730   12.92460
 5600.00000    9.84310   53.39910   18.72690    3.61060   59.57490   18.72690   13.03070    9.84310  193.39310  193.39310   13.60850  -82.44480  -24.20680   13.60850
 5650.00000   10.44050   15.36180   65.09670    2.99570   49.42990   65.09670   42.38580   10.44050  250.06080  250.06080   33.20330 -102.45220  -50.22870   33.20330
 5700.00000   10.32350   42.42900   23.56880    4.37970   72.26510   23.56880   13.60120   10.32350  197.70080  197.70080   14.36590  -49.89170   -3.00430   14.36590
 5750.00000   10.39250   52.41500   19.07850    4.93020   81.34830   19.07850   19.14950   10.39250  186.62490  186.62490   11.57540  -50.89050   -3.59790   11.57540
 5800.00000    9.74350   44.26510   22.59240    3.31720   54.73380   22.59240   13.70120    9.74350  200.78270  200.78270   15.19560  -99.97110  -52.27330   15.19560
 5850.00000   10.27620   50.61290   19.75780    3.08330   50.87440   19.75780   11.60960   10.27620  209.78050  209.78050   18.42090  -83.09740  -34.99180   18.42090
 5900.00000   10.13520   54.81590   18.24320    4.36720   72.05960   18.24320   16.12990   10.13520  203.93270  203.93270   15.63760  -68.48620  -19.97540   15.63760
 5950.00000    9.79150   54.91550   18.20980    5.55290   91.62290   18.20980   18.49040    9.79150  200.40730  200.40730   17.08890  -61.54770  -12.62910   17.08890
 6000.00000   10.23090   73.55590   13.59510    4.62790   76.36040   13.59510    8.31900   10.23090  172.78920  172.78920   11.19730  -60.59310  -11.26930   11.19730
 6050.00000   10.03580   36.70660   27.24540    3.93240   64.88460   27.24540   10.99440   10.03580  229.49550  229.49550   21.04140  -60.13710  -10.40810   21.04140
 6100.00000   10.05340   46.77510   21.37890    5.30080   87.46320   21.37890   42.59890   10.05340  160.86950  160.86950   19.26730  -55.05480   -4.91800   19.26730
 6150.00000    8.73780   41.43110   24.13690    3.01690   49.77880   24.13690   12.37350    8.73780  221.30790  221.30790   19.58130  -97.10210  -46.56010   19.58130
 6200.00000   10.90480   88.03200   11.35950    5.19330   85.68940   11.35950    8.24610   10.90480  155.54450  155.54450   10.12610  -53.55700   -2.60720   10.12610
 6250.00000   11.45010  112.63930    8.87790    4.96230   81.87790    8.87790    8.45510   11.45010  160.34810  160.34810    7.43640  -54.63630   -3.28130    7.43640
 6300.00000   10.94210  167.24180    5.98090    4.57160   75.43140    5.98090    4.58940   10.94210  152.97960  152.97960    5.10880  -59.30380   -7.54360    5.10880
 6350.00000   10.81950  191.47920    5.22250    4.37720   72.22380    5.22250    5.05120   10.81950  148.37960  148.37960    4.75820  -59.91250   -7.74450    4.75820
 6400.00000    9.45640   11.53290   86.70920    9.10750  150.27370   86.70920  132.98790    9.45640  196.74350  196.74350   50.08100  -55.10380   -2.53060   50.08100
 6450.00000    9.53750    4.57900  218.38700   11.52470  190.15750  218.38700  107.01130    9.53750  206.21500  206.21500   85.47240  -61.64770   -6.71770   85.47240
 6500.00000    9.57730   23.35830   42.81130    3.89380   64.24770   42.81130   55.50110    9.57730  248.19160  248.19160   29.84130  -84.33100  -26.35080   29.84130
 6550.00000    9.41300   37.75220   26.48850    5.28300   87.17030   26.48850   22.36370    9.41300  221.24870  221.24870   21.59820  -71.57700  -10.54670   21.59820
 6600.00000    9.42230   46.53740   21.48810    4.51250   74.45620   21.48810   21.31580    9.42230  264.63340  264.63340   19.06000  -89.10960  -25.00900   19.06000
 6650.00000    9.39450   41.23270   24.25280    4.59000   75.73420   24.25280   16.49760    9.39450  243.92870  243.92870   18.32050  -76.04520   -8.89450   18.32050
 6700.00000    8.79200   10.16700   98.35710    1.60100   26.41650   98.35710  176.28230    8.79200  316.20220  316.20220   53.30390  -88.46310  -26.42260   53.30390
 6750.00000    8.78780   12.04520   83.02040    2.27420   37.52430   83.02040   79.15560    8.78780  266.98840  266.98840   42.99480  -99.16980  -45.38310   42.99480
 6800.00000   10.73370    6.37370  156.95820    3.13220   51.68130  156.95820  351.68790   10.73370  219.76740  219.76740   64.04430  -72.17530  -26.64240   64.04430
 6850.00000    9.49740    8.06490  123.99440    4.02220   66.36630  123.99440  581.46310    9.49740  275.79810  275.79810   51.95850  -38.32130   -1.09650   51.95850
 6900.00000    9.19880    3.47320  287.92280    1.20580   19.89570  287.92280  231.03790    9.19880  328.29980  328.29980  109.73030  -81.63250  -46.01140  109.73030
 6950.00000    9.32510   42.29130   23.64550    2.66690   44.00390   23.64550   14.77670    9.32510  227.15600  227.15600   18.22620 -131.15780  -94.91960   18.22620
 7000.00000    9.39010   23.16700   43.16490    2.10750   34.77380   43.16490   22.67520    9.39010  297.03200  297.03200   33.78540  -86.70800  -49.85670   33.78540
 7050.00000    9.95680    4.54730  219.92860    2.33200   38.47800  219.92860  114.76090    9.95680  347.87380  347.87380   86.56950  -63.45540  -25.99100   86.56950
 7100.00000    9.45690    1.64890  606.47990    0.81300   13.41450  606.47990 1490.08180    9.45690  371.87550  371.87550  121.02620 -110.44970  -72.36820  121.02620
 7150.00000    9.67680    4.72520  211.76940    1.05710   17.44220  211.76940  184.35190    9.67680  380.56190  380.56190   86.10310 -156.91450 -118.21990   86.10310
 7200.00000    9.65780    4.39070  227.75210    1.20100   19.81650  227.75210  405.90140    9.65780  390.60550  390.60550   85.71240 -134.75730  -95.44560   85.71240
 7250.00000    9.64030  143.75660    6.95620    4.37740   72.22710    6.95620    8.05440    9.64030  188.46510  188.46510    7.23180  -71.95560  -32.62560    7.23180
 7300.00000    9.63090   71.28600   14.07470    4.42410   72.99770   14.07470   28.61070    9.63090  218.96690  218.96690   17.32630  -82.75080  -43.75940   17.32630
 7350.00000   10.96020   25.86600   38.66080    3.42920   56.58180   38.66080   14.77920   10.96020  256.83840  256.83840   24.52930  -94.16050  -55.50990   24.52930
 7400.00000   10.26170    8.39490  119.14400    2.76600   45.63980  119.14400  150.41830   10.26170  286.85710  286.85710   50.33140  -99.33680  -61.02480   50.33140
 7450.00000    9.13560    5.55180  180.12230    2.16370   35.70110  180.12230   40.28450    9.13560  329.03250  329.03250   77.89590 -119.26480  -81.29360   77.89590
 7500.00000    9.13490    4.91080  203.63430    1.04930   17.31350  203.63430  125.77780    9.13490  349.28730  349.28730   88.83540 -192.51450 -154.88190   88.83540
 7550.00000    9.05730   11.68610   85.58510    1.91710   31.63220   85.58510   63.32130    9.05730  355.33460  355.33460   47.15720 -169.72060 -132.42660   47.15720
 7600.00000    9.04640    3.85600  259.33500    2.10610   34.75070  259.33500  411.02420    9.04640  356.43990  356.43990   98.96070 -132.41560  -95.46240   98.96070
