~Version ---------------------------------------------------
VERS. 2.0 : CWLS log ASCII Standard -VERSION 2.0
WRAP.  NO : ONE LINE PER DEPTH STEP
~Well ------------------------------------------------------
STRT.F                           300.0 : START DEPTH
STOP.F                          9800.0 : STOP DEPTH
STEP.F                        50.00000 : STEP LENGTH
NULL.                          -999.25 : NULL VALUE
COMP.        CANADIAN GULF OIL COMPANY : COMPANY
WELL.              CGOC  IOSEGUN 15-28 : WELL
FLD .                                  : FIELD
LOC .                                  : LOCATION
CTRY.                           CANADA : COUNTRY
SRVC. Schlumberger Well Surveying Corp : SERVICE COMPANY
DATE.                      08-Aug-1954 : LOGDATE
PROV.                          Alberta : PROVINCE
UWI .                 100152806721W500 : UNIQUE WELL ID
SLAT.WGS84                    54.83244 : SURFACE LATITUDE
SLON.WGS84                   -117.1373 : SURFACE LONGITUDE
~Curve Information -----------------------------------------
DEPT  .F                 : 
SPR   .MV   99 010 00 00 : SELF POTENTIAL
LN    .OHMM 01 060 63 00 : LONG NORMAL 64"
LT18  .OHMM 01 070 18 00 : LATERAL 18'
SN    .OHMM 01 041 16 00 : SHORT NORMAL 16"
NEUT  .NAPI 35 330 22 00 : NEUTRON
GRN   .GAPI              : GAMMA RAY NEUTRON
NEUT_1.NAPI 35 330 30 00 : NEUTRON
GRN_1 .GAPI              : UNFILTERED GAMMA
~Params ----------------------------------------------------
LMF .                     KB : LOG MEASURED FROM
DMF .                     KB : DRILLING MEASURED FROM
EKB .FT                 2318 : KELLY BUSHING
DATE.               08/08/54 : RUN DATE
RUN .                      2 : RUN NUMBER
DD  .FT                 9832 : DEPTH DRILLER
DL  .FT                 9832 : DEPTH LOGGER
BLI .FT                 9832 : BOTTOM LOG INTERVAL
TLI .FT                 9667 : TOP LOG INTERVAL
CBD .FT                  597 : CASING BOTTOM DRILLER
CBL .FT                  597 : CASING BOTTOM LOGGER
BS  .IN                    9 : BIT SIZE
BSD .FT                 9832 : BIT SIZE AT DEPTH
DFT .                AQUAGEL : DRILLING FLUID TYPE
DFD .                   10.5 : DRILLING FLUID DENSITY
DFV .                    250 : DRILLING FLUID VISCOSITY
DFPH.                     10 : DRILLING FLUID PH
DFL .                    5.2 : DRILLING FLUID LOSS
MSS .               FLOWLINE : MUD SAMPLE SOURCE
RMS .OHMM                2.0 : RESISTIVITY MUD SAMPLE
MST .DEGF                 59 : MUD SAMPLE TEMPERATURE
RMB .OHMM                0.7 : RESISTIVITY MUD AT BHT
TCS .HRS                   2 : TIME CIRCULATED STOPPED
LUN .                    770 : LOGGING UNIT NUMBER
LUL .                     PR : LOGGING UNIT LOCATION
ENGI.                 CARSON : RECORDING ENGINEER
WITN.              SCHOMAKER : WITNESSED BY
CLNT.                A2DTECH : CLIENT CODE
ORIG.            2" 5" PRINT : ORIGIN OF DATA
UWI .       100152806721W500 : UNIQUE WELL ID
DICO. A2D Technologies, Inc. : DIGITIZING COMPANY
~Other -----------------------------------------------------
~ASCII -----------------------------------------------------
  300.00000    -999.25    -999.25    -999.25    -999.25    -999.25   25.37470    -999.25    -999.25
  350.00000    -999.25    -999.25    -999.25    -999.25    -999.25   17.78250    -999.25    -999.25
  400.00000    -999.25    -999.25    -999.25    -999.25    -999.25   24.34710    -999.25    -999.25
  450.00000    -999.25    -999.25    -999.25    -999.25    -999.25   20.65340    -999.25    -999.25
  500.00000    -999.25    -999.25    -999.25    -999.25    -999.25   17.30190    -999.25    -999.25
  550.00000    -999.25    -999.25    -999.25    -999.25    -999.25   25.42550    -999.25    -999.25
  600.00000  -85.74750    -999.25    -999.25    5.13430    -999.25   38.50190    -999.25    -999.25
  650.00000  -70.79490    8.49010    4.77020    5.87200    -999.25   34.41360    -999.25    -999.25
  700.00000  -70.73910    6.19610    7.12410    5.04300    -999.25   49.65630    -999.25    -999.25
  750.00000  -67.52250    7.17950    7.52750    5.62950    -999.25   31.85170    -999.25    -999.25
  800.00000  -67.59330    6.48430    7.55780    4.56800    -999.25   55.53630    -999.25    -999.25
  850.00000  -68.37250    8.61510    5.90120    7.26900    -999.25   37.02120    -999.25    -999.25
  900.00000  -74.99100    8.84060   16.08750    9.79670    -999.25   43.68450    -999.25    -999.25
  950.00000  -68.25980    7.10310    9.29260    6.15600    -999.25   36.83180    -999.25    -999.25
 1000.00000  -66.59760    6.38780    6.09330    4.54670    -999.25   34.29780    -999.25    -999.25
 1050.00000  -73.58990   10.98900    8.27810    9.41590    -999.25   30.87130    -999.25    -999.25
 1100.00000  -73.59720   26.05860   19.16360   16.31520    -999.25   42.61960    -999.25    -999.25
 1150.00000  -68.02520    9.66460    9.35110    7.39140    -999.25   37.68310    -999.25    -999.25
 1200.00000  -68.38870    5.81250   13.76170    4.95050    -999.25   28.37420    -999.25    -999.25
 1250.00000  -70.19060   12.00810    7.84410    9.94440    -999.25   25.82240    -999.25    -999.25
 1300.00000  -74.79860   12.79880   32.03780   16.01900    -999.25   35.25400    -999.25    -999.25
 1350.00000  -68.54840    9.06440    2.47910    6.40710    -999.25   37.21490    -999.25    -999.25
 1400.00000  -69.07670   10.33300    5.66370    7.98710    -999.25   28.01120    -999.25    -999.25
 1450.00000  -66.46420    8.23530   14.59860    5.50480    -999.25   26.86530    -999.25    -999.25
 1500.00000  -66.52600    7.18730    8.69300    5.66550    -999.25   34.44160    -999.25    -999.25
 1550.00000  -67.13690    8.93710    7.06390    7.51690    -999.25   33.55420    -999.25    -999.25
 1600.00000  -66.38390    7.79530    3.73970    5.99600    -999.25   31.13320    -999.25    -999.25
 1650.00000  -67.31590    8.46640    9.18510    5.82700    -999.25   30.87590    -999.25    -999.25
 1700.00000  -66.45450    7.52350    8.90640    6.42090    -999.25   33.88510    -999.25    -999.25
 1750.00000  -66.02930    7.38530    8.07460    6.54050    -999.25   27.28630    -999.25    -999.25
 1800.00000  -66.36760    7.92620    8.37340    6.91710    -999.25   29.85740    -999.25    -999.25
 1850.00000  -85.13540   12.41250   15.35800   13.96780    -999.25   24.11330    -999.25    -999.25
 1900.00000  -84.03450    9.92830   10.94580    8.98550    -999.25   38.76080    -999.25    -999.25
 1950.00000  -68.34700    7.35550    6.46390    6.91750    -999.25   30.67020    -999.25    -999.25
 2000.00000  -68.94580    6.34680   12.75570    6.71060    -999.25   39.50770    -999.25    -999.25
 2050.00000  -71.43720    8.70510    7.81140    7.76850    -999.25   45.98630    -999.25    -999.25
 2100.00000  -73.11260   11.66380   13.64390    8.66930    -999.25   51.65390    -999.25    -999.25
 2150.00000  -73.67650   10.08810   12.35760    8.28340    -999.25   62.04030    -999.25    -999.25
 2200.00000  -71.61600   11.58960   10.28500    8.84860    -999.25   56.40280    -999.25    -999.25
 2250.00000  -70.85830   12.37990   11.67400    9.56200    -999.25   57.73400    -999.25    -999.25
 2300.00000  -72.17660    9.88800   10.49320    7.62280    -999.25   58.91800    -999.25    -999.25
 2350.00000  -77.91260   10.85520   11.17880    8.13150    -999.25   44.76230    -999.25    -999.25
 2400.00000  -94.88350   15.48070   15.64120   13.62820    -999.25   27.60450    -999.25    -999.25
 2450.00000  -76.53410   12.97750   15.67050    9.71100    -999.25   50.85730    -999.25    -999.25
 2500.00000  -77.63950    9.90060   12.65540    7.77830    -999.25   56.52120    -999.25    -999.25
 2550.00000  -78.80010   10.46200   12.85450    8.01070    -999.25   59.27910    -999.25    -999.25
 2600.00000  -79.08530   11.46610   13.49000    8.85650    -999.25   56.16020    -999.25    -999.25
 2650.00000  -78.72050   12.30540   12.12570    8.96700    -999.25   50.71980    -999.25    -999.25
 2700.00000  -79.45320   12.87730   15.61960    9.11690  340.36890   54.74530    -999.25    -999.25
 2750.00000  -77.08780   12.38790   13.05940    9.02400  286.94300   47.56530    -999.25    -999.25
 2800.00000  -75.97510   12.09860   13.73330    8.69110  297.46860   57.18930    -999.25    -999.25
 2850.00000  -75.35020   11.06550   11.52970    8.32950  268.55300   53.85910    -999.25    -999.25
 2900.00000  -73.15840   10.98540   12.34520    8.42840  226.88320   62.88390    -999.25    -999.25
 2950.00000  -70.68550   10.45100   10.00880    8.32430  287.68020   69.82120    -999.25    -999.25
 3000.00000  -71.45820   11.83560   11.48800    9.44110  296.23260   75.95720    -999.25    -999.25
 3050.00000  -70.92280   11.51220   11.50240    9.41480  257.83930   63.22570    -999.25    -999.25
 3100.00000  -72.18280   13.08920   11.99590    9.79970  395.85640   61.10170    -999.25    -999.25
 3150.00000  -70.64080   15.24240   12.50240   11.75880  356.05770   94.31150    -999.25    -999.25
 3200.00000  -70.85670   12.57340   16.55280   11.99900  178.67310   64.61420    -999.25    -999.25
 3250.00000  -73.27210   10.17110   15.17220    8.06680  372.77570   47.94260    -999.25    -999.25
 3300.00000  -72.09000    9.71590    8.77720    8.77920  281.51270   57.09170    -999.25    -999.25
 3350.00000  -72.41370    9.53000   12.23930    7.84900  305.37000   51.26830    -999.25    -999.25
 3400.00000  -72.41420    9.82930    8.85470    8.61180  192.01730   47.21890    -999.25    -999.25
 3450.00000  -71.78700    8.81070    8.15780    8.68390  243.16450   61.09110    -999.25    -999.25
 3500.00000  -71.36630    7.46820    7.32990    6.53810  215.43570   51.89860    -999.25    -999.25
 3550.00000  -72.24550   11.51160   12.13710   10.11090  228.65560   54.52630    -999.25    -999.25
 3600.00000  -70.50290    8.33150    8.62180    7.40870  183.41660   48.35760    -999.25    -999.25
 3650.00000  -70.95150    8.46780    6.97480    7.25580  148.33570   53.76750    -999.25    -999.25
 3700.00000  -69.45920    4.94790    5.83040    5.81400  150.71450   47.98490    -999.25    -999.25
 3750.00000  -70.62040    4.86030    4.08300    4.43770  159.29220   53.75220    -999.25    -999.25
 3800.00000  -69.93250    6.64580    4.62110    5.86770  206.90350   51.05650    -999.25    -999.25
 3850.00000  -70.75540    6.46680    5.90510    5.67570  211.95520   55.49320    -999.25    -999.25
 3900.00000  -70.81740    6.84440    5.79890    6.17660  191.89010   76.52190    -999.25    -999.25
 3950.00000  -79.86160   19.78370    8.42090   15.92860  342.98470   63.08780    -999.25    -999.25
 4000.00000  -77.04670   12.90740   12.32820   13.49440  209.09360   55.43920    -999.25    -999.25
 4050.00000  -79.32760   12.51590    7.79860   12.73600  421.48640   32.20620    -999.25    -999.25
 4100.00000 -105.21850   35.63760   15.04890   34.76970  528.37910    9.91960    -999.25    -999.25
 4150.00000  -77.90860   10.68520    9.81210    8.60720  374.27680   36.18560    -999.25    -999.25
 4200.00000  -79.32190   10.58410   32.70800   16.22510  211.94090   34.17020    -999.25    -999.25
 4250.00000 -162.03610    7.43810    4.00490   10.06370  357.43790    7.56700    -999.25    -999.25
