~Version ---------------------------------------------------
VERS.      2.0 : CWLS log ASCII Standard -VERSION 2.0
WRAP.       NO : One line per depth step
CREA. 08/31/17 : LAS Creation Date
~Well ------------------------------------------------------
STRT.FT                           950.0 : START DEPTH
STOP.FT                         10350.0 : STOP DEPTH
STEP.FT                        50.00000 : STEP LENGTH
NULL.                           -999.25 : NULL VALUE
COMP.     THE ATLANTIC REFINING COMPANY : COMPANY
WELL. ATLANTIC SOUTH KAYBOB 10-18-63-19 : WELL
FLD .                                wc : FIELD
LOC .                                   : LOCATION
CTRY.                            CANADA : COUNTRY
SRVC.                      Schlumberger : SERVICE COMPANY
DATE.                       29-Oct-1962 : LOGDATE
PROV.                           Alberta : PROVINCE
UWI .                  100101806319W500 : UNIQUE WELL ID
SLAT.WGS84                     54.45213 : SURFACE LATITUDE
SLON.WGS84                    -116.8583 : SURFACE LONGITUDE
~Curve Information -----------------------------------------
DEPT  .FT    : Depth Curve
CALSED.IN    : CALIPER FROM SL-GR-CAL LOG
CALWS .IN    : CALIPER [CALSED]
CILDED.MMHO  : DEEP INDUCTION CONDUCTIVITY FROM IEL LOG
CONDWS.OHMM  : CONDUCTIVITY [1000/DRESWS]
DRESWS.OHMM  : DEEP RESISTIVITY [ILDED]
DTED  .US/F  : DELTA-T (INTERVAL TRANSIT TIME)
DTWS  .US/F  : COMPRESSIONAL SONIC [DTED]
GRSED .GAPI  : GAMMA RAY FROM SL-GR-CAL LOG
GRWS  .GAPI  : GAMMA RAY [GRSED]
ILDED .OHMM  : DEEP INDUCTION RESISTIVITY FROM IEL LOG
SNED  .OHMM  : SHORT NORMAL RESISTIVITY FROM IEL LOG
SPRED .MV    : SPONTANEOUS POTENTIAL FROM IEL LOG
SPWS  .MV    : SPONTANEOUS POTENTIAL [SPRED]
SRESWS.OHMM  : SHALLOW RESISTIVITY [SNED]
~Params ----------------------------------------------------
PD  .                     GL : PERMANENT DATUM
LMF .                     KB : LOG MEASURED FROM
EKB .FT                 2596 : KELLY BUSHING
DATE.               10/29/62 : RUN DATE
RUN .                      1 : RUN NUMBER
DD  .FT                10362 : DEPTH DRILLER
DL  .FT                10367 : DEPTH LOGGER
BLI .FT                10366 : BOTTOM LOG INTERVAL
TLI .FT                 1039 : TOP LOG INTERVAL
CBD .FT                 1037 : CASING BOTTOM DRILLER
CBL .FT                 1039 : CASING BOTTOM LOGGER
BS  .IN                 8.75 : BIT SIZE
BSD .FT                10362 : BIT SIZE AT DEPTH
DFT .                    GEL : DRILLING FLUID TYPE
DFD .                   10.1 : DRILLING FLUID DENSITY
DFV .                     95 : DRILLING FLUID VISCOSITY
DFPH.                    9.8 : DRILLING FLUID PH
DFL .                    6.6 : DRILLING FLUID LOSS
RMS .OHMM               1.43 : RESISTIVITY MUD SAMPLE
MST .DEGF                 97 : MUD SAMPLE TEMPERATURE
RMF .OHMM               1.25 : RESISTIVITY MUD FILTRATE SAMPLE
MFST.DEGF                 70 : MUD FILTRATE SAMPLE TEMPERATURE
RMC .OHMM               2.43 : RESISTIVITY MUD CAKE
MCST.DEGF                 70 : MUD CAKE SAMPLE TEMPERATURE
RMB .OHMM               0.74 : RESISTIVITY MUD AT BHT
TCS .HRS                 3.5 : TIME CIRCULATED STOPPED
LUN .                   3534 : LOGGING UNIT NUMBER
LUL .                    WCT : LOGGING UNIT LOCATION
ENGI.              HAUSEGGER : RECORDING ENGINEER
WITN.                 STRACK : WITNESSED BY
CLNT.                A2DTECH : CLIENT CODE
ORIG.            2" 5" PRINT : ORIGIN OF DATA
UWI .       100101806319W500 : UNIQUE WELL ID
DICO. A2D Technologies, Inc. : DIGITIZING COMPANY
~Other -----------------------------------------------------
~ASCII -----------------------------------------------------
# ...
 3400.00000   12.44330   12.44330  112.00010  116.33450    8.59590   90.24500   90.24500  103.48180  103.48180    8.59590    8.57240 -126.35500   -5.55270    8.57240
 3450.00000   12.41510   12.41510  155.29870  156.27200    6.39910  103.13710  103.13710  106.87860  106.87860    6.39910    6.24410 -125.83720   -5.29880    6.24410
 3500.00000   12.24600   12.24600  127.20890  127.25720    7.85810   85.16300   85.16300  106.17630  106.17630    7.85810    7.32260 -126.00890   -5.73260    7.32260
 3550.00000   12.72860   12.72860   82.04320   81.97310   12.22650   83.00040   83.00040   81.68300   81.68300   12.22650   11.71410 -130.50610  -10.49200   11.71410
 3600.00000   12.90680   12.90680  137.15970  138.50420    7.22000   85.03270   85.03270   97.29690   97.29690    7.22000    6.91540 -125.24360   -5.49340    6.91540
 3650.00000   12.68370   12.68370  132.76690  135.40960    7.38500   92.09850   92.09850  110.90060  110.90060    7.38500    7.03610 -124.35590   -4.86790    7.03610
 3700.00000   12.12820   12.12820  132.06730  141.23300    7.08050   89.52900   89.52900   98.36820   98.36820    7.08050    6.59180 -124.52240   -5.29830    6.59180
 3750.00000   12.14910   12.14910  120.23670  124.71320    8.01840   90.45090   90.45090  104.03990  104.03990    8.01840    7.59050 -123.98040   -5.01850    7.59050
 3800.00000   12.30210   12.30210  136.31120  144.50700    6.92060   90.89980   90.89980  102.40340  102.40340    6.92060    6.95180 -123.35580   -4.65610    6.95180
 3850.00000   12.16330   12.16330  106.20170  107.23980    9.32490   89.58780   89.58780  101.57910  101.57910    9.32490    9.02550 -124.21390   -5.77810    9.02550
 3900.00000   12.27000   12.27000  103.77390  105.67140    9.46330   91.10000   91.10000  107.55970  107.55970    9.46330    8.84530 -123.80040   -5.62670    8.84530
 3950.00000   12.82320   12.82320  115.95880  120.67970    8.28640   87.05230   87.05230  110.49600  110.49600    8.28640    7.94640 -122.73970   -4.82990    7.94640
 4000.00000   12.47590   12.47590  135.22170  133.09910    7.51320   96.53010   96.53010  105.33300  105.33300    7.51320    6.96010 -122.35240   -4.70480    6.96010
 4050.00000   12.89910   12.89910  148.93200  147.86230    6.76310   88.67130   88.67130   99.96800   99.96800    6.76310    6.48240 -121.63290   -4.24750    6.48240
 4100.00000   12.33860   12.33860  132.28600  136.18410    7.34300   94.88900   94.88900  108.14810  108.14810    7.34300    8.09590 -121.15910   -4.03760    8.09590
 4150.00000   11.79340   11.79340  147.46050  155.09410    6.44770   98.77380   98.77380  109.48740  109.48740    6.44770    7.27190 -119.89890   -3.03960    7.27190
 4200.00000   12.07630   12.07630  119.05320  122.41250    8.16910   96.88140   96.88140  120.39620  120.39620    8.16910    9.50750 -119.81560   -3.22020    9.50750
 4250.00000   11.43640   11.43640  117.18550  121.05950    8.26040   94.99730   94.99730  111.53130  111.53130    8.26040    9.83770 -119.79950   -3.46630    9.83770
 4300.00000   11.56670   11.56670  108.48040  111.82060    8.94290  100.66860  100.66860  139.48960  139.48960    8.94290   11.63820 -119.02120   -2.95010   11.63820
 4350.00000   11.97420   11.97420  114.14140  117.73710    8.49350   99.65420   99.65420  121.27650  121.27650    8.49350   10.18350 -118.81930   -3.01220   10.18350
 4400.00000   12.03980   12.03980  135.35890  138.43700    7.22350   93.70270   93.70270  101.96230  101.96230    7.22350    8.91180 -117.17770   -1.63270    8.91180
 4450.00000   10.59530   10.59530   96.70260   96.04390   10.41190  100.71340  100.71340  134.86420  134.86420   10.41190   13.47950 -116.36550   -1.08440   13.47950
 4500.00000   13.12670   13.12670  180.03890  193.64460    5.16410   87.35840   87.35840  102.26870  102.26870    5.16410    5.53910 -119.48910   -4.52320    5.53910
 4550.00000   12.94980   12.94980  182.49780  191.45520    5.22330   95.13800   95.13800  112.24040  112.24040    5.22330    5.76440 -118.11300   -3.49990    5.76440
 4600.00000   11.85470   11.85470  150.14170  153.54850    6.51260   86.02320   86.02320  100.51480  100.51480    6.51260    7.36630 -120.64030   -6.38230    7.36630
 4650.00000   12.02230   12.02230  196.54930  209.88560    4.76450   90.84000   90.84000  105.58600  105.58600    4.76450    5.54840 -118.55060   -4.64530    5.54840
 4700.00000   12.55610   12.55610  158.96430  167.41730    5.97310   82.17410   82.17410  116.07620  116.07620    5.97310    6.27400 -118.86060   -5.31040    6.27400
 4750.00000   12.64830   12.64830  218.29890  239.33180    4.17830   91.28900   91.28900   95.22920   95.22920    4.17830    4.85650 -115.88510   -2.68760    4.85650
 4800.00000   11.91660   11.91660  189.52310  201.18730    4.97050   90.34230   90.34230  107.50540  107.50540    4.97050    5.28210 -115.61790   -2.77320    5.28210
 4850.00000   12.16850   12.16850  204.66420  236.77610    4.22340   91.79350   91.79350  118.71290  118.71290    4.22340    5.22800 -114.40670   -1.91710    5.22800
 4900.00000   12.44370   12.44370  425.21730  547.76510    1.82560  107.76040  107.76040   94.49120   94.49120    1.82560    3.00490 -114.02280   -1.88590    3.00490
 4950.00000   12.33510   12.33510  362.78340  449.37760    2.22530  104.40990  104.40990   89.91240   89.91240    2.22530    2.68030 -114.35610   -2.57430    2.68030
 5000.00000   12.93890   12.93890  245.63650  274.43120    3.64390   94.15180   94.15180   96.83860   96.83860    3.64390    4.21870 -114.51770   -3.08860    4.21870
 5050.00000   12.90430   12.90430  201.83230  215.93430    4.63130   91.25380   91.25380  103.53360  103.53360    4.63130    5.21660 -114.45600   -3.37970    5.21660
 5100.00000   11.67700   11.67700   57.00250   54.03210   18.50750   73.16220   73.16220   53.85560   53.85560   18.50750   18.47820 -127.53580  -16.81460   18.47820
 5150.00000   13.12130   13.12130  373.11410  416.89250    2.39870   90.88350   90.88350   83.20100   83.20100    2.39870    2.84340 -113.80590   -3.43740    2.84340
 5200.00000   13.02550   13.02550   75.27430   70.95370   14.09370   77.12240   77.12240   60.29870   60.29870   14.09370   14.05650 -139.30450  -29.25690   14.05650
 5250.00000   13.18100   13.18100   99.86620  106.78170    9.36490   86.60540   86.60540   82.15890   82.15890    9.36490    8.58430 -117.77840   -7.89800    8.58430
 5300.00000   14.19160   14.19160  143.55070  157.16930    6.36940   90.64290   90.64290   94.28490   94.28490    6.36940    7.58220 -114.27560   -4.56250    7.58220
 5350.00000   13.68050   13.68050   75.98300   84.61100   11.81880  125.54390  125.54390   69.71420   69.71420   11.81880   15.26240 -114.92300   -5.37820   15.26240
 5400.00000   14.36100   14.36100   68.76290   74.75630   13.37680  113.80950  113.80950   73.50080   73.50080   13.37680   15.18220 -111.20490   -1.82730   15.18220
 5450.00000   12.96320   12.96320  104.11230  108.63310    9.20530   73.63110   73.63110   74.57510   74.57510    9.20530    9.79790 -113.26800   -4.05880    9.79790
 5500.00000   12.65900   12.65900   63.24420   63.89040   15.65180   70.99560   70.99560   74.61080   74.61080   15.65180   16.32150 -119.32120  -10.57630   16.32150
 5550.00000   12.33150   12.33150   43.35850   39.81970   25.14090   85.54360   85.54360   51.00450   51.00450   25.14090   22.81790 -130.35940  -24.60460   22.81790
 5600.00000   12.27520   12.27520   68.57080   71.21700   14.04160   75.45210   75.45210   53.83670   53.83670   14.04160   15.65060 -162.25870  -59.51360   15.65060
 5650.00000   12.74780   12.74780   53.52490   51.48930   19.42150   63.21110   63.21110   50.53120   50.53120   19.42150   22.58520 -150.59600  -50.84090   22.58520
 5700.00000   12.88640   12.88640   70.93210   75.77140   13.19760   74.66940   74.66940   71.96640   71.96640   13.19760   13.53140 -117.11200  -20.36660   13.53140
 5750.00000   12.85700   12.85700   92.36270   94.92800   10.53430   67.98120   67.98120   48.54120   48.54120   10.53430   15.87110 -138.94430  -45.18900   15.87110
 5800.00000   12.31000   12.31000   73.77280   74.71420   13.38440   75.11900   75.11900   80.53150   80.53150   13.38440   13.95280 -103.85950  -13.09420   13.95280
