~Version ---------------------------------------------------
VERS.      2.0 : CWLS log ASCII Standard -VERSION 2.0
WRAP.       NO : One line per depth step
CREA. 12/07/17 : LAS Creation Date
~Well ------------------------------------------------------
STRT.FT                                  350.0 : START DEPTH
STOP.FT                                 9450.0 : STOP DEPTH
STEP.FT                               50.00000 : STEP LENGTH
NULL.                                  -999.25 : NULL VALUE
COMP. THE BRITISH AMERICAN OIL COMPANY LIMITED : COMPANY
WELL.              B.A. GOOSE RIVER 4-32-66-18 : WELL
FLD .                                          : FIELD
LOC .                                          : LOCATION
CTRY.                                   CANADA : COUNTRY
SRVC.                             Schlumberger : SERVICE COMPANY
DATE.                              02-Dec-1964 : LOGDATE
PROV.                                  Alberta : PROVINCE
UWI .                         100043206618W500 : UNIQUE WELL ID
SLAT.WGS84                            54.75185 : SURFACE LATITUDE
SLON.WGS84                           -116.6939 : SURFACE LONGITUDE
~Curve Information -----------------------------------------
DEPT  .FT    : Depth Curve
CALSED.IN    : CALIPER FROM SONIC LOG  [ADJ. TO RESISTIVITY LOG]
CALWS .IN    : CALIPER [CALSED]
CILDED.MMHO  : DEEP INDUCTION CONDUCTIVITY FROM RESISTIVITY LOG
CONDWS.MMHO  : CONDUCTIVITY [1000/DRESWS]
DRESWS.OHMM  : DEEP RESISTIVITY [1000/CILDED IF ILDED <1, ILDED]
DT1ED .US/F  : DELTA-T (INTERVAL TRANSIT TIME) (SPAN 1') FROM SONIC LOG  [ADJ. TO RESISTIVITY LOG]
DTED  .US/F  : DELTA-T (INTERVAL TRANSIT TIME) (SPAN 3') FROM SONIC LOG [ADJ. TO RESISTIVITY LOG]
DTWS  .US/F  : COMPRESSIONAL SONIC [DTED]
GRED  .GAPI  : GAMMA RAY FROM CBL LOG
GRNED .GAPI  : GAMMA RAY FROM GRN LOG  [ADJ. TO RESISTIVITY LOG]
GRSED .GAPI  : GAMMA RAY FROM SONIC LOG  [ADJ. TO RESISTIVITY LOG]
GRWS  .GAPI  : GAMMA RAY [GRED SPL. TO GRSED @ 717']
ILDED .OHMM  : DEEP INDUCTION RESISTIVITY FROM RESISTIVITY LOG
NEUTED.NAPI  : NEUTRON  FROM GRN LOG  [ADJ. TO RESISTIVITY LOG]
NEUTWS.NAPI  : NEUTRON [NEUTED]
SNED  .OHMM  : SHORT NORMAL RESISTIVITY FROM RESISTIVITY LOG
SPRED .MV    : SPONTANEOUS POTENTIAL FROM RESISTIVITY LOG
SPWS  .MV    : SPONTANEOUS POTENTIAL [BASELINE 0 MV,SPRED]
SRESWS.OHMM  : SHALLOW RESISTIVITY [SNED]
~Params ----------------------------------------------------
PD  .                     GL : PERMANENT DATUM
EPD .FT                 2485 : ELEVATION PERMANENT DATUM
LMF .                     KB : LOG MEASURED FROM
DAPD.FT                   15 : FEET ABOVE PERMANENT DATUM
EKB .FT                 2500 : KELLY BUSHING
EGL .FT                 2485 : GROUND LEVEL
DATE.               12/02/64 : RUN DATE
RUN .                      1 : RUN NUMBER
DD  .FT                 9461 : DEPTH DRILLER
DL  .FT                 9460 : DEPTH LOGGER
BLI .FT                 9459 : BOTTOM LOG INTERVAL
TLI .FT                  781 : TOP LOG INTERVAL
CBD .FT                  784 : CASING BOTTOM DRILLER
CBL .FT                  781 : CASING BOTTOM LOGGER
BS  .IN                7.625 : BIT SIZE
BSD .FT                 9461 : BIT SIZE AT DEPTH
DFT .               GEL CHEM : DRILLING FLUID TYPE
DFD .                    9.8 : DRILLING FLUID DENSITY
DFV .                     95 : DRILLING FLUID VISCOSITY
DFPH.                    9.5 : DRILLING FLUID PH
DFL .                    7.4 : DRILLING FLUID LOSS
RMS .OHMM               2.38 : RESISTIVITY MUD SAMPLE
MST .DEGF                 64 : MUD SAMPLE TEMPERATURE
RMF .OHMM                2.1 : RESISTIVITY MUD FILTRATE SAMPLE
MFST.DEGF                 66 : MUD FILTRATE SAMPLE TEMPERATURE
RMC .OHMM               2.32 : RESISTIVITY MUD CAKE
MCST.DEGF                 66 : MUD CAKE SAMPLE TEMPERATURE
RMB .OHMM               0.84 : RESISTIVITY MUD AT BHT
TCS .HRS                   6 : TIME CIRCULATED STOPPED
LUN .                   3534 : LOGGING UNIT NUMBER
LUL .                    V V : LOGGING UNIT LOCATION
ENGI.               CHENOSKY : RECORDING ENGINEER
WITN.                  WEISS : WITNESSED BY
CLNT.                A2DTECH : CLIENT CODE
ORIG.            2" 5" PRINT : ORIGIN OF DATA
UWI .       100043206618W500 : UNIQUE WELL ID
DICO. A2D Technologies, Inc. : DIGITIZING COMPANY
~Other -----------------------------------------------------
IEL-BHC-GRN CBL LOG RUN
~ASCII -----------------------------------------------------
# ...
 2200.00000   10.27800   10.27800  214.18720  201.02930    4.97440    -999.25  116.02380  116.02380    -999.25    -999.25   67.70650   67.70650    4.97440    -999.25    -999.25    4.47930  -44.17160   -6.58160    4.47930
 2250.00000   11.65730   11.65730  146.96820  149.86530    6.67320    -999.25  114.59250  114.59250    -999.25    -999.25   57.35650   57.35650    6.67320    -999.25    -999.25    5.32730  -45.99460   -8.42380    5.32730
 2300.00000   15.02730   15.02730  148.77050  153.91600    6.49780    -999.25  133.82190  133.82190    -999.25    -999.25   60.37360   60.37360    6.49780    -999.25    -999.25    5.51810  -47.25520   -9.70370    5.51810
 2350.00000   12.69730   12.69730  163.83340  172.07850    5.81130    -999.25  112.18040  112.18040    -999.25    -999.25   78.36310   78.36310    5.81130    -999.25    -999.25    5.36600  -46.20180   -8.66960    5.36600
 2400.00000   10.84350   10.84350  166.31090  176.10130    5.67850    -999.25  117.80720  117.80720    -999.25    -999.25   98.69290   98.69290    5.67850    -999.25    -999.25    6.41940  -45.48430   -7.97140    6.41940
 2450.00000   10.23410   10.23410  129.00610  131.61010    7.59820    -999.25  101.74910  101.74910    -999.25    -999.25   93.78640   93.78640    7.59820    -999.25    -999.25    8.35730  -46.02830   -8.53480    8.35730
 2500.00000   13.28540   13.28540  158.65170  165.98820    6.02460    -999.25  111.24930  111.24930    -999.25    -999.25   84.20690   84.20690    6.02460    -999.25    -999.25    6.45120  -44.60390   -7.12960    6.45120
 2550.00000   14.45760   14.45760  143.81460  149.56410    6.68610    -999.25   99.07580   99.07580    -999.25    -999.25   71.51330   71.51330    6.68610    -999.25    -999.25    5.81170  -47.32430   -9.86930    5.81170
 2600.00000   13.27470   13.27470  110.40220  113.72040    8.79350    -999.25   95.08960   95.08960    -999.25    -999.25   66.39210   66.39210    8.79350    -999.25    -999.25    7.28310  -48.66750  -11.23180    7.28310
 2650.00000   13.92060   13.92060  130.96040  131.32940    7.61530    -999.25  101.65630  101.65630    -999.25    -999.25   73.12060   73.12060    7.61530    -999.25    -999.25    7.29100  -48.34950  -10.93310    7.29100
 2700.00000   14.21200   14.21200  126.96150  130.50060    7.66280    -999.25  105.19070  105.19070    -999.25    -999.25   77.71920   77.71920    7.66280    -999.25    -999.25    6.52630  -48.37580  -10.97880    6.52630
 2750.00000   13.85290   13.85290  148.97950  156.46380    6.39170    -999.25  111.41280  111.41280    -999.25    -999.25   77.73340   77.73340    6.39170    -999.25    -999.25    5.53250  -48.44000  -11.06220    5.53250
 2800.00000   11.41870   11.41870  139.60010  144.40220    6.92530    -999.25  134.43620  134.43620    -999.25    -999.25   66.57900   66.57900    6.92530    -999.25    -999.25    5.99410  -48.27020  -10.91170    5.99410
 2850.00000   14.40570   14.40570  177.39500  181.58380    5.50710    -999.25  141.88120  141.88120    -999.25    -999.25   69.02380   69.02380    5.50710    -999.25    -999.25    4.91400  -47.26770   -9.92850    4.91400
 2900.00000   13.59140   13.59140  106.66540  108.47790    9.21910    -999.25   91.05170   91.05170    -999.25    -999.25   71.59270   71.59270    9.21910    -999.25    -999.25    7.41300  -48.60990  -11.29000    7.41300
 2950.00000   14.39600   14.39600  142.61340  148.18110    6.74850    -999.25   99.61730   99.61730    -999.25    -999.25   71.87480   71.87480    6.74850    -999.25    -999.25    6.11770  -46.60850   -9.30800    6.11770
 3000.00000   13.84830   13.84830  119.41300  122.32690    8.17480    -999.25   86.30540   86.30540    -999.25    -999.25   69.54230   69.54230    8.17480    -999.25    -999.25    6.77940  -46.57610   -9.29480    6.77940
 3050.00000   13.43460   13.43460  148.98120  153.44630    6.51840    -999.25   92.82840   92.82840    -999.25    -999.25   86.41210   86.41210    6.51840    -999.25    -999.25    5.96620  -45.57540   -8.31330    5.96620
 3100.00000   13.01360   13.01360  149.51150  153.61930    6.50960    -999.25   94.92350   94.92350    -999.25    -999.25   80.93180   80.93180    6.50960    -999.25    -999.25    6.16490  -44.39240   -7.14970    6.16490
 3150.00000   11.01140   11.01140  159.09330  170.52510    5.86440    -999.25  107.36230  107.36230    -999.25    -999.25   88.88320   88.88320    5.86440    -999.25    -999.25    6.34870  -43.04350   -5.82010    6.34870
 3200.00000   10.77170   10.77170  139.25980  141.91640    7.04640    -999.25  107.71630  107.71630    -999.25    -999.25   93.20010   93.20010    7.04640    -999.25    -999.25    8.08310  -41.70160   -4.49750    8.08310
 3250.00000   10.19100   10.19100  138.32360  141.42570    7.07090    -999.25  104.82440  104.82440    -999.25    -999.25   93.88230   93.88230    7.07090    -999.25    -999.25    8.21310  -41.51300   -4.32820    8.21310
 3300.00000    9.28790    9.28790  133.25000  137.93340    7.25190    -999.25  106.16740  106.16740    -999.25    -999.25  112.29550  112.29550    7.25190    -999.25    -999.25    9.56630  -41.19780   -4.03220    9.56630
 3350.00000    8.50600    8.50600  105.35960  107.23520    9.32530    -999.25   94.75100   94.75100    -999.25    -999.25  105.17240  105.17240    9.32530    -999.25    -999.25   13.48500  -40.56920   -3.42300   13.48500
 3400.00000    9.69330    9.69330  134.05140  137.34950    7.28120    -999.25   88.83320   88.83320    -999.25    -999.25   76.16830   76.16830    7.28120    -999.25    -999.25    6.81670  -45.26610   -8.13920    6.81670
 3450.00000   10.30560   10.30560  182.74790  184.66540    5.41520    -999.25  101.83550  101.83550    -999.25    -999.25   88.41630   88.41630    5.41520    -999.25    -999.25    5.66070  -42.55880   -5.45120    5.66070
 3500.00000    9.10250    9.10250  144.08490  146.84360    6.81290    -999.25   93.03200   93.03200    -999.25    -999.25  101.36640  101.36640    6.81290    -999.25    -999.25    7.55110  -43.72640   -6.63810    7.55110
 3550.00000    9.72610    9.72610  201.48690  206.62220    4.83980    -999.25   94.10260   94.10260    -999.25    -999.25   88.25980   88.25980    4.83980    -999.25    -999.25    5.35360  -42.33940   -5.27030    5.35360
 3600.00000    8.80490    8.80490  146.84750  149.31390    6.69730    -999.25   87.95840   87.95840    -999.25    -999.25   97.84740   97.84740    6.69730    -999.25    -999.25    7.15100  -43.84660   -6.79690    7.15100
 3650.00000   11.44380   11.44380  299.63950  313.96510    3.18520    -999.25  104.92250  104.92250    -999.25    -999.25   82.07810   82.07810    3.18520    -999.25    -999.25    3.49990  -41.38100   -4.35060    3.49990
 3700.00000   11.98330   11.98330  218.87790  226.66490    4.41180    -999.25   94.70960   94.70960    -999.25    -999.25   84.75660   84.75660    4.41180    -999.25    -999.25    4.79550  -42.18050   -5.16940    4.79550
 3750.00000   12.71550   12.71550  259.67400  266.77150    3.74860    -999.25  108.21090  108.21090    -999.25    -999.25   84.86560   84.86560    3.74860    -999.25    -999.25    4.09330  -41.24940   -4.25760    4.09330
 3800.00000   11.31030   11.31030  373.62320  437.71360    2.28460    -999.25  112.50610  112.50610    -999.25    -999.25  120.10320  120.10320    2.28460    -999.25    -999.25    2.91110  -40.05900   -3.08640    2.91110
 3850.00000   13.21990   13.21990  431.40420  518.56460    1.92840    -999.25  116.64500  116.64500    -999.25    -999.25   73.78150   73.78150    1.92840    -999.25    -999.25    2.13390  -39.31580   -2.36260    2.13390
 3900.00000   10.13940   10.13940  255.17060  278.88640    3.58590    -999.25   90.72650   90.72650    -999.25    -999.25   80.39550   80.39550    3.58590    -999.25    -999.25    4.00770  -40.05160   -3.11760    4.00770
 3950.00000   10.67880   10.67880  182.51950  183.96560    5.43580    -999.25   83.04480   83.04480    -999.25    -999.25   83.89630   83.89630    5.43580    -999.25    -999.25    5.91380  -40.41930   -3.50470    5.91380
 4000.00000   10.37470   10.37470  307.48950  333.27250    3.00060  110.43220  105.05620  105.05620    -999.25    -999.25   91.21690   91.21690    3.00060    -999.25    -999.25    3.36140  -39.83680   -2.96850    3.36140
