~Version ---------------------------------------------------
VERS.      2.0 : CWLS log ASCII Standard -VERSION 2.0
WRAP.       NO : One line per depth step
CREA. 12/11/17 : LAS Creation Date
~Well ------------------------------------------------------
STRT.FT                          1000.0 : START DEPTH
STOP.FT                         10450.0 : STOP DEPTH
STEP.FT                        50.00000 : STEP LENGTH
NULL.                           -999.25 : NULL VALUE
COMP.     CANADIAN SUPERIOR OIL COMPANY : COMPANY
WELL. CDN-SUP CEGO FOX CR 10-11SH-62-18 : WELL
FLD .                                   : FIELD
LOC .                                   : LOCATION
CTRY.                            CANADA : COUNTRY
SRVC.                      Schlumberger : SERVICE COMPANY
DATE.                       29-Mar-1977 : LOGDATE
PROV.                           Alberta : PROVINCE
UWI .                  102101106218W500 : UNIQUE WELL ID
SLAT.WGS84                     54.35151 : SURFACE LATITUDE
SLON.WGS84                    -116.5828 : SURFACE LONGITUDE
~Curve Information -----------------------------------------
DEPT    .FT    : Depth Curve
CALDED  .IN    : CALIPER) FROM DENSITY LOG [ADJ. TO RESISTIVITY LOG]
CALSED  .IN    : CALIPER) FROM SONIC LOG [ADJ. TO RESISTIVITY LOG]
CALWS   .IN    : CALIPER [CALDED]
CILDED  .MMHO  : CONDUCTIVITY FROM RESISTIVITY LOG
CONDWS  .MMHO  : CONDUCIVITY [1000/DRESWS]
DCORED  .G/C3  : DENSITY CORRECTION FROM DENSITY LOG [ADJ. TO RESISTIVITY LOG]
DCORWS  .G/C3  : DENSITY CORRECTION [DCORED]
DENWS   .G/C3  : FORMATION BULK DENSITY [RHOBED]
DPOLSWS .V/V   : DENSITY POROSITY LIMESTONE [CALC. FROM DENWS M=2.71, F=1.00]
DPORLSED.V/V   : DENSITY POROSITY LIMESTONE [M=2.71, F=1.00] FROM DENSITY LOG [ADJ. TO RESISTIVITY LOG]
DPORSSED.V/V   : DENSITY POROSITY SANDSTONE [M=2.65, F=1.00] FROM DENSITY LOG [ADJ. TO RESISTIVITY LOG]
DRESWS  .OHMM  : DEEP RESISTIVITY [ILDED]
DTED    .US/F  : DELTA-T FROM SONIC LOG [ADJ. TO RESISTIVITY LOG]
DTWS    .US/F  : COMPRESSIONAL SONIC [DTED]
GRDED   .GAPI  : GAMMA RAY FROM DENSITY LOG [ADJ. TO RESISTIVITY LOG]
GRSED   .GAPI  : GAMMA RAY FROM SONIC LOG [ADJ. TO RESISTIVITY LOG]
GRWS    .GAPI  : GAMMA RAY [GRSED SPL. TO GRDED @ 1070']
ILDED   .OHMM  : DEEP INDUCTION FROM RESISTIVITY LOG
ILMED   .OHMM  : MEDIUM INDUCTION FROM RESISTIVITY LOG
LL8ED   .OHMM  : LATEROLOG-8 FROM RESISTIVITY LOG
MRESWS  .OHMM  : MEDIUM RESISTIVITY [ILMED]
NPOLSWS .V/V   : NEUTRON POROSITY LIMESTONE [NPHISSED MATRIX CONVERSION FOR LIMESTONE, SPL. TO NPHILSED @ 6496']
NPORLSED.V/V   : NEUTRON POROSITY LIMESTONE FROM DENISTY LOG [ADJ. TO RESISTIVITY LOG]
NPORSSED.V/V   : NEUTRON POROSITY SANDSTONE FROM DENSITY LOG [ADJ. TO RESISTIVITY LOG]
RHOBED  .G/C3  : BULK DENSITY FROM DENSITY LOG [ADJ. TO RESISTIVITY LOG]
SPRED   .MV    : SPONTANEOUS POTENTIAL FROM RESISTIVITY LOG
SPWS    .MV    : SPONTANEOUS POTENTIAL [BASELINE 0 MV, SPRED]
SRESWS  .OHMM  : SHALLOW RESISTIVITY [LL8ED]
~Params ----------------------------------------------------
PD  .                     GL : PERMANENT DATUM
EPD .FT                 2963 : ELEVATION PERMANENT DATUM
LMF .                     KB : LOG MEASURED FROM
DAPD.FT                   13 : FEET ABOVE PERMANENT DATUM
EKB .FT                 2976 : KELLY BUSHING
EGL .FT                 2963 : GROUND LEVEL
DATE.               03/29/77 : RUN DATE
RUN .                      1 : RUN NUMBER
DD  .FT                10475 : DEPTH DRILLER
DL  .FT                10478 : DEPTH LOGGER
BLI .FT                10472 : BOTTOM LOG INTERVAL
TLI .FT                 1071 : TOP LOG INTERVAL
CBD .FT                 1070 : CASING BOTTOM DRILLER
CBL .FT                 1071 : CASING BOTTOM LOGGER
BS  .IN                 8.75 : BIT SIZE
BSD .FT                10475 : BIT SIZE AT DEPTH
DFT .               GEL CHEM : DRILLING FLUID TYPE
DFD .                    9.2 : DRILLING FLUID DENSITY
DFV .                     81 : DRILLING FLUID VISCOSITY
DFPH.                    9.5 : DRILLING FLUID PH
DFL .                      8 : DRILLING FLUID LOSS
MSS .             CIRCULATED : MUD SAMPLE SOURCE
RMS .OHMM                1.1 : RESISTIVITY MUD SAMPLE
MST .DEGF                 62 : MUD SAMPLE TEMPERATURE
RMF .OHMM               0.76 : RESISTIVITY MUD FILTRATE SAMPLE
MFST.DEGF                 62 : MUD FILTRATE SAMPLE TEMPERATURE
TCS .HRS                   4 : TIME CIRCULATED STOPPED
LUN .                   7690 : LOGGING UNIT NUMBER
LUL .                    EDM : LOGGING UNIT LOCATION
ENGI.                WOROWUK : RECORDING ENGINEER
WITN.                  KELLY : WITNESSED BY
CLNT.                A2DTECH : CLIENT CODE
ORIG.            2" 5" PRINT : ORIGIN OF DATA
UWI .       102101106218W500 : UNIQUE WELL ID
DICO. A2D Technologies, Inc. : DIGITIZING COMPANY
~Other -----------------------------------------------------
DIL-BHC-CNL-FDC LOG RUN
SCH(CNL-NPHI) USED FOR NEUTRON MATRIX CONVERSION
CILD DIG'ED FROM 2" LINEAR LOG
~ASCII -----------------------------------------------------
# ...
 6000.00000   10.62650   10.98900   10.62650    -999.25  115.08670    0.02080    0.02080    2.50880    0.11770    -999.25    0.08640    8.68910   73.45320   73.45320   78.33580   56.98830   78.33580    8.68910    9.84270   11.86880    9.84270    0.19490    -999.25    0.23870    2.50880 -110.99060   -8.32770   11.86880
 6050.00000   10.09960   10.18360   10.09960    -999.25  102.09810    0.01740    0.01740    2.60810    0.05960    -999.25    0.00990    9.79450   71.21090   71.21090   68.01330   56.41030   68.01330    9.79450   10.97420   12.52310   10.97420    0.18400    -999.25    0.22770    2.60810 -105.86410   -4.62380   12.52310
 6100.00000   10.52860   10.21760   10.52860    -999.25   91.68170    0.06780    0.06780    2.62410    0.05020    -999.25    0.00940   10.90730   72.19970   72.19970   78.92060   56.67570   78.92060   10.90730   12.58710   14.23010   12.58710    0.17800    -999.25    0.22170    2.62410 -104.73790   -4.92950   14.23010
 6150.00000   10.76850   10.59120   10.76850    -999.25  114.32880    0.10210    0.10210    2.56940    0.08230    -999.25    0.04550    8.74670   73.86980   73.86980   80.20070   62.60300   80.20070    8.74670    9.80620   13.16970    9.80620    0.18180    -999.25    0.22550    2.56940 -102.44230   -3.82030   13.16970
 6200.00000   10.41250   10.41340   10.41250    -999.25  151.03910    0.16840    0.16840    2.50080    0.12230    -999.25    0.08620    6.62080   80.06530   80.06530   93.40200   74.39660   93.40200    6.62080    6.18660    8.50380    6.18660    0.24220    -999.25    0.28620    2.50080 -103.79580   -6.24790    8.50380
 6250.00000    9.71860   10.07910    9.71860    -999.25  125.85740    0.25080    0.25080    2.29340    0.24360    -999.25    0.20260    7.94550   88.84320   88.84320   81.34910   60.61010   81.34910    7.94550    6.38760    9.73620    6.38760    0.35150    -999.25    0.39450    2.29340 -102.62500   -6.14430    9.73620
 6300.00000   10.58250    9.82550   10.58250    -999.25  160.90360    0.19590    0.19590    2.40330    0.17940    -999.25    0.15240    6.21490   77.96380   77.96380   39.67470   26.83480   39.67470    6.21490    7.42340   16.36250    7.42340    0.13240    -999.25    0.17550    2.40330 -171.49710  -76.08350   16.36250
 6350.00000   12.35490   10.54090   12.35490    -999.25  111.97210    0.25000    0.25000    2.42220    0.16830    -999.25    0.12240    8.93080   79.94740   79.94740   86.32690   60.60990   86.32690    8.93080    9.32700   12.70590    9.32700    0.26570    -999.25    0.30960    2.42220  -98.70190   -4.36250   12.70590
 6400.00000   15.00000   13.50370   15.00000    -999.25  296.94740    0.15670    0.15670    2.12360    0.34300    -999.25    0.32410    3.36760   99.60570   99.60570   83.69420   68.29160   83.69420    3.36760    2.93150    3.60310    2.93150    0.41160    -999.25    0.45320    2.12360  -95.31070   -2.03840    3.60310
 6450.00000   15.00000   12.81330   15.00000    -999.25  225.78970    0.17110    0.17110    2.23790    0.27610    0.19540    0.24060    4.42890   88.18500   88.18500   80.09440   61.78140   80.09440    4.42890    3.96260    4.75090    3.96260    0.40080    0.34030    0.44270    2.23790  -94.88130   -2.68320    4.75090
 6500.00000   10.50800    9.83600   10.50800    -999.25   26.77040    0.04030    0.04030    2.43640    0.16000    0.18710    0.12960   37.35470   84.69570   84.69570  200.53670  166.11990  200.53670   37.35470   44.46100   39.23280   44.46100    0.32630    0.32630    0.35870    2.43640  -97.32650   -5.38110   39.23280
 6550.00000   10.55100   10.40550   10.55100    -999.25   93.84560    0.23930    0.23930    2.40890    0.17610    0.17600    -999.25   10.65580   95.71820   95.71820   69.33100   49.04350   69.33100   10.65580    6.18050   14.30690    6.18050    0.44340    0.44340    -999.25    2.40890 -100.94070   -7.98160   14.30690
 6600.00000    9.07750    8.99150    9.07750    -999.25    4.30170    0.05100    0.05100    2.59530    0.06710    0.06910    -999.25  232.46850   60.93360   60.93360   48.23670   32.71450   48.23670  232.46850  325.49890 1112.68580  325.49890    0.09570    0.09570    -999.25    2.59530 -117.39470  -22.21990 1112.68580
 6650.00000    9.48310    9.61310    9.48310    -999.25   78.75690    0.06290    0.06290    2.70270    0.00430    0.00170    -999.25   12.69730   63.08770   63.08770   75.93980   55.16060   75.93980   12.69730   13.74920   17.66700   13.74920    0.11870    0.11870    -999.25    2.70270 -106.70350   -9.32750   17.66700
 6700.00000    9.53470    9.70980    9.53470    -999.25   65.20650    0.04400    0.04400    2.69250    0.01020    0.00520    -999.25   15.33590   62.89060   62.89060   80.36560   53.94820   80.36560   15.33590   16.06070   19.73110   16.06070    0.09640    0.09640    -999.25    2.69250 -101.71160   -2.54430   19.73110
 6750.00000    8.85550    8.67220    8.85550    -999.25  272.78430    0.16940    0.16940    2.79960   -0.05240   -0.06430    -999.25    3.66590   54.11220   54.11220   19.26620   12.32680   19.26620    3.66590    4.11690   28.54130    4.11690    0.12050    0.12050    -999.25    2.79960 -173.56700  -75.78280   28.54130
 6800.00000    9.58540    9.47120    9.58540    -999.25  138.10060    0.10340    0.10340    2.72730   -0.01010   -0.02160    -999.25    7.24110   59.49470   59.49470   25.71980   20.40850   25.71980    7.24110    7.20490   17.15400    7.20490    0.13020    0.13020    -999.25    2.72730 -153.36260  -56.96150   17.15400
 6850.00000   12.23130    9.65360   12.23130    -999.25   22.78970    0.25060    0.25060    2.48690    0.13050    0.14370    -999.25   43.87940   54.43880   54.43880   36.31520   21.66480   36.31520   43.87940   68.32070  290.88330   68.32070    0.01120    0.01120    -999.25    2.48690  -97.01780   -2.00890  290.88330
 6900.00000    9.77680    9.19440    9.77680    -999.25  144.03620    0.17680    0.17680    2.68280    0.01590    0.02530    -999.25    6.94270   61.38750   61.38750   34.15550   26.29960   34.15550    6.94270    9.27860   22.18680    9.27860    0.16250    0.16250    -999.25    2.68280 -169.22810  -73.31370   22.18680
 6950.00000    9.51920    9.38970    9.51920    -999.25  148.80290    0.25000    0.25000    2.36740    0.20040    0.19420    -999.25    6.72030   57.83970   57.83970   45.94470   34.19100   45.94470    6.72030    8.41600   33.54570    8.41600    0.07270    0.07270    -999.25    2.36740 -160.72850  -63.70510   33.54570
 7000.00000    9.43590    9.52640    9.43590    -999.25  156.85290    0.09670    0.09670    2.71930   -0.00540   -0.00970    -999.25    6.37540   59.76380   59.76380   32.61080   20.09310   32.61080    6.37540    6.45080   20.26400    6.45080    0.11560    0.11560    -999.25    2.71930 -154.83890  -56.71390   20.26400
 7050.00000    9.91080   10.07710    9.91080    -999.25    4.36910    0.01730    0.01730    2.94080   -0.13500   -0.14830    -999.25  228.87900   51.26770   51.26770    6.44350    3.86610    6.44350  228.87900  222.08740 1398.51330  222.08740   -0.00640   -0.00640    -999.25    2.94080 -172.13030  -72.90360 1398.51330
 7100.00000    9.21050    9.22150    9.21050    -999.25   52.45100    0.07960    0.07960    2.73590   -0.01510   -0.02120    -999.25   19.06540   50.22550   50.22550   11.73250    8.23270   11.73250   19.06540   29.27350  138.94900   29.27350    0.02540    0.02540    -999.25    2.73590 -204.63230 -104.29660  138.94900
 7150.00000    9.28970    8.83420    9.28970    -999.25   41.67800    0.03810    0.03810    2.65770    0.03060    0.02720    -999.25   23.99350   52.42360   52.42360   11.48800    8.39260   11.48800   23.99350   30.69310  116.46260   30.69310    0.03710    0.03710    -999.25    2.65770 -193.96350  -92.52610  116.46260
 7200.00000    9.43480    9.56930    9.43480    -999.25  193.06880    0.00360    0.00360    2.68150    0.01670    0.00990    -999.25    5.17950   60.68700   60.68700   57.62120   38.51140   57.62120    5.17950    5.75010    7.86790    5.75010    0.14280    0.14280    -999.25    2.68150 -119.60730  -19.11840    7.86790
