~Version ---------------------------------------------------
VERS. 2.0 : CWLS log ASCII Standard -VERSION 2.0
WRAP.  NO : ONE LINE PER DEPTH STEP
~Well ------------------------------------------------------
STRT.M                             350.0 : START DEPTH
STOP.M                            1800.0 : STOP DEPTH
STEP.M                          50.00000 : STEP LENGTH
NULL.                            -999.25 : NULL VALUE
COMP. CANADIAN NATURAL RESOURCES LIMITED : COMPANY
WELL.       LASMO ET AL NIPISI 6-16-80-9 : WELL
FLD .                                    : FIELD
LOC .                                    : LOCATION
CTRY.                             CANADA : COUNTRY
SRVC.             Schlumberger of Canada : SERVICE COMPANY
DATE.                        14-Mar-1985 : LOGDATE
PROV.                            Alberta : PROVINCE
UWI .                   100061608009W500 : UNIQUE WELL ID
SLAT.WGS84                 55.9331361774 : SURFACE LATITUDE
SLON.WGS84               -115.3477175992 : SURFACE LONGITUDE
~Curve Information -----------------------------------------
DEPT    .M      : DEPTH METERS
CALDED  .MM     : CALIPER FROM DENSITY LOG
CALWS   .MM     : CALIPER [CALDED]
CONDWS  .MMHO   : CONDUCTIVITY [1000/DRESWS]
DCORWS  .KG/M3  : DENSITY CORRECTION [DRHOED]
DENWS   .KG/M3  : BULK DENSITY [M=2710 F=1000] [RHOBED]
DPHILSED.V/V    : DENSITY POROSITY [M=2710 F=1000] FROM DENSITY LOG
DPOLSWS .V/V    : DENSITY POROSITY [M=2710 F=1000] [CALCULATED FROM DENWS]
DRESWS  .OHMM   : DEEP RESISTIVITY [ILDED]
DRHOED  .KG/M3  : DENSITY CORRECTION FROM DENSITY LOG
GRDED   .GAPI   : GAMMA RAY FROM DENSITY LOG
GRWS    .GAPI   : GAMMA RAY [GRDED] CSG @ 323M
ILDED   .OHMM   : INDUCTION LOG DEEP RESISTIVITY
ILMED   .OHMM   : INDUCTION LOG MEDIUM RESISTIVITY
MRESWS  .OHMM   : MEDIUM RESISTIVITY [ILMED]
NPHILSED.V/V    : NEUTRON POROSITY LIMESTONE FROM DENSITY LOG
NPOLSWS .V/V    : NEUTRON POROSITY LIMESTONE [NPHILSED] CSG @323M
PEFED   .B/E    : PHOTOELECTRIC FACTOR FROM DENSITY LOG
PEFWS   .B/E    : PHOTOELECTRIC FACTOR [PEFED]
RHOBED  .KG/M3  : BULK DENSITY FROM DENSITY LOG
SFLUED  .OHMM   : SPHERICALLY FOCUSED LOG RESISTIVITY
SPRED   .MV     : SPONTANEOUS POTENTIAL FROM RESISTIVITY LOG
SPWS    .MV     : SPONTANEOUS POTENTIAL [BASELINE 0 MV] [SPRED REVERSED IN SOME AREAS]
SRESWS  .OHMM   : SHALLOW RESISTIVITY [SFLUED]
~Params ----------------------------------------------------
PD  .                         GL : PERMANENT DATUM
EPD .M                    648.42 : ELEVATION PERMANENT DATUM
LMF .                         KB : LOG MEASURED FROM
DAPD.M                      4.58 : FEET ABOVE PERMANENT DATUM
DMF .                         KB : DRILLING MEASURED FROM
EKB .M                       653 : KELLY BUSHING
EGL .M                    648.42 : GROUND LEVEL
DATE.                   03/14/85 : RUN DATE
RUN .                          1 : RUN NUMBER
DD  .M                      1810 : DEPTH DRILLER
DL  .M                      1813 : DEPTH LOGGER
BLI .M                      1812 : BOTTOM LOG INTERVAL
TLI .M                     323.8 : TOP LOG INTERVAL
CS  .MM                      219 : CASING SIZE
CBD .M                       323 : CASING BOTTOM DRILLER
CBL .M                       323 : CASING BOTTOM LOGGER
BS  .MM                      200 : BIT SIZE
BSD .M                      1810 : BIT SIZE AT DEPTH
DFT .                   GEL CHEM : DRILLING FLUID TYPE
DFD .                       1120 : DRILLING FLUID DENSITY
DFV .                         70 : DRILLING FLUID VISCOSITY
DFPH.                       10.5 : DRILLING FLUID PH
DFL .                        6.5 : DRILLING FLUID LOSS
MSS .                CIRCULATION : MUD SAMPLE SOURCE
RMS .OHMM                   0.75 : RESISTIVITY MUD SAMPLE
MST .DEGC                   21.1 : MUD SAMPLE TEMPERATURE
RMF .OHMM                   0.61 : RESISTIVITY MUD FILTRATE SAMPLE
MFST.DEGC                   13.8 : MUD FILTRATE SAMPLE TEMPERATURE
RMC .OHMM                   0.33 : RESISTIVITY MUD CAKE
MCST.DEGC                     44 : MUD CAKE SAMPLE TEMPERATURE
MFSS.                       MEAS : MUD FILTRATE SAMPLE SOURCE
RMB .OHMM                  0.488 : RESISTIVITY MUD AT BHT
TCS .HRS                    1745 : TIME CIRCULATED STOPPED
TLAB.HRS                      30 : TIME LOGGER AT BOTTOM
LUN .                       8037 : LOGGING UNIT NUMBER
LUL .                        EDM : LOGGING UNIT LOCATION
ENGI.              SPENCER POOLE : RECORDING ENGINEER
WITN.                     POLLOK : WITNESSED BY
CLNT.                    A2DTECH : CLIENT CODE
ORIG. 6.5"/100M 16.5"/100M PRINT : ORIGIN OF DATA
UWI .           100061608009W500 : UNIQUE WELL ID
DICO.     A2D Technologies, Inc. : DIGITIZING COMPANY
~Other -----------------------------------------------------
~ASCII -----------------------------------------------------
  350.00000  249.86640  249.86640  158.35820    1.89310 2152.70390    0.32610    0.32590    6.31480    1.89310   58.89850   58.89850    6.31480    6.79760    6.79760    0.35810    0.35810    2.49450    2.49450 2152.70390    6.13300 -130.72850    3.47790    6.13300
  400.00000  422.85720  422.85720  448.41040    0.36990 1526.70900    0.72400    0.69200    2.23010    0.36990   61.85160   61.85160    2.23010    2.52040    2.52040    0.45810    0.45810    2.10890    2.10890 1526.70900    2.64950 -121.93000    9.98650    2.64950
  450.00000  271.51460  271.51460  164.59010   -1.44870 2167.57420    0.31350    0.31720    6.07570   -1.44870   54.99380   54.99380    6.07570    6.87960    6.87960    0.35250    0.35250    2.61370    2.61370 2167.57420    8.03150 -134.66630  -10.70590    8.03150
  500.00000  327.17240  327.17240  218.07870   -4.99890 2257.65230    0.26400    0.26450    4.58550   -4.99890   62.85850   62.85850    4.58550    4.29670    4.29670    0.42100    0.42100    2.68140    2.68140 2257.65230    4.11540 -126.88490   -5.75030    4.11540
  550.00000  348.77080  348.77080  252.18770   32.35470 1875.81150    0.48470    0.48780    3.96530   32.35470   63.42660   63.42660    3.96530    4.13200    4.13200    0.47510    0.47510    2.02830    2.02830 1875.81150    3.60000 -126.50460   -0.62760    3.60000
  600.00000  240.01560  240.01560   24.51490   -2.49120 2515.80200    0.11340    0.11360   40.79160   -2.49120   30.68770   30.68770   40.79160   33.62010   33.62010    0.06530    0.06530    4.03300    4.03300 2515.80200   26.22300 -127.85020   -7.46230   26.22300
  650.00000  254.71770  254.71770   91.34920   -0.29660 2580.75950    0.07420    0.07560   10.94700   -0.29660   17.09530   17.09530   10.94700   12.17920   12.17920    0.10670    0.10670    4.54100    4.54100 2580.75950   39.37790 -156.46410  -26.57840   39.37790
  700.00000  259.43960  259.43960   73.62470   19.14500 2577.08890    0.07650    0.07770   13.58240   19.14500   16.49320   16.49320   13.58240   15.03340   15.03340    0.05280    0.05280    4.13020    4.13020 2577.08890   20.64590 -152.49490  -12.31130   20.64590
  750.00000  241.31300  241.31300   68.17930    1.49460 2625.64280    0.04790    0.04930   14.66720    1.49460   20.71210   20.71210   14.66720   14.90670   14.90670    0.07420    0.07420    4.63670    4.63670 2625.64280   17.20400 -146.95630   -9.53680   17.20400
  800.00000  250.34780  250.34780   63.18080    3.08010 2644.59720    0.03720    0.03820   15.82760    3.08010   22.29210   22.29210   15.82760   16.24690   16.24690    0.06310    0.06310    4.78870    4.78870 2644.59720   17.01010 -146.65060   -9.88050   17.01010
  850.00000  251.21640  251.21640  105.30640    2.49220 2590.16890    0.06930    0.07010    9.49610    2.49220   33.05440   33.05440    9.49610   10.10840   10.10840    0.12220    0.12220    4.25870    4.25870 2590.16890   10.62790 -144.48070   -4.38090   10.62790
  900.00000  241.02570  241.02570   16.68200   -2.76280 2680.12040    0.01690    0.01750   59.94500   -2.76280   11.09730   11.09730   59.94500   64.28490   64.28490    0.01440    0.01440    4.72000    4.72000 2680.12040   89.90420 -175.32750  -10.42950   89.90420
  950.00000  244.05390  244.05390   25.61930    8.58880 2618.75340    0.05220    0.05340   39.03300    8.58880   13.25270   13.25270   39.03300   56.39570   56.39570    0.03150    0.03150    4.95680    4.95680 2618.75340  118.72950 -208.42910  -33.39400  118.72950
 1000.00000  259.51710  259.51710   31.52410   11.38380 2596.22900    0.06490    0.06650   31.72180   11.38380   13.47970   13.47970   31.72180   53.86920   53.86920    0.04080    0.04080    4.76630    4.76630 2596.22900  121.15910 -209.74480  -32.90410  121.15910
 1050.00000  238.18920  238.18920   18.83530    4.07890 2670.68750    0.02460    0.02300   53.09170    4.07890    9.26500    9.26500   53.09170   47.44690   47.44690    0.02640    0.02640    4.70400    4.70400 2670.68750  102.07370 -186.83660  -11.44910  102.07370
 1100.00000  238.71820  238.71820   33.48490    1.84210 2637.06400    0.04140    0.04270   29.86420    1.84210   10.05240   10.05240   29.86420   33.55480   33.55480    0.03370    0.03370    4.70790    4.70790 2637.06400   85.42430 -192.81960  -21.09410   85.42430
 1150.00000  243.95900  243.95900   80.25100    2.76160 2783.46950   -0.04340   -0.04300   12.46090    2.76160   15.23160   15.23160   12.46090   18.85460   18.85460    0.07080    0.07080    3.09950    3.09950 2783.46950   71.62350 -184.08930  -17.10640   71.62350
 1200.00000  227.71780  227.71780   47.89570    7.85060 2750.78860   -0.02100   -0.02390   20.87870    7.85060   29.51930   29.51930   20.87870   21.80450   21.80450    0.13830    0.13830    2.78170    2.78170 2750.78860   18.48210 -180.54840  -24.62870   18.48210
 1250.00000  213.09740  213.09740   22.25400    1.55170 2666.47390    0.02450    0.02550   44.93580    1.55170   17.85560   17.85560   44.93580   52.37890   52.37890    0.03100    0.03100    5.03680    5.03680 2666.47390   60.99570 -169.83410  -24.97760   60.99570
 1300.00000  324.81830  324.81830  304.63660   75.86070 1870.45560    0.49430    0.49100    3.28260   75.86070   65.87960   65.87960    3.28260    3.45440    3.45440    0.31970    0.31970    2.46360    2.46360 1870.45560    3.65890 -160.30810    6.75940    3.65890
 1350.00000  361.24850  361.24850  280.34760   32.65800 1935.28810    0.45490    0.45300    3.56700   32.65800   66.42360   66.42360    3.56700    3.22250    3.22250    0.35520    0.35520    2.39130    2.39130 1935.28810    3.78120 -160.15130    5.35180    3.78120
 1400.00000  527.38350  527.38350  379.50670  101.01020 1879.70730    0.48960    0.48560    2.63500  101.01020   65.17580   65.17580    2.63500    2.30570    2.30570    0.46530    0.46530    1.93310    1.93310 1879.70730    2.84600 -155.77080    8.16790    2.84600
 1450.00000  215.09350  215.09350   39.31540    2.92980 2678.88870    0.01750    0.01820   25.43530    2.92980   17.39570   17.39570   25.43530   26.90200   26.90200    0.04420    0.04420    4.82840    4.82840 2678.88870   30.59590 -160.91210  -23.52010   30.59590
 1500.00000  221.56450  221.56450  121.68410   26.73970 2679.92090    0.01470    0.01760    8.21800   26.73970   62.48230   62.48230    8.21800    8.78310    8.78310    0.15430    0.15430    4.23570    4.23570 2679.92090   10.67520 -142.13390   -3.14890   10.67520
 1550.00000  352.92830  352.92830  307.06870   72.12910 2055.54150    0.35990    0.38270    3.25660   72.12910   86.91060   86.91060    3.25660    3.51200    3.51200    0.36100    0.36100    2.56760    2.56760 2055.54150    3.65090 -154.18190    4.04370    3.65090
 1600.00000  249.02550  249.02550   83.15730   -7.09020 2657.93210    0.02820    0.03040   12.02540   -7.09020   36.77870   36.77870   12.02540   13.11020   13.11020    0.08020    0.08020    5.09600    5.09600 2657.93210   14.00460 -142.19210   -6.90140   14.00460
 1650.00000  250.96880  250.96880  125.06100   -0.23110 2683.07060    0.01610    0.01570    7.99610   -0.23110   71.00930   71.00930    7.99610    8.40780    8.40780    0.16450    0.16450    3.94630    3.94630 2683.07060    9.93110 -136.13810   -2.26110    9.93110
 1700.00000  209.09860  209.09860   24.26980   -2.33520 2691.39870    0.01060    0.01090   41.20350   -2.33520   25.48790   25.48790   41.20350   38.84730   38.84730    0.04080    0.04080    4.90240    4.90240 2691.39870   37.96820 -146.12260  -10.84600   37.96820
 1750.00000  206.71810  206.71810   75.79950    3.24360 2802.84030   -0.05600   -0.05430   13.19270    3.24360   37.45640   37.45640   13.19270   15.37460   15.37460    0.18340    0.18340    4.15930    4.15930 2802.84030   18.52150 -153.59340  -10.13070   18.52150
 1800.00000  203.82890  203.82890  711.28810   12.54940 2461.03830    0.14390    0.14560    1.40590   12.54940  139.99060  139.99060    1.40590    1.58250    1.58250    0.16500    0.16500    3.14920    3.14920 2461.03830    1.74410 -179.78360  -13.46830    1.74410
