~Version ---------------------------------------------------
VERS.      2.0 : CWLS log ASCII Standard -VERSION 2.0
WRAP.       NO : One line per depth step
CREA. 12/21/17 : LAS Creation Date
~Well ------------------------------------------------------
STRT.FT                        1250.0 : START DEPTH
STOP.FT                       11500.0 : STOP DEPTH
STEP.FT                      50.00000 : STEP LENGTH
NULL.                         -999.25 : NULL VALUE
COMP.    CANADIAN HOMESTEAD OILS LTD. : COMPANY
WELL. HOMESTEAD RB ANTE CK 10-2-66-24 : WELL
FLD .                                 : FIELD
LOC .                                 : LOCATION
CTRY.                          CANADA : COUNTRY
SRVC.                    Schlumberger : SERVICE COMPANY
DATE.                     02-Sep-1962 : LOGDATE
PROV.                         Alberta : PROVINCE
UWI .                100100206624W500 : UNIQUE WELL ID
SLAT.WGS84                   54.68504 : SURFACE LATITUDE
SLON.WGS84                  -117.5129 : SURFACE LONGITUDE
~Curve Information -----------------------------------------
DEPT  .FT    : Depth Curve
CALSED.IN    : CALIPER FROM GR-CALIPER-SONIC LOG
CALWS .IN    : CALIPER [CALSED]
CILDED.MMHO  : DEEP INDUCTION CONDUCTIVITY FROM IEL LOG
CONDWS.MMHO  : CONDUCTIVITY [1000/DRESWS]
DRESWS.OHMM  : DEEP RESISTIVITY [ILDED]
DT1ED .US/F  : DELTA-T (1' SPAN)  FROM GR-CALIPER-SONIC LOG
DTED  .US/F  : ACOUSTIC TRANSIT TIME SLOWNESS (3' SPAN), DELTA T FROM GR-CALIPER-SONIC LOG
DTWS  .US/F  : COMPRESSIONAL SONIC [DTED]
GRSED .GAPI  : GAMMA RAY FROM GR-CALIPER-SONIC LOG
GRWS  .GAPI  : GAMMA RAY [GRSED]
ILDED .OHMM  : DEEP INDUCTION RESISTIVITY FROM IEL LOG
SNED  .OHMM  : SHORT NORMAL FROM IEL LOG
SPRED .MV    : SPONTANEOUS POTENTIAL FROM IEL LOG
SPWS  .MV    : SPONTANEOUS POTENTIAL [BASELINED 0 MV, SPRED]
SRESWS.OHMM  : SHALLOW RESISTIVITY [SNED]
~Params ----------------------------------------------------
PD  .                     GL : PERMANENT DATUM
EPD .FT                 2929 : ELEVATION PERMANENT DATUM
LMF .                     KB : LOG MEASURED FROM
DAPD.FT                   13 : FEET ABOVE PERMANENT DATUM
EKB .FT                 2942 : KELLY BUSHING
EGL .FT                 2929 : GROUND LEVEL
DATE.               09/02/62 : RUN DATE
RUN .                      1 : RUN NUMBER
DD  .FT                11515 : DEPTH DRILLER
DL  .FT                11527 : DEPTH LOGGER
BLI .FT                11526 : BOTTOM LOG INTERVAL
TLI .FT                 1237 : TOP LOG INTERVAL
CBD .FT                 1234 : CASING BOTTOM DRILLER
CBL .FT                 1237 : CASING BOTTOM LOGGER
BS  .IN                    9 : BIT SIZE
BSD .FT                11515 : BIT SIZE AT DEPTH
DFT .           GEL OIL CHEM : DRILLING FLUID TYPE
DFD .                     10 : DRILLING FLUID DENSITY
DFV .                     87 : DRILLING FLUID VISCOSITY
DFPH.                      9 : DRILLING FLUID PH
DFL .                   12.4 : DRILLING FLUID LOSS
RMS .OHMM               2.19 : RESISTIVITY MUD SAMPLE
MST .DEGF                 75 : MUD SAMPLE TEMPERATURE
RMF .OHMM               1.39 : RESISTIVITY MUD FILTRATE SAMPLE
MFST.DEGF                 73 : MUD FILTRATE SAMPLE TEMPERATURE
RMC .OHMM               2.51 : RESISTIVITY MUD CAKE
MCST.DEGF                 76 : MUD CAKE SAMPLE TEMPERATURE
RMB .OHMM               0.85 : RESISTIVITY MUD AT BHT
TCS .HRS                   4 : TIME CIRCULATED STOPPED
LUN .                   3534 : LOGGING UNIT NUMBER
LUL .                     WC : LOGGING UNIT LOCATION
ENGI.               HATLELID : RECORDING ENGINEER
WITN.                TIBBITT : WITNESSED BY
CLNT.                A2DTECH : CLIENT CODE
ORIG.            2" 5" PRINT : ORIGIN OF DATA
UWI .       100100206624W500 : UNIQUE WELL ID
DICO. A2D Technologies, Inc. : DIGITIZING COMPANY
~Other -----------------------------------------------------
~ASCII -----------------------------------------------------
# ...
 5850.00000   12.69500   12.69500  130.12970  121.53920    8.22780   79.99090   81.10260   81.10260   62.47710   62.47710    8.22780    7.95130 -146.24820  -12.25780    7.95130
 5900.00000   11.65350   11.65350  101.91890   95.75330   10.44350    -999.25   82.72640   82.72640   59.85570   59.85570   10.44350   11.41270 -144.00200   -9.95890   11.41270
 5950.00000   11.94710   11.94710  101.76340   95.93250   10.42400    -999.25   83.17510   83.17510   66.52150   66.52150   10.42400   11.22750 -137.41170   -3.31540   11.22750
 6000.00000   11.60020   11.60020  115.96300  110.97790    9.01080    -999.25   81.93070   81.93070   84.84670   84.84670    9.01080    9.30770 -135.53450   -1.38540    9.30770
 6050.00000   11.71150   11.71150   99.47640   95.64070   10.45580    -999.25   75.99360   75.99360   63.37140   63.37140   10.45580   11.79920 -152.43540  -18.23350   11.79920
 6100.00000   10.38170   10.38170  114.51180  108.85420    9.18660    -999.25   77.45010   77.45010   55.02210   55.02210    9.18660   16.19620 -186.66520  -52.41020   16.19620
 6150.00000   12.07110   12.07110  106.25700   99.87810   10.01220    -999.25   79.60530   79.60530   83.74710   83.74710   10.01220    9.57460 -147.48020  -13.17240    9.57460
 6200.00000   11.84160   11.84160   77.18760   73.13680   13.67300    -999.25   74.96020   74.96020   78.73870   78.73870   13.67300   13.19920 -146.73990  -12.37890   13.19920
 6250.00000   11.87300   11.87300  117.15600  110.28150    9.06770   74.88130   83.31710   83.31710   79.22630   79.22630    9.06770    8.73000 -141.94890   -7.53510    8.73000
 6300.00000    8.70230    8.70230   58.89380   57.33650   17.44090   79.10970   74.95170   74.95170   50.59230   50.59230   17.44090   26.28210 -185.43360  -50.96700   26.28210
 6350.00000   10.52910   10.52910  119.65670  111.66200    8.95560   78.19120   79.51850   79.51850   62.30040   62.30040    8.95560   11.19590 -161.27070  -26.75100   11.19590
 6400.00000   11.50240   11.50240   37.78400   35.77570   27.95190   74.92930   69.13210   69.13210   81.84360   81.84360   27.95190   27.15990 -153.70750  -19.13500   27.15990
 6450.00000   12.26560   12.26560   58.47140   55.52780   18.00900   79.90480   84.28620   84.28620   87.73930   87.73930   18.00900   20.49800 -159.92470  -25.29900   20.49800
 6500.00000   11.41500   11.41500   48.23370   47.22130   21.17690   76.59860   71.45630   71.45630   90.57420   90.57420   21.17690   25.75810 -162.62620  -27.94770   25.75810
 6550.00000   10.46870   10.46870   58.71810   56.44420   17.71660   69.73950   70.04820   70.04820   78.13510   78.13510   17.71660   18.03140 -168.47720  -33.74590   18.03140
 6600.00000   12.59660   12.59660  107.61510  102.43280    9.76250   66.08460   71.14190   71.14190   85.05640   85.05640    9.76250   12.90230 -146.97350  -12.18910   12.90230
 6650.00000   11.73990   11.73990  107.27610   87.93300   11.37230   80.03140   58.06470   58.06470   83.52570   83.52570   11.37230    7.99240 -138.88480   -4.04760    7.99240
 6700.00000   10.98000   10.98000   71.86120   73.47160   13.61070   79.69730   70.00670   70.00670   81.35930   81.35930   13.61070   15.67790 -154.26750  -23.09470   15.67790
 6750.00000    8.55680    8.55680  233.98350  219.87690    4.54800   79.26590   85.85310   85.85310   41.71960   41.71960    4.54800    5.14080 -178.75870  -57.27570    5.14080
 6800.00000   12.04070   12.04070  202.69880  183.49970    5.44960   80.05960  127.42070  127.42070   81.53400   81.53400    5.44960    8.80160 -164.66900  -52.87580    8.80160
 6850.00000   10.31350   10.31350    7.19630    8.45150  118.32250   80.01430  101.09030  101.09030  264.63010  264.63010  118.32250  107.35920 -174.60590  -72.56630  107.35920
 6900.00000   10.93450   10.93450   18.45710   18.54150   53.93320   64.92880   64.85510   64.85510   72.87810   72.87810   53.93320   43.31960 -193.03550 -100.68560   43.31960
 6950.00000   11.28380   11.28380   36.08860   38.07510   26.26390   62.61810   65.31240   65.31240   82.53080   82.53080   26.26390   24.72130 -131.76370  -49.16740   24.72130
 7000.00000   10.71490   10.71490   66.94620   65.84880   15.18630   64.03630   64.29710   64.29710   69.14010   69.14010   15.18630   25.51780 -120.59640  -47.68990   25.51780
 7050.00000   13.04420   13.04420   84.59890   83.77810   11.93630   61.01300   68.85390   68.85390   89.84860   89.84860   11.93630   11.42770  -70.02680   -7.01020   11.42770
 7100.00000   11.24940   11.24940   38.43750   35.93090   27.83120   67.01060   61.67520   61.67520   87.04660   87.04660   27.83120   20.74970  -62.64660   -7.91580   20.74970
 7150.00000   11.37720   11.37720   39.40860   39.78560   25.13470   61.73560   63.04160   63.04160   82.42310   82.42310   25.13470   24.84820 -116.45160  -61.95520   24.84820
 7200.00000   11.16970   11.16970   33.37350   34.52700   28.96280   63.64570   62.06390   62.06390   88.15940   88.15940   28.96280   28.82250 -121.86500  -67.60460   28.82250
 7250.00000   12.37360   12.37360   30.31420   30.82750   32.43860   64.97940   39.96490   39.96490   89.56910   89.56910   32.43860   29.42860 -115.53900  -61.51300   29.42860
 7300.00000    9.41600    9.41600   22.91460   23.06500   43.35570   55.87220   57.96300   57.96300   21.74110   21.74110   43.35570   68.15160 -200.51960 -146.72800   68.15160
 7350.00000   11.11820   11.11820   12.47960   14.20300   70.40750   64.04520   53.23780   53.23780   30.11000   30.11000   70.40750   41.44280 -204.27810 -150.72250   41.44280
 7400.00000   10.52670   10.52670   16.73720   19.46230   51.38130   55.01180   54.89180   54.89180   25.29620   25.29620   51.38130   55.34880 -214.25200 -160.93080   55.34880
 7450.00000   10.46980   10.46980   13.42820   14.74560   67.81690   50.91070   50.05230   50.05230   42.19270   42.19270   67.81690   76.51290 -257.48300 -204.39780   76.51290
 7500.00000    9.85620    9.85620   23.91220   24.62300   40.61240   50.68590   56.88750   56.88750   62.05120   62.05120   40.61240   42.82860 -147.95750  -95.10670   42.82860
 7550.00000    9.85050    9.85050    1.60450    4.16090  240.33300   47.19560   50.32860   50.32860   36.24680   36.24680  240.33300  150.47740 -182.75430 -130.13790  150.47740
 7600.00000    9.31960    9.31960   52.32420   53.22660   18.78760   48.97330   52.77720   52.77720   34.75160   34.75160   18.78760   47.17870 -219.77110 -167.39070   47.17870
 7650.00000    9.79360    9.79360   26.81570   24.26420   41.21300   57.16050   54.92190   54.92190   28.98060   28.98060   41.21300   49.82590 -155.05660 -102.91060   49.82590
 7700.00000   10.68090   10.68090   89.20250   85.95420   11.63410   56.97610   62.51410   62.51410   56.16400   56.16400   11.63410   14.91020 -216.01070 -164.10070   14.91020
 7750.00000   10.05510   10.05510   69.38680   78.68810   12.70840   50.47340   52.93740   52.93740   21.51690   21.51690   12.70840   49.81400 -203.87110 -152.19550   49.81400
 7800.00000    9.58270    9.58270   46.95540   46.95450   21.29720   51.77700   52.82020   52.82020   25.75060   25.75060   21.29720   39.67470 -217.32130 -165.88010   39.67470
 7850.00000    9.08170    9.08170    3.39480    5.92720  168.71370   50.51080   49.46850   49.46850   20.62640   20.62640  168.71370  148.14780 -141.59380  -90.38860  148.14780
 7900.00000   10.83990   10.83990   13.19970   10.25240   97.53810   49.59240   53.34360   53.34360   37.71160   37.71160   97.53810   61.91700  -72.35450  -21.38370   61.91700
 7950.00000    9.41690    9.41690   62.73770   66.85920   14.95680   54.60590   58.36640   58.36640   39.55520   39.55520   14.95680   29.99140 -119.06200  -70.83700   29.99140
 8000.00000    8.25490    8.25490   93.64880   98.57950   10.14410   55.54070   62.51290   62.51290   46.88420   46.88420   10.14410   36.96760 -148.91340 -106.53300   36.96760
 8050.00000    9.61960    9.61960   52.86160   53.89500   18.55460   55.88070   55.43460   55.43460   31.56760   31.56760   18.55460   39.62290 -251.03240 -214.49670   39.62290
 8100.00000   10.22660   10.22660   17.98690   19.02820   52.55370   50.16320   54.44470   54.44470   29.07810   29.07810   52.55370   49.64080 -263.52530 -232.87260   49.64080
