~Version ---------------------------------------------------
VERS. 2.0 : CWLS log ASCII Standard -VERSION 2.0
WRAP.  NO : ONE LINE PER DEPTH STEP
~Well ------------------------------------------------------
STRT.F                               300.0 : START DEPTH
STOP.F                             16950.0 : STOP DEPTH
STEP.F                            50.00000 : STEP LENGTH
NULL.                              -999.25 : NULL VALUE
COMP.                        BANFF OIL LTD : COMPANY
WELL. BANFF AQUIT SIEBENS RAMR 14-21-37-11 : WELL
FLD .                                      : FIELD
LOC .                                      : LOCATION
CTRY.                               CANADA : COUNTRY
SRVC.                         Schlumberger : SERVICE COMPANY
DATE.                          21-Oct-1970 : LOGDATE
PROV.                              Alberta : PROVINCE
UWI .                     100142103711W500 : UNIQUE WELL ID
SLAT.WGS84                        52.19912 : SURFACE LATITUDE
SLON.WGS84                       -115.5164 : SURFACE LONGITUDE
~Curve Information -----------------------------------------
DEPT   .F                 : 
SPR    .MV                : SPONTANEOUS POTENTIAL FROM RESISTIVITY
ILD    .OHMM 07 120 46 00 : DEEP INDUCTION RESISTIVITY
ILM    .OHMM 07 120 44 00 : INDUCTION LOG MEDIUM RESISTIVITY
LL8    .OHMM              : LATEROLOG-8 RESISTIVITY
GRS    .GAPI              : GAMMA RAY FROM SONIC LOG
CALS   .IN                : 
DT     .US/F 60 520 00 00 : DELTA TIME FROM SONIC LOG
DPHI_LS.DEC  45 890 10 00 : DENSITY POROSITY LIMESTONE
RHOB   .G/C3 45 350 01 00 : BULK DENSITY
DRHO   .G/C3 45 356 01 00 : DENSITY CORRECTION
CALD   .IN   45 280 01 00 : CALIPER FROM DENSITY LOG
GRD    .GAPI              : GAMMA RAY FROM DENSITY LOG
SNP_LS .DEC               : SIDEWALL NEUTRON POROSITY LIMESONTE
CALN   .IN   00 000 00 01 : 7 CALIPER FROM NEUTRON
GRN    .GAPI              : GAMMA RAY NEUTRON
~Params ----------------------------------------------------
PD  .                     GL : PERMANENT DATUM
EPD .FT                 4914 : ELEVATION PERMANENT DATUM
LMF .                     KB : LOG MEASURED FROM
DAPD.FT                 18.7 : FEET ABOVE PERMANENT DATUM
EKB .FT               4932.7 : KELLY BUSHING
EGL .FT                 4914 : GROUND LEVEL
DATE.               10/21/70 : RUN DATE
RUN .                      4 : RUN NUMBER
DD  .FT                16960 : DEPTH DRILLER
DL  .FT                16960 : DEPTH LOGGER
BLI .FT                16954 : BOTTOM LOG INTERVAL
TLI .FT                16000 : TOP LOG INTERVAL
BS  .IN                8.375 : BIT SIZE
BSD .FT                16960 : BIT SIZE AT DEPTH
DFT .                    GEL : DRILLING FLUID TYPE
DFD .                   10.1 : DRILLING FLUID DENSITY
DFV .                     61 : DRILLING FLUID VISCOSITY
DFPH.                     10 : DRILLING FLUID PH
DFL .                    8.4 : DRILLING FLUID LOSS
MSS .               FLOWLINE : MUD SAMPLE SOURCE
RMS .OHMM               1.51 : RESISTIVITY MUD SAMPLE
MST .DEGF                 66 : MUD SAMPLE TEMPERATURE
RMF .OHMM               1.11 : RESISTIVITY MUD FILTRATE SAMPLE
MFST.DEGF                 70 : MUD FILTRATE SAMPLE TEMPERATURE
TCS .HRS                   4 : TIME CIRCULATED STOPPED
LUN .                   7002 : LOGGING UNIT NUMBER
LUL .                     RD : LOGGING UNIT LOCATION
ENGI.                 TALBOT : RECORDING ENGINEER
WITN.          LEMEE BRINKER : WITNESSED BY
CLNT.                A2DTECH : CLIENT CODE
ORIG.            2" 5" PRINT : ORIGIN OF DATA
UWI .       100142103711W500 : UNIQUE WELL ID
DICO. A2D Technologies, Inc. : DIGITIZING COMPANY
~Other -----------------------------------------------------
~ASCII -----------------------------------------------------
# ...
 11750.00000  -16.19670   10.05760    9.86710   14.91480   63.81410   14.20860   88.60820    -999.25    -999.25    -999.25    -999.25    -999.25    -999.25    -999.25    -999.25
 11800.00000  -18.06340   11.14770   10.25820   12.73930   68.94140   14.22600   88.95910    -999.25    -999.25    -999.25    -999.25    -999.25    -999.25    -999.25    -999.25
 11850.00000  -18.78400    7.14830    6.75150    8.79250   73.58570   14.06060   86.18890    -999.25    -999.25    -999.25    -999.25    -999.25    -999.25    -999.25    -999.25
 11900.00000  -17.81350    5.92120    6.14160    9.76760   63.32070   13.82770   87.29960    -999.25    -999.25    -999.25    -999.25    -999.25    -999.25    -999.25    -999.25
 11950.00000  -17.50370    6.13230    5.89080    8.90650   72.42770   14.32080   86.74780    -999.25    -999.25    -999.25    -999.25    -999.25    -999.25    -999.25    -999.25
 12000.00000  -21.24780    3.38620    3.50220    4.84220   55.84150   14.50190   88.57680    -999.25    -999.25    -999.25    -999.25    -999.25    -999.25    -999.25    -999.25
 12050.00000    -999.25    -999.25    -999.25    -999.25   57.76630    -999.25    -999.25    -999.25    -999.25    -999.25    -999.25    -999.25    -999.25    -999.25    -999.25
 12100.00000  -28.66480    9.58080    8.98670   10.86870   62.27850    9.32010   76.83550    -999.25    -999.25    -999.25    -999.25    -999.25    -999.25    -999.25    -999.25
 12150.00000  -28.05880   61.97790   23.35640   17.42080   47.47970    9.22210   78.08990    -999.25    -999.25    -999.25    -999.25    -999.25    -999.25    -999.25    -999.25
 12200.00000  -28.45280   27.17050   16.45830   10.95850   46.38760    9.71930   73.45370    -999.25    -999.25    -999.25    -999.25    -999.25    -999.25    -999.25    -999.25
 12250.00000  -30.46830   30.55490   12.39680    8.61540   59.96360   11.19440   89.09420    -999.25    -999.25    -999.25    -999.25    -999.25    -999.25    -999.25    -999.25
 12300.00000  -28.01290   18.60820   17.10610   19.99590   55.20430   10.77920   71.50510    -999.25    -999.25    -999.25    -999.25    -999.25    -999.25    -999.25    -999.25
 12350.00000  -31.94710   23.65210   12.75340   12.91480   61.04970   10.53520   75.38020    -999.25    -999.25    -999.25    -999.25    -999.25    -999.25    -999.25    -999.25
 12400.00000  -28.79320   14.23940   13.71880   15.53550   56.45400    9.42530   75.03120    -999.25    -999.25    -999.25    -999.25    -999.25    -999.25    -999.25    -999.25
 12450.00000  -33.99160   14.66590   14.06990   15.58670   57.58650    9.51190   73.75760    -999.25    -999.25    -999.25    -999.25    -999.25    -999.25    -999.25    -999.25
 12500.00000  -34.09930   13.40610   14.01290   14.50400   49.59970    9.89030   74.96270    -999.25    -999.25    -999.25    -999.25    -999.25    -999.25    -999.25    -999.25
 12550.00000  -50.86900   19.20740   12.93140   21.33020   52.99280   13.98600  118.84920    -999.25    -999.25    -999.25    -999.25    -999.25    -999.25    -999.25    -999.25
 12600.00000  -53.10040   10.86590    5.43460    9.87180   59.78170    9.87960   77.48900    -999.25    -999.25    -999.25    -999.25    -999.25    -999.25    -999.25    -999.25
 12650.00000  -47.46940   31.37800   38.43900   42.23050   38.55480    9.04440   71.17540    -999.25    -999.25    -999.25    -999.25    -999.25    -999.25    -999.25    -999.25
 12700.00000  -47.29130   34.95680   38.00300   40.20130   45.87100    8.74620   68.28290    -999.25    -999.25    -999.25    -999.25    -999.25    -999.25    -999.25    -999.25
 12750.00000  -38.77880   23.06590   21.74120   44.29850   58.35300    9.22240   83.08790    -999.25    -999.25    -999.25    -999.25    -999.25    -999.25    -999.25    -999.25
 12800.00000  -75.19100   10.60890    9.62170   11.13880   61.31570   11.41740   89.58630    -999.25    -999.25    -999.25    -999.25    -999.25    -999.25    -999.25    -999.25
 12850.00000  -47.51210   20.87690   11.09430   14.00540   82.21960    9.18450   86.08640    -999.25    -999.25    -999.25    -999.25    -999.25    -999.25    -999.25    -999.25
 12900.00000  -51.69030   74.86630   69.02250  146.65680   45.33280    8.76310   69.69650    -999.25    -999.25    -999.25    -999.25    -999.25    -999.25    -999.25    -999.25
 12950.00000  -48.66490   11.14390    6.69380    8.39930   76.87190    9.59360   75.91670    -999.25    -999.25    -999.25    -999.25    -999.25    -999.25    -999.25    -999.25
 13000.00000  -52.45780   23.59870   20.53830   27.55030   53.92210    9.25540   66.32010    -999.25    -999.25    -999.25    -999.25    -999.25    -999.25    -999.25    -999.25
 13050.00000  -55.31660   40.72970   48.68030   61.10070   39.84430    8.89280   73.17370    -999.25    -999.25    -999.25    -999.25    -999.25    0.16880   10.09330   34.01470
 13100.00000  -52.00500   24.21300   18.06200   28.44530   72.70740    9.08270   75.35380    -999.25    -999.25    -999.25    -999.25    -999.25    0.29990   10.33520   36.16670
 13150.00000   30.18850   12.71820   10.99430   15.70670   86.99190    9.98250   93.34280    -999.25    -999.25    -999.25    -999.25    -999.25    0.30000   11.37770   80.57750
 13200.00000   28.83270   21.68840   33.62790   24.59280   55.60610    9.29110   71.59060    0.21060    2.34350    0.23490    9.96070   41.43040    0.19300    9.74730   46.86240
 13250.00000   29.15530    7.31590    5.36380    7.14410   71.25890   10.55180   58.06300    -999.25    2.07630    0.13250   13.99920   59.00060    0.29980   13.31800   68.86010
 13300.00000  -53.65500 1264.71000 1695.26950 1438.47310   14.77200    7.96470   59.02750    0.06820    2.59380    0.10830    7.65980   10.92670   -0.00460    8.43440   14.02630
 13350.00000  -94.14020   93.99720  239.43430  284.14110    8.28650    7.96470   58.04230   -0.00240    2.71680    0.08610    8.50250    6.81660    0.08360    8.23960    6.68570
 13400.00000 -106.27970   51.80630   99.12350  188.94150    8.41270    7.95020   56.64240   -0.00660    2.72500    0.14600    8.18710    5.64280    0.07560    8.07360    7.95490
 13450.00000  -98.93280   24.64600   42.65340   66.71250   10.72520    8.11190   60.19700    0.03310    2.64910    0.10450    8.41390    6.07550    0.16820    8.13280    7.58030
 13500.00000  -67.25890 1482.08680  113.49410  363.49360   16.81280   10.08640   57.66620    0.08830    2.57890    0.14090   11.38960   15.18890    0.11600   11.02240   17.68150
 13550.00000  -26.65720 1787.12460  668.30910  413.20010   90.87780    8.62470   61.45200    0.16060    2.41770    0.21470   12.08410   51.89460    0.08090   12.75750   61.39570
 13600.00000  -31.04770 1038.35130  133.89390  695.23380   37.32130    8.76200   57.29410    0.23940    2.28670    0.22420   13.80600    6.98440    0.09880   12.84560   20.42620
 13650.00000  -78.84020  217.54370   51.08950  472.66700   10.49310    8.40350   55.87470    0.03270    2.67380    0.18070   10.04640   11.06970    0.05030    9.16460   11.12900
 13700.00000 -120.91520 1341.28930 1540.04150  646.99070    7.74900    8.92670   56.24060   -0.00780    2.73040    0.09070   10.38360    8.19770    0.00760   10.04170    6.65050
 13750.00000 -120.57710  445.00950 1597.13710 1374.82970    9.01830    8.55370   54.38650   -0.01790    2.73160    0.14450   10.07500    6.76620    0.01370    9.83430   10.33090
 13800.00000 -157.75870  208.99770   95.68500  135.34630   50.27530    8.62110   56.62910    0.18210    2.40960    0.24560   11.36550   42.02630    0.06860   11.48250   52.59410
 13850.00000 -162.46150   98.97880  335.95150   80.27600   29.82760    9.40920   71.82120    0.08550    2.59020    0.12730   13.97300   23.55040    0.13620   14.10010   31.82910
 13900.00000 -129.46040  224.48590  333.77070  258.66230   21.72590    9.08000   56.66260    0.20720    2.36080    0.13230   13.78200   22.09530    0.10100   13.15700   24.17430
 13950.00000 -134.57020  145.62340   81.37790  193.87950   52.59610    8.74700   57.74920   -0.00380    2.70770    0.25250   10.43660   32.70800    0.01430    9.97990   43.16140
