~Version ---------------------------------------------------
VERS.      2.0 : CWLS log ASCII Standard -VERSION 2.0
WRAP.       NO : One line per depth step
CREA. 12/18/17 : LAS Creation Date
~Well ------------------------------------------------------
STRT.FT                           300.0 : START DEPTH
STOP.FT                          8400.0 : STOP DEPTH
STEP.FT                        50.00000 : STEP LENGTH
NULL.                           -999.25 : NULL VALUE
COMP.     HUDSON'S BAY OIL & GAS CO LTD : COMPANY
WELL. HUDSONS BAY EAST VIRGINIA HILLS 1 : WELL
FLD .                                   : FIELD
LOC .                                   : LOCATION
CTRY.                            CANADA : COUNTRY
SRVC.  Schlumberger Well Surveying Corp : SERVICE COMPANY
DATE.                       16-Jul-1957 : LOGDATE
PROV.                           Alberta : PROVINCE
UWI .                  100053106506W500 : UNIQUE WELL ID
SLAT.WGS84                     54.66668 : SURFACE LATITUDE
SLON.WGS84                    -114.9047 : SURFACE LONGITUDE
~Curve Information -----------------------------------------
DEPT     .FT         : Depth Curve
CALWS    .IN         : CALIPER [MCALED]
CONDWS   .MMHO       : CONDUCTIVITY [1000/DRESWS]
DRESWS   .OHMM       : DEEP RESISTIVITY [LNED]
GRN1ED   .CPS        : GAMMA RAY FROM CNL LOG
GRN2ED   .CPS        : GAMMA RAY FROM CNL LOG
GRNED    .UgRa-Eq/T  : GAMMA RAY FROM GRN LOG
GRWS     .GAPI       : GAMMA RAY [GRNED SPL. TO GRN2ED @ (6722'-7414') & GRN1ED @ 7214'TO FR] [GRNED*16.5]
LNED     .OHMM       : LONG NORMAL RESISTIVITY FROM RESISTIVITY LOG
LT18ED   .OHMM       : LATERAL 18' RESISTIVITY FROM RESISTIVITY LOG
MCALED   .IN         : MLT CALIPER FROM MICRO LOG
NEUTED   .CU         : NEUTRON FROM GRN LOG
NEUTWS   .CU         : NEUTRON [NEUTED]
NPHISS1ED.V/V        : NEUTRON POROSITY SANDSTONE FROM CNL LOG
NPHISSED .V/V        : NEUTRON POROSITY SANDSTONE FROM CNL LOG
NPOSSWS  .V/V        : NEUTRON POROSITY SANDSTONE [NPHISSED SPL. TO NPHISS1ED @ 7420']
SNED     .OHMM       : SHORT NORMAL RESISTIVITY FROM RESISTIVITY LOG
SPRED    .MV         : SPONTANEOUS POTENTIAL FROM RESISTIVITY LOG
SPWS     .MV         : SPONTANEOUS POTENTIAL [BASELINE 0 MV,SPRED]
SRESWS   .OHMM       : SHALLOW RESISTIVITY [SNED]
~Params ----------------------------------------------------
LMF .                     KB : LOG MEASURED FROM
DMF .                     KB : DRILLING MEASURED FROM
EKB .FT                 2615 : KELLY BUSHING
EGL .FT                 2602 : GROUND LEVEL
DATE.               07/16/57 : RUN DATE
RUN .                      1 : RUN NUMBER
DD  .FT                 8422 : DEPTH DRILLER
DL  .FT                 8418 : DEPTH LOGGER
TCS .HRS                   2 : TIME CIRCULATED STOPPED
LUL .                    EDM : LOGGING UNIT LOCATION
ENGI.                  JAMES : RECORDING ENGINEER
WITN.              PINNNACLE : WITNESSED BY
CLNT.                A2DTECH : CLIENT CODE
ORIG.            2" 5" PRINT : ORIGIN OF DATA
UWI .       100053106506W500 : UNIQUE WELL ID
DICO. A2D Technologies, Inc. : DIGITIZING COMPANY
~Other -----------------------------------------------------
~ASCII -----------------------------------------------------
# ...
 5850.00000    -999.25  438.42340    2.28090    -999.25    -999.25    7.05980  116.48670    2.28090    3.48510    -999.25  149.92270  149.92270    -999.25    -999.25    -999.25    2.84630  -79.79430  -22.84790    2.84630
 5900.00000    9.69240  200.53340    4.98670    -999.25    -999.25    4.68750   77.34380    4.98670    2.70040    9.69240  541.19840  541.19840    -999.25    -999.25    -999.25    6.45540  -76.04360  -20.25080    6.45540
 5950.00000    9.87660  100.73640    9.92690    -999.25    -999.25    4.73900   78.19350    9.92690    8.37780    9.87660  608.26620  608.26620    -999.25    -999.25    -999.25    9.94060  -60.00720   -5.02840    9.94060
 6000.00000    9.85200   72.93730   13.71040    -999.25    -999.25    5.17110   85.32310   13.71040   14.39580    9.85200  519.88150  519.88150    -999.25    -999.25    -999.25   16.99960  -59.25930   -4.82040   16.99960
 6050.00000    9.77240   20.03330   49.91690    -999.25    -999.25    6.37250  105.14620   49.91690   10.81340    9.77240  500.77620  500.77620    -999.25    -999.25    -999.25   34.87490  -59.88930   -5.99040   34.87490
 6100.00000    9.73570   43.08750   23.20860    -999.25    -999.25    6.11740  100.93710   23.20860   11.33360    9.73570  479.94290  479.94290    -999.25    -999.25    -999.25   14.37730  -64.91750  -11.56210   14.37730
 6150.00000    9.90040   20.79670   48.08460    -999.25    -999.25    3.73330   61.59940   48.08460   73.47640    9.90040  746.76470  746.76470    -999.25    -999.25    -999.25   29.91300  -67.79180  -14.97630   29.91300
 6200.00000    9.90610   69.11760   14.46810    -999.25    -999.25    5.16800   85.27200   14.46810   15.94140    9.90610  590.05690  590.05690    -999.25    -999.25    -999.25   13.14770  -61.09560   -8.82360   13.14770
 6250.00000   10.07120  122.38250    8.17110    -999.25    -999.25    6.17510  101.88910    8.17110   14.82420   10.07120  445.88890  445.88890    -999.25    -999.25    -999.25    9.83460  -55.01140   -3.26990    9.83460
 6300.00000   12.24180  338.78780    2.95170    -999.25    -999.25    7.31750  120.73880    2.95170    4.31480   12.24180  158.49810  158.49810    -999.25    -999.25    -999.25    3.39100  -74.82790  -22.90430    3.39100
 6350.00000   12.09100  403.79570    2.47650    -999.25    -999.25    6.54500  107.99250    2.47650    3.32940   12.09100  183.51290  183.51290    -999.25    -999.25    -999.25    3.19000  -66.35290  -14.24600    3.19000
 6400.00000   12.02120  367.47140    2.72130    -999.25    -999.25    7.16960  118.29840    2.72130    4.20700   12.02120  211.50530  211.50530    -999.25    -999.25    -999.25    3.00040  -71.16400  -18.87500    3.00040
 6450.00000   11.97110  331.46610    3.01690    -999.25    -999.25    6.76860  111.68190    3.01690    3.79360   11.97110  207.08320  207.08320    -999.25    -999.25    -999.25    3.66150  -74.46940  -21.99710    3.66150
 6500.00000    9.93460   14.24510   70.19950    -999.25    -999.25    4.39580   72.53070   70.19950   15.94010    9.93460  599.62600  599.62600    -999.25    -999.25    -999.25   48.90740  -66.64000  -13.98550   48.90740
 6550.00000   11.37340  154.59530    6.46850    -999.25    -999.25    5.01490   82.74590    6.46850    6.77470   11.37340  262.21500  262.21500    -999.25    -999.25    -999.25    4.60340  -76.24960  -23.41300    4.60340
 6600.00000   10.59700  132.32240    7.55730    -999.25    -999.25    4.81190   79.39630    7.55730   10.05270   10.59700  319.05770  319.05770    -999.25    -999.25    -999.25    8.45860  -67.26860  -14.24870    8.45860
 6650.00000   10.01460   41.66860   23.99890    -999.25    -999.25    3.32800   54.91200   23.99890   34.05310   10.01460  556.86730  556.86730    -999.25    -999.25    -999.25   20.10780  -66.30920  -13.10720   20.10780
 6700.00000    9.89050   25.98850   38.47850    -999.25    -999.25    3.56730   58.86050   38.47850   15.41450    9.89050  606.84790  606.84790    -999.25    -999.25    -999.25   27.39810  -64.90370  -11.51840   27.39810
 6750.00000   10.30890   12.88060   77.63640    -999.25   15.36330    3.12030   15.36330   77.63640  158.55110   10.30890  722.09460  722.09460    -999.25    0.09850    0.09850   44.82480  -68.28630  -14.71890   44.82480
 6800.00000   10.00850   99.04130   10.09680    -999.25   32.81920    4.66890   32.81920   10.09680    8.62610   10.00850  397.93810  397.93810    -999.25    0.27400    0.27400    9.51880  -62.38390   -8.63440    9.51880
 6850.00000    9.95240   16.47690   60.69120    -999.25   19.16480    3.36060   19.16480   60.69120  165.79620    9.95240  588.37180  588.37180    -999.25    0.13850    0.13850   33.21220  -68.38180  -14.44900   33.21220
 6900.00000   10.14810    7.69650  129.92990    -999.25   16.33870    2.55290   16.33870  129.92990  234.11380   10.14810  983.75220  983.75220    -999.25    0.09080    0.09080   54.54700  -85.10870  -30.99380   54.54700
 6950.00000   10.05490   17.58610   56.86300    -999.25   22.44650    2.88460   22.44650   56.86300  136.07310   10.05490  661.86060  661.86060    -999.25    0.14850    0.14850   32.66380  -65.75970  -11.46150   32.66380
 7000.00000    9.96960   26.26610   38.07190    -999.25   22.81760    3.45150   22.81760   38.07190   29.28230    9.96960  538.78360  538.78360    -999.25    0.14350    0.14350   22.73430  -64.74270  -10.26240   22.73430
 7050.00000   10.30830    5.73270  174.43880    -999.25    9.70030    3.10180    9.70030  174.43880  421.88560   10.30830  723.42270  723.42270    -999.25    0.08400    0.08400   76.83380  -65.87350  -11.21110   76.83380
 7100.00000    9.29280   99.10310   10.09050   49.33860   51.24160    8.33160   51.24160   10.09050    6.59460    9.29280  984.23680  984.23680    0.18240    0.20110    0.20110    8.17560  -80.12070  -25.27490    8.17560
 7150.00000    9.71070   99.88310   10.01170   41.86130   44.95190    -999.25   44.95190   10.01170   19.23070    9.71070    -999.25    -999.25    0.21680    0.26880    0.26880   12.30120  -75.88550  -20.85760   12.30120
 7200.00000    9.63880   96.82890   10.32750   84.54550   87.95980    -999.25   87.95980   10.32750    1.65240    9.63880    -999.25    -999.25    0.26220    0.26670    0.26670    7.85560  -73.75490  -18.54370    7.85560
 7250.00000    9.68250  152.32520    6.56490   61.96980   57.21820    -999.25   57.21820    6.56490    9.57660    9.68250    -999.25    -999.25    0.24950    0.26100    0.26100   10.69000  -84.54610  -29.15280   10.69000
 7300.00000    9.69470   84.81760   11.79000   51.33890   50.44280    -999.25   50.44280   11.79000   14.21240    9.69470    -999.25    -999.25    0.16190    0.17760    0.17760   14.94570  -68.06310  -12.48770   14.94570
 7350.00000   10.26000  199.53710    5.01160   67.47070   66.99310    -999.25   66.99310    5.01160    5.10500   10.26000    -999.25    -999.25    0.21800    0.21740    0.21740    6.28270  -76.31010  -20.55140    6.28270
 7400.00000   10.08830  249.45740    4.00870   74.31480   71.31640    -999.25   71.31640    4.00870    5.76760   10.08830    -999.25    -999.25    0.29190    0.28630    0.28630    6.88710  -78.08800  -22.14720    6.88710
 7450.00000    9.72060   29.68620   33.68570    -999.25    -999.25    -999.25    -999.25   33.68570   18.99830    9.72060    -999.25    -999.25    -999.25    -999.25    -999.25   35.76780  -59.90810   -3.78400   35.76780
 7500.00000    9.29870  151.14870    6.61600    -999.25    -999.25    -999.25    -999.25    6.61600    9.45800    9.29870    -999.25    -999.25    -999.25    -999.25    -999.25   10.92870  -99.17300  -42.86680   10.92870
 7550.00000    9.48320  157.06230    6.36690    -999.25    -999.25    -999.25    -999.25    6.36690    4.24450    9.48320    -999.25    -999.25    -999.25    -999.25    -999.25    6.92610 -128.28850  -71.80020    6.92610
 7600.00000    9.45490  118.89330    8.41090    -999.25    -999.25    -999.25    -999.25    8.41090    5.87650    9.45490    -999.25    -999.25    -999.25    -999.25    -999.25    9.25870  -98.07690  -41.40530    9.25870
 7650.00000   10.03990   13.24160   75.51940    -999.25    -999.25    -999.25    -999.25   75.51940   37.42120   10.03990    -999.25    -999.25    -999.25    -999.25    -999.25   29.91870 -104.04540  -47.19170   29.91870
