~Version ---------------------------------------------------
VERS.      2.0 : CWLS log ASCII Standard -VERSION 2.0
WRAP.       NO : One line per depth step
CREA. 09/25/17 : LAS Creation Date
~Well ------------------------------------------------------
STRT.FT                             850.0 : START DEPTH
STOP.FT                            9900.0 : STOP DEPTH
STEP.FT                          50.00000 : STEP LENGTH
NULL.                             -999.25 : NULL VALUE
COMP.         BLUEMOUNT RESOURCES LIMITED : COMPANY
WELL. BLUEMOUNT ET AL GOODWIN 11-31-58-13 : WELL
FLD .                                     : FIELD
LOC .                                     : LOCATION
CTRY.                              CANADA : COUNTRY
SRVC.              Schlumberger of Canada : SERVICE COMPANY
DATE.                         07-Apr-1973 : LOGDATE
PROV.                             Alberta : PROVINCE
UWI .                    100113105813W500 : UNIQUE WELL ID
SLAT.WGS84                       54.06009 : SURFACE LATITUDE
SLON.WGS84                      -115.9256 : SURFACE LONGITUDE
~Curve Information -----------------------------------------
DEPT    .FT    : Depth Curve
CALDED  .IN    : CALIPER FROM DENSITY LOG [ADJ.TO RESISTIVITY LOG]
CALSED  .IN    : CALIPER FROM SONIC LOG [ADJ.TO RESISTIVITY LOG]
CALWS   .IN    : CALIPER [CALSED SPL.TO CALDED @ 2963.5'-9832']
CILDED  .MMHO  : CONDUCTIVITY FROM RESISTIVITY LOG
CONDWS  .MMHO  : CONDUCTIVITY [1000/DRESWS]
DCORWS  .G/C3  : DENSITY CORRECTION [DRHOED]
DENWS   .G/C3  : FORMATION BULK DENSITY [CALC. FROM DPHILSED, M=2.71, F=1.00, SPL.TO RHOBED @ 7938']
DPHILSED.V/V   : DENSITY POROSITY LIMESTONE [M=2.71, F=1.00] FROM DENSITY LOG [ADJ.TO RESISTIVITY LOG]
DPOLSWS .V/V   : DENSITY POROSITY LIMESTONE [CALC. FROM DENWS, M=2.71, F=1.00]
DRESWS  .OHMM  : DEEP RESISTIVITY [1000/CILDED IF ILDED <=2, ILDED, SPL.TO ILDED @ 3000']
DRHOED  .G/C3  : DENSITY CORRECTION FROM DENSITY LOG [ADJ.TO RESISTIVITY LOG]
DTED    .US/F  : DELTA TIME FROM SONIC LOG [ADJ.TO RESISTIVITY LOG]
DTWS    .US/F  : COMPRESSIONAL SONIC [DTED]
GRDED   .GAPI  : GAMMA RAY FROM DENSITY LOG [ADJ.TO RESISTIVITY LOG]
GRSED   .GAPI  : GAMMA RAY FROM SONIC LOG [ADJ.TO RESISTIVITY LOG]
GRWS    .GAPI  : GAMMA RAY [GRSED SPL.TO GRDED @ 2966.5']
ILDED   .OHMM  : DEEP INDUCTION FROM RESISTIVITY LOG
ILMED   .OHMM  : MEDIUM INDUCTION FROM RESISTIVITY LOG
LL8ED   .OHMM  : LATEROLOG 8 FROM RESISTIVITY LOG
MRESWS  .OHMM  : MEDIUM RESISTIVITY [ILMED]
NPHILSED.V/V   : NEUTRON POROSITY LIMESTONE FROM DENSITY LOG [ADJ.TO RESISTIVITY LOG]
NPOLSWS .V/V   : NEUTRON POROSITY LIMESTONE [NPHILSED]
RHOBED  .G/C3  : BULK DENSITY FROM DENSITY LOG [ADJ.TO RESISTIVITY LOG]
SPRED   .MV    : SPONTANEOUS POTENTIAL FROM RESISTIVITY LOG
SPWS    .MV    : SPONTANEOUS POTENTIAL [BASELINE 0 MV, SPRED]
SRESWS  .OHMM  : SHALLOW RESISTIVITY [LL8ED]
~Params ----------------------------------------------------
PD  .                     GL : PERMANENT DATUM
EPD .FT                 3069 : ELEVATION PERMANENT DATUM
LMF .                     KB : LOG MEASURED FROM
DAPD.FT                   17 : FEET ABOVE PERMANENT DATUM
EKB .FT                 3087 : KELLY BUSHING
EGL .FT                 3069 : GROUND LEVEL
DATE.               04/07/73 : RUN DATE
RUN .                      1 : RUN NUMBER
DD  .FT                 9938 : DEPTH DRILLER
DL  .FT                 9940 : DEPTH LOGGER
BLI .FT                 9935 : BOTTOM LOG INTERVAL
TLI .FT                 1025 : TOP LOG INTERVAL
CBD .FT                 1025 : CASING BOTTOM DRILLER
CBL .FT                 1030 : CASING BOTTOM LOGGER
BS  .IN                 8.75 : BIT SIZE
BSD .FT                 9938 : BIT SIZE AT DEPTH
DFT .               GEL CHEM : DRILLING FLUID TYPE
DFD .                    9.5 : DRILLING FLUID DENSITY
DFV .                     92 : DRILLING FLUID VISCOSITY
DFPH.                      9 : DRILLING FLUID PH
DFL .                     10 : DRILLING FLUID LOSS
MSS .             CALCULATED : MUD SAMPLE SOURCE
TCS .HRS                   5 : TIME CIRCULATED STOPPED
LUN .                   7667 : LOGGING UNIT NUMBER
LUL .                    EDM : LOGGING UNIT LOCATION
ENGI.                  LEWIS : RECORDING ENGINEER
WITN.              TUDDENHAM : WITNESSED BY
CLNT.                A2DTECH : CLIENT CODE
ORIG.            2" 5" PRINT : ORIGIN OF DATA
UWI .       100113105813W500 : UNIQUE WELL ID
DICO. A2D Technologies, Inc. : DIGITIZING COMPANY
~Other -----------------------------------------------------
DI-LL-FDC-CNL-SONIC LOG RUN.
SPRED CILDED,ILDED,LL8ED DIG IN 2" SCALE @ TOP TO 3000'
~ASCII -----------------------------------------------------
# ...
 6250.00000    7.50540    7.43480    7.50540    -999.25  140.64700    0.17790    2.63900    0.04150    0.04150    7.11000    0.17790   84.30620   84.30620   38.57960   43.55410   38.57960    7.11000   11.49840   20.15880   11.49840    0.16530    0.16530    2.64100 -218.63450  -72.86710   20.15880
 6300.00000    9.80430    8.55660    9.80430    -999.25  406.46010    0.26770    2.05100    0.38540    0.38540    2.46750    0.26770  103.22470  103.22470   89.53470   91.87050   89.53470    2.46750    2.03860    2.95230    2.03860    0.40220    0.40220    2.05240 -185.30180  -37.53220    2.95230
 6350.00000   10.34620    8.20500   10.34620    -999.25  210.28280    0.32190    2.40940    0.17580    0.17580    4.75550    0.32190   95.00690   95.00690   97.40470   99.73090   97.40470    4.75550    4.93400    6.66090    4.93400    0.31490    0.31490    2.40530 -184.55610  -34.76400    6.66090
 6400.00000    7.17360    6.95430    7.17360    -999.25  201.04210    0.14250    2.65320    0.03320    0.03320    4.97680    0.14250   79.05410   79.05410   42.30390   56.72500   42.30390    4.97680    7.56070   19.13610    7.56070    0.19220    0.19220    2.65610 -254.39640 -102.60200   19.13610
 6450.00000    7.23490    7.10620    7.23490    -999.25    1.56880    0.09080    2.72400   -0.00820   -0.00820  637.43090    0.09080   71.90840   71.90840   39.50060   39.53200   39.50060  637.43090 1940.78300 1556.95740 1940.78300    0.07240    0.07240    2.71720 -192.21830  -38.40150 1556.95740
 6500.00000    7.41560    7.21750    7.41560    -999.25    2.62680    0.10820    2.74180   -0.01860   -0.01860  380.69230    0.10820   77.76220   77.76220   56.65100   68.97370   56.65100  380.69230 1707.39550  366.39690 1707.39550    0.15020    0.15020    2.73780 -164.94210   -9.30490  366.39690
 6550.00000    7.51770    7.30730    7.51770    -999.25    1.33210    0.08230    2.67190    0.02230    0.02230  753.78440    0.08230   56.95530   56.95530  247.30480  245.31680  247.30480  753.78440 1985.11300 1533.61310 1985.11300    0.17810    0.17810    2.66570 -213.17590  -56.73030 1533.61310
 6600.00000    7.67890    7.51110    7.67890    -999.25   64.59410    0.11960    2.86120   -0.08840   -0.08840   15.48130    0.11960   51.79430   51.79430   47.02340   52.26430   47.02340   15.48130   18.12560   20.33460   18.12560    0.12930    0.12930    2.85580 -227.89910  -70.63690   20.33460
 6650.00000    7.44090    7.09680    7.44090    -999.25  102.03270    0.14830    2.74150   -0.01840   -0.01840    9.82870    0.14830   49.31900   49.31900   14.90070   16.22960   14.90070    9.82870   21.16350   76.77600   21.16350    0.12880    0.12880    2.73350 -267.97650 -109.90590   76.77600
 6700.00000    7.47020    7.28580    7.47020    -999.25  113.11580    0.18670    2.83690   -0.07420   -0.07420    8.84050    0.18670   48.96690   48.96690   16.67650   19.88550   16.67650    8.84050   17.44930   92.24520   17.44930    0.15000    0.15000    2.83020 -235.12350  -76.23630   92.24520
 6750.00000    8.14570    7.83220    8.14570    -999.25  171.59430    0.03090    2.74180   -0.01860   -0.01860    5.82770    0.03090   55.66060   55.66060   74.05790   73.65860   74.05790    5.82770    7.21610   10.10580    7.21610    0.14360    0.14360    2.74950 -192.60530  -32.90560   10.10580
 6800.00000    7.79540    7.65570    7.79540    -999.25   62.82840    0.10300    2.81930   -0.06390   -0.06390   15.96470    0.10300   53.46970   53.46970   72.70930   75.39690   72.70930   15.96470   22.36530   24.60570   22.36530    0.11070    0.11070    2.82020 -204.55030  -44.04220   24.60570
 6850.00000    8.06330    7.90030    8.06330    -999.25   82.62480    0.08050    2.83840   -0.07510   -0.07510   12.10290    0.08050   53.59310   53.59310   37.89980   47.45990   37.89980   12.10290   15.47340   19.67810   15.47340    0.11580    0.11580    2.82360 -174.63860  -13.89090   19.67810
 6900.00000    7.89210    7.68490    7.89210    -999.25    8.78670    0.05370    2.78850   -0.04590   -0.04590  113.90360    0.05370   51.28330   51.28330   22.00840   22.43590   22.00840  113.90360  711.83150  119.67840  711.83150    0.03310    0.03310    2.77180 -196.63170  -42.25220  119.67840
 6950.00000    7.58550    7.48220    7.58550    -999.25    7.96120    0.10620    2.84870   -0.08110   -0.08110  125.60950    0.10620   50.53610   50.53610   22.74610   24.26220   22.74610  125.60950 1521.47080  250.49360 1521.47080    0.01290    0.01290    2.84000 -186.62760  -38.68030  250.49360
 7000.00000    7.46000    7.29410    7.46000    -999.25   12.93710    0.10700    2.87010   -0.09360   -0.09360   77.29690    0.10700   51.27380   51.27380   27.61060   32.34990   27.61060   77.29690  387.89580  107.06680  387.89580    0.02890    0.02890    2.86640 -191.27000  -49.72290  107.06680
 7050.00000    7.59760    7.31110    7.59760    -999.25   14.30160    0.07610    2.84320   -0.07790   -0.07790   69.92610    0.07610   51.25690   51.25690   23.28070   24.75060   23.28070   69.92610  205.70450   84.45110  205.70450    0.02390    0.02390    2.83590 -190.06400  -54.88510   84.45110
 7100.00000    7.59600    7.36420    7.59600    -999.25   20.79250    0.08620    2.81160   -0.05940   -0.05940   48.09420    0.08620   51.60000   51.60000   21.01280   22.77760   21.01280   48.09420   90.94240   72.77000   90.94240    0.02310    0.02310    2.81500 -196.07950  -67.33280   72.77000
 7150.00000    7.56770    7.34890    7.56770    -999.25   18.29550    0.05800    2.76640   -0.03300   -0.03300   54.66070    0.05800   51.60440   51.60440   29.18380   34.09210   29.18380   54.66070  107.00410   81.25040  107.00410    0.02620    0.02620    2.76480 -169.97020  -47.59170   81.25040
 7200.00000    7.84010    7.85840    7.84010    -999.25    8.96630    0.09110    2.82850   -0.06930   -0.06930  111.52920    0.09110   52.25950   52.25950   47.17240   47.84240   47.17240  111.52920  599.74910  128.25520  599.74910    0.04200    0.04200    2.81880 -156.41670  -40.47040  128.25520
 7250.00000    8.22040    8.07800    8.22040    -999.25   21.12620    0.03950    2.66880    0.02410    0.02410   47.33450    0.03950   60.00190   60.00190  183.23870  182.36770  183.23870   47.33450   55.01580   50.09880   55.01580    0.18550    0.18550    2.66410 -156.76470  -41.64680   50.09880
 7300.00000    8.03760    7.86960    8.03760    -999.25    0.77640    0.10930    2.78830   -0.04580   -0.04580 1288.22320    0.10930   50.85480   50.85480   11.94190   14.35830   11.94190 1288.22320 1732.89610 1846.28250 1732.89610    0.01580    0.01580    2.79840 -182.68390  -64.53750 1846.28250
 7350.00000    9.00080    8.02440    9.00080    -999.25    1.45600    0.08020    2.78920   -0.04630   -0.04630  686.82810    0.08020   49.62950   49.62950   13.56080   16.40270   13.56080  686.82810 1802.58450  333.49450 1802.58450    0.00380    0.00380    2.78260 -194.42060  -73.21540  333.49450
 7400.00000    7.91550    7.40920    7.91550    -999.25    1.65760    0.07500    2.84340   -0.07800   -0.07800  606.25030    0.07500   49.76930   49.76930   16.60130   18.26940   16.60130  606.25030 1720.68200  372.92360 1720.68200    0.00550    0.00550    2.84100 -165.59750  -41.36390  372.92360
 7450.00000    9.35430    7.63320    9.35430    -999.25    0.77740    0.22940    2.80200   -0.05380   -0.05380 1286.39420    0.22940   49.95170   49.95170   11.27310   14.67610   11.27310 1286.39420 2017.63440  710.59490 2017.63440    0.00390    0.00390    2.78550 -190.95600  -63.66350  710.59490
 7500.00000    7.82100    7.40540    7.82100    -999.25    3.31460    0.05650    2.79460   -0.04950   -0.04950  301.69670    0.05650   49.51060   49.51060   10.26670   13.99220   10.26670  301.69670 1580.01620  204.92130 1580.01620    0.00550    0.00550    2.78610 -220.03930  -89.70310  204.92130
 7550.00000    8.08520    7.38690    8.08520    -999.25    0.55680    0.19820    2.85020   -0.08200   -0.08200 1796.09900    0.19820   50.21010   50.21010   10.18280   12.45690   10.18280 1796.09900 1914.73740 1652.77170 1914.73740    0.00170    0.00170    2.83150 -178.52280  -45.15820 1652.77170
