~Version ---------------------------------------------------
VERS.      2.0 : CWLS log ASCII Standard -VERSION 2.0
WRAP.       NO : One line per depth step
CREA. 09/23/14 : LAS Creation Date
~Well ------------------------------------------------------
STRT.M                           500.0 : START DEPTH
STOP.M                          4800.0 : STOP DEPTH
STEP.M                        50.00000 : STEP LENGTH
NULL.                          -999.25 : NULL VALUE
COMP. AMOCO CANADA PETROLEUM CO., LTD. : COMPANY
WELL.      AMOCO BLACKSTONE 3-12-45-17 : WELL
FLD .                                  : FIELD
LOC .                                  : LOCATION
CTRY.                           CANADA : COUNTRY
SRVC.           Schlumberger of Canada : SERVICE COMPANY
DATE.                      19-Sep-1980 : LOGDATE
PROV.                          Alberta : PROVINCE
UWI .                 100031204517W500 : UNIQUE WELL ID
SLAT.WGS84                    52.86072 : SURFACE LATITUDE
SLON.WGS84                    -116.338 : SURFACE LONGITUDE
~Curve Information -----------------------------------------
DEPT    .M      : DEPTH METER
CALDED  .MM     : CALIPER FROM DENSITY LOG [ADJ. TO DIL LOG]
CALRED  .MM     : CALIPER FROM DLL LOG
CALSED  .MM     : CALIPER FROM SONIC LOG
CALWS   .MM     : CALIPER [CALSED SPL. TO CALRED @ 4812.5 M]
CONDWS  .MMHO   : CONDUCTIVITY [1000/DRESWS]
DCORWS  .KG/M3  : DENSITY  CORRECTION [DRHOED]
DENWS   .KG/M3  : FORMATION BULK DENSITY [CALC. FROM DPOLSWS, M=2710, F=1000]
DPHILSED.V/V    : DENSITY POROSITY LIMESTONE [M=2710, F=1000] FROM DENSITY LOG [ADJ. TO DIL LOG]
DPHISSED.V/V    : DENSITY POROSITY SANDSTONE [M=2650, F=1000] FROM DENSITY LOG [ADJ. TO DPHILSED/DIL LOG]
DPOLSWS .V/V    : DENSITY POROSITY LIMESTONE [DPHISSSED CONVERTED TO LIMESTONE MATRIX , M=2710, F=1000, SPL. TO DPHILSED @ 3731.7 M]
DRESWS  .OHMM   : DEEP RESISTIVITY [ILDED]
DRHOED  .KG/M3  : DENSITY CORRECTION FROM DENSITY LOG [ADJ. TO DPHISSED/DPHILSED/DIL LOG]
DTED    .US/M   : DELTA TIME FROM SONIC LOG
DTWS    .US/M   : COMPRESSIONAL SONIC [DTED]
GRDED   .GAPI   : GAMMA RAY FROM DENSITY LOG [ADJ. TO DIL LOG]
GRRED   .GAPI   : GAMMA RAY FROM DLL LOG
GRSED   .GAPI   : GAMMA RAY FROM SONIC LOG
GRWS    .GAPI   : GAMMA RAY [GRSED SPL. TO GRRED @ 4811.2 M]
ILDED   .OHMM   : DEEP INDUCTION LOG RESISTIVITY FROM DIL LOG
ILMED   .OHMM   : MEDIUM  INDUCTION LOG RESISTIVITY FROM DIL LOG
LLDED   .OHMM   : DEEP LATEROLOG RESISTIVITY FROM DLL LOG
LLSED   .OHMM   : SHALLOW LATEROLOG RESISTIVITY FROM DLL LOG
MRESWS  .OHMM   : MEDIUM RESISTIVITY [ILMED]
MSFLED  .OHMM   : MICROSPHERICALLY FOCUSED LOG RESISTIVITY FROM DLL LOG
NPHILSED.V/V    : NEUTRON POROSITY LIMESTONE FROM DENSITY LOG [ADJ. TO DIL LOG]
NPHISSED.V/V    : NEUTRON POROSITY SANDSTONE FROM DENSITY LOG [ADJ. TO DPHILSED/DIL LOG]
NPOLSWS .V/V    : NEUTRON POROSITY LIMESTONE [NPHISSED MATRIX CONVERSION FOR LIMESTONE, SPL. TO NPHILSED @ 3733 M]
RHOBED  .KG/M3  : BULK DENSITY FROM DENSITY LOG [ADJ. TO DPHISSED/DPHILSED/DIL LOG]
SFLED   .OHMM   : SHALLOW FOCUSED LOG RESISTIVITY FROM DIL LOG
SPRED   .MV     : SPONTANEOUS POTENTIAL FROM DIL LOG
SPWS    .MV     : SPONTANEOUS POTENTIAL [BASELINE  0 MV, SPRED]
SRESWS  .OHMM   : SHALLOW RESISTIVITY [SFLED]
~Params ----------------------------------------------------
PD  .                         GL : PERMANENT DATUM
EPD .M                    1169.9 : ELEVATION PERMANENT DATUM
LMF .                         KB : LOG MEASURED FROM
DAPD.M                       8.3 : FEET ABOVE PERMANENT DATUM
DMF .                         KB : DRILLING MEASURED FROM
EKB .M                    1178.2 : KELLY BUSHING
EGL .M                    1169.9 : GROUND LEVEL
DATE.                   09/19/80 : RUN DATE
RUN .                          2 : RUN NUMBER
DD  .M                      4833 : DEPTH DRILLER
DL  .M                      4829 : DEPTH LOGGER
BLI .M                      4828 : BOTTOM LOG INTERVAL
TLI .M                      2931 : TOP LOG INTERVAL
CS  .MM                      244 : CASING SIZE
CBD .M                      2934 : CASING BOTTOM DRILLER
CBL .M                      2931 : CASING BOTTOM LOGGER
BS  .MM                      216 : BIT SIZE
BSD .M                      4833 : BIT SIZE AT DEPTH
DFT .                   GEL CHEM : DRILLING FLUID TYPE
DFD .                       1115 : DRILLING FLUID DENSITY
DFV .                         70 : DRILLING FLUID VISCOSITY
DFPH.                       10.5 : DRILLING FLUID PH
DFL .                          6 : DRILLING FLUID LOSS
MSS .                CIRCULATION : MUD SAMPLE SOURCE
RMF .OHMM                   1.16 : RESISTIVITY MUD FILTRATE SAMPLE
MFST.DEGC                   14.4 : MUD FILTRATE SAMPLE TEMPERATURE
RMC .OHMM                   1.96 : RESISTIVITY MUD CAKE
MCST.DEGC                     10 : MUD CAKE SAMPLE TEMPERATURE
MFSS.                     FILTER : MUD FILTRATE SAMPLE SOURCE
MCSS.                      PRESS : MUD CAKE SAMPLE SOURCE
RMB .OHMM                   0.34 : RESISTIVITY MUD AT BHT
TCS .HRS                     245 : TIME CIRCULATED STOPPED
TLAB.HRS                     115 : TIME LOGGER AT BOTTOM
LUN .                       8125 : LOGGING UNIT NUMBER
LUL .                         RD : LOGGING UNIT LOCATION
ENGI.                   GONNASON : RECORDING ENGINEER
WITN.                     NEWELL : WITNESSED BY
CLNT.                    A2DTECH : CLIENT CODE
ORIG. 6.5"/100M 16.5"/100M PRINT : ORIGIN OF DATA
UWI .           100031204517W500 : UNIQUE WELL ID
DICO.     A2D Technologies, Inc. : DIGITIZING COMPANY
~Other -----------------------------------------------------
DIL-DLL-BHC RUN IN COMBO & FDC-CNL-LOG RUN
RHOB AND DRHO CURVES DATA VERIFY FROM SMALL SECTION
~ASCII -----------------------------------------------------
# ...
 1600.00000  393.09940    -999.25  322.38750  322.38750   75.63100   40.83630 1692.83500    -999.25    0.58010    0.59480   13.22210   40.83630  297.84960  297.84960   83.07170    -999.25   71.37670   71.37670   13.22210   11.68830    -999.25    -999.25   11.68830    -999.25    -999.25    0.33300    0.28920 1693.22440   16.12110 -142.46960   -7.07600   16.12110
 1650.00000  417.78780    -999.25  329.86610  329.86610   79.18030  110.00990 1980.43000    -999.25    0.40580    0.42660   12.62940  110.00990  250.87020  250.87020   85.04580    -999.25   81.66730   81.66730   12.62940   11.97380    -999.25    -999.25   11.97380    -999.25    -999.25    0.38160    0.33840 1994.35470   13.31490 -137.94610   -2.44810   13.31490
 1700.00000  400.02410    -999.25  333.07610  333.07610  121.16070    8.96640 1793.15500    -999.25    0.51930    0.53620    8.25350    8.96640  270.44360  270.44360   85.11260    -999.25   78.93430   78.93430    8.25350    7.89650    -999.25    -999.25    7.89650    -999.25    -999.25    0.30790    0.26390 1799.06180    7.45000 -139.42150   -3.81910    7.45000
 1750.00000  422.98580    -999.25  330.56930  330.56930  115.81710  -23.82270 1565.12500    -999.25    0.65750    0.66950    8.63430  -23.82270  278.29960  278.29960   77.29050    -999.25   75.84730   75.84730    8.63430    8.11650    -999.25    -999.25    8.11650    -999.25    -999.25    0.44740    0.40560 1569.57060    7.88630 -138.35360   -2.64690    7.88630
 1800.00000  420.05490    -999.25  338.02980  338.02980  110.45330   46.84700 1814.44000    -999.25    0.50640    0.52370    9.05360   46.84700  267.93700  267.93700   84.02820    -999.25   76.98800   76.98800    9.05360    7.73230    -999.25    -999.25    7.73230    -999.25    -999.25    0.43520    0.39310 1804.24000    9.40930 -139.73540   -3.92430    9.40930
 1850.00000  425.17460    -999.25  342.41030  342.41030  123.41570   23.24860 1634.92000    -999.25    0.61520    0.62870    8.10270   23.24860  331.42940  331.42940   75.58100    -999.25   78.52470   78.52470    8.10270    7.34430    -999.25    -999.25    7.34430    -999.25    -999.25    0.44040    0.39850 1671.86990    6.33150 -142.97760   -7.06210    6.33150
 1900.00000  425.50560    -999.25  334.89960  334.89960  112.69510   -7.02830 1567.93000    -999.25    0.65580    0.66790    8.87350   -7.02830  267.37190  267.37190   84.25580    -999.25   70.10230   70.10230    8.87350    7.91650    -999.25    -999.25    7.91650    -999.25    -999.25    0.36000    0.31650 1569.46610    7.13600 -143.01390   -6.99410    7.13600
 1950.00000  389.85080    -999.25  334.03800  334.03800   75.85240   64.46130 1900.73500    -999.25    0.45410    0.47330   13.18350   64.46130  243.45230  243.45230   68.43780    -999.25   57.53790   57.53790   13.18350   11.47380    -999.25    -999.25   11.47380    -999.25    -999.25    0.25640    0.21250 1901.77950   10.06880 -145.01570   -8.89150   10.06880
 2000.00000  425.26150    -999.25  358.44840  358.44840   74.02250  -80.37350 1356.73000    -999.25    0.78380    0.79140   13.50940  -80.37350  270.10060  270.10060   71.99780    -999.25   57.76430   57.76430   13.50940   12.13340    -999.25    -999.25   12.13340    -999.25    -999.25    0.42050    0.37810 1326.24070   11.34660 -144.89850   -8.66990   11.34660
 2050.00000  408.68590    -999.25  322.08080  322.08080   27.08030   71.65390 2277.92500    -999.25    0.22550    0.25270   36.92720   71.65390  236.37640  236.37640   40.64770    -999.25   33.87670   33.87670   36.92720   35.84630    -999.25    -999.25   35.84630    -999.25    -999.25    0.17290    0.12990 2279.57840   38.96230 -153.56950  -17.23660   38.96230
 2100.00000  425.24640    -999.25  358.97360  358.97360   64.96500  -82.41650 1387.09000    -999.25    0.76540    0.77360   15.39290  -82.41650  259.33270  259.33270   67.08730    -999.25   58.73940   58.73940   15.39290   13.83130    -999.25    -999.25   13.83130    -999.25    -999.25    0.44750    0.40570 1336.64450   12.55980 -138.57820   -2.14090   12.55980
 2150.00000  425.28990    -999.25  342.03290  342.03290   78.91540  -81.15890 1333.30000    -999.25    0.79800    0.80510   12.67180  -81.15890  257.07810  257.07810   58.45460    -999.25   53.89080   53.89080   12.67180    9.48800    -999.25    -999.25    9.48800    -999.25    -999.25    0.48530    0.44490 1337.08740    9.91090 -143.03250   -6.49080    9.91090
 2200.00000  425.27000    -999.25  371.13930  371.13930   90.09330  -27.08370 1510.67500    -999.25    0.69050    0.70140   11.09960  -27.08370  366.33860  366.33860   50.31700    -999.25   47.21620   47.21620   11.09960    8.30190    -999.25    -999.25    8.30190    -999.25    -999.25    0.61450    0.58150 1601.81840    8.16270 -143.71880   -7.07280    8.16270
 2250.00000  425.22650    -999.25  370.98250  370.98250   90.01060 -137.55670 1224.07000    -999.25    0.86420    0.86900   11.10980 -137.55670  252.61770  252.61770   43.09970    -999.25   45.83180   45.83180   11.10980    7.89410    -999.25    -999.25    7.89410    -999.25    -999.25    0.54350    0.50600 1223.72190   10.45460 -143.81490   -7.06450   10.45460
 2300.00000  426.15290    -999.25  329.84300  329.84300   57.70640  -93.80870 1346.00500    -999.25    0.79030    0.79770   17.32910  -93.80870  229.40990  229.40990   55.45660    -999.25   47.66300   47.66300   17.32910   13.71940    -999.25    -999.25   13.71940    -999.25    -999.25    0.36630    0.32290 1353.56150   16.40730 -142.12350   -5.23960   16.40730
 2350.00000  425.81940    -999.25  374.25320  374.25320   61.81200  -66.81650 1380.49000    -999.25    0.76940    0.77750   16.17810  -66.81650  267.04740  267.04740   56.86650    -999.25   46.44030   46.44030   16.17810   11.37470    -999.25    -999.25   11.37470    -999.25    -999.25    0.50720    0.46770 1381.32470   11.90850 -139.59960   -2.39080   11.90850
 2400.00000  425.37270    -999.25  338.48390  338.48390   29.82230  -50.87930 1448.96500    -999.25    0.72790    0.73740   33.53190  -50.87930  229.70890  229.70890   57.18180    -999.25   52.87710   52.87710   33.53190   20.51680    -999.25    -999.25   20.51680    -999.25    -999.25    0.31730    0.27340 1438.21920   28.33270 -141.49630   -3.96260   28.33270
 2450.00000  311.22570    -999.25  321.28770  321.28770   53.29130   -0.01090 2578.22500    -999.25    0.04350    0.07710   18.76480   -0.01090  240.91460  240.91460   87.56880    -999.25   78.83210   78.83210   18.76480   17.33760    -999.25    -999.25   17.33760    -999.25    -999.25    0.28020    0.23620 2581.49270   20.10080 -139.25580   -1.39710   20.10080
 2500.00000  314.68070    -999.25  332.24960  332.24960   56.09190   13.08820 2615.51500    -999.25    0.02090    0.05530   17.82790   13.08820  227.01970  227.01970   84.67600    -999.25   72.39700   72.39700   17.82790   16.77720    -999.25    -999.25   16.77720    -999.25    -999.25    0.24840    0.20450 2623.29930   18.42050 -141.55970   -3.37610   18.42050
 2550.00000  311.79920    -999.25  328.72910  328.72910   73.86230    8.96460 2584.00000    -999.25    0.04000    0.07370   13.53870    8.96460  254.61620  254.61620  111.50920    -999.25   90.17280   90.17280   13.53870   13.10200    -999.25    -999.25   13.10200    -999.25    -999.25    0.29840    0.25440 2592.42920   15.75670 -141.47450   -2.96600   15.75670
 2600.00000  306.27410    -999.25  322.68710  322.68710   55.74100   -2.13630 2587.30000    -999.25    0.03800    0.07180   17.94010   -2.13630  255.26590  255.26590  104.73380    -999.25   85.17990   85.17990   17.94010   17.41940    -999.25    -999.25   17.41940    -999.25    -999.25    0.29310    0.24910 2588.08330   22.86970 -140.72290   -1.88950   22.86970
 2650.00000  310.78690    -999.25  303.47610  303.47610  117.47020   22.09850 2588.95000    -999.25    0.03700    0.07080    8.51280   22.09850  265.15870  265.15870  106.13360    -999.25   88.65770   88.65770    8.51280    8.65040    -999.25    -999.25    8.65040    -999.25    -999.25    0.30710    0.26310 2580.54810   10.00140 -143.62330   -4.54560   10.00140
