~Version ---------------------------------------------------
VERS.      2.0 : CWLS log ASCII Standard -VERSION 2.0
WRAP.       NO : One line per depth step
CREA. 08/29/13 : LAS Creation Date
~Well ------------------------------------------------------
STRT.M                            300.0 : START DEPTH
STOP.M                           3900.0 : STOP DEPTH
STEP.M                         50.00000 : STEP LENGTH
NULL.                           -999.25 : NULL VALUE
COMP.  CHEVRON CANADA RESOURCES LIMITED : COMPANY
WELL. CHEVRON SHELL SIMONETTE 2-3-64-26 : WELL
FLD .                                   : FIELD
LOC .                                   : LOCATION
CTRY.                            CANADA : COUNTRY
SRVC.                      Schlumberger : SERVICE COMPANY
DATE.                       03-Oct-1995 : LOGDATE
PROV.                           Alberta : PROVINCE
UWI .                  100163406326W500 : UNIQUE WELL ID
SLAT.WGS84                     54.49935 : SURFACE LATITUDE
SLON.WGS84                    -117.8368 : SURFACE LONGITUDE
~Curve Information -----------------------------------------
DEPT    .M      : DEPTH METER
CAL2ED  .MM     : CALIPER 2 FROM DENSITY LOG [ADJ. TO RESISTIVITY LOG]
CALDED  .MM     : CALIPER FROM DENSITY LOG [ADJ. TO RESISTIVITY LOG]
CALWS   .MM     : CALIPER [CALDED]
CONDWS  .MMHO   : CONDUCTIVITY [1000/DRESWS]
DCORWS  .KG/M3  : DENSITY CORRECTION [DRHOED]
DENWS   .KG/M3  : FORMATION BULK DENSITY [CALC FROM DPOLSWS, M=2710,F=1000]
DPHILSED.V/V    : DENSITY POROSITY LIMESTONE [M=2710,F=1000] FROM DENSITY LOG [ADJ. TO RESISTIVITY LOG]
DPHISSED.V/V    : DENSITY POROSITY SANDSTONE [M=2650,F=1000] FROM DENSITY LOG [ADJ. TO RESISTIVITY LOG]
DPOLSWS .V/V    : DENSITY POROSITY LIMESTONE [DPHISSED CONVERTED TO LIMESTONE MATRIX, M=2710,F=1000, SPL TO DPHILSED @ 2366.7M]
DRESWS  .OHMM   : DEEP RESISTIVITY [IDPHED]
DRHOED  .KG/M3  : DENSITY CORRECTION FROM DENSITY LOG [ADJ. TO RESISTIVITY LOG]
DTED    .US/M   : DELTA TIME FROM SONIC LOG
DTWS    .US/M   : COMPRESSIONAL  SONIC [DTED]
GRDED   .GAPI   : GAMMA RAY FROM DENSITY LOG [ADJ. TO RESISTIVITY LOG]
GRSED   .GAPI   : GAMMA RAY FROM SONIC LOG
GRWS    .GAPI   : GAMMA RAY [GRSED SPL TO GRDED @3890M]
HDED    .MM     : HOLE DIAMETER FROM SONIC LOG
IDPHED  .OHMM   : DEEP INDUCTION PHASE RESISTIVITY FROM RESISTIVITY LOG
IMPHED  .OHMM   : MEDIUM INDUCTION PHASE RESISTIVITY FROM RESISTIVITY LOG
MRESWS  .OHMM   : MEDIUM RESISTIVITY [IMPHED]
NPOLSWS .V/V    : NEUTRON POROSITY LIMESTONE [NPORSSED MATRIX CONVERSION FOR LIMESTONE, SPL. TO NPORLSED @2366.7M]
NPORLSED.V/V    : NEUTRON POROSITY LIMESTONE FROM DENSITY LOG [ADJ. TO RESISTIVITY LOG]
NPORSSED.V/V    : NEUTRON POROSITY SANDSTONE FROM DENSITY LOG [ADJ. TO RESISTIVITY LOG]
PEFED   .B/E    : PHOTOELECTRIC FACTOR FROM DENSITY LOG [ADJ. TO RESISTIVITY LOG]
PEFWS   .B/E    : PHOTOLELECTRIC FACTOR [PEFED]
RHOBED  .KG/M3  : BULK DENSITY FROM DENSITY LOG [ADJ. TO RESISTIVITY LOG]
SFLUED  .OHMM   : SPHERICALLY FOCUSED RESISTIVITY FROM RESISTIVITY LOG
SPRED   .MV     : SPONTANEOUS POTENTIAL FROM RESISTIVITY LOG
SPWS    .MV     : SPONTANEOUS POTENTIAL [BASELINE 0 MV, SPRED]
SRESWS  .OHMM   : SHALLOW RESISTIVITY [SFLUED]
TENDED  .N      : TENSION FROM DENSITY LOG [ADJ. TO RESISTIVITY LOG]
TENRED  .N      : TENSION FROM RESISTIVITY LOG
~Params ----------------------------------------------------
PD  .                         GL : PERMANENT DATUM
EPD .M                    814.11 : ELEVATION PERMANENT DATUM
LMF .                         KB : LOG MEASURED FROM
DAPD.M                       6.9 : FEET ABOVE PERMANENT DATUM
DMF .                         KB : DRILLING MEASURED FROM
EKB .M                    920.96 : KELLY BUSHING
EDF .M                    920.66 : DRILLING FLOOR
EGL .M                    914.11 : GROUND LEVEL
DATE.                   10/03/95 : RUN DATE
RUN .                          1 : RUN NUMBER
DD  .M                      3912 : DEPTH DRILLER
DL  .M                      3914 : DEPTH LOGGER
BLI .M                    3912.1 : BOTTOM LOG INTERVAL
TLI .M                     457.5 : TOP LOG INTERVAL
CS  .MM                    244.5 : CASING SIZE
CBD .M                     457.5 : CASING BOTTOM DRILLER
CBL .M                     457.5 : CASING BOTTOM LOGGER
BS  .MM                      222 : BIT SIZE
BSD .M                      3912 : BIT SIZE AT DEPTH
DFT .                GEL POLYMER : DRILLING FLUID TYPE
DFD .                       1190 : DRILLING FLUID DENSITY
DFV .                         73 : DRILLING FLUID VISCOSITY
DFPH.                       10.5 : DRILLING FLUID PH
DFL .                          6 : DRILLING FLUID LOSS
MSS .                   FLOWLINE : MUD SAMPLE SOURCE
RMS .OHMM                   1.54 : RESISTIVITY MUD SAMPLE
MST .DEGC                     13 : MUD SAMPLE TEMPERATURE
RMF .OHMM                   1.83 : RESISTIVITY MUD FILTRATE SAMPLE
MFST.DEGC                     16 : MUD FILTRATE SAMPLE TEMPERATURE
RMC .OHMM                   2.08 : RESISTIVITY MUD CAKE
MCST.DEGC                     16 : MUD CAKE SAMPLE TEMPERATURE
MFSS.                   MEASURED : MUD FILTRATE SAMPLE SOURCE
MCSS.                   MEASURED : MUD CAKE SAMPLE SOURCE
RMB .OHMM                  0.487 : RESISTIVITY MUD AT BHT
TLAB.HRS                    1200 : TIME LOGGER AT BOTTOM
LUN .                       8381 : LOGGING UNIT NUMBER
LUL .              GRANDE PRAIRE : LOGGING UNIT LOCATION
ENGI.                     FENSKY : RECORDING ENGINEER
WITN.                       LANG : WITNESSED BY
CLNT.                    A2DTECH : CLIENT CODE
ORIG. 6.5"/100M 16.5"/100M PRINT : ORIGIN OF DATA
UWI .           100163406326W500 : UNIQUE WELL ID
DICO.     A2D Technologies, Inc. : DIGITIZING COMPANY
~Other -----------------------------------------------------
PI-SFL-BCS LOG RAN IN COMBO & CNL-LDT LOG RAN
RHOB FROM SMALL SCALE SECTION
NEUTRON MATRIX CONVERSION USING SCHLUMBERGER CHART
~ASCII -----------------------------------------------------
# ...
 1400.00000  279.61240  288.66640  288.66640   95.09410    -999.25    -999.25    -999.25    -999.25    -999.25   10.51590    -999.25  267.93540  267.93540   99.02000   85.98990   85.98990  289.86500   10.51590   10.00640   10.00640    -999.25    -999.25    -999.25    -999.25    -999.25    -999.25   10.42920   -5.11990  -12.59990   10.42920 12157.48340 10594.18460
 1450.00000  233.08430  221.73570  221.73570   42.93850    -999.25    -999.25    -999.25    -999.25    -999.25   23.28910    -999.25  232.46600  232.46600   22.00820   20.43680   20.43680  230.31630   23.28910   21.14080   21.14080    -999.25    -999.25    -999.25    -999.25    -999.25    -999.25   19.82660  -29.85450  -41.61050   19.82660 12737.14650 10808.95610
 1500.00000  265.91780  284.65070  284.65070   75.50080    -999.25    -999.25    -999.25    -999.25    -999.25   13.24490    -999.25  254.37390  254.37390   92.39520   89.11220   89.11220  284.39670   13.24490   12.51710   12.51710    -999.25    -999.25    -999.25    -999.25    -999.25    -999.25   12.25330   11.25160   -4.78040   12.25330 13043.55270 11320.18850
 1550.00000  271.62360  273.06720  273.06720   98.87970    -999.25    -999.25    -999.25    -999.25    -999.25   10.11330    -999.25  286.95240  286.95240  108.90790  109.07950  109.07950  273.87520   10.11330    9.03570    9.03570    -999.25    -999.25    -999.25    -999.25    -999.25    -999.25   10.06330   20.07660   -0.23150   10.06330 12117.82420 11319.58110
 1600.00000  243.31520  269.64500  269.64500   80.51920    -999.25    -999.25    -999.25    -999.25    -999.25   12.41940    -999.25  285.51740  285.51740  100.95570  100.45760  100.45760  248.14890   12.41940   11.96710   11.96710    -999.25    -999.25    -999.25    -999.25    -999.25    -999.25   12.65620   13.31510  -10.02070   12.65620 14031.60940 11835.96480
 1650.00000  245.13230  244.00030  244.00030   37.15550    -999.25    -999.25    -999.25    -999.25    -999.25   26.91390    -999.25  276.96360  276.96360   93.68850   94.79550   94.79550  238.19880   26.91390   31.02640   31.02640    -999.25    -999.25    -999.25    -999.25    -999.25    -999.25   54.33610    6.48950  -17.31670   54.33610 14245.45900 12437.78520
 1700.00000  232.97000  284.01200  284.01200   93.84910    -999.25    -999.25    -999.25    -999.25    -999.25   10.65540    -999.25  328.88750  328.88750  118.19990  115.60030  115.60030  261.63700   10.65540    9.83070    9.83070    -999.25    -999.25    -999.25    -999.25    -999.25    -999.25   12.09880    0.08040  -24.19610   12.09880 14501.51660 12552.13960
 1750.00000  236.05970  297.76100  297.76100   76.64190  133.70000 2289.31000    -999.25    0.21860    0.24600   13.04770  133.70000  249.05640  249.05640   99.58880   99.09000   99.09000  264.30630   13.04770   11.29040   11.29040    0.20630    -999.25    0.25020    2.99730    2.99730 2292.50420   10.28720    3.35060  -21.39630   10.28720 14630.82130 12725.04880
 1800.00000  277.53550  252.79050  252.79050  130.50740  109.10000 2461.07500    -999.25    0.11450    0.14560    7.66240  109.10000  276.47900  276.47900   90.32510   90.97240   90.97240  258.28010    7.66240    8.63450    8.63450    0.26790    -999.25    0.31180    2.73030    2.73030 2439.45680    8.88610   15.22340   -6.43970    8.88610 14611.54690 12913.81740
 1850.00000  251.49310  274.19720  274.19720  111.60960   47.60000 2535.98500    -999.25    0.06910    0.10180    8.95980   47.60000  260.73870  260.73870   95.94640   94.57390   94.57390  266.66120    8.95980    8.59820    8.59820    0.26680    -999.25    0.31070    2.95750    2.95750 2530.73880    8.87870   10.96770   -5.56460    8.87870 14902.11620 13006.61910
 1900.00000  263.30220  317.96820  317.96820  227.14370   73.50000 2186.68000    -999.25    0.28080    0.30600    4.40250   73.50000  279.62700  279.62700   89.57520   84.64080   84.64080  291.03630    4.40250    4.30400    4.30400    0.35940    -999.25    0.40220    2.42300    2.42300 2187.30420    5.72900   17.61180   -3.39310    5.72900 15042.03130 13392.59770
 1950.00000  253.70070  310.26210  310.26210   54.85760  147.60000 2388.47500    -999.25    0.15850    0.18800   18.22900  147.60000  241.26820  241.26820   88.11840   86.62380   86.62380  286.28490   18.22900   17.66080   17.66080    0.17850    -999.25    0.22220    2.51570    2.51570 2394.36080   18.89500    6.12180  -15.35110   18.89500 15215.51070 13117.36430
 2000.00000  289.44240  320.91360  320.91360  107.25930  120.50000 2155.99000    -999.25    0.29940    0.32400    9.32320  120.50000  248.49610  248.49610   82.69350   76.49320   76.49320  296.54820    9.32320    9.99520    9.99520    0.30870    -999.25    0.35230    2.59760    2.59760 2160.13530   12.50790    4.69320  -31.43180   12.50790 15446.27340 12976.31150
 2050.00000  326.30940  390.50070  390.50070  101.52180  105.30000 2106.16000    -999.25    0.32960    0.35310    9.85010  105.30000  253.41870  253.41870   82.10030   68.88850   68.88850  328.09340    9.85010    8.02360    8.02360    0.30310    -999.25    0.34680    2.44750    2.44750 2148.30830    8.04150   -3.82460  -54.60160    8.04150 15916.24220 13448.48540
 2100.00000  279.33070  305.40460  305.40460   33.71560  102.20000 2463.22000    -999.25    0.11320    0.14430   29.65990  102.20000  160.03470  160.03470   69.15690   63.40170   63.40170  300.30590   29.65990   22.60800   22.60800    0.21610    -999.25    0.26010    3.49430    3.49430 2470.21580   36.05910   62.91650   -2.51250   36.05910 16012.72460 13969.91410
 2150.00000  280.71480  330.94930  330.94930   56.18420  152.40000 2371.64500    -999.25    0.16870    0.19790   17.79860  152.40000  241.88920  241.88920   86.60940   73.50280   73.50280  302.69060   17.79860   15.63060   15.63060    0.22110    -999.25    0.26510    2.49250    2.49250 2372.59280   16.28460   87.52730  -13.24230   16.28460 16217.64650 14047.34770
 2200.00000  286.79900  312.92830  312.92830   73.60950   -9.80000 2632.18000    -999.25    0.01080    0.04550   13.58520   -9.80000  224.46490  224.46490   69.65320   63.28170   63.28170  303.16820   13.58520   13.84780   13.84780    0.15720    -999.25    0.20060    3.01980    3.01980 2630.11690   13.32200   96.33710  -16.36510   13.32200 16320.62600 14545.33500
 2250.00000  274.42300  300.00810  300.00810   70.53030  232.40000 2495.23000    -999.25    0.09380    0.12560   14.17830  232.40000  237.34410  237.34410   85.02780   75.50450   75.50450  288.23280   14.17830   13.95500   13.95500    0.22790    -999.25    0.27190    3.17830    3.17830 2496.07540   14.45170   40.08120  -79.09320   14.45170 16940.17380 14627.63870
 2300.00000  263.97840  290.12220  290.12220   37.40890   -0.10000 2539.28500    -999.25    0.06710    0.09980   26.73160   -0.10000  239.95190  239.95190  114.46290  101.79140  101.79140  276.81260   26.73160   28.08490   28.08490    0.17700    -999.25    0.22070    2.76070    2.76070 2520.20020   32.59320   80.95150  -34.27320   32.59320 16878.84380 14903.46000
 2350.00000  248.99860  288.41130  288.41130   27.64630  135.10000 2639.27500    -999.25    0.00650    0.04140   36.17120  135.10000  211.03120  211.03120   78.49120   80.56750   80.56750  261.36330   36.17120  114.41400  114.41400    0.10320    -999.25    0.14570    2.88290    2.88290 2642.19410   65.12150   81.38300  -18.00090   65.12150 16769.40040 14956.50680
 2400.00000  227.20750  229.00220  229.00220   69.34190   16.30000 2481.20200    0.13380    -999.25    0.13380   14.42130   16.30000  210.75310  210.75310   26.16350   22.77340   22.77340  218.62960   14.42130   25.76260   25.76260    0.07810    0.07810    -999.25    2.21340    2.21340 2476.76640   54.18380   36.53120  -63.20980   54.18380 17225.23830 15019.92480
 2450.00000  242.10960  241.31270  241.31270  114.11100   76.50000 2409.49600    0.17570    -999.25    0.17570    8.76340   76.50000  299.32680  299.32680  122.64230  130.49820  130.49820  258.54620    8.76340   13.93170   13.93170    0.33570    0.33570    -999.25    3.38390    3.38390 2425.46630   26.21150   44.97530  -55.12590   26.21150 16973.75980 15168.02640
