~Version ---------------------------------------------------
VERS.      2.0 : CWLS log ASCII Standard -VERSION 2.0
WRAP.       NO : One line per depth step
CREA. 08/22/14 : LAS Creation Date
~Well ------------------------------------------------------
STRT.FT                 1143.82546 : START DEPTH
STOP.FT                11159.82546 : STOP DEPTH
STEP.FT                    0.50000 : STEP LENGTH
NULL.                      -999.25 : NULL VALUE
COMP.            TRIAD OIL CO. LTD : COMPANY
WELL. TRIAD PAN AM ANTE 2-27-66-25 : WELL
FLD .                              : FIELD
LOC .                              : LOCATION
CTRY.                       CANADA : COUNTRY
SRVC.                   Lane Wells : SERVICE COMPANY
DATE.                  15-Aug-1967 : LOGDATE
PROV.                      Alberta : PROVINCE
UWI .             100022706625W500 : UNIQUE WELL ID
SLAT.WGS84                54.73614 : SURFACE LATITUDE
SLON.WGS84                 -117.69 : SURFACE LONGITUDE
~Curve Information -----------------------------------------
DEPT.FT    : DEPTH FEET
CALS.IN    : CALIPER FROM SONIC LOG
DT  .US/F  : DELTA TIME FROM SONIC LOG
GRS .GAPI  : GAMMA RAY FROM SONIC LOG
ILD .OHMM  : INDUCTION LOG DEEP RESISTIVITY
SN  .OHMM  : 16 INCH SHORT NORMAL RESISTIVITY FROM IEL
SPR .MV    : SPONTANEOUS POTENTIAL FROM RESISTIVITY LOG
~Params ----------------------------------------------------
PD  .                     GL : PERMANENT DATUM
EPD .FT               2399.7 : ELEVATION PERMANENT DATUM
LMF .                     KB : LOG MEASURED FROM
DAPD.FT                   15 : FEET ABOVE PERMANENT DATUM
DMF .                     KB : DRILLING MEASURED FROM
EKB .FT               2414.7 : KELLY BUSHING
EGL .FT               2399.7 : GROUND LEVEL
DATE.               08/15/67 : RUN DATE
RUN .                      1 : RUN NUMBER
DD  .FT                11172 : DEPTH DRILLER
DL  .FT                11160 : DEPTH LOGGER
BLI .FT                11156 : BOTTOM LOG INTERVAL
TLI .FT                 1144 : TOP LOG INTERVAL
CS  .IN                9.625 : CASING SIZE
CBD .FT                 1145 : CASING BOTTOM DRILLER
CBL .FT                 1144 : CASING BOTTOM LOGGER
BS  .IN                7.625 : BIT SIZE
BSD .FT                11172 : BIT SIZE AT DEPTH
DFT .                MUD GEL : DRILLING FLUID TYPE
DFD .                    9.9 : DRILLING FLUID DENSITY
DFV .                     89 : DRILLING FLUID VISCOSITY
DFPH.                      9 : DRILLING FLUID PH
DFL .                    7.2 : DRILLING FLUID LOSS
MSS .                   CIRC : MUD SAMPLE SOURCE
RMS .OHMM                3.0 : RESISTIVITY MUD SAMPLE
MST .DEGF                 86 : MUD SAMPLE TEMPERATURE
RMF .OHMM                2.4 : RESISTIVITY MUD FILTRATE SAMPLE
MFST.DEGF                 86 : MUD FILTRATE SAMPLE TEMPERATURE
RMC .OHMM                3.2 : RESISTIVITY MUD CAKE
MCST.DEGF                 86 : MUD CAKE SAMPLE TEMPERATURE
MFSS.                   MEAS : MUD FILTRATE SAMPLE SOURCE
MCSS.                   MEAS : MUD CAKE SAMPLE SOURCE
RMB .OHMM                1.2 : RESISTIVITY MUD AT BHT
TCS .HRS                   6 : TIME CIRCULATED STOPPED
LUN .                   1256 : LOGGING UNIT NUMBER
LUL .                    EDM : LOGGING UNIT LOCATION
ENGI.      KOWALCHUK DOMSTAD : RECORDING ENGINEER
WITN.            DANIELEWICZ : WITNESSED BY
CLNT.                A2DTECH : CLIENT CODE
ORIG.            2" 5" PRINT : ORIGIN OF DATA
UWI .       100022706625W500 : UNIQUE WELL ID
DICO. A2D Technologies, Inc. : DIGITIZING COMPANY
~Other -----------------------------------------------------
~ASCII -----------------------------------------------------
# ...
 10460.82546    9.03300   67.00600   94.97700    7.25600   12.21800  -38.10300
 10461.32546    9.02900   67.10900   94.25210    7.25430   12.28210  -38.20880
 10461.82546    9.01800   67.34400   95.13300    7.24900   12.44100  -38.47400
 10462.32546    8.97640   67.44190   94.97510    7.24680   12.47340  -38.57400
 10462.82546    8.87440   67.52500   94.67200    7.24240   12.39600  -38.81600
 10463.32546    8.82330   67.59980   95.92390    7.24000   12.31740  -38.93820
 10463.82546    8.76690   68.13680   99.02550    7.22320   12.16050  -39.23780
 10464.32546    8.78930   68.48820   98.75670    7.18700   12.08550  -39.52890
 10464.82546    8.86310   69.91750  100.70610    7.09880   11.85940  -40.19320
 10465.32546    8.89950   70.74730  101.73350    7.05510   11.72180  -40.52100
 10465.82546    8.97320   69.28060  102.96310    6.96800   11.44610  -41.17780
 10466.32546    9.00770   69.19310  102.46310    6.92420   11.30760  -41.50830
 10466.82546    9.07190   71.02250   98.27270    6.83700   11.03130  -41.94510
 10467.32546    9.10260   70.60050   97.18930    6.79330   10.87120  -42.02640
 10467.82546    9.17620   69.70280   98.19620    6.70610   10.63160  -42.12210
 10468.32546    9.22410   69.84540   97.87430    6.66250   10.55860  -42.16930
 10468.82546    9.26740   70.04640   95.38090    6.57520   10.40700  -42.26380
 10469.32546    9.24500   70.10000   96.68200    6.48600   10.25200  -42.36000
 10469.82546    9.24750   69.60620   95.61910    6.44360   10.17800  -42.40620
 10470.32546    9.29900   69.16200   93.08900    6.35300   10.11000  -42.50500
 10470.82546    9.33810   69.52140   96.39370    6.31270   10.09440  -42.54830
 10471.32546    9.47300   69.88000  104.30100    6.22000   10.05800  -42.65000
 10471.82546    9.53340   69.67530  103.47080    6.18070   10.04320  -42.69110
 10472.32546    9.70500   69.69300  101.03900    6.13800   10.00600  -42.79400
 10472.82546    9.78410   69.94520  101.38640    6.13800    9.99200  -42.83270
 10473.32546    9.70230   70.56780  101.46980    6.13800    9.95790  -42.92810
 10473.82546    9.54370   70.48280  100.61060    6.13800    9.94080  -42.97600
 10474.32546    9.29470   70.02730  102.11620    6.13800    9.90670  -43.07260
 10474.82546    9.22430   70.09530  102.58290    6.13800    9.88970  -43.10830
 10475.32546    9.09100   70.61830  102.23790    6.13800    9.85550  -42.89680
 10475.82546    9.02320   70.55920  102.05230    6.13800    9.83850  -42.66480
 10476.32546    8.89220   70.60680   98.69390    6.13800    9.80360  -41.89720
 10476.82546    8.83180   71.27300   97.15040    6.13800    9.78630  -41.40710
 10477.32546    8.75540   74.42750   96.69530    6.13800    9.75360  -40.41060
 10477.82546    8.73610   77.05710   97.75580    6.13800    9.76790  -39.91140
 10478.32546    8.75120   86.01950   98.79360    6.13800    9.91920  -38.95300
 10478.82546    8.78280   88.51580   97.99140    6.13800   10.02940  -38.59370
 10479.32546    8.84840   87.81460   97.81900    6.13800   10.24840  -37.97260
 10479.82546    8.91100   86.68700   98.17000    6.13700   10.47200  -36.99200
 10480.32546    8.92800   82.50080   96.76160    6.16160   10.57670  -36.45990
 10480.82546    8.95400   80.02000   92.88200    6.22000   10.65100  -35.32800
 10481.32546    8.96060   85.41580   90.80910    6.24630   10.54930  -34.83760
 10481.82546    8.97800   88.64600   86.24800    6.30900   10.32800  -33.68700
 10482.32546    8.98480   89.53440   84.24770    6.33400   10.39380  -33.82200
 10482.82546    8.99800   90.85700   82.24700    6.39700   10.57600  -34.39100
 10483.32546    8.99750   89.71920   84.20380    6.42110   10.64610  -34.64190
 10483.82546    8.99780   85.81880   89.46300    6.47930   10.81720  -35.13470
 10484.32546    8.99750   84.76910   91.17940    6.50820   10.91010  -34.62440
 10484.82546    8.99050   85.75180   89.77010    6.56590   11.12580  -33.51520
 10485.32546    8.98430   83.14440   90.64300    6.59480   11.24170  -33.71800
 10485.82546    8.97190   74.66110   90.96370    6.65490   11.47070  -34.18440
 10486.32546    8.96470   72.26550   89.37400    6.68620   11.56180  -34.06780
 10486.82546    8.93610   70.70710   86.53080    6.89090   11.58850  -33.52470
 10487.32546    8.90810   70.07550   87.82570    6.93180   11.54670  -32.86800
 10487.82546    8.83760   68.77920   90.74960    6.87960   11.45550  -31.48860
 10488.32546    8.78690   67.97900   90.11640    6.85620   11.40990  -31.32330
 10488.82546    8.65370   67.39210   87.39780    6.81150   11.31870  -31.54450
 10489.32546    8.61340   67.46590   86.62270    6.78890   11.27310  -31.65050
 10489.82546    8.58130   66.88930   88.52820    6.74360   11.18190  -31.86370
 10490.32546    8.54000   66.96000   93.38600    6.69700   11.08900  -32.08000
 10490.82546    8.56010   67.15770   95.33960    6.67570   11.04510  -32.17980
 10491.32546    8.62200   67.36500   99.04000    6.62900   10.95000  -32.42300
 10491.82546    8.65660   67.62660   98.05450    6.60810   10.90830  -32.85680
 10492.32546    8.70700   68.83500   95.25900    6.56000   10.81000  -33.90500
 10492.82546    8.72560   69.28990   96.08140    6.54020   10.77050  -34.33400
 10493.32546    8.77500   69.27800   99.88600    6.49100   10.75200  -34.84100
 10493.82546    8.79420   69.13090  101.55580    6.47290   10.76690  -34.87400
 10494.32546    8.83970   69.32900  105.64160    6.43500   10.80450  -34.95290
 10494.82546    8.86250   69.24560  105.81920    6.42400   10.82350  -34.99210
 10495.32546    8.87840   68.40370  103.45240    6.40480   10.86160  -35.07080
 10495.82546    8.85970   68.45020  101.77560    6.39540   10.88060  -35.11110
 10496.32546    8.87500   68.40160  100.11640    6.37710   10.91870  -35.25660
 10496.82546    8.90910   68.40800  100.65120    6.36740   10.91270  -35.48690
 10497.32546    8.96780   68.83240  100.58110    6.34850   10.86920  -36.07390
 10497.82546    8.97290   69.06120  101.30570    6.33930   10.84530  -36.36370
 10498.32546    8.97200   69.04210  105.12150    6.32020   10.79740  -36.94210
 10498.82546    8.99570   68.99320  105.20290    6.31080   10.77350  -37.23140
 10499.32546    9.07050   69.42650  100.85130    6.29170   10.72560  -37.81030
 10499.82546    9.08660   69.79340   99.09770    6.28220   10.70160  -38.09980
 10500.32546    9.05510   70.36930  100.17970    6.26380   10.65370  -38.67830
 10500.82546    9.04600   70.42500  103.56400    6.24500   10.60400  -39.27100
 10501.32546    9.05040   70.38380  102.58330    6.24750   10.58090  -39.54590
 10501.82546    9.05100   70.64900  102.88300    6.28600   10.52900  -40.15400
 10502.32546    9.03970   70.85590  101.61230    6.30790   10.57940  -40.32120
 10502.82546    9.01100   70.75500   98.43800    6.36000   10.73000  -40.59000
 10503.32546    9.00030   70.73480   98.43800    6.38080   10.79510  -40.67540
 10503.82546    8.98400   71.91600  100.00600    6.43400   10.96200  -40.89300
 10504.32546    8.99510   73.65900  101.55900    6.45360   11.02360  -40.97310
 10504.82546    9.01260   79.15850  101.39320    6.50220   11.17650  -41.17120
 10505.32546    9.00850   79.88010   99.87350    6.52640   11.25280  -41.27030
 10505.82546    8.99330   78.38850   99.97330    6.57500   11.40510  -41.46930
 10506.32546    8.98590   76.26250  101.76970    6.59930   11.48120  -41.56860
 10506.82546    8.97060   74.71740  102.89270    6.64780   11.63340  -41.76820
 10507.32546    8.96410   76.14730  101.13550    6.67210   11.70950  -41.86080
 10507.82546    8.98370   76.92410   98.47900    6.72070   11.86250  -41.78890
 10508.32546    9.00410   76.00250   98.94940    6.72560   11.94050  -41.65450
 10508.82546    9.04210   71.87430  100.84650    6.68820   11.93320  -41.38100
 10509.32546    9.06120   71.20850  100.77620    6.66070   11.84690  -41.24460
 10509.82546    9.09920   74.55350  101.17270    6.60620   11.65130  -40.97360
 10510.32546    9.11820   78.11600  101.70060    6.57870   11.55350  -40.87520
 10510.82546    9.16220   87.00810  100.60690    6.52350   11.35850  -40.98140
 10511.32546    9.21500   89.96000   98.57300    6.46700   11.15800  -41.32300
