~Version ---------------------------------------------------
VERS. 2.0 : CWLS log ASCII Standard -VERSION 2.0
WRAP.  NO : ONE LINE PER DEPTH STEP
~Well ------------------------------------------------------
STRT.F                        1050.0 : START DEPTH
STOP.F                       10150.0 : STOP DEPTH
STEP.F                      50.00000 : STEP LENGTH
NULL.                        -999.25 : NULL VALUE
COMP.           CHEVRON STANDARD LTD : COMPANY
WELL. CHEVRON GULF FOXCK 12-35-61-18 : WELL
FLD .                      FOX CREEK : FIELD
LOC .                                : LOCATION
CTRY.                         CANADA : COUNTRY
SRVC.                   Schlumberger : SERVICE COMPANY
DATE.                    30-Mar-1976 : LOGDATE
PROV.                        Alberta : PROVINCE
UWI .               100123506118W500 : UNIQUE WELL ID
SLAT.WGS84                  54.32239 : SURFACE LATITUDE
SLON.WGS84                 -116.5968 : SURFACE LONGITUDE
~Curve Information -----------------------------------------
DEPT   .F    0   1   0  0 : 1 MEASURED DEPTH
SPR    .MV   07 010 01 00 : SPONTANEOUS POTENTIAL FROM RESISTIVITY LOG
ILD    .OHMM 07 120 46 00 : INDUCTION DEEP RESISTIVITY
ILM    .OHMM 07 120 44 00 : INDUCTION MEDIUM RESISTIVITY
LL8    .OHMM 07 220 08 00 : LATEROLOG 8
CALD   .IN   45 280 60 00 : CALIPER FROM DENSITY LOG
DCOR   .G/C3 45 356 01 00 : DENSITY CORRECTION
GRD    .GAPI 45 310 01 00 : GAMMA RAY FROM DENSITY LOG
TEND   .LB   45 635 00 00 : TENSION FROM DENSITY LOG
RHOB   .G/C3 45 350 01 00 : BULK DENSITY
DPHI_SS.DEC  45 890 12 00 : DENSITY POROSITY SANDSTONE
NPHI_SS.DEC  42 890 03 00 : NEUTRON POROSITY SANDSTONE
DPHI_LS.DEC  45 890 10 00 : DENSITY POROSITY LIMESTONE
NPHI_LS.DEC  42 890 01 00 : NEUTRON POROSITY LIMESTONE
GRS    .GAPI 60 310 01 00 : GAMMA RAY FROM SONIC LOG
TENS   .LB   60 635 00 00 : TENSION FROM SONIC LOG
CALS   .IN   60 280 50 00 : CALIPER FROM SONIC LOG
DT     .US/F 60 500 00 00 : DELTA-T (INTERVAL TRANSIT TIME)
~Params ----------------------------------------------------
PD  .                     GL : PERMANENT DATUM
EPD .FT               2712.6 : ELEVATION PERMANENT DATUM
LMF .                     KB : LOG MEASURED FROM
DAPD.FT                 16.4 : FEET ABOVE PERMANENT DATUM
DMF .                     KB : DRILLING MEASURED FROM
EKB .FT                 2729 : KELLY BUSHING
EDF .FT               2712.6 : DRILLING FLOOR
DATE.               03/30/76 : RUN DATE
RUN .                      1 : RUN NUMBER
DD  .FT                10180 : DEPTH DRILLER
DL  .FT                10178 : DEPTH LOGGER
BLI .FT                10176 : BOTTOM LOG INTERVAL
TLI .FT                 1117 : TOP LOG INTERVAL
CBD .FT                 1117 : CASING BOTTOM DRILLER
CBL .FT              1116.91 : CASING BOTTOM LOGGER
BS  .IN                 8.75 : BIT SIZE
BSD .FT                10180 : BIT SIZE AT DEPTH
DFT .               GEL CHEM : DRILLING FLUID TYPE
DFD .                    9.6 : DRILLING FLUID DENSITY
DFV .                    110 : DRILLING FLUID VISCOSITY
DFPH.                   10.5 : DRILLING FLUID PH
DFL .                      9 : DRILLING FLUID LOSS
RMF .OHMM               1.22 : RESISTIVITY MUD FILTRATE SAMPLE
MFST.DEGF                 68 : MUD FILTRATE SAMPLE TEMPERATURE
TCS .HRS                   3 : TIME CIRCULATED STOPPED
LUN .                   7691 : LOGGING UNIT NUMBER
LUL .                    WCT : LOGGING UNIT LOCATION
ENGI.                 KOVACS : RECORDING ENGINEER
WITN.            WONG MCLEOD : WITNESSED BY
CLNT.                A2DTECH : CLIENT CODE
ORIG.            2" 5" PRINT : ORIGIN OF DATA
UWI .       100123506118W500 : UNIQUE WELL ID
DICO. A2D Technologies, Inc. : DIGITIZING COMPANY
~Other -----------------------------------------------------
~ASCII -----------------------------------------------------
# ...
 7200.00000  -51.49670   13.00790   14.68470   18.37690   11.18670   -0.00470   61.83770 1947.78220    2.61350    -999.25    -999.25    0.06310    0.10620   60.19130    -999.25   10.50740   65.98680
 7250.00000  -66.08960  103.29300  140.52630  213.39300   10.10450    0.00200   15.74850 1857.74020    2.69920    -999.25    -999.25    0.00560    0.00630   17.04280    -999.25   10.43240   51.75160
 7300.00000  -65.21880   56.46360   63.19010  233.81260    9.96810    0.00930   47.21670 2328.25560    2.68160    -999.25    -999.25    0.00770    0.01670   48.77640    -999.25    9.87910   52.63200
 7350.00000  -86.84950  132.17850  121.23760  205.49820   10.99840    0.05240   19.44940 2282.23340    2.61800    -999.25    -999.25    0.06460    0.00790   20.59860  538.42500   10.42860   51.59670
 7400.00000  -78.95320   75.91750   80.21750  112.17770    9.43770    0.01780   34.44260 3359.96170    2.71620    -999.25    -999.25    0.00770    0.02080   36.17980 1170.45690    9.20030   53.07550
 7450.00000  -80.20260  108.40240  126.28770  164.77350    9.38860    0.01690   44.43140 4140.71290    2.70720    -999.25    -999.25   -0.00610    0.01750   37.28530 2027.27010    9.25040   53.23120
 7500.00000  -99.95650  232.05560  325.38250  500.45240    9.44080   -0.00940   27.10500 1590.44170    2.68440    -999.25    -999.25    0.00610    0.00880   22.31040 3023.12940    9.12090   51.71500
 7550.00000  -75.16240  384.03990  768.30020  875.04510    9.47350   -0.00350   51.15490 2190.37060    2.67050    -999.25    -999.25    0.02680    0.02890   45.81160 1190.34940    9.16240   56.38890
 7600.00000  -76.39930   50.28510   56.17970   71.48000    9.73280    0.00100   75.95050 3807.94120    2.68600    -999.25    -999.25    0.00310    0.04950   72.37900 2189.34200    9.48580   57.13290
 7650.00000  -92.93530  197.15350  301.31600 1364.56140   11.99830    0.21160   14.03450 3299.76830    2.56890    -999.25    -999.25    0.02120    0.00280   11.94750 2272.69020    9.69940   51.97680
 7700.00000 -124.40970  491.94330 1156.21440  712.41360   10.65920    0.08230   13.51510 3937.60160    2.57500    -999.25    -999.25    0.13320    0.00290   14.09960  563.25210    9.67470   51.38160
 7750.00000 -132.37030  245.03740  387.74680  363.79310   11.05950    0.22810   21.08390 4205.20310    2.53810    -999.25    -999.25    0.14040    0.00090   18.34160 1405.81650    9.77520   49.29270
 7800.00000 -151.99580  299.17120  557.51930  428.51060   11.19720    0.18760   14.78120 4664.76660    2.56540    -999.25    -999.25    0.11490   -0.00110   12.39810 2234.77610    9.63610   49.59610
 7850.00000 -155.83510  254.84530  414.00230  379.98630   12.57660    0.17270   12.74000 5308.91750    2.37210    -999.25    -999.25    0.25250    0.00410   13.77120 3235.11960    9.42850   49.00220
 7900.00000 -147.19880  199.82410  360.07340  348.58360   12.07300    0.16820   15.37240 5207.09470    2.36850    -999.25    -999.25    0.21450    0.00250   15.43210 3099.80470    9.66350   50.88200
 7950.00000 -155.00340  252.73300  514.71800  428.08900   13.51800    0.13750   12.49000 2150.00810    2.27810    -999.25    -999.25    0.26730    0.00360   11.58500 4206.73490   10.31980   50.30580
 8000.00000 -133.45090  112.16270  184.68660  352.54190   12.57930    0.15390   13.27490 3426.39040    2.38030    -999.25    -999.25    0.23640    0.01230   11.27010 2446.83520    9.66690   51.63820
 8050.00000 -134.56390   70.68630  258.73460  203.68100   13.00850    0.19410   12.90040 3893.33300    2.19770    -999.25    -999.25    0.25890    0.00600   12.24470 2821.57320    9.82460   49.68550
 8100.00000 -149.59170  150.04370  448.28290  400.29680   14.02880    0.20000   15.60770 3827.56840    2.23860    -999.25    -999.25    0.25480    0.01470   12.97830 2947.33940    9.72390   49.65820
 8150.00000 -158.51460  125.87750  346.97670  454.66550   12.93710    0.20990   17.67690 4202.90230    2.25090    -999.25    -999.25    0.28320    0.02040   11.46680 2023.16550    9.84140   51.21130
 8200.00000 -151.88690  168.67210  340.47950  557.58240   13.22820    0.17860   17.43050 4907.31840    2.13450    -999.25    -999.25    0.32100    0.02550   13.65870 2988.07710    9.72490   50.03310
 8250.00000 -146.42540   69.26410   59.82220   63.69600   12.82480    0.16960   10.79280 1200.57360    2.27470    -999.25    -999.25    0.22600    0.01060   13.13140 3323.18380    9.61750   51.79120
 8300.00000 -183.37120   37.46100   50.67210  127.36750    8.24520    0.15640   14.18440 1732.89180    2.47990    -999.25    -999.25    0.12740    0.04710   12.68100 3481.65840    8.87600   49.62760
 8350.00000 -154.86950 1222.62940  349.70200  658.57390   13.10540    0.16970   16.11940 3089.40600    2.36390    -999.25    -999.25    0.17930    0.02050   13.64200 3010.72580   10.37890   50.16100
 8400.00000 -101.52750   13.04770   14.73680   21.31620   10.01310    0.14080   33.88660 4598.74610    2.66200    -999.25    -999.25    0.05270    0.10180   33.86280 1644.22070    9.45100   56.99160
 8450.00000 -130.33770   26.88710   36.72590  168.28540    9.42260    0.05730   26.53600 4509.66260    2.61900    -999.25    -999.25    0.05920    0.07310   22.43720 2805.30100    9.23900   50.01520
 8500.00000 -119.27120  383.93950   92.78900  106.14290   12.43920    0.15310   26.72910 4970.05910    1.99570    -999.25    -999.25    0.38980    0.07440   26.05820 2738.79470    9.54350   50.16410
 8550.00000 -115.61770   87.38090  172.93090  136.55630   13.47280    0.19990   20.38110 6002.12990    2.21760    -999.25    -999.25    0.29880    0.05550   16.51260 3103.76660    9.72670   53.21650
 8600.00000  -45.79610   70.33560   78.27190   93.42960    9.54810    0.01060   36.03940 -926.76780    2.73140    -999.25    -999.25   -0.01580    0.02370   36.07750 2289.86180    9.31950   53.12850
 8650.00000  -38.43790   98.81830   93.04230  131.76740    9.63800   -0.00420   34.64410  358.25640    2.69460    -999.25    -999.25    0.01190    0.01580   30.37690 3048.49630    9.33250   51.96040
 8700.00000  -47.78610  326.57170  291.91550  411.37270    9.60890   -0.00790   27.17260  763.29130    2.65540    -999.25    -999.25    0.03160    0.00600   27.35780 1481.01370    9.31950   50.42090
 8750.00000  -49.96080  603.62530  371.19490  679.70160    9.64140    0.00370   24.69490 1656.40230    2.71940    -999.25    -999.25    0.00320    0.00370   22.34650 1782.81680    9.44980   49.86200
 8800.00000  -36.11120  109.12480  100.71110  120.82060    9.90590    0.00800   27.00350 1552.44800    2.73230    -999.25    -999.25   -0.00940    0.00710   24.08450 2118.65700    9.43170   51.99020
 8850.00000  -23.33300   25.55170   27.07750   35.74670    9.97190   -0.00010   41.79460 2053.45040    2.72040    -999.25    -999.25    0.00210    0.03790   34.60000 2092.11940    9.50470   56.32740
 8900.00000  -12.46680    8.63210    8.90540   10.75720   11.31610    0.09310   69.05220 2908.72730    2.57440    -999.25    -999.25    0.09830    0.11450   62.90380 1976.69740   10.34570   66.89150
 8950.00000  -14.46510   12.07420   12.68290   16.29470   10.49840    0.03590   60.84710 3019.20360    2.73520    -999.25    -999.25    0.00930    0.08460   55.78000   39.30860   10.27460   62.93260
 9000.00000  -14.30920    7.30030    7.52820    9.33960   11.10090    0.19480   74.38540 5497.67430    2.57280    -999.25    -999.25    0.06470    0.15290   76.84080 1176.22180   10.83210   69.30740
 9050.00000  -13.41620   14.93380   15.82190   19.31860    -999.25    -999.25    -999.25    -999.25    -999.25    -999.25    -999.25    -999.25    -999.25   58.18340 2924.19340    9.59840   63.93660
 9100.00000  -24.37810   47.25410   49.99620   89.17980    -999.25    -999.25    -999.25    -999.25    -999.25    -999.25    -999.25    -999.25    -999.25   81.60410 3069.09740    9.74980   65.55250
 9150.00000  -27.08210    9.28010    9.65160   12.97120    -999.25    -999.25    -999.25    -999.25    -999.25    -999.25    -999.25    -999.25    -999.25   71.83410 2737.04960   10.35210   69.23180
 9200.00000  -33.81030    9.89420    8.88630   18.88140    -999.25    -999.25    -999.25    -999.25    -999.25    -999.25    -999.25    -999.25    -999.25   87.04590   10.15710   10.24640   65.10370
