~Version ---------------------------------------------------
VERS.      2.0 : CWLS log ASCII Standard -VERSION 2.0
WRAP.       NO : One line per depth step
CREA. 10/15/14 : LAS Creation Date
~Well ------------------------------------------------------
STRT.FT                         300.0 : START DEPTH
STOP.FT                       11750.0 : STOP DEPTH
STEP.FT                      50.00000 : STEP LENGTH
NULL.                         -999.25 : NULL VALUE
COMP.            MOBIL OIL CANADA LTD : COMPANY
WELL. MOBIL OIL LESLIEVILLE 4-19-39-5 : WELL
FLD .                                 : FIELD
LOC .                                 : LOCATION
CTRY.                          CANADA : COUNTRY
SRVC.          Schlumberger of Canada : SERVICE COMPANY
DATE.                     02-Feb-1958 : LOGDATE
PROV.                         Alberta : PROVINCE
UWI .                100041903905W500 : UNIQUE WELL ID
SLAT.WGS84                   52.36478 : SURFACE LATITUDE
SLON.WGS84                  -114.7174 : SURFACE LONGITUDE
~Curve Information -----------------------------------------
DEPT .FT    : DEPTH FEET
CALM .IN    : FROM MICRO LATEROLOG
CILD .MMHO  : CONDUCTIVITY INDUCTION LOG FROM IEL LOG
GR   .GAPI  : GAMMA RAY FROM GR CCL LOG
GR_1 .GAPI  : GAMMA RAY FROM GR LOG
GRN  .GAPI  : GAMMA RAY FROM GRN LOG
ILD  .OHMM  : INDUCTION LOG RESISTIVITY FROM IEL LOG
LL7  .OHMM  : LATEROLOG-7 RES. FROM LATEROLOG
MCAL .IN    : MLT [MICROLOG] CALIPER FROM MICROLOG
MLL  .OHMM  : MICRO-LATEROLOG RESISTIVITY FROM MICRO LATEROLOG
NEUT .NAPI  : NEUTRON FROM GRN LOG
SN   .OHMM  : SHORT NORMAL 16" FROM IEL LOG
SPM  .MV    : SPONTAEOUS POTENTIAL FROM MICRO LOG
SPR  .MV    : SPONTAEOUS POTENTIAL FROM IEL LOG
SPR_1.MV    : SPONTAEOUS POTENTIAL FROM MICRO LATEROLOG
TEN  .Kg    : TENSION FROM GR LOG
~Params ----------------------------------------------------
PD  .           GROUND LEVEL : PERMANENT DATUM
EPD .FT                 3169 : ELEVATION PERMANENT DATUM
LMF .                     KB : LOG MEASURED FROM
DMF .                     KB : DRILLING MEASURED FROM
EKB .FT                 3181 : KELLY BUSHING
EGL .FT                 3169 : GROUND LEVEL
DATE.             02/02/1958 : RUN DATE
RUN .                      1 : RUN NUMBER
DD  .FT                11765 : DEPTH DRILLER
DL  .FT                11766 : DEPTH LOGGER
BLI .FT                11762 : BOTTOM LOG INTERVAL
TLI .FT                 6000 : TOP LOG INTERVAL
CBD .FT                  886 : CASING BOTTOM DRILLER
CBL .FT                  885 : CASING BOTTOM LOGGER
BS  .IN                    9 : BIT SIZE
BSD .FT                11766 : BIT SIZE AT DEPTH
DFT .              LIME BASE : DRILLING FLUID TYPE
DFD .                   11.4 : DRILLING FLUID DENSITY
DFV .                    100 : DRILLING FLUID VISCOSITY
DFPH.                   13.0 : DRILLING FLUID PH
DFL .                    4.6 : DRILLING FLUID LOSS
RMS .OHMM                0.5 : RESISTIVITY MUD SAMPLE
MST .DEGF                 47 : MUD SAMPLE TEMPERATURE
RMF .OHMM                0.2 : RESISTIVITY MUD FILTRATE SAMPLE
MFST.DEGF                 70 : MUD FILTRATE SAMPLE TEMPERATURE
RMC .OHMM                0.6 : RESISTIVITY MUD CAKE
MCST.DEGF                 66 : MUD CAKE SAMPLE TEMPERATURE
RMB .OHMM               0.14 : RESISTIVITY MUD AT BHT
MRT .DEGF                212 : MAXIMUM RECORDED TEMPERATURE
LUN .                  1729C : LOGGING UNIT NUMBER
LUL .                     RD : LOGGING UNIT LOCATION
ENGI.                  CHASE : RECORDING ENGINEER
WITN.                 CARSON : WITNESSED BY
CLNT.                A2DTECH : CLIENT CODE
ORIG.           2", 5" PRINT : ORIGIN OF DATA
UWI .       100041903905W500 : UNIQUE WELL ID
DICO. A2D Technologies, Inc. : DIGITIZING COMPANY
~Other -----------------------------------------------------
~ASCII -----------------------------------------------------
# ...
 4900.00000    -999.25  144.92360    -999.25    -999.25   11.94380    7.61890    -999.25   11.32750    -999.25  929.66780    7.50850    -999.25  -19.35170    -999.25    -999.25
 4950.00000    -999.25   57.19610    -999.25    -999.25   11.31120   17.48930    -999.25   11.69270    -999.25 1139.00240   15.38660    -999.25  -25.10380    -999.25    -999.25
 5000.00000    -999.25  135.19300    -999.25    -999.25   11.57430    7.80550    -999.25   14.02120    -999.25  838.72070    6.98190    -999.25  -16.19190    -999.25    -999.25
 5050.00000    -999.25  213.78550    -999.25    -999.25   11.90990    5.69360    -999.25   11.70270    -999.25  821.29540    5.25180    -999.25  -20.73960    -999.25    -999.25
 5100.00000    -999.25  102.18030    -999.25    -999.25   13.38330    9.92490    -999.25   11.76760    -999.25  828.05260    9.27650    -999.25  -22.00880    -999.25    -999.25
 5150.00000    -999.25  105.05550    -999.25    -999.25   13.77980    9.83010    -999.25    -999.25    -999.25  842.99160    9.13470    -999.25  -22.98900    -999.25    -999.25
 5200.00000    -999.25  108.00490    -999.25    -999.25   13.20550    9.51730    -999.25    -999.25    -999.25  926.24830    8.65940    -999.25  -22.63980    -999.25    -999.25
 5250.00000    -999.25  111.23760    -999.25    -999.25   12.27320    9.56180    -999.25    -999.25    -999.25  930.44420    9.24960    -999.25  -16.94660    -999.25    -999.25
 5300.00000    -999.25  106.67770    -999.25    -999.25   12.40620    9.35950    -999.25    -999.25    -999.25  940.84520    9.80030    -999.25  -20.74240    -999.25    -999.25
 5350.00000    -999.25  103.91080    -999.25    -999.25   12.64020    9.97090    -999.25    -999.25    -999.25  799.66930    9.74790    -999.25  -20.06270    -999.25    -999.25
 5400.00000    -999.25  109.13720    -999.25    -999.25   12.29820    9.67300    -999.25    -999.25    -999.25  823.70460    9.25150    -999.25  -23.52380    -999.25    -999.25
 5450.00000    -999.25   92.66540    -999.25    -999.25   13.93860   10.98990    -999.25    -999.25    -999.25  702.65960   12.28030    -999.25  -24.29500    -999.25    -999.25
 5500.00000    -999.25   67.20440    -999.25    -999.25   12.79970   14.46370    -999.25    -999.25    -999.25  830.88110   14.72920    -999.25  -25.95790    -999.25    -999.25
 5550.00000    -999.25   66.86470    -999.25    -999.25   12.94940   15.01110    -999.25    -999.25    -999.25  893.81470   16.13030    -999.25  -24.78960    -999.25    -999.25
 5600.00000    -999.25   90.04340    -999.25    -999.25   13.55870   11.05110    -999.25    -999.25    -999.25  721.42590   11.86160    -999.25  -23.85740    -999.25    -999.25
 5650.00000    -999.25   98.71590    -999.25    -999.25   11.60300   10.09570    -999.25    -999.25    -999.25  766.94790   10.51570    -999.25  -26.38130    -999.25    -999.25
 5700.00000    -999.25  141.80700    -999.25    -999.25   11.73450    7.57530    -999.25    -999.25    -999.25  768.14160    7.88790    -999.25  -20.94680    -999.25    -999.25
 5750.00000    -999.25  109.34880    -999.25    -999.25   10.93090    9.50370    -999.25    -999.25    -999.25  829.13930    9.14470    -999.25  -21.90280    -999.25    -999.25
 5800.00000    -999.25  134.26790    -999.25    -999.25   11.58650    8.00860    -999.25    -999.25    -999.25  784.40880    8.06360    -999.25  -21.93090    -999.25    -999.25
 5850.00000    -999.25  123.17040    -999.25    -999.25   12.20480    8.33020    -999.25    -999.25    -999.25  782.65100    8.62750    -999.25  -23.46950    -999.25    -999.25
 5900.00000    -999.25  111.43040    -999.25    -999.25   12.58590    9.55900    -999.25    -999.25    -999.25  781.74830    9.42080    -999.25  -20.52710    -999.25    -999.25
 5950.00000    -999.25  103.86560    -999.25    -999.25   11.54970    9.95750    -999.25    -999.25    -999.25  821.55340    9.63200    -999.25  -23.13250  -22.08180    -999.25
 6000.00000   15.36830  110.77740    -999.25    -999.25   12.19540    9.27300   11.75290   12.80260    3.93540  674.59400    9.31510  -22.91480  -19.69720  -20.50650    -999.25
 6050.00000   15.38090  139.10880    -999.25    -999.25   11.16200    7.90110    8.71360   13.07880    3.66450  708.36820    7.50710  -20.18960  -16.92280  -20.16410    -999.25
 6100.00000   15.35950  136.04590    -999.25    -999.25   11.27320    8.06760    9.21430   13.77400    2.50940  706.86800    7.46660  -20.55590  -19.19730  -19.36720    -999.25
 6150.00000   15.02560  111.07080    -999.25    -999.25   11.82840    9.49970   11.56850   12.62580    2.61690  837.83900    9.04920  -20.97800  -21.22640  -21.08820    -999.25
 6200.00000   14.74650   67.78460    -999.25    -999.25   10.82580   14.27170   20.19730   11.17870    4.42360  997.78600   14.59450  -29.20440  -28.36910  -24.24620    -999.25
 6250.00000   13.27610   86.46580    -999.25    -999.25   11.36590   11.80910   13.16540   10.84350    4.10180  837.28950   11.39770  -20.03750  -19.69300  -21.17150    -999.25
 6300.00000   12.73140  104.56170    -999.25    -999.25   11.44950    9.91930   10.83730   12.10540    3.85770  834.50960    9.39070  -15.99930  -15.39110  -20.34420    -999.25
 6350.00000   12.41120   88.37970    -999.25    -999.25   11.65330   11.29840   11.74860   12.79280    4.73850  745.26880   10.28600  -10.77900  -11.54430  -20.77330    -999.25
 6400.00000   12.73300  104.79490    -999.25    -999.25   10.52650    9.60080   11.63000   12.33110    2.96550  777.21440    9.93630  -11.25490  -11.70090  -19.87380    -999.25
 6450.00000   12.38370   97.78240    -999.25    -999.25   10.89320   10.51340   13.22130   11.36970    2.80220  733.66040   10.01660  -13.48300  -12.51460  -19.71850    -999.25
 6500.00000   12.49950  139.69610    -999.25    -999.25   11.84450    7.56620    8.86690   11.68010    2.62960  673.07050    8.19070  -10.96830  -10.53100  -17.42780    -999.25
 6550.00000   13.19700   97.18330    -999.25    -999.25   10.40820   10.33730   13.80790   12.16380    2.91370  697.58690   10.14860  -12.29370  -12.23390  -19.06040    -999.25
 6600.00000   11.62990   62.21510    -999.25   68.00860   10.75270   15.93150   18.89980   10.29650   13.65610  751.54050   14.97950  -10.92280  -10.36410  -19.33040  689.26540
 6650.00000   12.68350   86.91090    -999.25   66.82800   10.08370   11.76020   14.47100   11.76420    2.78390  683.65830   11.38190  -11.61780  -10.43960  -17.53970  694.26570
 6700.00000   12.84100   71.59990    -999.25   61.52840   10.15850   14.28410   17.49080   12.47110    3.48990  746.37110   12.82090  -18.21970  -15.91340  -17.68260  703.08450
 6750.00000   11.20570   56.11050    -999.25   57.73360    9.92170   17.56400   34.64300   10.12910   10.65410  898.33940   20.11750  -27.65790  -25.23280  -19.53040  700.29830
 6800.00000   13.34190   69.57040    -999.25   85.27440   15.34980   14.73420   15.20770   10.45130   22.85670  751.65900   16.27390  -28.78740  -24.84400  -18.17450  700.81430
 6850.00000   15.37260   97.20980    -999.25   57.43680    8.49730    9.92770   12.59700   11.95050    4.31830  748.68400   10.22050  -22.95110  -19.07220  -17.80400  713.99490
 6900.00000   15.31360  121.68420    -999.25   59.72090    8.61790    8.70410   11.88480   13.07020    3.86620  675.41240    9.25800  -14.31730  -14.08610  -17.20790  706.94930
 6950.00000   14.18500   75.47500    -999.25  101.79490   11.87010   13.77600   22.63220   10.80190   11.83080  747.19250   16.64770  -11.41740  -11.88660  -18.25630  712.83540
 7000.00000   12.64100   45.73860    -999.25   87.85560    9.62460   24.45740   11.97090    9.54340    6.56020  777.91530   15.18110  -17.13230  -17.81340  -17.02420  712.31020
 7050.00000   11.62940  113.27050    -999.25   98.21670   11.89700    9.12290   10.32530   12.29240    4.19740  774.99330    9.56330  -17.14540  -19.53430  -15.84980  712.31040
 7100.00000   11.83400   80.55340    -999.25   87.84580    -999.25   12.54030   20.39670   10.11360   17.42030  935.48970   15.07980  -19.99880  -23.60090  -19.68600  716.12580
 7150.00000   12.23300  237.07830    -999.25   51.06430    9.90190    4.81840    7.46570   14.74870    9.54330  757.72460    5.12570  -14.57870  -16.24650  -15.03640  723.14740
