~Version ---------------------------------------------------
VERS.      2.0 : CWLS log ASCII Standard -VERSION 2.0
WRAP.       NO : One line per depth step
CREA. 12/18/17 : LAS Creation Date
~Well ------------------------------------------------------
STRT.FT                                  950.0 : START DEPTH
STOP.FT                                 9350.0 : STOP DEPTH
STEP.FT                               50.00000 : STEP LENGTH
NULL.                                  -999.25 : NULL VALUE
COMP. THE BRITISH AMERICAN OIL COMPANY LIMITED : COMPANY
WELL.        B.A. EAST GOOSE RIVER 10-22-66-15 : WELL
FLD .                                          : FIELD
LOC .                                          : LOCATION
CTRY.                                   CANADA : COUNTRY
SRVC.                   Schlumberger of Canada : SERVICE COMPANY
DATE.                              16-Mar-1960 : LOGDATE
PROV.                                  Alberta : PROVINCE
UWI .                         100102206615W500 : UNIQUE WELL ID
SLAT.WGS84                            54.72873 : SURFACE LATITUDE
SLON.WGS84                           -116.1771 : SURFACE LONGITUDE
~Curve Information -----------------------------------------
DEPT  .FT         : Depth Curve
CALWS .IN         : CALIPER [MCALED]
CILDED.MMHO       : CONDUCTIVITY FROM RESISTIVITY LOG
CONDWS.MMHO       : CONDUCTIVITY [1000/DRESWS]
DRESWS.OHMM       : DEEP RESISTIVITY [1000/CILDED IF ILDED <=3.5, ILDED]
DTED  .US/F       : DELTA-T FROM SONIC LOG [ADJ. TO RESISTIVITY LOG]
DTWS  .US/F       : COMPRESSIONAL SONIC [DTED]
GRSED .UgRa-Eq/T  : GAMMA RAY FROM SONIC LOG [ADJ. TO RESISTIVITY LOG]
GRWS  .GAPI       : GAMMA RAY [GRSED*16.5]
ILDED .OHMM       : DEEP INDUCTION FROM RESISTIVITY LOG
MCALED.IN         : MLT  CALIPER FROM MICRO LOG
SNED  .OHMM       : SHORT NORMAL FROM RESISTIVITY LOG
SPRED .MV         : SPONTANEOUS POTENTIAL FROM RESISTIVITY LOG
SPWS  .MV         : SPONTANEOUS POTENTIAL [BASELINE 0 MV, SPRED]
SRESWS.OHMM       : SHALLOW RESISTIVITY [SNED]
~Params ----------------------------------------------------
LMF .                     KB : LOG MEASURED FROM
DMF .                     KB : DRILLING MEASURED FROM
EKB .FT                 3222 : KELLY BUSHING
EGL .FT                 3205 : GROUND LEVEL
DATE.               03/16/60 : RUN DATE
RUN .                      2 : RUN NUMBER
DD  .FT                 9370 : DEPTH DRILLER
DL  .FT                 9378 : DEPTH LOGGER
BLI .FT                 9373 : BOTTOM LOG INTERVAL
TLI .FT                 5000 : TOP LOG INTERVAL
CBD .FT                  975 : CASING BOTTOM DRILLER
BS  .IN                    9 : BIT SIZE
BSD .FT                 9370 : BIT SIZE AT DEPTH
DFT .                    GEL : DRILLING FLUID TYPE
DFD .                     10 : DRILLING FLUID DENSITY
DFV .                    120 : DRILLING FLUID VISCOSITY
DFPH.                     10 : DRILLING FLUID PH
DFL .                    6.2 : DRILLING FLUID LOSS
RMS .OHMM                2.8 : RESISTIVITY MUD SAMPLE
MST .DEGF                 59 : MUD SAMPLE TEMPERATURE
RMF .OHMM               1.41 : RESISTIVITY MUD FILTRATE SAMPLE
MFST.DEGF                 68 : MUD FILTRATE SAMPLE TEMPERATURE
RMC .OHMM               2.56 : RESISTIVITY MUD CAKE
MCST.DEGF                 67 : MUD CAKE SAMPLE TEMPERATURE
RMB .OHMM               0.94 : RESISTIVITY MUD AT BHT
TCS .HRS                 4.5 : TIME CIRCULATED STOPPED
LUN .                  1573C : LOGGING UNIT NUMBER
LUL .                     WC : LOGGING UNIT LOCATION
ENGI.              HAUSEGGER : RECORDING ENGINEER
WITN.                   COTE : WITNESSED BY
CLNT.                A2DTECH : CLIENT CODE
ORIG.            2" 5" PRINT : ORIGIN OF DATA
UWI .       100102206615W500 : UNIQUE WELL ID
DICO. A2D Technologies, Inc. : DIGITIZING COMPANY
~Other -----------------------------------------------------
IEL-BHC-MICRO LOG RUN
~ASCII -----------------------------------------------------
# ...
 3400.00000   16.00000  146.36390  143.84760    6.95180  104.94750  104.94750    4.82550   79.62070    6.95180   16.00000    7.51200 -216.93810   -5.51400    7.51200
 3450.00000   15.71060  153.21320  149.86210    6.67280  101.78100  101.78100    5.16720   85.25880    6.67280   15.71060    7.25680 -215.53420   -2.93850    7.25680
 3500.00000   11.87690  120.43630  117.35570    8.52110   93.09260   93.09260    5.18580   85.56570    8.52110   11.87690    9.11750 -216.26230   -3.53740    9.11750
 3550.00000   11.78850  164.39700  161.38140    6.19650  105.37950  105.37950    6.07340  100.21110    6.19650   11.78850    7.35320 -214.39960   -3.85720    7.35320
 3600.00000   11.52950  153.15420  151.13730    6.61650  104.60970  104.60970    6.16870  101.78360    6.61650   11.52950    7.83390 -213.73190   -4.36140    7.83390
 3650.00000   10.49400  155.81000  153.44720    6.51690  112.96180  112.96180    6.24930  103.11340    6.51690   10.49400    7.94500 -213.28420   -4.53830    7.94500
 3700.00000    9.59850  148.41370  143.91390    6.94860  112.83320  112.83320    6.98780  115.29870    6.94860    9.59850    8.63060 -213.15500   -5.03780    8.63060
 3750.00000    9.24730  116.16800  114.51080    8.73280  108.87580  108.87580    7.05290  116.37290    8.73280    9.24730   13.40270 -213.67370   -6.18110   13.40270
 3800.00000   12.58690  166.05260  164.76910    6.06910  105.00110  105.00110    4.67860   77.19770    6.06910   12.58690    6.35880 -215.57140   -7.76770    6.35880
 3850.00000   11.55630  190.74690  187.48360    5.33380  105.53050  105.53050    5.25470   86.70260    5.33380   11.55630    5.97500 -214.05480   -4.11140    5.97500
 3900.00000   10.72800  194.13380  190.12850    5.25960   99.36110   99.36110    5.24830   86.59690    5.25960   10.72800    5.79860 -215.04040   -2.63690    5.79860
 3950.00000   10.88910  206.81830  198.63340    5.03440  100.44460  100.44460    5.41640   89.37060    5.03440   10.88910    5.55380 -216.75840   -1.91200    5.55380
 4000.00000   11.51500  254.33380  237.72170    4.20660  107.61890  107.61890    5.37530   88.69160    4.20660   11.51500    4.57080 -219.73050   -2.98780    4.57080
 4050.00000   13.50630  279.34900  257.08920    3.88970  106.20270  106.20270    5.14100   84.82570    3.88970   13.50630    4.10950 -221.69450   -3.05550    4.10950
 4100.00000   12.15600  235.16180  222.28640    4.49870   99.14040   99.14040    5.30690   87.56390    4.49870   12.15600    4.78720 -223.34130   -3.18650    4.78720
 4150.00000   11.42530  218.74490  205.77830    4.85960  102.28530  102.28530    5.32720   87.89880    4.85960   11.42530    5.45090 -223.78380   -2.83890    5.45090
 4200.00000   14.66170  450.76200  450.76200    2.21850  112.87600  112.87600    5.30720   87.56800    2.77470   14.66170    2.27900 -225.46450   -3.09470    2.27900
 4250.00000   12.09870  318.39750  318.39750    3.14070  101.79260  101.79260    5.38110   88.78820    3.68520   12.09870    3.44720 -228.38250   -4.17110    3.44720
 4300.00000   11.42700  305.23500  305.23500    3.27620  106.96360  106.96360    5.52720   91.19880    3.79840   11.42700    3.49670 -229.46400   -3.41090    3.49670
 4350.00000   11.02370  200.17290  190.65050    5.24520   95.15780   95.15780    4.94630   81.61400    5.24520   11.02370    5.74860 -229.97640   -2.26270    5.74860
 4400.00000    9.74020  104.15450  103.33140    9.67760   79.68500   79.68500    2.60140   42.92310    9.67760    9.74020   14.18460 -250.48390  -22.53430   14.18460
 4450.00000   15.83420  458.48140  458.48140    2.18110  139.67950  139.67950    4.77310   78.75620    2.89280   15.83420    2.54010 -228.12260   -2.27460    2.54010
 4500.00000    8.65060   89.20130   88.69570   11.27450   85.39790   85.39790    2.93290   48.39290   11.27450    8.65060   32.63560 -295.30170  -69.61170   32.63560
 4550.00000    8.73430  118.06390  115.03770    8.69280   85.81680   85.81680    2.91170   48.04310    8.69280    8.73430   15.89170 -266.60420  -41.26430   15.89170
 4600.00000    9.46160  113.39280  109.62510    9.12200   74.10270   74.10270    3.09620   51.08730    9.12200    9.46160   12.97010 -231.98260   -6.99510   12.97010
 4650.00000    9.49870  147.68300  141.99300    7.04260   84.49710   84.49710    3.00930   49.65260    7.04260    9.49870   14.07120 -275.52910  -51.34810   14.07120
 4700.00000   10.39320  179.59960  174.71220    5.72370   97.93910   97.93910    4.32440   71.35260    5.72370   10.39320    6.57450 -229.36530   -3.22620    6.57450
 4750.00000   11.04270  181.88390  176.05010    5.68020   92.71720   92.71720    3.07150   50.67970    5.68020   11.04270    9.95610 -273.78340  -46.63670    9.95610
 4800.00000    9.44940  130.12620  127.59170    7.83750   84.93560   84.93560    2.94530   48.59750    7.83750    9.44940   27.38110 -294.25750  -67.46430   27.38110
 4850.00000   12.41170  157.00110  157.11910    6.36460  111.33150  111.33150    2.63220   43.43050    6.36460   12.41170   14.50090 -272.60750  -46.17020   14.50090
 4900.00000    9.62660  100.81290   97.84350   10.22040   67.65240   67.65240    2.02030   33.33500   10.22040    9.62660   14.32710 -230.18660   -4.03700   14.32710
 4950.00000   10.49570  147.43120  144.74290    6.90880   79.36860   79.36860    2.92040   48.18740    6.90880   10.49570   26.62620 -310.08390  -84.09860   26.62620
 5000.00000   11.39640  187.70960  184.70970    5.41390   89.97810   89.97810    4.50950   74.40680    5.41390   11.39640    5.91830 -227.47240   -2.00040    5.91830
 5050.00000   11.27960  160.33420  156.79390    6.37780   82.28700   82.28700    4.35990   71.93840    6.37780   11.27960    7.77470 -240.01390  -14.45210    7.77470
 5100.00000   12.05780  143.85140  140.83120    7.10070   84.38760   84.38760    4.54250   74.95130    7.10070   12.05780    8.13690 -232.87110   -7.19400    8.13690
 5150.00000   10.70750  133.16460  130.38320    7.66970   85.59410   85.59410    4.98480   82.24840    7.66970   10.70750    9.23330 -232.45270   -6.66110    9.23330
 5200.00000   10.91910  163.61260  160.24610    6.24040   89.22050   89.22050    4.22440   69.70260    6.24040   10.91910    7.75370 -229.33860   -3.43170    7.75370
 5250.00000    9.94740   72.14780   71.30480   14.02430   77.48540   77.48540    3.37380   55.66770   14.02430    9.94740   20.36740 -243.96670  -19.11530   20.36740
 5300.00000   11.47440   87.48440   85.70670   11.66770   95.67870   95.67870    3.29960   54.44340   11.66770   11.47440   22.11550 -228.57610   -4.79580   22.11550
 5350.00000    9.04370  169.17960  175.08840    5.71140   78.39080   78.39080    4.26990   70.45340    5.71140    9.04370   19.58590 -261.66160  -39.21020   19.58590
 5400.00000    8.85630  125.80370  121.54060    8.22770   81.04030   81.04030    1.83840   30.33360    8.22770    8.85630   57.04230 -313.59630  -92.79350   57.04230
 5450.00000    8.83790   12.38830    6.58970  151.75150   60.79250   60.79250    2.00380   33.06270  151.75150    8.83790  198.95830 -228.77820  -13.34600  198.95830
 5500.00000    8.56470  109.32730  104.74380    9.54710   58.65010   58.65010    1.29340   21.34110    9.54710    8.56470   40.51140 -367.79950 -153.34490   40.51140
 5550.00000    8.70410   22.60220   13.68350   73.08050   57.96200   57.96200    1.18440   19.54260   73.08050    8.70410   71.32480 -285.94050  -69.48270   71.32480
 5600.00000    9.39310   54.35960   39.28080   25.45770   60.43870   60.43870    2.07690   34.26890   25.45770    9.39310   31.59930 -231.19580  -12.72160   31.59930
 5650.00000    9.48150   75.53030   50.68170   19.73100   55.17320   55.17320    2.02710   33.44720   19.73100    9.48150   33.98390 -257.36150  -38.60920   33.98390
 5700.00000    9.09940  112.72910   77.81560   12.85090   56.36910   56.36910    1.06890   17.63680   12.85090    9.09940   48.68640 -330.28420 -123.92850   48.68640
 5750.00000    9.10210  755.17700  755.17700    1.32420   83.67350   83.67350    2.57160   42.43140    1.31290    9.10210    7.94480 -316.49270 -122.45260    7.94480
 5800.00000    9.19340   25.06620   16.20000   61.72840   56.28100   56.28100    0.89110   14.70320   61.72840    9.19340   96.54610 -307.88060 -118.08790   96.54610
