~Version ---------------------------------------------------
VERS.      2.0 : CWLS log ASCII Standard -VERSION 2.0
WRAP.       NO : One line per depth step
CREA. 12/21/17 : LAS Creation Date
~Well ------------------------------------------------------
STRT.FT                           300.0 : START DEPTH
STOP.FT                         10850.0 : STOP DEPTH
STEP.FT                        50.00000 : STEP LENGTH
NULL.                           -999.25 : NULL VALUE
COMP. HUDSONS BAY OIL & GAS COMPANY LTD : COMPANY
WELL.    H.B. UNION KAYBOB S 7-14-62-20 : WELL
FLD .                                   : FIELD
LOC .                                   : LOCATION
CTRY.                            CANADA : COUNTRY
SRVC.            Schlumberger of Canada : SERVICE COMPANY
DATE.                       27-Mar-1965 : LOGDATE
PROV.                           Alberta : PROVINCE
UWI .                  100071406220W500 : UNIQUE WELL ID
SLAT.WGS84                      54.3613 : SURFACE LATITUDE
SLON.WGS84                    -116.8845 : SURFACE LONGITUDE
~Curve Information -----------------------------------------
DEPT   .FT        : Depth Curve
CALSED .IN        : CALIPER FROM SONIC LOG
CALWS  .IN        : CALIPER [TOP MCALED 6870' CALSED TD]
CILDED .MMHO      : CONDUCTIVITY FROM IEL LOG
CONDWS .MMHO      : CONDUCTIVITY [1000/DRESWS]
DRESWS .OHMM      : DEEP RESISTIVITY [1000/CILDED IF ILDED<5, ILDED]
DTED   .US/F      : SHEAR SONIC FROM SONIC LOG
DTWS   .US/F      : COMPRESSIONAL  SONIC [DTED]
GRED   .GAPI      : GAMMA RAY FROM CBL LOG
GRSED  .GAPI      : GAMMA RAY FROM SONIC LOG
GRWS   .GAPI      : GAMMA RAY [GRED SPL. TO GRSED @ 7000']
ILDED  .OHMM      : DEEP INDUCTION FROM IEL LOG
MCALED .IN        : CALIPER FROM MICROLOG
RATIOED.UNITLESS  : RATIO FROM TDT LOG
SIGMAED.CU        : CAPTURE CROSS SECTION FROM TDT LOG
SNED   .OHMM      : 16 INCH SHORT NORMAL RESISTIVITY FROM IEL LOG
SPRED  .MV        : SPONTANEOUS POTENTIAL FROM IEL LOG
SPWS   .MV        : SPONTANEOUS POTENTIAL [BASELINE 0 MV, SPRED]
SRESWS .OHMM      : SHALLOW RESISTIVITY [SNED]
TENED  .LBF       : TENSION FROM CBL LOG
~Params ----------------------------------------------------
PD  .                     GL : PERMANENT DATUM
EPD .FT                 2833 : ELEVATION PERMANENT DATUM
LMF .                     KB : LOG MEASURED FROM
DAPD.FT                   16 : FEET ABOVE PERMANENT DATUM
EKB .FT                 2849 : KELLY BUSHING
EGL .FT                 2833 : GROUND LEVEL
DATE.               03/27/65 : RUN DATE
RUN .                      2 : RUN NUMBER
TCS .HRS                 3.5 : TIME CIRCULATED STOPPED
LUN .                   1576 : LOGGING UNIT NUMBER
LUL .                    WCT : LOGGING UNIT LOCATION
ENGI.              DEMETRICK : RECORDING ENGINEER
WITN.               HAMILTON : WITNESSED BY
CLNT.                A2DTECH : CLIENT CODE
ORIG.            2" 5" PRINT : ORIGIN OF DATA
UWI .       100071406220W500 : UNIQUE WELL ID
DICO. A2D Technologies, Inc. : DIGITIZING COMPANY
~Other -----------------------------------------------------
CALIPER-CBL-GR-IEL-ML-TDT-SONIC LOG RAN
EL: ALL CURVES HAVE BEEN VERIFIED FROM 1" SECTION @TOP-1146',3454'-4150',4398'-5498'.
MCAL HAS BEEN VERIFIED FROM 1" SECTION @TOP-1940',3450'-4140',4400'-5500'
~ASCII -----------------------------------------------------
# ...
 5850.00000    -999.25   10.39700  110.11850  121.54950    8.22710    -999.25    -999.25   77.83630    -999.25   77.83630    8.22710   10.39700    -999.25    -999.25    9.44070  -63.88510  -15.87580    9.44070   59.13280
 5900.00000    -999.25   10.24480   91.14310  100.82070    9.91860    -999.25    -999.25   71.95650    -999.25   71.95650    9.91860   10.24480    -999.25    -999.25   14.18580  -69.25660  -21.68670   14.18580   53.12220
 5950.00000    -999.25    9.80460   61.49660   63.28430   15.80170    -999.25    -999.25   70.79520    -999.25   70.79520   15.80170    9.80460    -999.25    -999.25   13.30050  -74.24490  -27.11440   13.30050   54.34870
 6000.00000    -999.25    9.39260   63.03390   67.70070   14.77090    -999.25    -999.25   60.22330    -999.25   60.22330   14.77090    9.39260    -999.25    -999.25   13.54730  -60.91280  -14.22160   13.54730   90.42830
 6050.00000    -999.25   11.86560   31.32200   35.08400   28.50300    -999.25    -999.25   48.51430    -999.25   48.51430   28.50300   11.86560    -999.25    -999.25   45.76100  -64.96580  -18.71400   45.76100   81.83210
 6100.00000    -999.25    9.30170   50.33610   54.34550   18.40080    -999.25    -999.25   66.19900    -999.25   66.19900   18.40080    9.30170    -999.25    -999.25   17.91590  -60.43610  -14.62360   17.91590  112.89860
 6150.00000    -999.25    9.65470   93.54550  100.67960    9.93250    -999.25    -999.25   41.53470    -999.25   41.53470    9.93250    9.65470    -999.25    -999.25   13.11880  -82.52060  -37.06130   13.11880  129.10050
 6200.00000    -999.25    9.52730   63.22480   68.46740   14.60550    -999.25    -999.25   66.45190    -999.25   66.45190   14.60550    9.52730    -999.25    -999.25   19.78870  -52.20150   -6.87490   19.78870  144.51800
 6250.00000    -999.25    9.71780   76.81850   81.96390   12.20050    -999.25    -999.25   53.92480    -999.25   53.92480   12.20050    9.71780    -999.25    -999.25   11.79440  -62.12660  -16.93480   11.79440  149.44100
 6300.00000    -999.25    9.27500   53.56990   59.50500   16.80530    -999.25    -999.25   48.77110    -999.25   48.77110   16.80530    9.27500    -999.25    -999.25   15.57430  -57.10800  -12.05090   15.57430  153.23990
 6350.00000    -999.25    9.28240   67.07340   69.51930   14.38450    -999.25    -999.25   72.51440    -999.25   72.51440   14.38450    9.28240    -999.25    -999.25   14.01190  -47.36820   -2.55410   14.01190  172.18120
 6400.00000    -999.25    9.73090   74.16890   77.52360   12.89930    -999.25    -999.25   75.04460    -999.25   75.04460   12.89930    9.73090    -999.25    -999.25   12.39400  -49.46170   -5.08700   12.39400  205.21190
 6450.00000    -999.25    9.83290  100.46560  108.62130    9.20630    -999.25    -999.25   83.59840    -999.25   83.59840    9.20630    9.83290    -999.25    -999.25   10.33640  -56.53440   -5.10830   10.33640  209.71060
 6500.00000    -999.25    9.53750   57.88330   63.55950   15.73330    -999.25    -999.25   67.85900    -999.25   67.85900   15.73330    9.53750    -999.25    -999.25   19.26710  -54.40180   -0.51620   19.26710  217.44400
 6550.00000    -999.25    9.27380   24.50510   27.92260   35.81330    -999.25    -999.25   76.98860    -999.25   76.98860   35.81330    9.27380    -999.25    -999.25   30.67250  -58.82920   -7.97100   30.67250  218.12840
 6600.00000    -999.25    9.70070   67.32120   73.02040   13.69480    -999.25    -999.25   74.12440    -999.25   74.12440   13.69480    9.70070    -999.25    -999.25   13.09300  -50.31010   -1.94740   13.09300  252.13210
 6650.00000    -999.25    9.21080   58.51300   60.78250   16.45210    -999.25    -999.25   82.08180    -999.25   82.08180   16.45210    9.21080    -999.25    -999.25   13.49640  -50.55140   -4.10340   13.49640  253.32120
 6700.00000    -999.25   12.77680  361.11290  361.11290    2.76920    -999.25    -999.25   81.00180    -999.25   81.00180    1.71570   12.77680    -999.25    -999.25    2.88590  -55.38770  -10.86430    2.88590  275.01390
 6750.00000    -999.25   10.20080  178.54660  178.54660    5.60080    -999.25    -999.25   68.46550    -999.25   68.46550    4.52500   10.20080    -999.25    -999.25    5.41320  -50.49530   -7.88660    5.41320  275.63860
 6800.00000    -999.25    9.17450   30.47460   33.58200   29.77790    -999.25    -999.25  299.80350    -999.25  299.80350   29.77790    9.17450    -999.25    -999.25   29.33940  -47.61110   -6.91720   29.33940  318.18430
 6850.00000    -999.25    8.95570   16.55150   20.74110   48.21350    -999.25    -999.25    -999.25    -999.25    -999.25   48.21350    8.95570    -999.25    -999.25   46.44940  -55.18250  -13.04810   46.44940  410.39090
 6900.00000    9.56860    9.56860   71.53460   75.50820   13.24360  100.40580  100.40580    -999.25    -999.25    -999.25   13.24360    8.96970    -999.25    -999.25   15.21500  -68.60450  -24.08650   15.21500    -999.25
 6950.00000   10.32680   10.32680   59.82750   64.62620   15.47360  100.30710  100.30710    -999.25    -999.25    -999.25   15.47360    9.16510    -999.25    -999.25   15.89990  -51.22400   -4.30400   15.89990    -999.25
 7000.00000    9.82630    9.82630   31.38850   32.22100   31.03570   98.04020   98.04020    -999.25   94.29850   94.29850   31.03570    9.02810    -999.25    -999.25   29.67140  -61.44540  -15.18010   29.67140    -999.25
 7050.00000    9.54430    9.54430   32.80360   33.09120   30.21950   94.75680   94.75680    -999.25   93.92450   93.92450   30.21950    8.98890    -999.25    -999.25   29.79780  -53.59480   -9.79860   29.79780    -999.25
 7100.00000    9.27040    9.27040   47.61300   49.22760   20.31380   89.72270   89.72270    -999.25   34.88950   34.88950   20.31380    8.86720    -999.25    -999.25   31.57640 -149.47850 -106.90140   31.57640    -999.25
 7150.00000   10.23270   10.23270   37.87590   39.09120   25.58120   82.98360   82.98360    -999.25   37.37710   37.37710   25.58120    8.82740    -999.25    -999.25   38.03720  -89.73520  -47.78090   38.03720    -999.25
 7200.00000    9.92620    9.92620   71.15620   72.48430   13.79610   94.03020   94.03020    -999.25   40.65080   40.65080   13.79610    -999.25    -999.25    -999.25   19.12830  -95.12950  -53.79920   19.12830    -999.25
 7250.00000   10.02020   10.02020   51.90880   54.98160   18.18790   77.36010   77.36010    -999.25   50.45720   50.45720   18.18790    -999.25    -999.25    -999.25   30.80320 -105.28780  -64.58030   30.80320    -999.25
 7300.00000    9.75710    9.75710   25.58340   24.06770   41.54940   83.22040   83.22040    -999.25  103.01630  103.01630   41.54940    -999.25    -999.25    -999.25   62.11620  -51.98300  -11.65060   62.11620    -999.25
 7350.00000   10.20280   10.20280   62.64280   69.54680   14.37880   65.73450   65.73450    -999.25   37.97590   37.97590   14.37880    -999.25    -999.25    -999.25   36.87110 -109.11620  -67.54940   36.87110    -999.25
 7400.00000    9.80620    9.80620   73.49490   73.54400   13.59730   85.17350   85.17350    -999.25   49.85910   49.85910   13.59730    -999.25    -999.25    -999.25   31.13770  -90.19830  -47.26760   31.13770    -999.25
 7450.00000    9.87520    9.87520   15.96870   15.96870   62.62250   70.93050   70.93050    -999.25   32.64340   32.64340   72.87050    -999.25    -999.25    -999.25   53.35500  -93.69030  -49.38380   53.35500    -999.25
 7500.00000   11.89630   11.89630    7.00130    7.00130  142.83060   82.98880   82.98880    -999.25   31.18680   31.18680  198.31350    -999.25    -999.25    -999.25  149.12290  -96.10810  -50.43780  149.12290    -999.25
 7550.00000    9.61550    9.61550   23.17040   23.17040   43.15850   64.28910   64.28910    -999.25   23.00530   23.00530   48.20790    -999.25    -999.25    -999.25   78.14310 -162.84500 -115.81080   78.14310    -999.25
 7600.00000    9.79910    9.79910    7.78070    7.78070  128.52310   71.28860   71.28860    -999.25   26.69700   26.69700  205.26520    -999.25    -999.25    -999.25   98.53100 -149.63880 -101.22890   98.53100    -999.25
 7650.00000    9.46650    9.46650   75.36260   75.36260   13.26920   94.66450   94.66450    -999.25   98.15090   98.15090   12.13120    -999.25    -999.25    -999.25   21.18480  -66.33590  -16.56200   21.18480    -999.25
