~Version ---------------------------------------------------
VERS.      2.0 : CWLS log ASCII Standard -VERSION 2.0
WRAP.       NO : One line per depth step
CREA. 10/15/14 : LAS Creation Date
~Well ------------------------------------------------------
STRT.M                       300.0 : START DEPTH
STOP.M                      3850.0 : STOP DEPTH
STEP.M                    50.00000 : STEP LENGTH
NULL.                      -999.25 : NULL VALUE
COMP.                   SUNCOR INC : COMPANY
WELL. SUNCOR PINE CREEK 10-1-56-19 : WELL
FLD .                              : FIELD
LOC .                              : LOCATION
CTRY.                       CANADA : COUNTRY
SRVC.                 Schlumberger : SERVICE COMPANY
DATE.                  11-Sep-1992 : LOGDATE
PROV.                      Alberta : PROVINCE
UWI .             100100105619W500 : UNIQUE WELL ID
SLAT.WGS84                53.81139 : SURFACE LATITUDE
SLON.WGS84               -116.6829 : SURFACE LONGITUDE
~Curve Information -----------------------------------------
DEPT    .M      : Depth Curve
CAL2DED .MM     : CALIPER FROM DENSITY LOG
CALD1ED .MM     : CALIPER FROM DENSITY LOG
CALD2ED .MM     : CALIPER FROM DENSITY LOG
CALDED  .MM     : CALIPER FROM DENSITY LOG
CALWS   .MM     : CALIPER [CALD1ED SPL. TO CAL2DED @ 3631 M]
CONDWS  .MMHO   : CONDUCTIVITY [1000/DRESWS]
DCORWS  .KG/M3  : DENSITY CORRECTION [DRHOED]
DENWS   .KG/M3  : FORMATION BULK DENSITY [CALC. FROM DPOLSWS, M=2710, F=1000]
DPHILSED.V/V    : DENSITY POROSITY [M=2710, F=1000] FROM DENSITY LOG
DPHISSED.V/V    : DENSITY POROSITY [M=2650, F=1000] FROM DENSITY LOG
DPOLSWS .V/V    : DENSITY POROSITY [DPHISSED CONVERT TO LIMESTONE, M=2710, F=1000 & SPL. TO DPHILSED @ 2614M]
DRESWS  .OHMM   : DEEP RESISTIVITY [IDPHED]
DRHOED  .KG/M3  : DENSITY CORRECTION FROM DENSITY LOG
DTED    .US/M   : DELTA TIME FROM SONIC LOG [ADJ. TO RESISTIVITY LOG]
DTWS    .US/M   : COMPRESSIONAL SONIC [DTED]
ENPHLSED.V/V    : EPITHERMAL NEUTRON POROSITY LIMESTONE FROM DENSITY LOG
ENPHSSED.V/V    : EPITHERMAL NEUTRON POROSITY SANDSTONE FROM DENSITY LOG
GRDED   .GAPI   : GAMMA RAY FROM DENSITY LOG
GRED    .GAPI   : GAMMA RAY FROM CBL LOG [ADJ. TO RESISTIVITY LOG]
GRNED   .GAPI   : GAMMA RAY FROM CNL LOG [ADJ. TO RESISTIVITY LOG]
GRRED   .GAPI   : GAMMA RAY FROM RESISTIVITY LOG
GRSED   .GAPI   : GAMMA RAY FROM SONIC LOG [ADJ. TO RESISTIVITY LOG]
GRWS    .GAPI   : GAMMA RAY [GRED SPL. TO GRSED @ 84 M]
HDED    .MM     : HORIZONTAL HOLE DIAMETER FROM SONIC LOG
IDPHED  .OHMM   : DEEP INDUCTION PHASOR RESISTIVITY FROM RESISTIVITY LOG
IMPHED  .OHMM   : MEDIUM INDUCTION PHASOR RESISTIVITY FROM RESISTIVITY LOG
MRESWS  .OHMM   : MEDIUM RESISTIVITY [IMPHED]
NPHILSED.V/V    : NEUTRON POROSITY  SANDSTONE FROM CNL LOG [ADJ. TO RESISTIVITY LOG]
NPOLSWS .V/V    : NEUTRON POROSITY LIMESTONE [NPORSSED CONVERT TO LIMESTONE & SPL. TO NPORLSED @ 2614 M & NPHILSED BELOOW 3612 M]
NPORLSED.V/V    : NEUTRON POROSITY LIMESTONE FROM DENSITY LOG
NPORSSED.V/V    : NEUTRON POROSITY SANDSTONE FROM DENSITY LOG
PEFED   .B/E    : PHOTOELECTRIC FACTOR FROM DENSITY LOG
PEFWS   .B/E    : PHOTOELECTRIC FACTOR [PEFED]
RHOBED  .KG/M3  : BULK DENSITY FROM DENSITY LOG
SFLUED  .OHMM   : SHALLOW FOCUS RESISTIVITY FROM RESISTIVITY LOG
SPRED   .MV     : SPONTANEOUS POTENTIAL FROM RESISTIVITY LOG
SPWS    .MV     : SPONTANEOUS POTENTIAL [BASELINE TO 0 MV, SPRED]
SRESWS  .OHMM   : SHALLOW RESISTIVITY [SFLUED]
TENDED  .N      : TENSION FROM DENSITY LOG
TENRED  .N      : TENSION FROM RESISTIVITY LOG
TENSED  .N      : TENSION FROM SONIC LOG [ADJ. TO RESISTIVITY LOG]
~Params ----------------------------------------------------
PD  .                         GL : PERMANENT DATUM
EPD .M                    1104.6 : ELEVATION PERMANENT DATUM
LMF .                         KB : LOG MEASURED FROM
DAPD.M                       6.4 : FEET ABOVE PERMANENT DATUM
DMF .                         KB : DRILLING MEASURED FROM
EKB .M                      1111 : KELLY BUSHING
EDF .M                    1110.6 : DRILLING FLOOR
EGL .M                    1104.6 : GROUND LEVEL
DATE.                   09/11/92 : RUN DATE
RUN .                          2 : RUN NUMBER
DD  .M                      3670 : DEPTH DRILLER
DL  .M                      3871 : DEPTH LOGGER
BLI .M                    3868.1 : BOTTOM LOG INTERVAL
TLI .M                    3837.5 : TOP LOG INTERVAL
CS  .MM                    177.8 : CASING SIZE
CBD .M                      3639 : CASING BOTTOM DRILLER
CBL .M                    3637.5 : CASING BOTTOM LOGGER
BS  .MM                      152 : BIT SIZE
BSD .M                      3670 : BIT SIZE AT DEPTH
DFT .                   GEL CHEM : DRILLING FLUID TYPE
DFD .                       1045 : DRILLING FLUID DENSITY
DFV .                         47 : DRILLING FLUID VISCOSITY
DFPH.                         16 : DRILLING FLUID PH
DFL .                       10.5 : DRILLING FLUID LOSS
MSS .                   FLOWLINE : MUD SAMPLE SOURCE
RMS .OHMM                   1.41 : RESISTIVITY MUD SAMPLE
MST .DEGC                     16 : MUD SAMPLE TEMPERATURE
RMF .OHMM                   1.32 : RESISTIVITY MUD FILTRATE SAMPLE
MFST.DEGC                     12 : MUD FILTRATE SAMPLE TEMPERATURE
RMC .OHMM                   1.37 : RESISTIVITY MUD CAKE
MCST.DEGC                     14 : MUD CAKE SAMPLE TEMPERATURE
MFSS.                   MEASURED : MUD FILTRATE SAMPLE SOURCE
MCSS.                   MEASURED : MUD CAKE SAMPLE SOURCE
RMB .OHMM                  0.402 : RESISTIVITY MUD AT BHT
TCS .HRS                     500 : TIME CIRCULATED STOPPED
TLAB.HRS                    1440 : TIME LOGGER AT BOTTOM
LUN .                       2012 : LOGGING UNIT NUMBER
LUL .                   EDMONTON : LOGGING UNIT LOCATION
ENGI.                       HOLT : RECORDING ENGINEER
WITN.                     HESTER : WITNESSED BY
CLNT.                    A2DTECH : CLIENT CODE
ORIG. 6.5"/100M 16.5"/100M PRINT : ORIGIN OF DATA
UWI .           100100105619W500 : UNIQUE WELL ID
DICO.     A2D Technologies, Inc. : DIGITIZING COMPANY
~Other -----------------------------------------------------
~ASCII -----------------------------------------------------
# ...
 3000.00000    -999.25  221.74870  224.60580    -999.25  221.74870   15.73770    6.48200 2694.26800    0.00920   -0.02750    0.00920   63.54170    6.48200  179.52220  179.52220    0.07770    0.07890   44.20380    -999.25    -999.25   45.54100   46.21310   46.21310  223.38860   63.54170   59.62870   59.62870    -999.25    0.06160    0.06160    0.10310    4.42270    4.42270 2693.61330   84.40300  -29.22840  -46.81470   84.40300 21542.39260 21493.12110 19430.34380
 3050.00000    -999.25  221.00430  218.76850    -999.25  221.00430    2.53290   17.19940 2435.71600    0.16040    0.13030    0.16040  394.80330   17.19940  241.05000  241.05000    0.16650    0.16770  299.81720    -999.25    -999.25  300.04830    -999.25    -999.25  228.63850  394.80330  199.21030  199.21030    -999.25    0.14820    0.14820    0.19730    2.51460    2.51460 2435.36960  439.45970  -54.33350  -73.23430  439.45970 21434.74610 21340.05270 19551.35160
 3100.00000    -999.25  285.72730  216.92650    -999.25  285.72730    0.51830  216.98210 2485.30600    0.13140    0.10180    0.13140 1929.22340  216.98210  165.61440  165.61440    0.06830    0.06990    9.66620    -999.25    -999.25    9.93560   10.13590   10.13590  221.99220 1929.22340  446.64570  446.64570    -999.25    0.00600    0.00600    0.03470    4.60670    4.60670 2485.56570 1978.98390  -63.19050  -83.40570 1978.98390 21894.39260 21744.00200 19683.46880
 3150.00000    -999.25  293.41930  216.91800    -999.25  293.41930    0.51980  249.92320 2463.58900    0.14410    0.11060    0.14410 1923.91500  249.92320  160.02800  160.02800    0.06330    0.06380   11.91030    -999.25    -999.25   12.05380   11.43950   11.43950  234.78790 1923.91500  308.72870  308.72870    -999.25    0.00300    0.00300    0.03240    5.65240    5.65240 2456.32470 1075.43990  -81.16810 -102.69770 1075.43990 22289.57620 22134.42770 20224.83980
 3200.00000    -999.25  286.62720  219.55790    -999.25  286.62720    0.51930  193.47900 2554.04800    0.09120    0.05920    0.09120 1925.63320  193.47900  166.43570  166.43570    0.07710    0.07600   13.76610    -999.25    -999.25   13.73980   13.51380   13.51380  249.59450 1925.63320  221.86250  221.86250    -999.25    0.01670    0.01670    0.04690    4.90500    4.90500 2558.90940 1563.68490  -74.74470  -97.58870 1563.68490 22088.15230 22135.03710 20844.08590
 3250.00000    -999.25  221.36910  221.76760    -999.25  221.36910   15.56640    4.89900 2681.61400    0.01660   -0.01870    0.01660   64.24080    4.89900  162.78910  162.78910    0.03360    0.03190    8.15510    -999.25    -999.25    8.37510   10.92250   10.92250  219.04910   64.24080   56.67760   56.67760    -999.25    0.00500    0.00500    0.03380    5.72440    5.72440 2678.29860   93.04050  -95.40440 -119.56280   93.04050 22918.56250 22910.55860 20505.01370
 3300.00000    -999.25  300.51640  218.41840    -999.25  300.51640   19.36000  251.05740 2482.05700    0.13330    0.10300    0.13330   51.65300  251.05740  172.19220  172.19220    0.14140    0.14180   22.51270    -999.25    -999.25   22.44650   23.98340   23.98340  242.98810   51.65300   57.17230   57.17230    -999.25    0.04850    0.04850    0.08780    3.62700    3.62700 2478.78780  172.26690  -71.67520  -97.14810  172.26690 22501.67970 22410.09380 20747.40630
 3350.00000    -999.25  269.79860  221.31340    -999.25  269.79860   16.99320  252.00000 2593.72000    0.06800    0.03500    0.06800   58.84690  252.00000  175.75340  175.75340    0.07150    0.06880   28.67450    -999.25    -999.25   28.52990   28.83980   28.83980  229.17920   58.84690   70.74840   70.74840    -999.25    0.04250    0.04250    0.07870    5.12460    5.12460 2583.20580   81.99220  -26.17070  -52.95800   81.99220 23397.91990 23376.30270 21322.53520
 3400.00000    -999.25  223.71350  225.42940    -999.25  223.71350   19.16390   -0.98170 2690.50600    0.01140   -0.02360    0.01140   52.18150   -0.98170  179.06290  179.06290    0.07640    0.07680   36.68140    -999.25    -999.25   36.66910   34.34360   34.34360  225.34200   52.18150   49.58950   49.58950    -999.25    0.06000    0.06000    0.10150    5.63340    5.63340 2686.99510   60.29450  -19.62400  -47.72570   60.29450 23270.79300 23438.79690 21434.84380
 3450.00000    -999.25  222.06470  225.36850    -999.25  222.06470   62.84960   -1.94030 2672.38000    0.02200   -0.01390    0.02200   15.91100   -1.94030  194.64050  194.64050    0.09750    0.09700   47.88760    -999.25    -999.25   48.72500   45.30400   45.30400  225.94960   15.91100   16.63250   16.63250    -999.25    0.07730    0.07730    0.12060    4.90320    4.90320 2674.51150   19.22330  -10.24640  -39.66250   19.22330 22480.65820 22483.27930 21048.06050
 3500.00000    -999.25  297.20600  227.14420    -999.25  297.20600  169.71300  224.99890 2533.69900    0.10310    0.07010    0.10310    5.89230  224.99890  260.25340  260.25340    0.24300    0.25010   99.54830    -999.25    -999.25   99.57410   91.02140   91.02140  248.77070    5.89230    5.91720    5.91720    -999.25    0.21000    0.21000    0.25860    4.06760    4.06760 2534.06180    7.03920   -8.09700  -38.82750    7.03920 24434.38670 24855.54490 21556.13870
 3550.00000    -999.25  221.89180  225.26760    -999.25  221.89180   79.28640   12.22050 2702.98900    0.00410   -0.03080    0.00410   12.61250   12.22050  203.76690  203.76690    0.14120    0.14060   75.04630    -999.25   47.11520   75.23740   72.29590   72.29590  221.42810   12.61250   13.36320   13.36320    0.08300    0.13520    0.13520    0.18120    4.55990    4.55990 2700.61350   16.79760   10.08930  -21.95570   16.79760 23315.41800 23176.84770 21261.38480
 3600.00000    -999.25  219.03800  221.98260    -999.25  219.03800   10.33750    6.79640 2622.44800    0.05120    0.01810    0.05120   96.73520    6.79640  207.33330  207.33330    0.10430    0.10770   94.07930    -999.25   54.61710   95.48970   83.38870   83.38870  221.29270   96.73520   86.68820   86.68820    0.12800    0.16500    0.16500    0.21610    3.82630    3.82630 2616.04270  318.76380   21.39530  -11.96410  318.76380 22833.34570 23022.49020 20935.00390
 3650.00000  147.35170    -999.25    -999.25  141.77700  147.35170    -999.25   -0.17850 2554.21900    0.09110    -999.25    0.09110    -999.25   -0.17850  339.59200  339.59200    -999.25    -999.25  142.30890    -999.25   80.57420  121.39750  122.69480  122.69480  173.69890    -999.25  100.23140  100.23140    0.06400    0.11690    0.11690    -999.25    3.40340    3.40340 2552.82030 2000.00000    0.80340  -35.96390 2000.00000 1230.02260   49.33370 20362.56250
 3700.00000  147.18910    -999.25    -999.25  164.81820  147.18910    6.48480  250.34110 2803.53700   -0.05470    -999.25   -0.05470  154.20660  250.34110  203.62980  203.62980    -999.25    -999.25    6.32220    -999.25    9.15000    4.83650    4.57680    4.57680  145.42920  154.20660   59.95880   59.95880    -999.25    0.04370    0.04370    -999.25    3.45670    3.45670 2806.84790  531.59800  -36.99010  -86.70220  531.59800 1784.64770  535.95080 20726.70900
 3750.00000  213.22750    -999.25    -999.25  142.55340  213.22750    0.52230   17.18280 2714.27500   -0.00250    -999.25   -0.00250 1914.70080   17.18280  219.94870  219.94870    -999.25    -999.25   13.61890    -999.25    -999.25   12.73370   12.15180   12.15180  146.00850 1914.70080   99.06530   99.06530    -999.25    0.01180    0.01180    -999.25    4.46580    4.46580 2709.62080 2000.00000  -50.08310 -112.74010 2000.00000 1452.22510  370.88470 20484.71480
 3800.00000  150.18010    -999.25    -999.25  179.48800  150.18010    0.52290  252.00000 2401.85800    0.18020    -999.25    0.18020 1912.34350  252.00000  222.02940  222.02940    -999.25    -999.25    9.23800    -999.25    -999.25   12.07880   11.49580   11.49580  145.89140 1912.34350   87.68160   87.68160    -999.25    0.02530    0.02530    -999.25    3.12970    3.12970 2402.33590 2000.00000  -27.02690 -102.62880 2000.00000 1523.69200 1182.88320 20710.05470
 3850.00000  153.05530    -999.25    -999.25  140.57940  153.05530   21.05620    4.49180 2769.67900   -0.03490    -999.25   -0.03490   47.49200    4.49180  219.46140  219.46140    -999.25    -999.25   48.88100    -999.25    -999.25   43.66880   43.69300   43.69300  146.48470   47.49200   26.75430   26.75430    -999.25    0.04480    0.04480    -999.25    2.92830    2.92830 2769.34640   45.20900    9.48530  -71.11330   45.20900 2610.70410 1459.39250 21441.16990
