~Version ---------------------------------------------------
VERS.      2.0 : CWLS log ASCII Standard -VERSION 2.0
WRAP.       NO : One line per depth step
CREA. 12/15/17 : LAS Creation Date
~Well ------------------------------------------------------
STRT.FT                          950.0 : START DEPTH
STOP.FT                         9600.0 : STOP DEPTH
STEP.FT                       50.00000 : STEP LENGTH
NULL.                          -999.25 : NULL VALUE
COMP.             QUASAR PETROLEUM LTD : COMPANY
WELL. QUASAR SIEBENS SUNSET 1-29-69-18 : WELL
FLD .                                  : FIELD
LOC .                                  : LOCATION
CTRY.                           CANADA : COUNTRY
SRVC.                     Schlumberger : SERVICE COMPANY
DATE.                      27-Dec-1974 : LOGDATE
PROV.                          Alberta : PROVINCE
UWI .                 100012906918W500 : UNIQUE WELL ID
SLAT.WGS84                    54.99883 : SURFACE LATITUDE
SLON.WGS84                   -116.6996 : SURFACE LONGITUDE
~Curve Information -----------------------------------------
DEPT  .FT    : Depth Curve
CALSED.IN    : CALIPER FROM SONIC LOG
CALWS .IN    : CALIPER [CALSED]
CILDED.MMHO  : CONDUCTIVITY FROM RESISTIVITY LOG
CONDWS.MMHO  : CONDUCTIVITY [1000/DRESWS]
DRESWS.OHMM  : DEEP RESISTIVITY [1000/CILDED IF ILDED <=5, ILDED & SPL. TO ILDED @ 3490']
DTED  .US/F  : DELTA-T FROM SONIC LOG
DTWS  .US/F  : COMPRESSIONAL SONIC [DTED]
GRSED .GAPI  : GAMMA RAY FROM SONIC LOG
GRWS  .GAPI  : GAMMA RAY [GRSED]
ILDED .OHMM  : DEEP INDUCTION RESISTIVITY FROM RESISTIVITY LOG
ILMED .OHMM  : MEDIUM INDUCTION RESISTIVITY FROM RESISTIVITY LOG
LL8ED .OHMM  : LATEROLOG 8 RESISTIVITY FROM RESISTIVITY LOG
MRESWS.OHMM  : MEDIUM RESISTIVITY [ILMED]
SPRED .MV    : SPONTANEOUS POTENTIAL FROM RESISTIVITY LOG SHIFTED
SPWS  .MV    : SPONTANEOUS POTENTIAL [BASELINE 0 MV, SPRED]
SRESWS.OHMM  : SHALLOW RESISTIVITY [LL8ED]
~Params ----------------------------------------------------
PD  .                     GL : PERMANENT DATUM
EPD .FT               3066.1 : ELEVATION PERMANENT DATUM
LMF .                     KB : LOG MEASURED FROM
DAPD.FT                 14.8 : FEET ABOVE PERMANENT DATUM
EKB .FT               3080.9 : KELLY BUSHING
EGL .FT               3066.1 : GROUND LEVEL
DATE.               12/27/74 : RUN DATE
RUN .                      1 : RUN NUMBER
DD  .FT                 9631 : DEPTH DRILLER
DL  .FT                 9629 : DEPTH LOGGER
BLI .FT                 9623 : BOTTOM LOG INTERVAL
TLI .FT                  968 : TOP LOG INTERVAL
CBD .FT                  966 : CASING BOTTOM DRILLER
CBL .FT                  968 : CASING BOTTOM LOGGER
BS  .IN                7.875 : BIT SIZE
BSD .FT                 9631 : BIT SIZE AT DEPTH
DFT .                    GEL : DRILLING FLUID TYPE
DFD .                    9.1 : DRILLING FLUID DENSITY
DFV .                     75 : DRILLING FLUID VISCOSITY
DFPH.                    9.6 : DRILLING FLUID PH
DFL .                      9 : DRILLING FLUID LOSS
MSS .               FLOWLINE : MUD SAMPLE SOURCE
RMS .OHMM                  2 : RESISTIVITY MUD SAMPLE
MST .DEGF                 62 : MUD SAMPLE TEMPERATURE
RMF .OHMM               1.86 : RESISTIVITY MUD FILTRATE SAMPLE
MFST.DEGF                 70 : MUD FILTRATE SAMPLE TEMPERATURE
MCST.DEGF                 67 : MUD CAKE SAMPLE TEMPERATURE
RMB .OHMM               2.21 : RESISTIVITY MUD AT BHT
TCS .HRS                 3.5 : TIME CIRCULATED STOPPED
LUN .                   7691 : LOGGING UNIT NUMBER
LUL .                    EDM : LOGGING UNIT LOCATION
ENGI.             LAVERDIERE : RECORDING ENGINEER
WITN.          WETTER SAYERS : WITNESSED BY
CLNT.                A2DTECH : CLIENT CODE
ORIG.            2" 5" PRINT : ORIGIN OF DATA
UWI .       100012906918W500 : UNIQUE WELL ID
DICO. A2D Technologies, Inc. : DIGITIZING COMPANY
~Other -----------------------------------------------------
DIL-BHC TOOLS RUN
ALL DIL-BHC TOOL CURVES FROM TOP TO 3490' FROM 2" SCALE SECTION
SP AFFECTED BY TELLURIC CURRENTS
LOG NOT TAPED
~ASCII -----------------------------------------------------
  950.00000    -999.25    -999.25    -999.25    -999.25    -999.25    -999.25    -999.25   59.89980   59.89980    -999.25    -999.25    -999.25    -999.25    -999.25    -999.25    -999.25
 1000.00000    8.49270    8.49270  184.56930  179.05100    5.58500  106.89170  106.89170   62.09270   62.09270    5.58500    -999.25    4.53000    -999.25  -51.50000  -13.93990    4.53000
 1050.00000   10.28340   10.28340  165.52180  165.52180    6.04150  140.64730  140.64730   53.91680   53.91680    4.52500    -999.25    4.32500    -999.25  -46.42000   -8.85990    4.32500
 1100.00000   11.45220   11.45220  290.69670  290.69670    3.44000  137.87230  137.87230   67.03610   67.03610    3.96250    -999.25    2.77000    -999.25  -40.13000   -2.56990    2.77000
 1150.00000    7.94640    7.94640   94.28370   86.28130   11.59000  114.27970  114.27970   52.26680   52.26680   11.59000    -999.25    9.61000    -999.25  -56.88000  -19.57290    9.61000
 1200.00000   11.48750   11.48750  323.20030  323.20030    3.09410  161.34830  161.34830   63.03550   63.03550    3.47000    -999.25    2.57000    -999.25  -37.56000   -0.52550    2.57000
 1250.00000    9.59370    9.59370  220.34310  180.83180    5.53000  140.88780  140.88780   65.12800   65.12800    5.53000    -999.25    3.88500    -999.25  -39.36000   -2.59630    3.88500
 1300.00000    7.97260    7.97260  176.37410  118.48340    8.44000  116.54390  116.54390   65.13310   65.13310    8.44000    -999.25    6.11500    -999.25  -52.94000  -16.44710    6.11500
 1350.00000    7.87040    7.87040   91.20370   87.18400   11.47000   92.40590   92.40590   53.87600   53.87600   11.47000    -999.25    8.96500    -999.25  -54.09000  -17.86970    8.96500
 1400.00000    7.60450    7.60450  163.53910  135.77730    7.36500  114.38120  114.38120   61.40830   61.40830    7.36500    -999.25    5.76000    -999.25  -49.18000  -13.23050    5.76000
 1450.00000    7.88990    7.88990  112.00930  117.13030    8.53750  101.80900  101.80900   47.64840   47.64840    8.53750    -999.25    7.61000    -999.25  -50.26000  -14.58310    7.61000
 1500.00000    9.51000    9.51000  287.75690  287.75690    3.47520  132.58600  132.58600   69.69540   69.69540    4.18500    -999.25    3.28500    -999.25  -39.80000   -4.39390    3.28500
 1550.00000    7.45910    7.45910  123.35630  106.78060    9.36500  115.20990  115.20990   59.83440   59.83440    9.36500    -999.25    8.04000    -999.25  -52.96000  -17.82470    8.04000
 1600.00000    7.54860    7.54860  149.57340  146.52010    6.82500  103.02720  103.02720   55.51430   55.51430    6.82500    -999.25    4.30750    -999.25  -42.80000   -7.93730    4.30750
 1650.00000    9.93660    9.93660  267.19600  267.19600    3.74260  121.63730  121.63730   70.52420   70.52420    4.00500    -999.25    3.49500    -999.25  -40.92000   -6.32810    3.49500
 1700.00000    7.80660    7.80660   67.60990   62.57820   15.98000  100.43630  100.43630   51.92200   51.92200   15.98000    -999.25   19.49500    -999.25  -47.48000  -13.16070   19.49500
 1750.00000    7.41590    7.41590  120.98000  143.98850    6.94500  114.76560  114.76560   55.63210   55.63210    6.94500    -999.25   12.40000    -999.25  -41.98000   -7.93150   12.40000
 1800.00000    7.78360    7.78360  250.17160  250.17160    3.99730  114.40150  114.40150   72.78030   72.78030    4.66500    -999.25    4.20500    -999.25  -39.36000   -5.58230    4.20500
 1850.00000    7.40210    7.40210  112.12680  111.57600    8.96250  115.28430  115.28430   49.33320   49.33320    8.96250    -999.25    7.82250    -999.25  -54.10000  -20.59480    7.82250
 1900.00000    8.20870    8.20870  301.28990  301.28990    3.31910  119.91800  119.91800   61.07770   61.07770    3.86000    -999.25    3.39000    -999.25  -35.80000   -2.56570    3.39000
 1950.00000    8.86530    8.86530  231.82860  174.14020    5.74250  112.25920  112.25920   55.32890   55.32890    5.74250    -999.25    4.91250    -999.25  -40.02000   -7.02380    4.91250
 2000.00000    9.35970    9.35970  266.19300  266.19300    3.75670  120.58170  120.58170   66.13970   66.13970    4.71500    -999.25    3.45500    -999.25  -38.34000   -5.53140    3.45500
 2050.00000    9.40840    9.40840  265.54100  265.54100    3.76590  111.22620  111.22620   60.19190   60.19190    4.46500    -999.25    3.45500    -999.25  -36.08000   -3.45900    3.45500
 2100.00000    8.01140    8.01140  204.82830  204.82830    4.88210  111.57960  111.57960   62.36150   62.36150    4.64000    -999.25    4.91500    -999.25  -58.25000  -25.81790    4.91500
 2150.00000    9.94160    9.94160  244.44320  244.44320    4.09090  112.70570  112.70570   61.44060   61.44060    4.75500    -999.25    4.01000    -999.25  -47.38000  -15.13550    4.01000
 2200.00000   10.50310   10.50310  295.46140  295.46140    3.38450  123.66450  123.66450   65.75700   65.75700    4.14500    -999.25    3.01000    -999.25  -36.95000   -4.89440    3.01000
 2250.00000   10.27460   10.27460  321.72270  321.72270    3.10830  121.14570  121.14570   72.75610   72.75610    3.54000    -999.25    2.35000    -999.25  -36.58000   -4.71200    2.35000
 2300.00000   11.29710   11.29710  190.49700  185.52880    5.39000  113.98510  113.98510   81.21870   81.21870    5.39000    -999.25    4.56000    -999.25  -41.32000   -9.63960    4.56000
 2350.00000   12.39410   12.39410  180.40190  154.02390    6.49250  107.79280  107.79280   67.60020   67.60020    6.49250    -999.25    4.96250    -999.25  -40.26000   -8.76850    4.96250
 2400.00000   13.14480   13.14480  190.32830  163.93440    6.10000  130.85050  130.85050   88.53260   88.53260    6.10000    -999.25    5.18000    -999.25  -42.46000  -11.15610    5.18000
 2450.00000   10.49140   10.49140  197.53720  155.46060    6.43250  120.76050  120.76050  142.69400  142.69400    6.43250    -999.25    5.91750    -999.25  -36.89000   -5.77500    5.91750
 2500.00000    8.85330    8.85330  214.56820  197.04430    5.07500  112.09660  112.09660  167.12220  167.12220    5.07500    -999.25    5.70500    -999.25  -34.60000   -3.67260    5.70500
 2550.00000   11.44480   11.44480  227.60930  178.73100    5.59500  129.82510  129.82510  119.88070  119.88070    5.59500    -999.25    5.35500    -999.25  -42.60000  -11.86030    5.35500
 2600.00000   11.72420   11.72420  178.88820  163.13210    6.13000  137.37880  137.37880   79.43280   79.43280    6.13000    -999.25    5.05500    -999.25  -42.81000  -12.25910    5.05500
 2650.00000   12.09300   12.09300  186.89160  162.99920    6.13500  123.10060  123.10060   87.37720   87.37720    6.13500    -999.25    5.02000    -999.25  -46.98000  -16.61680    5.02000
 2700.00000    9.87430    9.87430  174.64320  159.68060    6.26250  173.11200  173.11200   90.23300   90.23300    6.26250    -999.25    4.66000    -999.25  -47.39000  -17.21560    4.66000
 2750.00000   14.20510   14.20510  177.35020  152.43900    6.56000  175.86910  175.86910   72.68760   72.68760    6.56000    -999.25    4.64500    -999.25  -46.08000  -16.09330    4.64500
 2800.00000   14.56110   14.56110  178.63220  165.28930    6.05000  154.07040  154.07040   79.17950   79.17950    6.05000    -999.25    4.52000    -999.25  -48.54000  -18.74090    4.52000
 2850.00000   13.13830   13.13830  123.88520  113.89520    8.78000  119.46870  119.46870   78.51260   78.51260    8.78000    -999.25    6.77000    -999.25  -48.00000  -18.38970    6.77000
 2900.00000   11.04770   11.04770  155.88560  145.87890    6.85500  112.79980  112.79980   81.59610   81.59610    6.85500    -999.25    6.40000    -999.25  -46.56000  -17.13740    6.40000
 2950.00000   10.58550   10.58550  167.61750  156.18900    6.40250  107.00420  107.00420   86.85450   86.85450    6.40250    -999.25    9.23000    -999.25  -44.56000  -15.32620    9.23000
 3000.00000   11.24000   11.24000  195.80710  183.48620    5.45000  111.76030  111.76030   95.79130   95.79130    5.45000    -999.25   11.29500    -999.25  -42.96000  -13.91390   11.29500
 3050.00000    9.30070    9.30070  213.85620  195.69470    5.11000  113.87630  113.87630  112.31250  112.31250    5.11000    -999.25   15.57500    -999.25  -43.32000  -14.46150   15.57500
