~Version ---------------------------------------------------
VERS.      2.0 : CWLS log ASCII Standard -VERSION 2.0
WRAP.       NO : One line per depth step
CREA. 12/21/17 : LAS Creation Date
~Well ------------------------------------------------------
STRT.FT                 1500.0 : START DEPTH
STOP.FT                10050.0 : STOP DEPTH
STEP.FT               50.00000 : STEP LENGTH
NULL.                  -999.25 : NULL VALUE
COMP.     CHEVRON STANDARD LTD : COMPANY
WELL. CHEVRON PEMBINA 6-3-51-7 : WELL
FLD .                          : FIELD
LOC .                          : LOCATION
CTRY.                   CANADA : COUNTRY
SRVC.             Schlumberger : SERVICE COMPANY
DATE.              05-Jul-1978 : LOGDATE
PROV.                  Alberta : PROVINCE
UWI .         100060305107W500 : UNIQUE WELL ID
SLAT.WGS84            53.37366 : SURFACE LATITUDE
SLON.WGS84           -114.9508 : SURFACE LONGITUDE
~Curve Information -----------------------------------------
DEPT    .FT    : Depth Curve
CALDED  .IN    : CALIPER FROM DENSITY LOG [ADJ.TO RESISTIVITY LOG]
CALSED  .IN    : CALIPER FROM SONIC LOG [ADJ.TO RESISTIVITY LOG]
CALWS   .IN    : CALIPER [CALDED]
CONDWS  .MMHO  : CONDUCTIVITY [1000/DRESWS]
DCORED  .G/C3  : DENSITY CORRECTION FROM DENSITY LOG [ADJ.TO RESISTIVITY LOG]
DCORWS  .G/C3  : DENSITY CORRECTION [DCORED]
DENWS   .G/C3  : FORMATION BULK DENSITY [RHOBED]
DPHILSED.V/V   : DENSITY POROSITY LIMESTONE [M=2.71,F=1.0] FROM DENSITY LOG [RESISTIVITY LOG]
DPHISSED.V/V   : DENSITY POROSITY SANDSTONE [M=2.65,F=1.0] FROM DENSITY LOG [RESISTIVITY LOG]
DPOLSWS .V/V   : DENSITY POROSITY LIMESTONE [CALC FROM DENWS,M=2.71, F=1.00]]
DRESWS  .OHMM  : DEEP RESISTIVITY [ILDED]
DTED    .US/F  : DELTA TIME FROM SONIC LOG [ADJ.TO RESISTIVITY LOG]
DTWS    .US/F  : COMPRESSIONAL SONIC [DTED]
GRDED   .GAPI  : GAMMA RAY FROM DENSITY LOG [ADJ.TO RESISTIVITY LOG]
GRSED   .GAPI  : GAMMA RAY FROM SONIC LOG [ADJ.TO RESISTIVITY LOG]
GRWS    .GAPI  : GAMMA RAY [GRSED SPL.TO GRDED @ 1554.5']
ILDED   .OHMM  : DEEP INDUCTION FROM RESISTIVITY LOG
ILMED   .OHMM  : MEDIUM INDUCTION FROM RESISTIVITY LOG
MRESWS  .OHMM  : MEDIUM RESISTIVITY [ILMED]
NPHILSED.V/V   : NEUTRON POROSITY LIMESTONE FROM DENSITY LOG [RESISTIVITY LOG]
NPHISSED.V/V   : NEUTRON POROSITY SANDSTONE FROM DENSITY LOG [RESISTIVITY LOG]
NPOLSWS .V/V   : NEUTRON POROSITY LIMESTONE [NPHISSED MATRIX SLB CONVERSION FOR LIMESTONE, SPL.TO NPHILSED @ 6010']
RHOBED  .G/C3  : BULK DENSITY FROM DENSITY LOG [ADJ.TO RESISTIVITY LOG]
SFLED   .OHMM  : SPHERICALLY FOCUSED FROM RESISTIVITY LOG
SPRED   .MV    : SPONTANEOUS POTENTIAL FROM RESISTIVITY LOG
SPWS    .MV    : SPONTANEOUS POTENTIAL [BASELINE 0 MV, SPRED]
SRESWS  .OHMM  : SHALLOW RESISTIVITY [SFLED]
~Params ----------------------------------------------------
PD  .                     GL : PERMANENT DATUM
EPD .FT               2688.6 : ELEVATION PERMANENT DATUM
LMF .                     KB : LOG MEASURED FROM
DAPD.FT                 17.4 : FEET ABOVE PERMANENT DATUM
EKB .FT                 2706 : KELLY BUSHING
EGL .FT               2688.6 : GROUND LEVEL
DATE.                0705/78 : RUN DATE
RUN .                      1 : RUN NUMBER
DD  .FT              3066.28 : DEPTH DRILLER
DL  .FT              3065.67 : DEPTH LOGGER
BLI .FT              3064.76 : BOTTOM LOG INTERVAL
TLI .FT               473.96 : TOP LOG INTERVAL
CBD .FT               473.96 : CASING BOTTOM DRILLER
CBL .FT               472.44 : CASING BOTTOM LOGGER
BS  .IN                 8.75 : BIT SIZE
BSD .FT              3066.28 : BIT SIZE AT DEPTH
DFT .                    GEL : DRILLING FLUID TYPE
DFD .                    110 : DRILLING FLUID DENSITY
DFV .                     75 : DRILLING FLUID VISCOSITY
DFPH.                    9.5 : DRILLING FLUID PH
MSS .            CIRCULATION : MUD SAMPLE SOURCE
RMS .OHMM               0.33 : RESISTIVITY MUD SAMPLE
MST .DEGF                 58 : MUD SAMPLE TEMPERATURE
RMF .OHMM               0.14 : RESISTIVITY MUD FILTRATE SAMPLE
MFST.DEGF                 68 : MUD FILTRATE SAMPLE TEMPERATURE
RMC .OHMM               0.15 : RESISTIVITY MUD CAKE
MCST.DEGF                 68 : MUD CAKE SAMPLE TEMPERATURE
TCS .HRS                   8 : TIME CIRCULATED STOPPED
LUN .                   7738 : LOGGING UNIT NUMBER
LUL .                    EDM : LOGGING UNIT LOCATION
ENGI.                ALVAREZ : RECORDING ENGINEER
WITN.                SPRAGUE : WITNESSED BY
CLNT.                A2DTECH : CLIENT CODE
ORIG.            2" 5" PRINT : ORIGIN OF DATA
UWI .       100060305107W500 : UNIQUE WELL ID
DICO. A2D Technologies, Inc. : DIGITIZING COMPANY
~Other -----------------------------------------------------
~ASCII -----------------------------------------------------
# ...
 8000.00000   12.11280    9.44270   12.11280  191.32160    0.06450    0.06450    2.28210    0.25230    -999.25    0.25030    5.22680   74.25360   74.25360   80.47320   90.20640   80.47320    5.22680    5.59340    5.59340    0.27750    -999.25    0.27750    2.28210    6.66330  -34.59540  -11.97320    6.66330
 8050.00000   10.68080    8.62470   10.68080  125.68660    0.08950    0.08950    2.38970    0.19140    -999.25    0.18730    7.95630   69.35910   69.35910   78.59740   82.44860   78.59740    7.95630    9.06350    9.06350    0.19200    -999.25    0.19200    2.38970   10.77720  -31.35170   -9.84300   10.77720
 8100.00000   13.45250   10.52380   13.45250  171.70920    0.10120    0.10120    2.33540    0.21800    -999.25    0.21910    5.82380   74.52720   74.52720   79.72540   81.08720   79.72540    5.82380    6.11380    6.11380    0.25530    -999.25    0.25530    2.33540    6.91170  -28.07420   -7.68630    6.91170
 8150.00000    9.63350    8.55240    9.63350  140.14040    0.08630    0.08630    2.33820    0.21980    -999.25    0.21740    7.13570   69.60000   69.60000   71.32070   76.08090   71.32070    7.13570    7.64570    7.64570    0.19870    -999.25    0.19870    2.33820    9.35760  -26.22140   -5.07180    9.35760
 8200.00000   13.45000   10.85060   13.45000  195.01540    0.07500    0.07500    2.40530    0.18440    -999.25    0.17820    5.12780   76.15740   76.15740   79.82190   78.26170   79.82190    5.12780    5.47570    5.47570    0.25160    -999.25    0.25160    2.40530    6.36620  -28.38300   -5.84310    6.36620
 8250.00000   13.54230   10.66900   13.54230  204.93480    0.03870    0.03870    2.49340    0.12700    -999.25    0.12670    4.87960   77.80220   77.80220   80.78050   84.00140   80.78050    4.87960    5.22260    5.22260    0.23620    -999.25    0.23620    2.49340    5.98220  -28.09060   -6.95350    5.98220
 8300.00000   13.15700   10.28470   13.15700  162.66510    0.09050    0.09050    2.37910    0.19540    -999.25    0.19350    6.14760   74.12320   74.12320   77.87220   78.33410   77.87220    6.14760    6.60000    6.60000    0.22780    -999.25    0.22780    2.37910    7.49830  -21.08180   -3.23150    7.49830
 8350.00000    8.95500    8.18040    8.95500   61.00540   -0.00390   -0.00390    2.65680    0.02920    -999.25    0.03110   16.39200   65.59220   65.59220   69.78950   73.29780   69.78950   16.39200   17.44020   17.44020    0.13560    -999.25    0.13560    2.65680   21.16910  -18.85220   -6.60860   21.16910
 8400.00000    8.84450    7.85190    8.84450   19.64860   -0.04540   -0.04540    2.63460    0.04610    -999.25    0.04410   50.89420   56.62420   56.62420   54.10220   48.32540   54.10220   50.89420   62.30220   62.30220    0.03750    -999.25    0.03750    2.63460   99.07860  -17.56050   -7.46220   99.07860
 8450.00000    8.73750    7.97140    8.73750   77.27500   -0.04560   -0.04560    2.65040    0.03260    -999.25    0.03490   12.94080   63.77880   63.77880   53.31350   63.48810   53.31350   12.94080   13.89030   13.89030    0.14170    -999.25    0.14170    2.65040   15.92240   -9.11620   -1.17730   15.92240
 8500.00000   11.03710    9.09670   11.03710  272.96300    0.08620    0.08620    2.19690    0.29930    -999.25    0.30010    3.66350   79.48420   79.48420   76.54760   76.47800   76.54760    3.66350    3.92580    3.92580    0.28070    -999.25    0.28070    2.19690    4.30920  -27.28070  -21.06390    4.30920
 8550.00000   12.54060   10.71110   12.54060  253.92310    0.04070    0.04070    2.22090    0.28700    -999.25    0.28600    3.93820   81.57240   81.57240   82.28000   83.75870   82.28000    3.93820    4.20500    4.20500    0.31580    -999.25    0.31580    2.22090    5.08200  -16.15190  -11.50080    5.08200
 8600.00000   12.11920   10.51830   12.11920  280.25330    0.00350    0.00350    2.38490    0.19350    -999.25    0.19010    3.56820   84.25980   84.25980   90.05830   96.74770   90.05830    3.56820    3.87660    3.87660    0.26500    -999.25    0.26500    2.38490    4.50880  -15.47740  -12.40230    4.50880
 8650.00000    8.83950    8.06850    8.83950   50.03880   -0.03000   -0.03000    2.64530    0.03350    -999.25    0.03780   19.98450   58.04410   58.04410   43.16600   41.96630   43.16600   19.98450   22.52230   22.52230    0.09770    -999.25    0.09770    2.64530   26.09560   -8.28450   -7.19890   26.09560
 8700.00000    9.00690    8.48920    9.00690  116.01470    0.00530    0.00530    2.49670    0.11680    -999.25    0.12470    8.61960   62.77620   62.77620   53.60820   56.16900   53.60820    8.61960    9.73280    9.73280    0.11820    -999.25    0.11820    2.49670   14.51880  -12.42580  -14.76890   14.51880
 8750.00000    9.08180    8.22570    9.08180  112.37340   -0.05300   -0.05300    2.67120    0.02140    -999.25    0.02270    8.89890   63.55130   63.55130   52.79600   55.13990   52.79600    8.89890    9.97370    9.97370    0.12820    -999.25    0.12820    2.67120   11.65360    4.56420   -0.56910   11.65360
 8800.00000    8.98100    8.13070    8.98100   27.26420   -0.04690   -0.04690    2.67110    0.02220    -999.25    0.02270   36.67820   54.01460   54.01460   28.40050   34.56830   28.40050   36.67820   45.28310   45.28310    0.04790    -999.25    0.04790    2.67110   40.64240   -2.57500   -7.11050   40.64240
 8850.00000    8.96790    8.20800    8.96790   53.45080   -0.05450   -0.05450    2.66240    0.02170    -999.25    0.02780   18.70880   58.33740   58.33740   36.11550   38.00130   36.11550   18.70880   19.96800   19.96800    0.05910    -999.25    0.05910    2.66240   22.10310   -0.46290   -4.39660   22.10310
 8900.00000    8.95150    8.18340    8.95150   11.71180   -0.03830   -0.03830    2.67130    0.01540    -999.25    0.02260   85.38370   51.80840   51.80840   20.29310   20.85070   20.29310   85.38370  118.54550  118.54550    0.01830    -999.25    0.01830    2.67130  154.74310   -7.57700   -9.83600  154.74310
 8950.00000    8.87880    8.11800    8.87880   48.66770   -0.03930   -0.03930    2.65890    0.03360    -999.25    0.02990   20.54750   57.60320   57.60320   39.69000   39.79360   39.69000   20.54750   21.71540   21.71540    0.06770    -999.25    0.06770    2.65890   26.24070   -7.96940   -7.87390   26.24070
 9000.00000    9.14920    8.61830    9.14920   65.76480   -0.00810   -0.00810    2.57410    0.09140    -999.25    0.07950   15.20570   66.68490   66.68490   60.24410   63.51480   60.24410   15.20570   16.62690   16.62690    0.14690    -999.25    0.14690    2.57410   18.81950  -13.40640  -10.97170   18.81950
 9050.00000    9.05460    8.34530    9.05460   76.28580   -0.05340   -0.05340    2.66090    0.02670    -999.25    0.02870   13.10860   58.84390   58.84390   56.99500   57.70140   56.99500   13.10860   14.88380   14.88380    0.10410    -999.25    0.10410    2.66090   16.06880   -8.72130   -3.94740   16.06880
 9100.00000    8.94520    8.26380    8.94520   20.98310   -0.05000   -0.05000    2.63940    0.03820    -999.25    0.04130   47.65730   53.92370   53.92370   29.10130   29.10540   29.10130   47.65730   56.44100   56.44100    0.04200    -999.25    0.04200    2.63940   60.82140  -15.12890   -8.00050   60.82140
 9150.00000    8.98720    8.30100    8.98720   15.87120   -0.05080   -0.05080    2.66240    0.02460    -999.25    0.02780   63.00730   52.24360   52.24360   24.81470   26.34160   24.81470   63.00730   71.13360   71.13360    0.03480    -999.25    0.03480    2.66240  117.76990  -15.28320   -5.81560  117.76990
 9200.00000    8.85660    8.27380    8.85660   10.67620   -0.05730   -0.05730    2.65830    0.02990    -999.25    0.03020   93.66640   52.80880   52.80880   35.38380   34.70870   35.38380   93.66640   97.85920   97.85920    0.03430    -999.25    0.03430    2.65830  117.43810  -16.12780   -4.30560  117.43810
 9250.00000    9.13340    8.41400    9.13340  153.09720   -0.04200   -0.04200    2.63020    0.04570    -999.25    0.04670    6.53180   62.67440   62.67440   89.36120   99.50480   89.36120    6.53180    8.13460    8.13460    0.10990    -999.25    0.10990    2.63020    9.17990  -26.88120   -5.69550    9.17990
