~Version ---------------------------------------------------
VERS. 2.0 : CWLS log ASCII Standard -VERSION 2.0
WRAP.  NO : ONE LINE PER DEPTH STEP
~Well ------------------------------------------------------
STRT.F                             1100.0 : START DEPTH
STOP.F                            10550.0 : STOP DEPTH
STEP.F                           50.00000 : STEP LENGTH
NULL.                             -999.25 : NULL VALUE
COMP.                CHEVRON STANDARD LTD : COMPANY
WELL. CHEVRON GULF SHININGBANK 3-13-56-15 : WELL
FLD .                                     : FIELD
LOC .                                     : LOCATION
CTRY.                              CANADA : COUNTRY
SRVC.              Schlumberger of Canada : SERVICE COMPANY
DATE.                         25-Oct-1976 : LOGDATE
PROV.                             Alberta : PROVINCE
UWI .                    100031305615W500 : UNIQUE WELL ID
SLAT.WGS84                       53.83559 : SURFACE LATITUDE
SLON.WGS84                      -116.0977 : SURFACE LONGITUDE
~Curve Information -----------------------------------------
DEPT   .F    0   1   0  0 : 1 MEASURED DEPTH
GRS    .GAPI 60 310 01 00 : GAMMA RAY FROM SONIC LOG
DT     .US/F 60 500 00 00 : DELTA-T (INTERVAL TRANSIT TIME)
CALS   .IN   60 280 50 00 : CALIPER FROM SONIC LOG
TENS   .LB   60 635 00 00 : TENSION FROM SONIC LOG
SPR    .MV   07 010 01 00 : SPONTANEOUS POTENTIAL FROM RESISTIVITY LOG
ILD    .OHMM 07 120 46 00 : INDUCTION DEEP RESISTIVITY
ILM    .OHMM 07 120 44 00 : INDUCTION MEDIUM RESISTIVITY
LL8    .OHMM 07 220 08 00 : LATEROLOG 8
TEND   .LB   45 635 00 00 : TENSION FROM DENSITY LOG
RHOB   .G/C3 45 350 01 00 : BULK DENSITY
DCOR   .G/C3 45 356 01 00 : DENSITY CORRECTION
GRD    .GAPI 45 310 01 00 : GAMMA RAY FROM DENSITY LOG
NPHI_SS.DEC  42 890 03 00 : NEUTRON POROSITY SANDSTONE
CALD   .IN   45 280 60 00 : CALIPER FROM DENSITY LOG
DPHI_SS.DEC  45 890 12 00 : DENSITY POROSITY SANDSTONE
NPHI_LS.DEC  42 890 01 00 : NEUTRON POROSITY LIMESTONE
DPHI_LS.DEC  45 890 10 00 : DENSITY POROSITY LIMESTONE
~Params ----------------------------------------------------
EKB .FT               2889.7 : KELLY BUSHING
EGL .FT               2873.6 : GROUND LEVEL
DATE.               10/25/76 : RUN DATE
RUN .                      1 : RUN NUMBER
DD  .FT                10595 : DEPTH DRILLER
DL  .FT                10593 : DEPTH LOGGER
BLI .FT                10592 : BOTTOM LOG INTERVAL
TLI .FT                 1094 : TOP LOG INTERVAL
CBD .FT               1094.6 : CASING BOTTOM DRILLER
CBL .FT                 1094 : CASING BOTTOM LOGGER
BS  .IN                 8.75 : BIT SIZE
BSD .FT                10595 : BIT SIZE AT DEPTH
DFT .               GEL CHEM : DRILLING FLUID TYPE
DFD .                    9.5 : DRILLING FLUID DENSITY
DFV .                    124 : DRILLING FLUID VISCOSITY
DFPH.                   10.5 : DRILLING FLUID PH
DFL .                     10 : DRILLING FLUID LOSS
RMC .OHMM               2.04 : RESISTIVITY MUD CAKE
MCST.DEGF                 56 : MUD CAKE SAMPLE TEMPERATURE
RMB .OHMM               0.41 : RESISTIVITY MUD AT BHT
TCS .HRS                   5 : TIME CIRCULATED STOPPED
LUN .                   7691 : LOGGING UNIT NUMBER
LUL .                    WCT : LOGGING UNIT LOCATION
ENGI.              CROCKFORD : RECORDING ENGINEER
WITN.        WONG RICHARDSON : WITNESSED BY
CLNT.                A2DTECH : CLIENT CODE
ORIG.            2" 5" PRINT : ORIGIN OF DATA
UWI .       100031305615W500 : UNIQUE WELL ID
DICO. A2D Technologies, Inc. : DIGITIZING COMPANY
~Other -----------------------------------------------------
~ASCII -----------------------------------------------------
# ...
 9300.00000   68.75860   66.73830   10.15830 1969.38310  -66.98370   10.56380    9.96140   13.15720    -999.25    -999.25    -999.25    -999.25    -999.25    -999.25    -999.25    -999.25    -999.25
 9350.00000   83.99860   67.50760    9.94010 1492.61450  -67.62180   10.30890   10.86610   15.57740    -999.25    -999.25    -999.25    -999.25    -999.25    -999.25    -999.25    -999.25    -999.25
 9400.00000   73.15960   66.44940    9.77960 1373.51150  -66.57610   10.70980   11.08870   14.95710    -999.25    -999.25    -999.25    -999.25    -999.25    -999.25    -999.25    -999.25    -999.25
 9450.00000   58.51720   60.25740    9.81680 1419.03610  -66.26320   18.72940   20.62270   28.19130    -999.25    -999.25    -999.25    -999.25    -999.25    -999.25    -999.25    -999.25    -999.25
 9500.00000   85.61460   68.55440   10.78100 7165.14990  -66.90490    9.47160    9.90290   13.09600    -999.25    -999.25    -999.25    -999.25    -999.25    -999.25    -999.25    -999.25    -999.25
 9550.00000   90.91670   68.97110    9.90870 1637.66160  -65.29280   10.61100   10.99250   15.70610    -999.25    -999.25    -999.25    -999.25    -999.25    -999.25    -999.25    -999.25    -999.25
 9600.00000   78.27890   69.47160   10.08180 1873.39160  -67.97650    8.10320    8.58410   11.59950    -999.25    -999.25    -999.25    -999.25    -999.25    -999.25    -999.25    -999.25    -999.25
 9650.00000   94.45810   70.72850   10.16560 1358.69430  -66.74780    8.40340    8.93550   12.19170    -999.25    -999.25    -999.25    -999.25    -999.25    -999.25    -999.25    -999.25    -999.25
 9700.00000   83.94140   68.89660    9.48910 1717.39500  -61.67840    9.01350    9.60590   14.75560    -999.25    -999.25    -999.25    -999.25    -999.25    -999.25    -999.25    -999.25    -999.25
 9750.00000   93.80470   75.40620   11.00190 1709.42740  -68.16230    6.88120    7.79470    9.84090    -999.25    -999.25    -999.25    -999.25    -999.25    -999.25    -999.25    -999.25    -999.25
 9800.00000   92.76870   70.00600    9.22080 1908.11190  -61.95740    9.65080    9.89050   15.03230    -999.25    -999.25    -999.25    -999.25    -999.25    -999.25    -999.25    -999.25    -999.25
 9850.00000   85.80570   68.86330    9.13800 2138.40920  -60.51730    9.56390   10.05340   14.66940 1329.46530    2.66060    0.02220   88.19370    -999.25    9.71750    -999.25    0.15520    0.01860
 9900.00000   54.83260   58.09640    8.83510 2078.00660  -63.32310   35.55330   37.44560   52.82410 1067.19930    2.69630    0.01200   51.25460    -999.25    9.37970    -999.25    0.09960    0.01950
 9950.00000   85.00310   66.83810   10.10150 2376.41770  -65.53420   15.30060   17.40580   20.18690 1363.69710    2.23870    0.19780   87.85330    -999.25   10.14620    -999.25    0.18850    0.29990
 10000.00000   10.32190   51.51410    8.90160 2159.97730 -164.36070 1408.29390 1398.14100  801.69490 1365.79050    2.68830    0.03370    8.02580    -999.25    9.72450    -999.25   -0.00080    0.03840
 10050.00000   13.32060   49.46110    9.11300 2263.06590 -156.79990 1431.91940 1474.03990 1513.00990 1715.17630    2.64360    0.19110   10.11140    -999.25   10.98670    -999.25   -0.00410    0.04800
 10100.00000   11.30730   50.88930    9.17970 2158.86450 -146.25190 1467.32900 1476.21910 1499.56340 1617.29200    2.52400    0.15500   12.53110    -999.25   12.04650    -999.25   -0.00230    0.07250
 10150.00000    9.37170   49.92270    9.31680 2319.45000 -128.10670 1487.54330 1432.80020 1501.64100 1597.85500    2.60550    0.22970    9.25870    -999.25   11.09160    -999.25   -0.00810    0.04630
 10200.00000   17.55900   52.08430    9.35930 2298.46920 -149.99520 1479.61220 1412.08350 1108.47560 1650.54570    2.30930    0.24000   20.50810    -999.25   11.64630    -999.25   -0.00360    0.18660
 10250.00000   14.42810   48.08160    8.97270 1873.31270 -140.03670 1477.69570 1353.00830 1496.78590 1822.85270    2.70320    0.15360   10.71740    -999.25   10.07490    -999.25   -0.00620   -0.04570
 10300.00000   14.12020   48.47130    9.43510 1976.84270 -143.37130 1423.45480  757.94050 1524.35850 1860.19750    2.51690    0.21420   14.15410    -999.25   11.87550    -999.25   -0.00490    0.10250
 10350.00000   13.31360   50.67790    8.87120 1854.23630 -140.07410 1440.12930 1483.42750 1525.14110 1872.39950    2.57780    0.17740   13.82780    -999.25   10.71320    -999.25   -0.00280    0.09520
 10400.00000   15.50090   49.01850    8.76490 1882.39330 -120.54840  296.96310  894.95620  522.83450 1263.01590    2.66820    0.04410   13.23950    -999.25    9.85840    -999.25   -0.00340    0.01990
 10450.00000   53.51060   61.25000    8.46080 1749.04590 -159.71920    3.88200    6.07780   34.47520 1184.97300    2.39950    0.22360   55.91430    -999.25    8.13700    -999.25    0.05610    0.16900
 10500.00000  115.05160   58.49710    8.89120 2062.00490  -72.26290   41.84010   53.20560   72.26220 1563.78150    2.66270    0.02220  112.90020    -999.25    9.27500    -999.25    0.09380    0.03680
 10550.00000   26.92920   53.88310    8.61290 2203.38990 -118.29490   11.04080   10.25820    9.81560 2691.41870    2.69050    0.00610   33.70960    -999.25    9.34810    -999.25    0.11730    0.01350
