~Version ---------------------------------------------------
VERS.      2.0 : CWLS log ASCII Standard -VERSION 2.0
WRAP.       NO : One line per depth step
CREA. 07/22/13 : LAS Creation Date
~Well ------------------------------------------------------
STRT.M                        300.0 : START DEPTH
STOP.M                       3650.0 : STOP DEPTH
STEP.M                     50.00000 : STEP LENGTH
NULL.                       -999.25 : NULL VALUE
COMP.  SCURRY - RAINBOW OIL LIMITED : COMPANY
WELL. SCURRY ET AL EDSON 6-13-52-16 : WELL
FLD .                               : FIELD
LOC .                               : LOCATION
CTRY.                        CANADA : COUNTRY
SRVC.        Schlumberger of Canada : SERVICE COMPANY
DATE.                   05-Apr-1982 : LOGDATE
PROV.                       Alberta : PROVINCE
UWI .              100061305216W500 : UNIQUE WELL ID
SLAT.WGS84                 53.48756 : SURFACE LATITUDE
SLON.WGS84                -116.2288 : SURFACE LONGITUDE
~Curve Information -----------------------------------------
DEPT    .M      : DEPTH METER
CALDED  .MM     : CALIPER FROM DENSITY LOG [ADJ.TO RESISTIVITY LOG]
CALMED  .MM     : CALIPER FROM MLL LOG [ADJ.TO RESISTIVITY LOG]
CALSED  .MM     : CALIPER FROM SONIC LOG
CALWS   .MM     : CALIPER [CALDED]
CONDWS  .MMHO   : CONDUCTIVITY [1000/DRESWS]
DCORWS  .KG/M3  : DENSITY CORRECTION [DRHOED]
DENWS   .KG/M3  : FORMATION BULK DENSITY [CALC FROM DPOLSWS, M=2710, F=1000]
DPHILSED.V/V    : DENSITY POROSITY LIMESTONE [M=2710,F=1000] FROM DENSITY LOG [ADJ.TO RESISTIVITY LOG]
DPHISSED.V/V    : DENSITY POROSITY SANDSTONE [M=2650, F=1000] FROM DENSITY LOG [ADJ.TO RESISTIVITY LOG]
DPOLSWS .V/V    : DENSITY POROSITY LIMESTONE [DPHISSED CONVERTED TO LIMESTONE MATRIX, M=2710 F=1000 SPL.TO DPHILSED @ 2592.8M]
DRESWS  .OHMM   : DEEP RESISTIVITY [ILDED]
DRHOED  .KG/M3  : DENSITY CORRECTION FROM DENSITY LOG [ADJ.TO RESISTIVITY LOG]
DTED    .US/M   : DELTA TIME FROM SONIC LOG
DTWS    .US/M   : COMPRESSIONAL SONIC [DTED]
GRDED   .GAPI   : GAMMA RAY FROM DENSITY LOG [ADJ.TO RESISTIVITY LOG]
GRED    .GAPI   : GAMMA RAY FROM CBL LOG [ADJ.TO RESISTIVITY LOG]
GRSED   .GAPI   : GAMMA RAY FROM SONIC LOG
GRWS    .GAPI   : GAMMA RAY [GRED SPL.TO GRSED @ 444.6M & GRDED @ 3632.5M]
ILDED   .OHMM   : DEEP INDUCTION FROM RESISTIVITY LOG
ILMED   .OHMM   : MEDIUM INDUCTION FROM RESISTIVITY LOG
MLLED   .OHMM   : MICRO-LATEROLOG FROM MLL LOG [ADJ.TO RESISTIVITY LOG]
MRESWS  .OHMM   : MEDIUM RESISTIVITY [ILMED]
NPHILSED.V/V    : NEUTRON POROSITY LIMESTONE FROM DENSITY LOG [ADJ.TO RESISTIVITY LOG]
NPHISSED.V/V    : NEUTRON POROSITY SANDSTONE FROM DENSITY LOG [ADJ.TO RESISTIVITY LOG]
NPOLSWS .V/V    : NEUTRON POROSITY LIMESTONE [NPHISSED MATRIX (SLB) CONVERSION FOR LIMESTONE, SPL.TO NPHILSED @ 2592.6M]
RHOBED  .KG/M3  : BULK DENSITY FROM DENSITY LOG [ADJ.TO RESISTIVITY LOG]
SFLED   .OHMM   : SHALLOW FOCUSED RESISTIVITY FROM RESISTIVITY LOG
SPRED   .MV     : SPONTANEOUS POTENTIAL FROM RESISTIVITY LOG
SPWS    .MV     : SPONTANEOUS POTENTIAL [BASELINE 0 MV, SPRED]
SRESWS  .OHMM   : SHALLOW RESISTIVITY [SFLED]
~Params ----------------------------------------------------
PD  .                        GL : PERMANENT DATUM
EPD .M                    940.2 : ELEVATION PERMANENT DATUM
LMF .                        KB : LOG MEASURED FROM
DAPD.M                      5.6 : FEET ABOVE PERMANENT DATUM
DMF .                        KB : DRILLING MEASURED FROM
EKB .M                    945.8 : KELLY BUSHING
EGL .M                    940.2 : GROUND LEVEL
DATE.                  04/05/82 : RUN DATE
RUN .                         1 : RUN NUMBER
DD  .M                     3677 : DEPTH DRILLER
DL  .M                     3677 : DEPTH LOGGER
BLI .M                     3676 : BOTTOM LOG INTERVAL
TLI .M                      467 : TOP LOG INTERVAL
CS  .MM                     244 : CASING SIZE
CBD .M                      467 : CASING BOTTOM DRILLER
CBL .M                      467 : CASING BOTTOM LOGGER
BS  .MM                     222 : BIT SIZE
BSD .M                     3677 : BIT SIZE AT DEPTH
DFT .                  GEL CHEM : DRILLING FLUID TYPE
DFD .                      1100 : DRILLING FLUID DENSITY
DFV .                       105 : DRILLING FLUID VISCOSITY
DFPH.                        11 : DRILLING FLUID PH
DFL .                         8 : DRILLING FLUID LOSS
MSS .                  FLOWLINE : MUD SAMPLE SOURCE
RMS .OHMM                  1.21 : RESISTIVITY MUD SAMPLE
MST .DEGC                  18.3 : MUD SAMPLE TEMPERATURE
RMF .OHMM                  0.97 : RESISTIVITY MUD FILTRATE SAMPLE
MFST.DEGC                  17.8 : MUD FILTRATE SAMPLE TEMPERATURE
RMC .OHMM                  1.15 : RESISTIVITY MUD CAKE
MCST.DEGC                  15.6 : MUD CAKE SAMPLE TEMPERATURE
MFSS.                 MUD PRESS : MUD FILTRATE SAMPLE SOURCE
RMB .OHMM                  0.41 : RESISTIVITY MUD AT BHT
TCS .HRS                    300 : TIME CIRCULATED STOPPED
TLAB.HRS                   1300 : TIME LOGGER AT BOTTOM
LUN .                      8156 : LOGGING UNIT NUMBER
LUL .                       EDS : LOGGING UNIT LOCATION
ENGI.                 LABRECOUE : RECORDING ENGINEER
WITN.                  LAWRENCE : WITNESSED BY
CLNT.                   A2DTECH : CLIENT CODE
ORIG. 6.5"/100M 16.5"M100 PRINT : ORIGIN OF DATA
UWI .          100061305216W500 : UNIQUE WELL ID
DICO.    A2D Technologies, Inc. : DIGITIZING COMPANY
~Other -----------------------------------------------------
DI-SFL-MLL-CNL-FDC-BHC-CBL LOG RUN
RHOB,DRHO FROM SMALL SCALE SECTION
~ASCII -----------------------------------------------------
# ...
 1500.00000  232.82990    -999.25  243.72810  232.82990   21.37550   36.36600 2570.80000    -999.25    0.04800    0.08140   46.78260   36.36600  223.03700  223.03700   39.30410   28.36890   31.62500   31.62500   46.78260   48.10310    -999.25   48.10310    -999.25    0.21510    0.17150 2563.43360   43.15980 -165.18880  -29.76460   43.15980
 1550.00000  316.14860    -999.25  258.70340  316.14860   77.72360  250.73850 2388.31000    -999.25    0.15860    0.18810   12.86610  250.73850  260.06380  260.06380   77.45340    -999.25   72.43210   72.43210   12.86610   12.55590    -999.25   12.55590    -999.25    0.30430    0.26030 2388.66720   15.32540 -136.80280   -1.70190   15.32540
 1600.00000  310.48560    -999.25  254.99570  310.48560   68.73660  202.18930 2279.90500    -999.25    0.22430    0.25150   14.54830  202.18930  253.52520  253.52520   98.56860   64.43100   94.30370   94.30370   14.54830   14.23920    -999.25   14.23920    -999.25    0.25940    0.21550 2293.12060   14.04390 -138.40970   -3.63210   14.04390
 1650.00000  295.18130    -999.25  273.43830  295.18130   67.63930  150.83880 1934.56000    -999.25    0.43360    0.45350   14.78430  150.83880  268.12200  268.12200  114.87870   69.69700  114.55160  114.55160   14.78430   14.47360    -999.25   14.47360    -999.25    0.30670    0.26270 1935.08960   17.07260 -137.17790   -2.72350   17.07260
 1700.00000  315.71150    -999.25  289.84620  315.71150   86.19350  113.20210 1842.65500    -999.25    0.48930    0.50720   11.60180  113.20210  269.48300  269.48300  110.71170   75.54480  114.60330  114.60330   11.60180   10.95680    -999.25   10.95680    -999.25    0.38280    0.33960 2008.76970   12.20220 -137.86260   -2.26210   12.20220
 1750.00000  280.84070    -999.25  297.01460  280.84070  100.09610  162.86600 2487.80500    -999.25    0.09830    0.12990    9.99040  162.86600  259.12250  259.12250  102.80910   68.63520  103.32020  103.32020    9.99040    9.27910    -999.25    9.27910    -999.25    0.34670    0.30300 2452.29810    9.29700 -138.45980   -2.73060    9.29700
 1800.00000  261.04300    -999.25  255.40180  261.04300   97.81390   85.82050 2598.35500    -999.25    0.03130    0.06530   10.22350   85.82050  251.27720  251.27720   97.86210   66.43550  103.05590  103.05590   10.22350    9.99650    -999.25    9.99650    -999.25    0.32650    0.28260 2602.95340    9.48170 -136.91040   -2.50410    9.48170
 1850.00000  349.14680    -999.25  309.57240  349.14680  101.66530  175.26590 2276.11000    -999.25    0.22660    0.25370    9.83620  175.26590  263.21720  263.21720   95.07280   54.29800   89.64950   89.64950    9.83620    8.01890    -999.25    8.01890    -999.25    0.33280    0.28900 2297.80660    8.70300 -136.62370   -3.54040    8.70300
 1900.00000  236.11450    -999.25  261.91190  236.11450   73.19090   30.15800 2541.12960    -999.25    0.06600    0.09880   13.66290   30.15800  249.18580  249.18580  108.70950   72.54280  106.69520  106.69520   13.66290   13.06420    -999.25   13.06420    -999.25    0.28720    0.24320 2541.12960   12.46600 -135.31390   -3.46490   12.46600
 1950.00000  328.99420    -999.25  258.09520  328.99420   69.44250  183.80890 2114.57500    -999.25    0.32450    0.34820   14.40040  183.80890  253.18830  253.18830  101.10610   61.92140  101.96990  101.96990   14.40040   13.01060    -999.25   13.01060    -999.25    0.28250    0.23850 2082.33910   14.03520 -134.07080   -3.16620   14.03520
 2000.00000  347.87940    -999.25  260.08340  347.87940   67.83940  248.33450 2459.92000    -999.25    0.11520    0.14620   14.74070  248.33450  279.61400  279.61400  125.62360   65.87670  114.18660  114.18660   14.74070   14.42910    -999.25   14.42910    -999.25    0.30050    0.25650 2463.56740   16.31200 -132.66680   -2.70650   16.31200
 2050.00000  266.94790    -999.25  243.68330  266.94790   60.39890  250.51940 2402.83000    -999.25    0.14980    0.17960   16.55660  250.51940  283.47770  283.47770  122.87260   80.88460  125.17390  125.17390   16.55660   16.50730    -999.25   16.50730    -999.25    0.31020    0.26630 2409.50710   20.76810 -131.09240   -2.07650   20.76810
 2100.00000  326.05270    -999.25  290.73700  326.05270   76.97810  132.56300 1905.68500    -999.25    0.45110    0.47040   12.99070  132.56300  303.84190  303.84190  110.30630   67.34520  114.33730  114.33730   12.99070   13.15390    -999.25   13.15390    -999.25    0.40040    0.35750 1902.13820   13.21320 -130.18200   -2.11050   13.21320
 2150.00000  420.30050    -999.25  339.41170  420.30050  126.68810    5.67410 1564.30000    -999.25    0.65800    0.67000    7.89340    5.67410  319.08950  319.08950   94.06840   62.69750   93.69380   93.69380    7.89340    6.11660    -999.25    6.11660    -999.25    0.38260    0.33940 1565.59620    6.78680 -130.68470   -3.55760    6.78680
 2200.00000  451.48840    -999.25  278.36140  451.48840   69.51150   -8.41130 1545.65500    -999.25    0.66930    0.68090   14.38610   -8.41130  269.58490  269.58490  217.52460   90.96190  210.74360  210.74360   14.38610   13.52040    -999.25   13.52040    -999.25    0.30510    0.26110 1598.36380   19.28350 -127.87050   -1.68770   19.28350
 2250.00000  268.58980    -999.25  277.46770  268.58980   73.42310   59.97370 2558.42500    -999.25    0.05550    0.08860   13.61970   59.97370  244.54740  244.54740   92.64500   48.12690   85.98520   85.98520   13.61970   12.54150    -999.25   12.54150    -999.25    0.21050    0.16690 2580.33450   14.65320 -128.09770   -3.03050   14.65320
 2300.00000  262.21310    -999.25  260.01680  262.21310   55.49730    7.07080 2544.40000    -999.25    0.06400    0.09680   18.01890    7.07080  227.92630  227.92630   55.52640   29.82820   52.56470   52.56470   18.01890   18.44610    -999.25   18.44610    -999.25    0.17350    0.13050 2542.12740   19.28150 -137.91790  -15.05430   19.28150
 2350.00000  376.24690    -999.25  265.00390  376.24690   26.50660   -9.38580 1636.15750    -999.25    0.61440    0.62800   37.72650   -9.38580  342.13200  342.13200   80.85480   51.90410   77.91950   77.91950   37.72650   29.11690    -999.25   29.11690    -999.25    0.43010    0.38780 1621.34820   43.24280 -134.08550  -13.42550   43.24280
 2400.00000  274.81470    -999.25  256.77840  274.81470   65.16910  205.06700 2536.81000    -999.25    0.06860    0.10130   15.34470  205.06700  232.61170  232.61170   76.34790   56.17630   81.14840   81.14840   15.34470   15.87170    -999.25   15.87170    -999.25    0.21490    0.17130 2542.13770   16.38660 -122.68220   -4.22570   16.38660
 2450.00000  431.54680    -999.25  368.55620  431.54680  141.71530   33.82510 1711.48000    -999.25    0.56880    0.58390    7.05640   33.82510  351.49820  351.49820   84.04550   56.72580   78.73690   78.73690    7.05640    5.66510    -999.25    5.66510    -999.25    0.50870    0.46930 1709.78560    6.83850 -118.75070   -2.49780    6.83850
 2500.00000  266.52000  243.24520  245.85460  266.52000   18.97290  250.44960 2697.85000    -999.25   -0.02900    0.00710   52.70680  250.44960  211.41750  211.41750   76.66970   60.41090   64.28140   64.28140   52.70680   76.01350   90.16310   76.01350    -999.25    0.17910    0.13600 2697.27860   92.05400 -115.17350   -1.17740   92.05400
 2550.00000  266.36810  245.09280  243.02420  266.36810   50.77740  199.15370 2239.31500    -999.25    0.24890    0.27530   19.69380  199.15370  214.61480  214.61480   55.33260   42.18010   46.10230   46.10230   19.69380  675.80300    1.03850  675.80300    -999.25    0.07160    0.03340 2224.00220   12.89790 -131.50980  -20.52510   12.89790
 2600.00000  232.24310  223.37190  237.35480  232.24310    2.41600   67.14740 2520.19000    0.11100    0.10020    0.11100  413.90250   67.14740  215.03330  215.03330  272.01130  150.55360  274.94910  274.94910  413.90250 1708.98780  308.81180 1708.98780    0.14280    0.20510    0.14280 2517.74540  467.14420 -136.48000  -28.50660  467.14420
 2650.00000  249.55890  232.53190  248.00700  249.55890    2.79540   35.83960 2840.64400   -0.07640   -0.10770   -0.07640  357.73090   35.83960  164.34560  164.34560   13.49220   35.88550    9.10770    9.10770  357.73090  414.66710   74.69890  414.66710    0.05660    0.08980    0.05660 2842.24780 1813.20310 -119.86990  -15.70060 1813.20310
