~Version ---------------------------------------------------
VERS.      2.0 : CWLS log ASCII Standard -VERSION 2.0
WRAP.       NO : One line per depth step
CREA. 09/04/13 : LAS Creation Date
~Well ------------------------------------------------------
STRT.M                         400.0 : START DEPTH
STOP.M                        2900.0 : STOP DEPTH
STEP.M                      50.00000 : STEP LENGTH
NULL.                        -999.25 : NULL VALUE
COMP.      PEMBINA RESOURCES LIMITED : COMPANY
WELL. PEMBINA ET AL VIRGHILLS 2-32-6 : WELL
FLD .                 VIRGINIA HILLS : FIELD
LOC .                                : LOCATION
CTRY.                         CANADA : COUNTRY
SRVC.                   Schlumberger : SERVICE COMPANY
DATE.                    09-Feb-1985 : LOGDATE
PROV.                        Alberta : PROVINCE
UWI .               100023206413W500 : UNIQUE WELL ID
SLAT.WGS84                  54.57594 : SURFACE LATITUDE
SLON.WGS84                  -115.925 : SURFACE LONGITUDE
~Curve Information -----------------------------------------
DEPT    .M      : DEPTH METER
CALDED  .MM     : CALIPER FROM DENSITY LOG [ADJ. TO RESISTIVITY LOG]
CALSED  .MM     : CALIPER FROM SONIC LOG [ADJ. TO RESISTIVITY LOG]
CALWS   .MM     : CALIPER [CALDED]
CONDWS  .MMHO   : CONDUCTIVITY [1000/DRESWS]
DCORWS  .KG/M3  : DENSITY CORRECTION [DRHOED]
DENWS   .KG/M3  : FORMATION BULK DENSITY [CALC. FROM DPOLSWS, M=2710, F=1000]
DPHILSED.V/V    : DENSITY POROSITY LIMESTONE [M=2710, F=1000] FROM DENSITY LOG [ADJ. TO RESISTIVITY LOG]
DPHISSED.V/V    : DENSITY POROSITY SANDSTONE [M=2650, F=1000] FROM DENSITY LOG [ADJ. TO RESISTIVITY LOG]
DPOLSWS .V/V    : DENSITY POROSITY LIMESTONE [DPHISSED MATRIX CONVERSION FOR LIMESTONE, M=2710, F=1000, SPL. TO DPHILSED @ 1850 M]
DRESWS  .OHMM   : DEEP RESISTIVITY [ILDED]
DRHOED  .KG/M3  : BULK DENSITY CORRECTION FROM DENSITY LOG [ADJ. TO DPHISSED/DPHILSED/ RESISTIVITY LOG]
DTED    .US/M   : DELTA T FROM SONIC LOG [ADJ. TO RESISTIVITY LOG]
DTWS    .US/M   : COMPRESSIONAL SONIC [DTED]
GRSED   .GAPI   : GAMMA RAY FROM SONIC LOG [ADJ. TO RESISTIVITY LOG]
GRWS    .GAPI   : GAMMA RAY [GRSED SPL. TO SGRDDED @ 2900 M]
ILDED   .OHMM   : DEEP INDUCTION RESISTIVITY FROM RESISTIVITY LOG
ILMED   .OHMM   : MEDIUM INDUCTION RESISTIVITY FROM RESISTIVITY LOG
LAED    .MM     : LONG AXIS CALIPER FROM DENSITY LOG [ADJ. TO RESISTIVITY LOG]
MRESWS  .OHMM   : MEDIUM RESISTIVITY [ILMED]
NPHILSED.V/V    : NEUTRON POROSITY LIMESTONE FROM DENSITY LOG [ADJ. TO RESISTIVITY LOG]
NPHISSED.V/V    : NEUTRON POROSITY SANDSTONE FROM DENSITY LOG [ADJ. TO RESISTIVITY LOG]
NPOLSWS .V/V    : NEUTRON POROSITY LIMESTONE [NPHISSED MATRIX CONVERSION FOR LIMESTONE, SPL. TO NPHILSED @ 1850 M]
RHOBED  .KG/M3  : BULK DENSITY FROM DENSITY LOG [ADJ. TO DPHISSED/DPHILSED/ RESISTIVITY LOG]
SFLUED  .OHMM   : SHALLOW FOCUS FROM RESISTIVITY LOG
SGRDDED .GAPI   : GAMMA RAY FROM DENSITY LOG [ADJ. TO RESISTIVITY LOG]
SPRED   .MV     : SPONTANEOUS POTENTIAL FROM RESISTIVITY LOG
SPWS    .MV     : SPONTANEOUS POTENTIAL [BASELINE 0 MV, SPRED]
SRESWS  .OHMM   : SHALLOW RESISTIVITY [SFLUED]
~Params ----------------------------------------------------
PD  .                         GL : PERMANENT DATUM
EPD .M                    1160.5 : ELEVATION PERMANENT DATUM
LMF .                         KB : LOG MEASURED FROM
DAPD.M                       6.4 : FEET ABOVE PERMANENT DATUM
DMF .                         KB : DRILLING MEASURED FROM
EKB .M                    1166.5 : KELLY BUSHING
EDF .M                    1166.6 : DRILLING FLOOR
EGL .M                    1160.5 : GROUND LEVEL
DATE.                   02/09/85 : RUN DATE
RUN .                          1 : RUN NUMBER
DD  .M                      2920 : DEPTH DRILLER
DL  .M                    2922.5 : DEPTH LOGGER
BLI .M                    2920.5 : BOTTOM LOG INTERVAL
TLI .M                       428 : TOP LOG INTERVAL
CS  .MM                      244 : CASING SIZE
CBD .M                       428 : CASING BOTTOM DRILLER
CBL .M                       428 : CASING BOTTOM LOGGER
BS  .MM                      222 : BIT SIZE
BSD .M                      2920 : BIT SIZE AT DEPTH
DFT .                   GEL CHEM : DRILLING FLUID TYPE
DFD .                       1120 : DRILLING FLUID DENSITY
DFV .                         75 : DRILLING FLUID VISCOSITY
DFPH.                       11.5 : DRILLING FLUID PH
DFL .                        7.5 : DRILLING FLUID LOSS
MSS .                   FLOWLINE : MUD SAMPLE SOURCE
RMS .OHMM                  2.729 : RESISTIVITY MUD SAMPLE
MST .DEGC                     17 : MUD SAMPLE TEMPERATURE
RMF .OHMM                   2.36 : RESISTIVITY MUD FILTRATE SAMPLE
MFST.DEGC                     12 : MUD FILTRATE SAMPLE TEMPERATURE
RMC .OHMM                   1.05 : RESISTIVITY MUD CAKE
MCST.DEGC                     54 : MUD CAKE SAMPLE TEMPERATURE
MFSS.                       MEAS : MUD FILTRATE SAMPLE SOURCE
RMB .OHMM                  1.389 : RESISTIVITY MUD AT BHT
TCS .HRS                    1930 : TIME CIRCULATED STOPPED
TLAB.HRS                     603 : TIME LOGGER AT BOTTOM
LUN .                       8163 : LOGGING UNIT NUMBER
LUL .                        EDM : LOGGING UNIT LOCATION
ENGI.                     EVERLY : RECORDING ENGINEER
WITN.                     TURNER : WITNESSED BY
CLNT.                    A2DTECH : CLIENT CODE
ORIG. 6.5"/100M 16.5"/100M PRINT : ORIGIN OF DATA
UWI .           100023206413W500 : UNIQUE WELL ID
DICO.     A2D Technologies, Inc. : DIGITIZING COMPANY
~Other -----------------------------------------------------
CNFD-DILSFL-BCS LOG RAN.
RHOB & DRHO FROM SMALL SECTION.
~ASCII -----------------------------------------------------
  400.00000    -999.25    -999.25    -999.25    -999.25    -999.25    -999.25    -999.25    -999.25    -999.25    -999.25    -999.25    -999.25    -999.25   37.71950   37.71950    -999.25    -999.25    -999.25    -999.25    -999.25    -999.25    -999.25    -999.25    -999.25    -999.25    -999.25    -999.25    -999.25
  450.00000  290.76070  242.47150  290.76070  242.99570  169.07740 2205.49000    -999.25    0.26940    0.29500    4.11530  169.07740  390.17030  390.17030   78.04530   78.04530    4.11530    3.60090  291.91960    3.60090    -999.25    0.41300    0.37040 2201.54320    3.72450   82.19100 -106.53780   -0.03960    3.72450
  500.00000  230.93850  246.48170  230.93850  290.89220   60.19980 2237.00500    -999.25    0.25030    0.27660    3.43770   60.19980  403.85210  403.85210   77.75210   77.75210    3.43770    3.07950  281.32710    3.07950    -999.25    0.46230    0.42060 2228.31470    2.64060   77.04490 -107.83100   -3.17780    2.64060
  550.00000  230.99640  237.53020  230.99640  188.91090   46.29740 2258.29000    -999.25    0.23740    0.26420    5.29350   46.29740  313.52650  313.52650   70.80610   70.80610    5.29350    5.04300  237.88670    5.04300    -999.25    0.37140    0.32800 2259.23950    6.87830   65.43660 -107.52140   -4.71320    6.87830
  600.00000  247.96980  249.93830  247.96980  231.94320  109.86660 2002.54000    -999.25    0.39240    0.41370    4.31140  109.86660  384.20640  384.20640   75.76070   75.76070    4.31140    4.07640  262.99330    4.07640    -999.25    0.47760    0.43590 2019.18020    4.77420   73.09460 -104.64750   -3.68430    4.77420
  650.00000  230.40390  246.07720  230.40390  176.60040   10.21660 2370.65500    -999.25    0.16930    0.19840    5.66250   10.21660  357.54430  357.54430   64.58290   64.58290    5.66250    5.38770  298.06740    5.38770    -999.25    0.44180    0.39990 2419.80760    6.09570   71.02270 -101.62040   -2.50220    6.09570
  700.00000  260.00640  252.09050  260.00640  341.00600  100.79360 1771.04500    -999.25    0.53270    0.54910    2.93250  100.79360  381.96610  381.96610   72.60080   72.60080    2.93250    2.68610  271.53060    2.68610    -999.25    0.45740    0.41570 1728.55130    2.63510   77.09320 -100.86890   -3.00940    2.63510
  750.00000  238.81630  250.22090  238.81630  370.39780  109.46150 1819.06000    -999.25    0.50360    0.52100    2.69980  109.46150  380.47600  380.47600   82.54660   82.54660    2.69980    2.52720  257.03610    2.52720    -999.25    0.49020    0.44850 1817.69970    2.36400   80.97130  -99.28420   -2.61820    2.36400
  800.00000  265.66600  237.96270  265.66600  224.98200   -7.29420 1640.86000    -999.25    0.61160    0.62520    4.44480   -7.29420  404.92470  404.92470   70.45360   70.45360    4.44480    4.17100  241.25070    4.17100    -999.25    0.45820    0.41650 1697.04740    3.99640   69.92780 -101.32570   -5.85320    3.99640
  850.00000  221.71970  220.43660  221.71970  139.51870   48.98440 2260.93000    -999.25    0.23580    0.26260    7.16750   48.98440  342.99960  342.99960   56.26060   56.26060    7.16750    6.51130  234.49270    6.51130    -999.25    0.38320    0.34000 2257.91140    8.33620   56.72480 -111.42770  -17.14870    8.33620
  900.00000  264.01750  230.75920  264.01750  127.46490   18.41160 2405.96500    -999.25    0.14790    0.17780    7.84530   18.41160  336.29820  336.29820   51.91470   51.91470    7.84530    7.01560  221.69210    7.01560    -999.25    0.37930    0.33610 2391.73070    8.22750   46.83890 -101.65760   -8.57210    8.22750
  950.00000  233.25290  232.98810  233.25290  289.30160   50.28340 2342.27500    -999.25    0.18650    0.21500    3.45660   50.28340  325.78630  325.78630   55.70920   55.70920    3.45660    3.23430  269.80710    3.23430    -999.25    0.40770    0.36500 2342.29610    3.66370   60.67240  -95.59380   -3.70180    3.66370
 1000.00000  270.29970  239.58530  270.29970  313.76490   34.82680 2334.52000    -999.25    0.19120    0.21960    3.18710   34.82680  324.93730  324.93730   56.25190   56.25190    3.18710    2.77460  232.88570    2.77460    -999.25    0.40110    0.35820 2331.41500    2.49390   60.04520  -94.37380   -3.67530    2.49390
 1050.00000  269.19020  246.12040  269.19020  263.07480   58.89110 2402.83000    -999.25    0.14980    0.17960    3.80120   58.89110  327.74430  327.74430   67.75430   67.75430    3.80120    3.63360  256.00930    3.63360    -999.25    0.39420    0.35120 2399.99560    4.15490   69.04170  -93.97730   -4.34680    4.15490
 1100.00000  374.01610  262.18260  374.01610  165.88970  176.34280 2260.43500    -999.25    0.23610    0.26290    6.02810  176.34280  346.27570  346.27570   87.51530   87.51530    6.02810    5.35560  231.76490    5.35560    -999.25    0.41570    0.37320 2262.33640    5.06450   86.02780 -100.74770  -11.11550    5.06450
 1150.00000  247.54140  235.39090  247.54140  175.24800   23.97350 2236.34500    -999.25    0.25070    0.27700    5.70620   23.97350  337.11190  337.11190   94.35680   94.35680    5.70620    5.43490  244.41370    5.43490    -999.25    0.39310    0.35010 2221.22070    5.91210  100.82590  -95.68600   -6.79910    5.91210
 1200.00000  243.10070  259.49030  243.10070  133.23390   28.65840 2280.07000    -999.25    0.22420    0.25140    7.50560   28.65840  319.37330  319.37330   86.90080   86.90080    7.50560    7.13950  319.06220    7.13950    -999.25    0.34050    0.29680 2281.59960    7.77640   81.00060  -95.80900   -7.11680    7.77640
 1250.00000  233.26170  255.26200  233.26170  157.22780   21.73660 2270.00500    -999.25    0.23030    0.25730    6.36020   21.73660  314.87010  314.87010  101.18460  101.18460    6.36020    6.12090  312.68300    6.12090    -999.25    0.39380    0.35080 2273.87450    5.85650   96.92090  -93.46900   -4.97140    5.85650
 1300.00000  230.45830  247.23600  230.45830  163.52960   43.19270 2275.45000    -999.25    0.22700    0.25410    6.11510   43.19270  318.62670  318.62670  111.04240  111.04240    6.11510    5.60060  304.29000    5.60060    -999.25    0.39480    0.35180 2277.39750    5.66860  108.03840  -89.14650   -5.38920    5.66860
 1350.00000  238.52830  251.80920  238.52830  168.75930  117.16110 2490.77500    -999.25    0.09650    0.12820    5.92560  117.16110  336.88970  336.88970  108.64550  108.64550    5.92560    5.70020  295.96370    5.70020    -999.25    0.41640    0.37390 2499.09350    6.63640  119.06070  -81.22670   -3.43270    6.63640
 1400.00000  245.70170  238.99320  245.70170  155.60090   70.18460 2503.48000    -999.25    0.08880    0.12080    6.42670   70.18460  288.61670  288.61670   83.44760   83.44760    6.42670    6.13230  252.14000    6.13230    -999.25    0.29880    0.25480 2490.72240    7.91030   92.34450  -81.05910   -8.34480    7.91030
 1450.00000  257.15170  244.97220  257.15170  243.07830   38.30030 2504.63500    -999.25    0.08810    0.12010    4.11390   38.30030  304.46060  304.46060  117.91950  117.91950    4.11390    4.25570  257.33380    4.25570    -999.25    0.33650    0.29270 2506.28490    4.95530  103.20750  -73.23120   -5.24260    4.95530
 1500.00000  274.68410  267.52950  274.68410  202.33090   13.39020 2540.60500    -999.25    0.06630    0.09910    4.94240   13.39020  295.69210  295.69210  103.56670  103.56670    4.94240    4.74280  264.65730    4.74280    -999.25    0.31150    0.26760 2544.54790    4.55070  108.04200  -69.73570   -6.47270    4.55070
 1550.00000  284.53980  257.40620  284.53980  328.96900   27.95060 2424.61000    -999.25    0.13660    0.16690    3.03980   27.95060  323.78380  323.78380   95.37430   95.37430    3.03980    3.42870  244.30650    3.42870    -999.25    0.36790    0.32450 2421.81740    3.49020   94.02380  -65.68630   -7.14900    3.49020
 1600.00000  252.21650  228.40920  252.21650  131.09770    5.21290 2561.23000    -999.25    0.05380    0.08700    7.62790    5.21290  266.39730  266.39730   73.42570   73.42570    7.62790    8.75370  232.70470    8.75370    -999.25    0.28150    0.23750 2551.23360   10.03550   76.50380 -101.53900  -47.18700   10.03550
