~Version ---------------------------------------------------
VERS.      2.0 : CWLS log ASCII Standard -VERSION 2.0
WRAP.       NO : One line per depth step
CREA. 11/21/17 : LAS Creation Date
~Well ------------------------------------------------------
STRT.FT                          1000.0 : START DEPTH
STOP.FT                         13800.0 : STOP DEPTH
STEP.FT                        50.00000 : STEP LENGTH
NULL.                           -999.25 : NULL VALUE
COMP. HUDSONS BAY OIL & GAS COMPANY LTD : COMPANY
WELL. HB AMOCO FINA BAYBERNE 11-5-57-18 : WELL
FLD .                                   : FIELD
LOC .                                   : LOCATION
CTRY.                            CANADA : COUNTRY
SRVC.                           Unknown : SERVICE COMPANY
DATE.                       13-Aug-1977 : LOGDATE
PROV.                           Alberta : PROVINCE
UWI .                  100110505718W500 : UNIQUE WELL ID
SLAT.WGS84                     53.89911 : SURFACE LATITUDE
SLON.WGS84                    -116.6428 : SURFACE LONGITUDE
~Curve Information -----------------------------------------
DEPT    .FT    : Depth Curve
CALDED  .IN    : CALIPER FROM DENSITY LOG [ADJ. TO RESISTIVITY LOG]
CALSED  .IN    : CALIPER FROM SONIC LOG
CALWS   .IN    : CALIPER [CALSED SPL. TO CALDED @ 5994']
CILDED  .MMHO  : CONDUCTIVITY FROM RESISTIVITY LOG
CONDWS  .MMHO  : CONDUCTIVITY [1000/DRESWS]
DCORWS  .G/C3  : DENSITY CORRECTION [DRHOED]
DENWS   .G/C3  : FORMATION BULK DENSITY [RHOBED]
DPHILSED.V/V   : DENSITY POROSITY LIMESTONE [M=2.71, F=1.00] FROM DENSITY LOG [ADJ. TO RESISTIVITY LOG]
DPHISSED.V/V   : DENSITY POROSITY SANDSTONE [M=2.65, F=1.00] FROM DENSITY LOG [ADJ. TO RESISTIVITY LOG]
DPOLSWS .V/V   : DENSITY POROSITY LIMESTONE [CALC. FROM DENWS, M=2.71, F=1.00]
DRESWS  .OHMM  : DEEP RESISTIVITY [ILDED]
DRHOED  .G/C3  : DENSITY CORRECTION FROM DENSITY LOG [ADJ. TO RESISTIVITY LOG]
DTED    .US/F  : DELTA TIME FROM SONIC LOG
DTWS    .US/F  : COMPRESSIONAL SONIC [DTED]
GRDED   .GAPI  : GAMMA RAY FROM DENSITY LOG [ADJ. TO RESISTIVITY LOG]
GRSED   .GAPI  : GAMMA RAY FROM SONIC LOG
GRWS    .GAPI  : GAMMA RAY [GRSED SPL. TO GRDED @ 13780']
ILDED   .OHMM  : DEEP INDUCTION RESISTIVITY FROM RESISTIVITY LOG
ILMED   .OHMM  : MEDIUM INDUCTION RESISTIVITY FROM RESISTIVITY LOG
LL8ED   .OHMM  : LATEROLOG-8 RESISTIVITY FROM RESISTIVITY LOG
MRESWS  .OHMM  : MEDIUM RESISTIVITY [ILMED]
NPHILSED.V/V   : NEUTRON POROSITY LIMESTONE FROM DENSITY LOG [ADJ. TO RESISTIVITY LOG]
NPHISSED.V/V   : NEUTRON POROSITY SANDSTONE FROM DENSITY LOG [ADJ. TO RESISTIVITY LOG]
NPOLSWS .V/V   : NEUTRON POROSITY LIMESTONE [NPHISSED MATRIX CONVERSION FOR LIMESTONE, SPL. TO NPHILSED @ 8509']
RHOBED  .G/C3  : BULK DENSITY FROM DENSITY LOG [ADJ. TO RESISTIVITY LOG]
SPRED   .MV    : SPONTANEOUS POTENTIAL FROM RESISTIVITY LOG [ADJ. TO RESISTIVITY LOG]
SPWS    .MV    : SPONTANEOUS POTENTIAL [BASELINE 0 MV, SPRED]
SRESWS  .OHMM  : SHALLOW RESISTIVITY [LL8ED]
~Params ----------------------------------------------------
PD  .                     GL : PERMANENT DATUM
EPD .FT               3898.7 : ELEVATION PERMANENT DATUM
LMF .                     KB : LOG MEASURED FROM
DAPD.FT                 20.4 : FEET ABOVE PERMANENT DATUM
DMF .                     KB : DRILLING MEASURED FROM
EKB .FT               3919.1 : KELLY BUSHING
EGL .FT               3898.7 : GROUND LEVEL
DATE.               08/13/77 : RUN DATE
RUN .                      2 : RUN NUMBER
DD  .FT                13825 : DEPTH DRILLER
DL  .FT                13826 : DEPTH LOGGER
BLI .FT                13820 : BOTTOM LOG INTERVAL
TLI .FT                 8771 : TOP LOG INTERVAL
CBD .FT                 8770 : CASING BOTTOM DRILLER
CBL .FT                 8771 : CASING BOTTOM LOGGER
BS  .IN                  8.5 : BIT SIZE
BSD .FT                13825 : BIT SIZE AT DEPTH
DFT .                    GEL : DRILLING FLUID TYPE
DFD .                    8.9 : DRILLING FLUID DENSITY
DFV .                    120 : DRILLING FLUID VISCOSITY
DFPH.                     11 : DRILLING FLUID PH
DFL .                   11.2 : DRILLING FLUID LOSS
MSS .                    MUD : MUD SAMPLE SOURCE
RMS .OHMM               1.38 : RESISTIVITY MUD SAMPLE
MST .DEGF                 62 : MUD SAMPLE TEMPERATURE
RMF .OHMM                1.0 : RESISTIVITY MUD FILTRATE SAMPLE
MFST.DEGF                 62 : MUD FILTRATE SAMPLE TEMPERATURE
RMC .OHMM               1.72 : RESISTIVITY MUD CAKE
MCST.DEGF                 64 : MUD CAKE SAMPLE TEMPERATURE
RMB .OHMM               0.24 : RESISTIVITY MUD AT BHT
TCS .HRS                 3.5 : TIME CIRCULATED STOPPED
LUN .                   7809 : LOGGING UNIT NUMBER
LUL .                    EDM : LOGGING UNIT LOCATION
ENGI.     CROCKFORD DEROCHIE : RECORDING ENGINEER
WITN.       NORTON GILBREATH : WITNESSED BY
CLNT.                A2DTECH : CLIENT CODE
ORIG.            2" 5" PRINT : ORIGIN OF DATA
UWI .       100110505718W500 : UNIQUE WELL ID
DICO. A2D Technologies, Inc. : DIGITIZING COMPANY
~Other -----------------------------------------------------
DIL-FDC-CNL-BHC LOG RUN
ALL RESISTIVITY & SONIC DATA FROM SMALL SECTION @ TOP-5928'
CALS INVALID FROM 4993' TO CASING ON MAIN PASS, THEREFORE THIS SECTION WAS RELOGGED
~ASCII -----------------------------------------------------
# ...
 2250.00000    -999.25   14.54910   14.54910  146.32980  146.29720    -999.25    -999.25    -999.25    -999.25    -999.25    6.83540    -999.25   89.44540   89.44540    -999.25   99.33930   99.33930    6.83540    -999.25    7.36800    -999.25    -999.25    -999.25    -999.25    -999.25 -100.21680   -3.25600    7.36800
 2300.00000    -999.25   16.05590   16.05590  178.55890  178.52970    -999.25    -999.25    -999.25    -999.25    -999.25    5.60150    -999.25   95.99330   95.99330    -999.25  115.40170  115.40170    5.60150    -999.25    4.25620    -999.25    -999.25    -999.25    -999.25    -999.25  -98.32150   -1.41550    4.25620
 2350.00000    -999.25   16.61990   16.61990  244.27240  256.00980    -999.25    -999.25    -999.25    -999.25    -999.25    3.90610    -999.25   98.24570   98.24570    -999.25  121.40610  121.40610    3.90610    -999.25    2.93440    -999.25    -999.25    -999.25    -999.25    -999.25  -99.86710   -3.01620    2.93440
 2400.00000    -999.25   18.03230   18.03230  364.97570  393.22090    -999.25    -999.25    -999.25    -999.25    -999.25    2.54310    -999.25  107.67610  107.67610    -999.25  107.39970  107.39970    2.54310    -999.25    1.73830    -999.25    -999.25    -999.25    -999.25    -999.25  -97.94840   -1.15230    1.73830
 2450.00000    -999.25   13.79920   13.79920  167.73880  165.30840    -999.25    -999.25    -999.25    -999.25    -999.25    6.04930    -999.25   88.66140   88.66140    -999.25   92.70610   92.70610    6.04930    -999.25    4.31950    -999.25    -999.25    -999.25    -999.25    -999.25 -102.27290   -5.53190    4.31950
 2500.00000    -999.25   13.11470   13.11470   70.04570   57.52090    -999.25    -999.25    -999.25    -999.25    -999.25   17.38500    -999.25   74.12710   74.12710    -999.25   71.52060   71.52060   17.38500    -999.25   13.87860    -999.25    -999.25    -999.25    -999.25    -999.25 -115.09830  -18.41200   13.87860
 2550.00000    -999.25   15.94920   15.94920  260.05120  272.47300    -999.25    -999.25    -999.25    -999.25    -999.25    3.67250    -999.25   98.06490   98.06490    -999.25  120.76170  120.76170    3.67250    -999.25    2.98740    -999.25    -999.25    -999.25    -999.25    -999.25  -98.19110   -1.55960    2.98740
 2600.00000    -999.25   12.59270   12.59270  117.43900  107.44140    -999.25    -999.25    -999.25    -999.25    -999.25    9.30740    -999.25   81.04690   81.04690    -999.25   80.75490   80.75490    9.30740    -999.25    7.39930    -999.25    -999.25    -999.25    -999.25    -999.25 -110.41270  -13.83630    7.39930
 2650.00000    -999.25   12.31020   12.31020  138.21990  149.15580    -999.25    -999.25    -999.25    -999.25    -999.25    6.70440    -999.25   89.21130   89.21130    -999.25   77.11990   77.11990    6.70440    -999.25    5.18980    -999.25    -999.25    -999.25    -999.25    -999.25 -116.70470  -20.18310    5.18980
 2700.00000    -999.25   12.48070   12.48070   99.79950   95.37710    -999.25    -999.25    -999.25    -999.25    -999.25   10.48470    -999.25   89.26980   89.26980    -999.25   84.04810   84.04810   10.48470    -999.25    7.23950    -999.25    -999.25    -999.25    -999.25    -999.25 -110.62570  -14.15920    7.23950
 2750.00000    -999.25   16.92740   16.92740  276.75800  237.01180    -999.25    -999.25    -999.25    -999.25    -999.25    4.21920    -999.25   89.78740   89.78740    -999.25  124.32890  124.32890    4.21920    -999.25    3.92320    -999.25    -999.25    -999.25    -999.25    -999.25  -99.88990   -3.47810    3.92320
 2800.00000    -999.25   12.57220   12.57220  115.21070  110.58500    -999.25    -999.25    -999.25    -999.25    -999.25    9.04300    -999.25   80.69420   80.69420    -999.25   98.91290   98.91290    9.04300    -999.25    7.68960    -999.25    -999.25    -999.25    -999.25    -999.25 -101.05110   -4.69410    7.68960
 2850.00000    -999.25   12.49740   12.49740  147.14250  144.70940    -999.25    -999.25    -999.25    -999.25    -999.25    6.91040    -999.25   83.36560   83.36560    -999.25  103.57680  103.57680    6.91040    -999.25    5.36690    -999.25    -999.25    -999.25    -999.25    -999.25  -99.44360   -3.14170    5.36690
 2900.00000    -999.25   13.22410   13.22410  167.66670  165.63970    -999.25    -999.25    -999.25    -999.25    -999.25    6.03720    -999.25   83.93320   83.93320    -999.25  105.21540  105.21540    6.03720    -999.25    4.53120    -999.25    -999.25    -999.25    -999.25    -999.25  -99.94050   -3.69340    4.53120
 2950.00000    -999.25   12.56580   12.56580  162.92550  164.63620    -999.25    -999.25    -999.25    -999.25    -999.25    6.07400    -999.25   83.37530   83.37530    -999.25  103.71470  103.71470    6.07400    -999.25    4.79290    -999.25    -999.25    -999.25    -999.25    -999.25  -99.75180   -3.55980    4.79290
 3000.00000    -999.25   12.95360   12.95360  121.60060  122.30770    -999.25    -999.25    -999.25    -999.25    -999.25    8.17610    -999.25   79.46660   79.46660    -999.25   80.55120   80.55120    8.17610    -999.25    6.84870    -999.25    -999.25    -999.25    -999.25    -999.25 -102.32440   -6.18720    6.84870
 3050.00000    -999.25   13.23300   13.23300  171.52490  169.63360    -999.25    -999.25    -999.25    -999.25    -999.25    5.89650    -999.25   91.11620   91.11620    -999.25  116.68920  116.68920    5.89650    -999.25    4.36970    -999.25    -999.25    -999.25    -999.25    -999.25  -98.97640   -2.89390    4.36970
 3100.00000    -999.25   15.27140   15.27140  182.77530  185.18520    -999.25    -999.25    -999.25    -999.25    -999.25    5.40000    -999.25   86.02080   86.02080    -999.25  116.56740  116.56740    5.40000    -999.25    4.11540    -999.25    -999.25    -999.25    -999.25    -999.25  -98.95660   -2.92920    4.11540
 3150.00000    -999.25   15.05390   15.05390  227.56250  230.25030    -999.25    -999.25    -999.25    -999.25    -999.25    4.34310    -999.25   91.45850   91.45850    -999.25  107.29160  107.29160    4.34310    -999.25    3.20590    -999.25    -999.25    -999.25    -999.25    -999.25  -98.76460   -2.79200    3.20590
 3200.00000    -999.25   17.19030   17.19030  270.74650  282.33430    -999.25    -999.25    -999.25    -999.25    -999.25    3.54190    -999.25   96.72600   96.72600    -999.25  119.41030  119.41030    3.54190    -999.25    2.67130    -999.25    -999.25    -999.25    -999.25    -999.25  -98.49370   -2.57620    2.67130
 3250.00000    -999.25   14.96730   14.96730  176.11760  177.65780    -999.25    -999.25    -999.25    -999.25    -999.25    5.62880    -999.25   88.83770   88.83770    -999.25  110.54160  110.54160    5.62880    -999.25    4.26350    -999.25    -999.25    -999.25    -999.25    -999.25 -100.43010   -4.56740    4.26350
 3300.00000    -999.25   15.46790   15.46790  237.61900  247.65620    -999.25    -999.25    -999.25    -999.25    -999.25    4.03920    -999.25   91.07590   91.07590    -999.25  103.40990  103.40990    4.03920    -999.25    3.25470    -999.25    -999.25    -999.25    -999.25    -999.25  -99.53750   -3.72950    3.25470
 3350.00000    -999.25   13.69400   13.69400   74.23110   68.38640    -999.25    -999.25    -999.25    -999.25    -999.25   14.62280    -999.25   76.00190   76.00190    -999.25   86.14160   86.14160   14.62280    -999.25    9.23240    -999.25    -999.25    -999.25    -999.25    -999.25 -116.71480  -20.96190    9.23240
 3400.00000    -999.25   16.35390   16.35390  317.11680  341.65840    -999.25    -999.25    -999.25    -999.25    -999.25    2.92690    -999.25  103.75800  103.75800    -999.25  115.88860  115.88860    2.92690    -999.25    2.41000    -999.25    -999.25    -999.25    -999.25    -999.25  -98.15710   -2.45900    2.41000
 3450.00000    -999.25   15.67820   15.67820  239.13210  245.37470    -999.25    -999.25    -999.25    -999.25    -999.25    4.07540    -999.25   96.86810   96.86810    -999.25  126.37560  126.37560    4.07540    -999.25    3.10290    -999.25    -999.25    -999.25    -999.25    -999.25  -98.82740   -3.10920    3.10290
