~Version ---------------------------------------------------
VERS.      2.0 : CWLS log ASCII Standard -VERSION 2.0
WRAP.       NO : One line per depth step
CREA. 08/26/14 : LAS Creation Date
~Well ------------------------------------------------------
STRT.FT                         1100.0 : START DEPTH
STOP.FT                        10800.0 : STOP DEPTH
STEP.FT                       50.00000 : STEP LENGTH
NULL.                          -999.25 : NULL VALUE
COMP. AMOCO CANADA PETROLEUM CO., LTD. : COMPANY
WELL.       AMOCO N-2 ANTE 11-25-65-23 : WELL
FLD .                                  : FIELD
LOC .                                  : LOCATION
CTRY.                           CANADA : COUNTRY
SRVC.           Schlumberger of Canada : SERVICE COMPANY
DATE.                      30-Oct-1976 : LOGDATE
PROV.                          Alberta : PROVINCE
UWI .                 100112506523W500 : UNIQUE WELL ID
SLAT.WGS84                    54.65705 : SURFACE LATITUDE
SLON.WGS84                   -117.3447 : SURFACE LONGITUDE
~Curve Information -----------------------------------------
DEPT   .FT    : DEPTH FEET
CALD   .IN    : CALIPER FROM DENSITY LOG
CALS   .IN    : CALIPER FROM SONIC LOG [TAKEN FROM SUBSC. LAS FILE]
DPHI_SS.V/V   : DENSITY POROSITY [M=2.65 F=1.0] FROM DENSITY LOG
DPHI_LS.V/V   : DENSITY POROSITY [M=2.71 F=1.0] FROM DENSITY LOG
DRHO   .G/C3  : DENSITY CORRECTION FROM DENSITY LOG
DT     .US/F  : DELTA TIME FROM SONIC LOG
GRD    .GAPI  : GAMMA RAY FROM DENSITY LOG [TAKEN FROM SUBSC. LAS FILE]
GRS    .GAPI  : GAMMA RAY FROM SONIC LOG
ILD    .OHMM  : INDUCTION LOG DEEP RESISTIVITY
ILM    .OHMM  : INDUCTION LOG MEDIUM RESISTIVITY
LL8    .OHMM  : 8 INCH LATEROLOG RESISTIVITY
NPHI_SS.V/V   : NEUTRON POROSITY SANDSTONE FROM DENSITY LOG
NPHI_LS.V/V   : NEUTRON POROSITY LIMESTONE FROM DENSITY LOG
RHOB   .G/C3  : BULK DENSITY FROM DENSITY LOG
SPR    .MV    : SPONTANEOUS POTENTIAL FROM RESISTIVITY LOG
~Params ----------------------------------------------------
PD  .                     GL : PERMANENT DATUM
EPD .FT                 2441 : ELEVATION PERMANENT DATUM
LMF .                     KB : LOG MEASURED FROM
DAPD.FT                 13.6 : FEET ABOVE PERMANENT DATUM
EKB .FT               2454.6 : KELLY BUSHING
EGL .FT                 2441 : GROUND LEVEL
DATE.               10/30/76 : RUN DATE
RUN .                      1 : RUN NUMBER
DD  .FT                10805 : DEPTH DRILLER
DL  .FT                10818 : DEPTH LOGGER
BLI .FT                10812 : BOTTOM LOG INTERVAL
TLI .FT                 1155 : TOP LOG INTERVAL
CBD .FT                 1153 : CASING BOTTOM DRILLER
CBL .FT                 1155 : CASING BOTTOM LOGGER
BS  .IN                 8.75 : BIT SIZE
BSD .FT                10805 : BIT SIZE AT DEPTH
DFT .                    GEL : DRILLING FLUID TYPE
DFD .                      9 : DRILLING FLUID DENSITY
DFV .                    115 : DRILLING FLUID VISCOSITY
DFPH.                    9.5 : DRILLING FLUID PH
DFL .                    8.6 : DRILLING FLUID LOSS
MSS .             CIRCULATED : MUD SAMPLE SOURCE
RMS .OHMM               3.02 : RESISTIVITY MUD SAMPLE
MST .DEGF                 62 : MUD SAMPLE TEMPERATURE
RMF .OHMM               2.62 : RESISTIVITY MUD FILTRATE SAMPLE
MFST.DEGF                 52 : MUD FILTRATE SAMPLE TEMPERATURE
MFSS.             CALCULATED : MUD FILTRATE SAMPLE SOURCE
MCSS.             CALCULATED : MUD CAKE SAMPLE SOURCE
TCS .HRS                   3 : TIME CIRCULATED STOPPED
LUN .                   7809 : LOGGING UNIT NUMBER
LUL .                    EDM : LOGGING UNIT LOCATION
ENGI.               SEDGWICK : RECORDING ENGINEER
WITN.              SCHWIEDER : WITNESSED BY
CLNT.                A2DTECH : CLIENT CODE
ORIG.            2" 5" PRINT : ORIGIN OF DATA
UWI .       100112506523W500 : UNIQUE WELL ID
DICO. A2D Technologies, Inc. : DIGITIZING COMPANY
~Other -----------------------------------------------------
~ASCII -----------------------------------------------------
# ...
 5700.00000    9.84030   10.04900    0.04380    -999.25    0.07500   74.79460   82.89000   94.45300    9.12960   10.18100   10.65450    0.30000    -999.25    2.62560  -47.05930
 5750.00000    9.76890    9.59900    0.02350    -999.25    0.10820   68.81020   47.19000   76.36850   18.46830   22.58350   20.96510    0.19830    -999.25    2.65720  -49.36250
 5800.00000   10.20590   10.00000    0.07230    -999.25    0.04700   86.53740   82.09500   78.99170   17.69510   22.88710   42.51580    0.23040    -999.25    2.55920  -50.53920
 5850.00000    9.95380   10.14900    0.01950    -999.25    0.01410   69.85720  100.78500  108.50660   13.58270   14.67990   15.69130    0.22450    -999.25    2.64170  -37.05900
 5900.00000    9.72010    9.64900   -0.00170    -999.25    0.03880   65.71100   71.49000   76.08160   23.94850   29.31880   32.04020    0.19500    -999.25    2.67350  -41.12360
 5950.00000    9.88190    9.94900    0.04330    -999.25    0.07860   65.04870   74.38500   74.32040   30.37650   35.17730   33.44850    0.24590    -999.25    2.55540  -44.98920
 6000.00000    9.82870   10.09900    0.09720    -999.25    0.02170   77.89560  100.89000  110.25500   11.23100   12.87240   14.39700    0.30980    -999.25    2.50400  -44.77110
 6050.00000    9.24930    8.64900    0.10070    -999.25    0.05160   70.64860   48.39000   50.13140   19.82170   23.07250   29.07900    0.20860    -999.25    2.51860  -64.99670
 6100.00000    8.78230    7.44900    0.08740    -999.25    0.08720   73.65200   61.99500   58.67830   11.06070   17.58940   24.71280    0.24590    -999.25    2.48380  -90.64530
 6150.00000    8.55070    8.19900    0.14620    -999.25    0.10130   79.42520   47.89500   40.71820    5.35850    8.53840   17.65950    0.27380    -999.25    2.41810 -123.12320
 6200.00000    9.13380    9.00000    0.16400    -999.25    0.01540   80.13780  158.19000  158.93700   47.71590   70.66710  133.12650    0.40950    -999.25    2.34090  -54.88250
 6250.00000    9.36460    9.04900    0.19410    0.17920    0.03620   77.92130  266.49000  276.25150   65.35210   82.84930  164.91360    0.35890    0.29990    2.37970  -52.01150
 6300.00000    9.58160    8.84900    -999.25    0.11470    0.01430   65.97450   65.08500   63.83600    8.94540   12.61630   36.16710    -999.25    0.19410    2.49220 -128.75920
 6350.00000    9.52040    8.69900    -999.25    0.00990    0.01360   55.26870   51.79500   30.85700   20.00180   32.11470  108.18600    -999.25    0.14550    2.67900 -104.97700
 6400.00000    9.45520    9.25000    -999.25    0.05370    0.02300   62.87310   80.38500   86.16550   23.39520   25.34280   27.80820    -999.25    0.12220    2.63900  -80.22440
 6450.00000    9.40780    9.04900    -999.25    0.05730    0.02100   63.86480   93.69000   99.28010   22.67710   24.68710   28.68610    -999.25    0.13350    2.64520  -71.43610
 6500.00000    9.38660    9.14900    -999.25    0.02480    0.01570   61.42850   79.09500   85.41170   26.98460   29.02110   31.60110    -999.25    0.09780    2.67570  -72.49090
 6550.00000    9.45440    9.29900    -999.25    0.02600    0.02110   63.01610   90.39000   93.93870   18.28030   19.82350   20.95610    -999.25    0.11000    2.65340  -73.83280
 6600.00000    9.59370    9.50000    -999.25    0.01330    0.02570   63.26170  101.79000  103.91670   25.72660   28.10090   29.34630    -999.25    0.14670    2.68550  -63.17600
 6650.00000    8.39760    7.75000    -999.25    0.13660    0.11840   66.86310   21.19500   22.84050    5.78830   10.98970   33.25610    -999.25    0.23960    2.46770 -190.74650
 6700.00000    8.70620    8.25000    -999.25    0.02200    0.09100   60.75860   44.59500   44.08830    4.00170    6.28610   34.39930    -999.25    0.14160    2.70420 -170.84910
 6750.00000    9.16510    8.64900    -999.25    0.02820    0.07310   53.33670   39.28500   41.87560   37.17080   44.23880   39.70970    -999.25    0.15820    2.70250 -120.09140
 6800.00000    9.22340    8.54900    -999.25   -0.07440    0.04450   46.18860   32.68500   35.99820  408.24550  649.67010  533.88180    -999.25    0.04590    2.86070  -76.91150
 6850.00000   10.03530    9.54900    -999.25    0.02100    0.06870   59.04580   54.00000   62.20480    9.11440    8.63420   79.30540    -999.25    0.16100    2.67120 -135.07920
 6900.00000    9.52090    8.59900    -999.25   -0.11610    0.00360   50.64210   14.79000   13.76130    9.95800   18.31260  206.89550    -999.25    0.02820    2.84910 -191.98060
 6950.00000   10.46230    9.34900    -999.25    0.00390    0.14590   51.95290   26.89500   25.96460   52.81220   69.44750   91.89870    -999.25    0.05660    2.65800 -121.65950
 7000.00000    9.25260    8.75000    -999.25    0.04640    0.05230   62.27930   28.78500   27.28250    2.57150    4.41710   25.36730    -999.25    0.21150    2.71380 -197.95140
 7050.00000    9.99320    9.54900    -999.25    0.01850    0.11500   60.44080   24.19500   25.42160    5.16680    6.18590   13.37910    -999.25    0.08520    2.66790 -143.74830
 7100.00000    9.65060    9.34900    -999.25   -0.01130    0.03810   53.98820   36.28500   36.09980   38.72510   44.74790   71.79980    -999.25    0.05050    2.73190  -71.83390
 7150.00000   12.02810    9.69900    -999.25    0.17700    0.24970   59.18330   53.08500   56.43490   71.76900   78.78590   62.90390    -999.25    0.02630    2.37800  -48.54380
 7200.00000    9.14970    9.25000    -999.25   -0.00240    0.03450   59.18130   22.18500   33.61200    6.22400    8.77430   21.75970    -999.25    0.10710    2.70190 -129.56130
 7250.00000    9.42960    9.29900    -999.25   -0.03600    0.06470   50.39890   41.49000   32.48070   11.15890   19.66600  131.68970    -999.25    0.12570    2.73280 -106.68860
 7300.00000    9.58010    9.29900    -999.25   -0.06280    0.05390   55.25970   42.39000   42.78430   18.62320   19.46160   23.07350    -999.25    0.06390    2.80750  -80.40350
 7350.00000   10.09780    9.59900    -999.25    0.01910    0.08320   59.40510   70.09500   78.29720   14.26990   15.81890   23.31470    -999.25    0.10890    2.65840  -45.75120
 7400.00000    9.35980    9.09900    -999.25   -0.01810    0.00560   51.01260   17.29500   13.45410   87.67220   75.09440  151.42970    -999.25    0.02340    2.71630 -133.02490
 7450.00000    9.78170    9.25000    -999.25   -0.00480    0.02480   49.74990   18.00000   34.96350  106.69870  112.01590  205.70560    -999.25    0.01470    2.71340 -131.92350
 7500.00000   10.07720    9.59900    -999.25   -0.00300    0.01630   50.25590   18.69000   31.50620   38.28150   44.25220  126.18870    -999.25    0.01360    2.70000 -140.44780
 7550.00000    9.39560    9.19900    -999.25    0.01570    0.01610   58.32000   61.39500   68.36500    7.25510    9.13560   13.49720    -999.25    0.09910    2.67860  -61.45150
 7600.00000    9.41180    9.19900    -999.25    0.03090    0.00470   65.65840   74.38500   81.15360    5.04080    6.02080    8.75190    -999.25    0.17960    2.64350  -75.03130
 7650.00000    9.66520    9.04900    -999.25    0.01910    0.00710   57.98380   44.29500   59.59810    4.29040    5.33620   14.12100    -999.25    0.11810    2.66380  -60.31530
 7700.00000    9.77260    9.19900    -999.25    0.00950    0.04120   56.81990   49.48500   66.01970   29.48050   38.68330   45.91160    -999.25    0.07880    2.69030  -44.00880
 7750.00000   12.60910   10.04900    -999.25    0.06420    0.22410   50.17740   15.19500   34.74560  572.51140 1028.86730 1088.44100    -999.25    0.01090    2.53170  -34.55120
 7800.00000   11.33520    9.75000    -999.25    0.02510    0.08110   51.51680   18.00000   23.89230   65.43790   72.11850  132.82010    -999.25    0.02220    2.68200  -91.78690
 7850.00000   11.79310    9.59900    -999.25    0.00150    0.24980   53.58710   24.79500   36.42380   61.61630   71.73820  123.26900    -999.25    0.03620    2.65650  -46.56450
 7900.00000   10.89190    9.79900    -999.25   -0.00010    0.13990   51.78680   22.99500   29.57100   40.07760   54.16000  103.97090    -999.25    0.03060    2.75810  -64.45050
 7950.00000    9.18550    8.94900    -999.25   -0.00140    0.01320   52.66420   37.89000   64.03760  109.78310  125.79070  153.36720    -999.25    0.03570    2.70760  -32.93890
