~Version ---------------------------------------------------
VERS.      2.0 : CWLS log ASCII Standard -VERSION 2.0
WRAP.       NO : One line per depth step
CREA. 08/31/17 : LAS Creation Date
~Well ------------------------------------------------------
STRT.FT                        1050.0 : START DEPTH
STOP.FT                       10000.0 : STOP DEPTH
STEP.FT                      50.00000 : STEP LENGTH
NULL.                         -999.25 : NULL VALUE
COMP.     SAMEDAN OIL OF CANADA, INC. : COMPANY
WELL. SAMEDAN ET AL GROAT 11-26-58-14 : WELL
FLD .                              WC : FIELD
LOC .                                 : LOCATION
CTRY.                          CANADA : COUNTRY
SRVC.                    Schlumberger : SERVICE COMPANY
DATE.                     02-Sep-1971 : LOGDATE
PROV.                         Alberta : PROVINCE
UWI .                100112605814W500 : UNIQUE WELL ID
SLAT.WGS84              54.0443223027 : SURFACE LATITUDE
SLON.WGS84            -115.9745953407 : SURFACE LONGITUDE
~Curve Information -----------------------------------------
DEPT  .FT    : Depth Curve
CALSED.IN    : CALIPER FROM SONIC LOG
CALWS .IN    : CALIPER [CALSED]
CONDWS.MMHO  : CONDUCTIVITY [1000/DRESWS]
DRESWS.OHMM  : DEEP RESISTIVITY [ILDED]
DTED  .US/F  : DELTA-T (INTERVAL TRANSIT TIME) FROM SONIC LOG [DEPTH ADJ TO LL8]
DTWS  .US/F  : COMPRRESSIONAL SONIC [DTED]
GRSED .GAPI  : GAMMA RAY FROM SONIC LOG
GRWS  .GAPI  : GAMMA RAY [GRSED]
ILDED .OHMM  : DEEP INDUCTION FROM RESISTIVIY LOG
ILMED .OHMM  : MEDIUM INDUCTION  FROM RESISTIVIY LOG
LL8ED .OHMM  : LATEROLOG 8  FROM RESISTIVIY LOG
MRESWS.OHMM  : MEDIUM RESISTIVITY [ILMED]
SPRED .MV    : SPONTANEOUS POTENTIAL  FROM RESISTIVIY LOG
SPWS  .MV    : SPONTANEOUS POTENTIAL [BASELINE 0 MV, SPRED]
SRESWS.OHMM  : SHALLOW RESISTIVITY [LL8ED]
~Params ----------------------------------------------------
PD  .                     GL : PERMANENT DATUM
EPD .FT               3086.5 : ELEVATION PERMANENT DATUM
LMF .                     KB : LOG MEASURED FROM
DAPD.FT                   18 : FEET ABOVE PERMANENT DATUM
DMF .                     KB : DRILLING MEASURED FROM
EKB .FT               3104.5 : KELLY BUSHING
EGL .FT               3086.5 : GROUND LEVEL
DATE.               09/02/71 : RUN DATE
RUN .                      1 : RUN NUMBER
DD  .FT                10023 : DEPTH DRILLER
DL  .FT                10020 : DEPTH LOGGER
BLI .FT                10014 : BOTTOM LOG INTERVAL
TLI .FT                 1042 : TOP LOG INTERVAL
CBD .FT                 1043 : CASING BOTTOM DRILLER
CBL .FT                 1042 : CASING BOTTOM LOGGER
BS  .IN                 8.75 : BIT SIZE
BSD .FT                10023 : BIT SIZE AT DEPTH
DFT .                    GEL : DRILLING FLUID TYPE
DFD .                    9.1 : DRILLING FLUID DENSITY
DFV .                    145 : DRILLING FLUID VISCOSITY
DFPH.                    9.5 : DRILLING FLUID PH
DFL .                     88 : DRILLING FLUID LOSS
MSS .               FLOWLINE : MUD SAMPLE SOURCE
RMS .OHMM               1.22 : RESISTIVITY MUD SAMPLE
MST .DEGF                 82 : MUD SAMPLE TEMPERATURE
RMF .OHMM                1.0 : RESISTIVITY MUD FILTRATE SAMPLE
MFST.DEGF                 82 : MUD FILTRATE SAMPLE TEMPERATURE
TCS .HRS                 2.5 : TIME CIRCULATED STOPPED
LUN .                   7636 : LOGGING UNIT NUMBER
LUL .                    EDM : LOGGING UNIT LOCATION
ENGI.            LEITH KEOWN : RECORDING ENGINEER
WITN.           MASON MCLEOD : WITNESSED BY
CLNT.                A2DTECH : CLIENT CODE
ORIG.            2" 5" PRINT : ORIGIN OF DATA
UWI .       100112605814W500 : UNIQUE WELL ID
DICO. A2D Technologies, Inc. : DIGITIZING COMPANY
~Other -----------------------------------------------------
~ASCII -----------------------------------------------------
# ...
 3350.00000    8.75590    8.75590  114.16700    8.75910   83.45710   83.45710   62.15470   62.15470    8.75910    6.90660    7.35480    6.90660  -55.53230   -0.30810    7.35480
 3400.00000    9.74190    9.74190  175.19270    5.70800   87.78260   87.78260   58.40780   58.40780    5.70800    5.52960    5.00110    5.52960  -55.91860   -0.48790    5.00110
 3450.00000    9.14580    9.14580   78.74640   12.69900   82.46030   82.46030   43.03120   43.03120   12.69900   10.55210    8.60990   10.55210  -57.85620   -2.21750    8.60990
 3500.00000    9.52780    9.52780  107.21100    9.32740   90.97870   90.97870   49.96030   49.96030    9.32740    7.68470    8.51810    7.68470  -58.59530   -2.75010    8.51810
 3550.00000    9.38130    9.38130  128.62890    7.77430   87.07030   87.07030   48.92730   48.92730    7.77430    7.17410    6.02560    7.17410  -57.59280   -1.54100    6.02560
 3600.00000    9.49390    9.49390   59.05840   16.93240   77.93300   77.93300   51.79370   51.79370   16.93240   15.97960   11.70330   15.97960  -65.13420   -8.87450   11.70330
 3650.00000    9.68790    9.68790  139.71160    7.15760   84.24940   84.24940   59.78800   59.78800    7.15760    6.60570    5.81030    6.60570  -57.21360   -0.74730    5.81030
 3700.00000   10.46030   10.46030   93.94170   10.64490   84.00120   84.00120   68.00410   68.00410   10.64490    9.97320    9.52190    9.97320  -60.68000   -4.00580    9.52190
 3750.00000   12.25450   12.25450  129.34270    7.73140   89.70500   89.70500   82.43640   82.43640    7.73140    7.45080    6.50780    7.45080  -49.84970    3.26650    6.50780
 3800.00000   11.22300   11.22300   95.82120   10.43610   84.25470   84.25470   79.47940   79.47940   10.43610    9.04090    8.47320    9.04090  -59.80120   -8.78800    8.47320
 3850.00000   11.03590   11.03590  117.23470    8.52990   87.54750   87.54750   84.03770   84.03770    8.52990    8.15160    6.29870    8.15160  -51.68760   -0.12860    6.29870
 3900.00000   10.83140   10.83140  126.91970    7.87900   93.43130   93.43130   93.91410   93.91410    7.87900    7.54520    6.27380    7.54520  -58.14160   -6.04030    6.27380
 3950.00000   10.48360   10.48360  118.82980    8.41540   93.24510   93.24510   95.96780   95.96780    8.41540    8.03540    7.60680    8.03540  -55.70680   -3.05970    7.60680
 4000.00000    9.69890    9.69890  106.22820    9.41370   92.61310   92.61310  109.52170  109.52170    9.41370   10.10360   10.58660   10.10360  -66.12520  -12.93580   10.58660
 4050.00000    9.89500    9.89500  141.37270    7.07350   93.47670   93.47670  102.65320  102.65320    7.07350    7.67640    8.37850    7.67640  -58.13410   -4.40240    8.37850
 4100.00000    9.95380    9.95380  115.68450    8.64420   89.70180   89.70180   99.67740   99.67740    8.64420    7.98130    7.51820    7.98130  -63.37320   -9.09570    7.51820
 4150.00000   10.18420   10.18420  124.06490    8.06030   89.12260   89.12260   90.70130   90.70130    8.06030    7.49500    6.72740    7.49500  -54.67990    0.13990    6.72740
 4200.00000   10.47460   10.47460  131.28180    7.61720   89.81080   89.81080   89.11320   89.11320    7.61720    7.01870    5.82750    7.01870  -56.67320   -1.30760    5.82750
 4250.00000    9.65040    9.65040  142.73890    7.00580   88.89900   88.89900   94.71560   94.71560    7.00580    6.71710    5.68960    6.71710  -60.58520   -4.67730    5.68960
 4300.00000    9.76370    9.76370  112.91270    8.85640   90.60870   90.60870   98.85580   98.85580    8.85640    8.21300    6.71530    8.21300  -62.17150   -5.72130    6.71530
 4350.00000   10.26640   10.26640  143.12910    6.98670   90.56230   90.56230   86.32780   86.32780    6.98670    6.64630    5.45360    6.64630  -56.88860    0.10740    5.45360
 4400.00000   10.70860   10.70860  121.90510    8.20310   86.14240   86.14240   91.60500   91.60500    8.20310    7.31440    6.62280    7.31440  -55.95730    1.58100    6.62280
 4450.00000   10.61600   10.61600  112.01470    8.92740   83.66900   83.66900   89.20260   89.20260    8.92740    7.86070    6.79000    7.86070  -60.42590   -2.34180    6.79000
 4500.00000    9.04610    9.04610   71.36330   14.01280   78.56590   78.56590   71.83550   71.83550   14.01280   12.00740   10.58000   12.00740  -64.08160   -5.45520   10.58000
 4550.00000   11.16360   11.16360  106.19210    9.41690   83.15110   83.15110   80.21680   80.21680    9.41690    8.49790    7.63400    8.49790  -61.88120   -5.01230    7.63400
 4600.00000   10.00710   10.00710   97.87030   10.21760   84.38350   84.38350  102.44020  102.44020   10.21760    9.16850    7.83640    9.16850  -58.34170   -3.61290    7.83640
 4650.00000   10.75310   10.75310  115.02850    8.69350   84.38740   84.38740  105.49720  105.49720    8.69350    7.93530    7.49430    7.93530  -58.23870   -1.47390    7.49430
 4700.00000   11.10210   11.10210  137.91770    7.25070   90.34070   90.34070   98.34860   98.34860    7.25070    6.98510    5.91060    6.98510  -58.48260    0.33160    5.91060
 4750.00000   10.39440   10.39440  143.06770    6.98970   93.68880   93.68880   97.63930   97.63930    6.98970    6.47160    6.07970    6.47160  -63.90930   -3.05910    6.07970
 4800.00000    9.86850    9.86850   98.44460   10.15800   91.29020   91.29020  105.03000  105.03000   10.15800    9.86980    9.23090    9.86980  -62.06230   -0.81620    9.23090
 4850.00000   10.25970   10.25970  112.87700    8.85920   92.90220   92.90220  104.56960  104.56960    8.85920    8.31220    7.96750    8.31220  -62.66670   -2.15940    7.96750
 4900.00000    9.80400    9.80400   97.79470   10.22550   92.46290   92.46290  109.93110  109.93110   10.22550    9.47590    7.93070    9.47590  -62.40790   -2.63460    7.93070
 4950.00000    9.48680    9.48680   87.46150   11.43360   93.61110   93.61110  129.00540  129.00540   11.43360   13.76350   15.40110   13.76350  -62.46280   -3.42830   15.40110
 5000.00000   10.01300   10.01300  124.26680    8.04720   93.17960   93.17960  114.94610  114.94610    8.04720    8.47500    9.85070    8.47500  -59.93280   -1.63230    9.85070
 5050.00000   12.37180   12.37180  162.32190    6.16060   90.24600   90.24600   91.66590   91.66590    6.16060    6.52950    7.34100    6.52950  -63.10290   -5.53630    7.34100
 5100.00000   10.78420   10.78420  106.37730    9.40050   76.13830   76.13830   78.36930   78.36930    9.40050   10.82510   11.38160   10.82510  -63.49980   -6.67200   11.38160
 5150.00000   10.19890   10.19890  180.75990    5.53220   86.51670   86.51670   99.74930   99.74930    5.53220    5.96800    6.35210    5.96800  -61.41390   -5.32010    6.35210
 5200.00000   11.96440   11.96440  219.98810    4.54570   89.18550   89.18550   89.63880   89.63880    4.54570    4.87950    5.51390    4.87950  -56.48070   -1.12570    5.51390
 5250.00000   10.48060   10.48060  154.21150    6.48460   86.75140   86.75140   86.54860   86.54860    6.48460    7.54760    8.06360    7.54760  -59.54230   -4.92130    8.06360
 5300.00000   13.13470   13.13470  232.38520    4.30320   91.56770   91.56770   88.63120   88.63120    4.30320    4.96210    5.27220    4.96210  -56.37850   -2.49150    5.27220
 5350.00000   10.34660   10.34660  155.65900    6.42430   90.96660   90.96660  131.04870  131.04870    6.42430    7.18610    8.32760    7.18610  -60.69200   -7.54380    8.32760
 5400.00000   13.11800   13.11800  325.71170    3.07020   99.02940   99.02940   74.90500   74.90500    3.07020    2.54070    2.86960    2.54070  -47.78650    2.47780    2.86960
 5450.00000   10.96640   10.96640  237.38870    4.21250   89.50560   89.50560   95.38970   95.38970    4.21250    3.96210    4.43580    3.96210  -58.17810   -9.74350    4.43580
 5500.00000   10.34450   10.34450  171.31500    5.83720   90.25910   90.25910  107.66500  107.66500    5.83720    5.19220    6.17310    5.19220  -60.64480  -12.66560    6.17310
 5550.00000    8.62190    8.62190   29.39720   34.01690   70.34520   70.34520   24.64200   24.64200   34.01690   29.97500   29.99570   29.97500  -84.35780  -36.83400   29.99570
 5600.00000    9.66070    9.66070   63.91610   15.64550   72.92200   72.92200   49.71150   49.71150   15.64550   13.45090   14.39580   13.45090  -67.28520  -20.21980   14.39580
