~Version ---------------------------------------------------
VERS.      2.0 : CWLS log ASCII Standard -VERSION 2.0
WRAP.       NO : One line per depth step
CREA. 10/03/17 : LAS Creation Date
~Well ------------------------------------------------------
STRT.FT                              1000.0 : START DEPTH
STOP.FT                             10700.0 : STOP DEPTH
STEP.FT                            50.00000 : STEP LENGTH
NULL.                               -999.25 : NULL VALUE
COMP. HUDSONS BAY OIL & GAS COMPANY LIMITED : COMPANY
WELL.        H.B. UNION KAYBOBS 11-27-62-20 : WELL
FLD .                                       : FIELD
LOC .                                       : LOCATION
CTRY.                                CANADA : COUNTRY
SRVC.                Schlumberger of Canada : SERVICE COMPANY
DATE.                           19-Sep-1961 : LOGDATE
PROV.                               Alberta : PROVINCE
UWI .                      100112706220W500 : UNIQUE WELL ID
SLAT.WGS84                          54.3942 : SURFACE LATITUDE
SLON.WGS84                        -116.9147 : SURFACE LONGITUDE
~Curve Information -----------------------------------------
DEPT  .FT         : Depth Curve
CALWS .IN         : CALIPER [MCALED]
CILDED.MMHO       : DEEP INDUCTION CONDUCTIVITY FROM RESISTIVITY LOG
CONDWS.MMHO       : CONDUCTIVITY [1000/DRESWS]
DRESWS.OHMM       : DEEP RESISTIVITY [CILDED/1000.IF ILDED <=5,ILDED]
DTED  .US/F       : DELTA-T FROM SONIC LOG [ADJ. TO RESISTIVITY LOG]
DTWS  .US/F       : COMPRESSIONAL SONIC [DTED]
GRNED .GAPI       : GAMMA RAY FROM GRN LOG [ADJ. TO RESISTIVITY LOG]
GRSED .UgRa-Eq/T  : GAMMA RAY FROM SONIC LOG [ADJ. TO RESISTIVITY LOG]
GRWS  .GAPI       : GAMMA RAY [GRSED*16.5]
ILDED .OHMM       : DEEP INDUCTION RESISTIVITY FROM RESISTIVITY LOG
MCALED.IN         : CALIPER FROM MICROLOG
NEUTED.NAPI       : NEUTRON FROM GRN LOG [ADJ. TO RESISTIVITY LOG]
NEUTWS.NAPI       : NEUTRON [NEUTED]
SNED  .OHMM       : SHORT NORMAL RESISTIVITY FROM RESISTIVITY LOG
SPRED .MV         : SPONTANEOUS POTENTIAL FROM RESISTIVITY LOG
SPWS  .MV         : SPONTANEOUS POTENTIAL [BASELINE 0 MV,SPRED]
SRESWS.OHMM       : SHALLOW RESISTIVITY [SNED]
~Params ----------------------------------------------------
PD  .                    CBF : PERMANENT DATUM
EPD .FT                 2733 : ELEVATION PERMANENT DATUM
LMF .                     KB : LOG MEASURED FROM
DAPD.FT                 15.6 : FEET ABOVE PERMANENT DATUM
EKB .FT               2748.6 : KELLY BUSHING
EDF .FT                 2733 : DRILLING FLOOR
EGL .FT                 2733 : GROUND LEVEL
DATE.               09/19/61 : RUN DATE
RUN .                      1 : RUN NUMBER
DD  .FT                10742 : DEPTH DRILLER
DL  .FT                10737 : DEPTH LOGGER
BLI .FT                10736 : BOTTOM LOG INTERVAL
TLI .FT                 1078 : TOP LOG INTERVAL
CBD .FT                 1078 : CASING BOTTOM DRILLER
CBL .FT                 1078 : CASING BOTTOM LOGGER
BS  .IN                    9 : BIT SIZE
BSD .FT                10742 : BIT SIZE AT DEPTH
DFT .                    GEL : DRILLING FLUID TYPE
DFD .                    9.8 : DRILLING FLUID DENSITY
DFV .                     90 : DRILLING FLUID VISCOSITY
DFPH.                      9 : DRILLING FLUID PH
DFL .                    7.8 : DRILLING FLUID LOSS
RMS .OHMM                1.7 : RESISTIVITY MUD SAMPLE
MST .DEGF                 74 : MUD SAMPLE TEMPERATURE
RMF .OHMM               1.42 : RESISTIVITY MUD FILTRATE SAMPLE
MFST.DEGF                 76 : MUD FILTRATE SAMPLE TEMPERATURE
RMC .OHMM               1.65 : RESISTIVITY MUD CAKE
MCST.DEGF                 77 : MUD CAKE SAMPLE TEMPERATURE
RMB .OHMM                0.6 : RESISTIVITY MUD AT BHT
TCS .HRS                 500 : TIME CIRCULATED STOPPED
LUN .                   1574 : LOGGING UNIT NUMBER
ENGI.                 BENNER : RECORDING ENGINEER
WITN.         BRITTON WALKER : WITNESSED BY
CLNT.                A2DTECH : CLIENT CODE
ORIG.            2" 5" PRINT : ORIGIN OF DATA
UWI .       100112706220W500 : UNIQUE WELL ID
DICO. A2D Technologies, Inc. : DIGITIZING COMPANY
~Other -----------------------------------------------------
IEL/GRN/SONIC LOG RAN
~ASCII -----------------------------------------------------
# ...
 9200.00000    9.55260   13.85810   11.22330   89.10000   55.21400   55.21400    -999.25    2.81890   46.51190   89.10000    9.55260    -999.25    -999.25   85.60570  -40.77890   -5.37750   85.60570
 9250.00000    9.76090   16.47660   14.81570   67.49610   55.60460   55.60460    -999.25    3.69810   61.01870   67.49610    9.76090    -999.25    -999.25   62.76320  -41.71880   -6.00770   62.76320
 9300.00000    9.61530   19.45230   16.26820   61.47010   56.64780   56.64780    -999.25    4.16230   68.67790   61.47010    9.61530    -999.25    -999.25   58.43680  -47.82530   -9.23540   58.43680
 9350.00000    9.87390   18.79740   17.81190   56.14220   55.67850   55.67850    -999.25    3.34510   55.19420   56.14220    9.87390    -999.25    -999.25   56.72890  -44.17300   -2.68530   56.72890
 9400.00000    9.63960   28.42590   26.69350   37.46230   56.89720   56.89720    -999.25    3.38280   55.81620   37.46230    9.63960    -999.25    -999.25   37.80310  -50.38860   -8.88840   37.80310
 9450.00000   15.36670  148.79730  145.16740    6.88860   74.40490   74.40490    -999.25    5.06200   83.52300    6.88860   15.36670    -999.25    -999.25    8.43590  -47.17430   -6.79960    8.43590
 9500.00000   15.02190  162.58380  161.85680    6.17830   77.42810   77.42810    -999.25    4.72900   78.02850    6.17830   15.02190    -999.25    -999.25    7.26830  -45.54700   -6.29050    7.26830
 9550.00000   15.57600  153.05530  154.88510    6.45640   76.97080   76.97080    -999.25    4.80710   79.31630    6.45640   15.57600    -999.25    -999.25    8.17990  -51.02510  -13.84880    8.17990
 9600.00000    9.88770   21.93750   20.40050   49.01830   68.49470   68.49470    -999.25    4.13660   68.25390   49.01830    9.88770    -999.25    -999.25   45.62830  -61.05800  -26.47920   45.62830
 9650.00000   10.64450  107.76030  109.20010    9.15750   67.07570   67.07570    -999.25    4.66680   77.00220    9.15750   10.64450    -999.25    -999.25   11.12850  -62.41070  -30.41250   11.12850
 9700.00000   15.58490  176.20080  180.16720    5.55040   79.31060   79.31060    -999.25    5.23970   86.45510    5.55040   15.58490    -999.25    -999.25    5.71830  -53.81660  -24.41590    5.71830
 9750.00000   15.59240  202.17720  202.23670    4.94470   79.22660   79.22660    -999.25    4.99390   82.39850    4.94470   15.59240    -999.25    -999.25    6.26480  -38.71130  -11.89120    6.26480
 9800.00000   11.32150   85.37850   86.33110   11.59270   77.63740   77.63740    -999.25    5.50770   90.87790   11.59270   11.32150    -999.25    -999.25   15.42830  -25.81400   -1.57440   15.42830
 9850.00000   10.51050   88.94330   86.82360   11.51760   68.70940   68.70940    -999.25    5.41200   89.29800   11.51760   10.51050    -999.25    -999.25   14.40310  -28.63590   -6.15520   14.40310
 9900.00000   10.13530   88.02840   86.49100   11.56190   67.93060   67.93060    -999.25    4.92610   81.28060   11.56190   10.13530    -999.25    -999.25   14.90460  -26.84810   -6.03750   14.90460
 9950.00000   10.43960   89.02300   86.99740   11.49460   69.37600   69.37600    -999.25    4.43600   73.19400   11.49460   10.43960    -999.25    -999.25   15.12190  -24.74780   -5.61830   15.12190
 10000.00000   10.10200   98.95810   94.36540   10.59710   69.38730   69.38730    -999.25    5.22240   86.16960   10.59710   10.10200    -999.25    -999.25   13.39950  -23.43670   -7.58460   13.39950
 10050.00000   10.09480  121.40970  115.69420    8.64400   75.32290   75.32290    -999.25    5.20030   85.80580    8.64400   10.09480    -999.25    -999.25   11.50310  -18.89490   -7.88590   11.50310
 10100.00000   11.35210  108.10350  103.28980    9.68150   75.52660   75.52660    -999.25    5.27000   86.95500    9.68150   11.35210    -999.25    -999.25   12.59200  -11.77180   -5.63770   12.59200
 10150.00000    9.28580   19.69800   16.53510   60.47730   72.35170   72.35170    -999.25    5.91590   97.61230   60.47730    9.28580    -999.25    -999.25   68.31770   -3.32130   -2.03030   68.31770
 10200.00000    9.16160    3.23690    2.82980  353.38410   68.99920   68.99920    -999.25    5.34540   88.19910  353.38410    9.16160    -999.25    -999.25  205.89740   -0.44960   -4.03350  205.89740
 10250.00000    9.28900    8.19970    5.65450  176.84880   75.02090   75.02090    -999.25    7.05990  116.48840  176.84880    9.28900    -999.25    -999.25  126.43140    3.97910   -1.95290  126.43140
 10300.00000    9.17380   11.38010    8.87300  112.74670   65.47510   65.47510    -999.25    3.57820   59.04030  112.74670    9.17380    -999.25    -999.25   98.82760   -0.10040   -3.29050   98.82760
 10350.00000    9.29420    5.76640    3.40420  293.75900   55.60240   55.60240   39.09470    3.15480   52.05420  293.75900    9.29420  572.82310  572.82310   98.92650   -8.52330   -8.95350   98.92650
 10400.00000    9.90190   22.81030   22.89010   43.68700   59.96580   59.96580   48.16260    3.52820   58.21530   43.68700    9.90190  506.37580  506.37580   63.75810  -10.03570   -7.72410   63.75810
 10450.00000    8.00580    4.94240    4.45260  224.58870   76.24930   76.24930    9.63470    1.31600   21.71400  224.58870    8.00580  512.29430  512.29430  182.76380 -107.77950 -102.70800  182.76380
 10500.00000    7.57810  148.57750  153.86040    6.49940   57.32470   57.32470    9.73360    1.33690   22.05890    6.49940    7.57810  620.75300  620.75300   24.01320 -162.33290 -154.51950   24.01320
 10550.00000    7.66120   64.90890   64.41620   15.56950   54.77200   54.77200    8.31080    1.57070   25.91740   15.56950    7.66120  393.58050  393.58050   26.95520 -170.52870 -159.97350   26.95520
 10600.00000    8.69820  122.30840   89.54880   11.16710   48.14390   48.14390   14.35880    1.24450   20.53430   11.16710    8.69820  558.52890  558.52890   26.05780 -158.77900 -145.46390   26.05780
 10650.00000    9.08630   16.67710   15.47550   64.61830   51.76300   51.76300   13.77840    1.01680   16.77640   64.61830    9.08630  688.66720  688.66720   96.65260 -133.52190 -117.46490   96.65260
 10700.00000    8.54210   10.80000   10.19270   98.10960   61.35010   61.35010    -999.25    -999.25    -999.25   98.10960    8.54210    -999.25    -999.25   94.17210  -37.01710  -18.20020   94.17210
