~Version ---------------------------------------------------
VERS.      2.0 : CWLS log ASCII Standard -VERSION 2.0
WRAP.       NO : One line per depth step
CREA. 11/16/17 : LAS Creation Date
~Well ------------------------------------------------------
STRT.FT                       1100.0 : START DEPTH
STOP.FT                      10650.0 : STOP DEPTH
STEP.FT                     50.00000 : STEP LENGTH
NULL.                        -999.25 : NULL VALUE
COMP.           PETROFINA CANADA LTD : COMPANY
WELL. FINA AMOCO HB PASSCK 10-6-61-1 : WELL
FLD .                             WC : FIELD
LOC .                                : LOCATION
CTRY.                         CANADA : COUNTRY
SRVC.                   Schlumberger : SERVICE COMPANY
DATE.                    16-Nov-1976 : LOGDATE
PROV.                        Alberta : PROVINCE
UWI .               100100606117W500 : UNIQUE WELL ID
SLAT.WGS84                  54.24964 : SURFACE LATITUDE
SLON.WGS84                 -116.5333 : SURFACE LONGITUDE
~Curve Information -----------------------------------------
DEPT    .FT    : Depth Curve
CALDED  .IN    : CALIPER FROM DENSITY LOG
CALSED  .IN    : CALIPER FROM SONIC LOG [ADJ. TO GRDED]
CALWS   .IN    : CALIPER [CALSED SPL. TO CALDED @ 2270']
CILDED  .MMHO  : CONDUCTIVITY FROM RESISTIVITY LOG
CONDWS  .MMHO  : CONDUCTIVITY [1000/DRESWS]
DCORED  .G/C3  : DENSITY CORRECTION FROM DENSITY LOG
DCORWS  .G/C3  : DENSITY CORRECTION [DCORED]
DENWS   .G/C3  : FORMATION BULK DENSITY [RHOBED]
DPHILSED.V/V   : DENSITY POROSITY LIMESTONE [M=2.71, F=1.00] FROM DENSITY LOG [ADJ. TO RHOBED]
DPHISSED.V/V   : DENSITY POROSITY SANDSTONE [M=2.65, F=1.00] FROM DENSITY LOG [ADJ. TO RHOBED]
DPOLSWS .V/V   : DENSITY POROSITY LIMESTONE [CALC FROM DENWS, M=2.71, F=1.00]
DRESWS  .OHMM  : DEEP RESISTIVITY [1000/CILDED IF ILDED<=1.9, ILDED & SPL. TO ILDED @ 2250']
DTED    .US/F  : DELTA TIME FROM SONIC LOG [ADJ. TO GRDED]
DTWS    .US/F  : COMPRESSIONAL SONIC [DTED]
GRDED   .GAPI  : GAMMA RAY FROM DENSITY LOG
GRSED   .GAPI  : GAMMA RAY FROM SONIC LOG [ADJ. TO GRDED]
GRWS    .GAPI  : GAMMA RAY [GRSED SPL. TO GRDED @ 2276']
ILDED   .OHMM  : DEEP INDUCTION RESISTIVITY FROM RESISTIVITY LOG
ILMED   .OHMM  : MEDIUM INDUCTION RESISTIVITY FROM RESISTIVITY LOG
LL8ED   .OHMM  : 8 INCH LATEROLOG RESISTIVITY FROM RESISTIVITY LOG
MRESWS  .OHMM  : MEDIUM RESISTIVITY [ILMED]
NPHILSED.V/V   : NEUTRON POROSITY LIMESTONE FROM DENSITY LOG [ADJ. TO RHOBED]
NPHISSED.V/V   : NEUTRON POROSITY SANDSTONE FROM DENSITY LOG [ADJ. TO RHOBED]
NPOLSWS .V/V   : NEUTRON POROSITY LIMESTONE [SS CONVERTED TO  LS & SPL. TO NPHILSED @ 6854.5']
RHOBED  .G/C3  : BULK DENSITY FROM DENSITY LOG
SPRED   .MV    : SPONTANEOUS POTENTIAL FROM RESISTIVITY LOG
SPWS    .MV    : SPONTANEOUS POTENTIAL [BASELINE 0 MV, SPRED]
SRESWS  .OHMM  : SHALLOW RESISTIVITY [LL8ED]
~Params ----------------------------------------------------
PD  .                     GL : PERMANENT DATUM
EPD .FT                 3080 : ELEVATION PERMANENT DATUM
LMF .                     KB : LOG MEASURED FROM
DAPD.FT                   16 : FEET ABOVE PERMANENT DATUM
EKB .FT                 3096 : KELLY BUSHING
EGL .FT                 3080 : GROUND LEVEL
DATE.               11/16/76 : RUN DATE
RUN .                      2 : RUN NUMBER
DD  .FT                10680 : DEPTH DRILLER
DL  .FT                10679 : DEPTH LOGGER
BLI .FT                10673 : BOTTOM LOG INTERVAL
TLI .FT                 7468 : TOP LOG INTERVAL
CBD .FT                 1102 : CASING BOTTOM DRILLER
CBL .FT                 1102 : CASING BOTTOM LOGGER
BS  .IN                 8.75 : BIT SIZE
BSD .FT                10680 : BIT SIZE AT DEPTH
DFT .                    GEL : DRILLING FLUID TYPE
DFD .                    9.2 : DRILLING FLUID DENSITY
DFV .                     94 : DRILLING FLUID VISCOSITY
DFPH.                     10 : DRILLING FLUID PH
DFL .                    8.2 : DRILLING FLUID LOSS
MSS .               FLOWLINE : MUD SAMPLE SOURCE
RMS .OHMM               1.57 : RESISTIVITY MUD SAMPLE
MST .DEGF                 65 : MUD SAMPLE TEMPERATURE
RMF .OHMM               1.76 : RESISTIVITY MUD FILTRATE SAMPLE
MFST.DEGF                 68 : MUD FILTRATE SAMPLE TEMPERATURE
TCS .HRS                 2.5 : TIME CIRCULATED STOPPED
LUN .                   7800 : LOGGING UNIT NUMBER
LUL .                    EDM : LOGGING UNIT LOCATION
ENGI.     ROBELLI LEDUG BIGG : RECORDING ENGINEER
WITN.                CHARLES : WITNESSED BY
CLNT.                A2DTECH : CLIENT CODE
ORIG.            2" 5" PRINT : ORIGIN OF DATA
UWI .       100100606117W500 : UNIQUE WELL ID
DICO. A2D Technologies, Inc. : DIGITIZING COMPANY
~Other -----------------------------------------------------
~ASCII -----------------------------------------------------
# ...
 4850.00000   10.81130    9.69200   10.81130    -999.25  136.68670    0.22980    0.22980    2.39310    -999.25    0.15650    0.18530    7.31600   93.44670   93.44670  111.62030  122.06320  111.62030    7.31600    6.90210    8.42070    6.90210    -999.25    0.35180    0.30820    2.39310  -11.97850   -3.69350    8.42070
 4900.00000   10.25750    9.44510   10.25750    -999.25  114.88600    0.19990    0.19990    2.50910    -999.25    0.08320    0.11750    8.70490   91.64810   91.64810  120.73560  130.31090  120.73560    8.70490    8.33210   11.17640    8.33210    -999.25    0.36740    0.32400    2.50910  -11.46180   -3.63200   11.17640
 4950.00000   10.63700    9.62530   10.63700    -999.25  108.32240    0.16400    0.16400    2.53820    -999.25    0.07270    0.10050    9.23170   90.85870   90.85870  125.00970  129.79120  125.00970    9.23170    8.85610   12.40910    8.85610    -999.25    0.31690    0.27300    2.53820  -10.57640   -3.20480   12.40910
 5000.00000    9.62360    9.41780    9.62360    -999.25   56.20580    0.03250    0.03250    2.58200    -999.25    0.03580    0.07490   17.81260   85.34200   85.34200  114.96980  122.34980  114.96980   17.81260   17.10940   35.23780   17.10940    -999.25    0.30470    0.26070    2.58200  -11.00400   -4.08770   35.23780
 5050.00000    9.26520    9.50870    9.26520    -999.25   80.07530    0.14360    0.14360    2.48920    -999.25    0.10250    0.12920   12.48910   93.36970   93.36970  123.62900  140.74430  123.62900   12.48910   12.02720   17.96350   12.02720    -999.25    0.35840    0.31480    2.48920  -10.63150   -4.17030   17.96350
 5100.00000   10.15580    9.79910   10.15580    -999.25  102.11380    0.12530    0.12530    2.52420    -999.25    0.08570    0.10870    9.79300   90.55710   90.55710  111.75450  123.91830  111.75450    9.79300    9.37910   12.34650    9.37910    -999.25    0.34150    0.29780    2.52420  -10.09260   -4.08960   12.34650
 5150.00000    9.58380    9.49050    9.58380    -999.25   66.90140    0.04210    0.04210    2.42360    -999.25    0.13900    0.16750   14.97150  101.26880  101.26880  150.09670  163.93310  150.09670   14.97150   14.23460   31.71830   14.23460    -999.25    0.42720    0.38490    2.42360   -9.15420   -3.60640   31.71830
 5200.00000   10.95190   10.19010   10.95190    -999.25  134.60220    0.25770    0.25770    2.38840    -999.25    0.16430    0.18810    7.42930   81.32410   81.32410   85.72220   95.15930   85.72220    7.42930    7.15710    8.71630    7.15710    -999.25    0.24490    0.20100    2.38840  -11.24380   -6.15420    8.71630
 5250.00000   11.93400   10.34170   11.93400    -999.25  166.05590    0.23970    0.23970    2.41230    -999.25    0.13960    0.17410    6.02230   87.86070   87.86070  102.04710  114.81830  102.04710    6.02230    5.80040    7.37990    5.80040    -999.25    0.33360    0.28980    2.41230   -9.10090   -4.28860    7.37990
 5300.00000   10.10300    9.71940   10.10300    -999.25   99.94160    0.10050    0.10050    2.61760    -999.25    0.01380    0.05400   10.00590   78.39180   78.39180  107.82710  121.53520  107.82710   10.00590    9.59810   11.34230    9.59810    -999.25    0.29340    0.24940    2.61760  -10.02410   -3.97680   11.34230
 5350.00000   10.95400   10.12890   10.95400    -999.25  147.54050    0.21670    0.21670    2.57910    -999.25    0.04260    0.07650    6.77780   82.10220   82.10220  100.64570  109.05130  100.64570    6.77780    6.47980    9.96550    6.47980    -999.25    0.30730    0.26330    2.57910   -9.49970   -3.64410    9.96550
 5400.00000   10.68110    9.80290   10.68110    -999.25  125.76720    0.19280    0.19280    2.60550    -999.25    0.02350    0.06110    7.95120   80.29600   80.29600  108.87920  117.97370  108.87920    7.95120    7.56890    9.26790    7.56890    -999.25    0.28390    0.23980    2.60550   -8.99000   -4.46540    9.26790
 5450.00000   10.45780   10.21260   10.45780    -999.25  140.72020    0.08020    0.08020    2.60380    -999.25    0.02290    0.06210    7.10630   83.45460   83.45460  107.33960  114.48380  107.33960    7.10630    6.70120    8.56640    6.70120    -999.25    0.31040    0.26650    2.60380   -7.16730   -3.98220    8.56640
 5500.00000   11.41490   11.70330   11.41490    -999.25  198.83440    0.12580    0.12580    2.61120    -999.25    0.02010    0.05780    5.02970   89.09510   89.09510  103.17710  112.05980  103.17710    5.02970    4.80620    6.45850    4.80620    -999.25    0.34250    0.29880    2.61120   -6.49950   -4.64520    6.45850
 5550.00000   11.33630   10.18320   11.33630    -999.25  247.26140    0.11080    0.11080    2.55550    -999.25    0.04980    0.09040    4.04490   97.50070   97.50070  124.33230  135.94350  124.33230    4.04490    3.91830    5.52720    3.91830    -999.25    0.35630    0.31270    2.55550   -4.02370   -3.50040    5.52720
 5600.00000   12.80260   11.20330   12.80260    -999.25  298.80180    0.22280    0.22280    2.39080    -999.25    0.15630    0.18670    3.34670   91.76600   91.76600   96.39550  109.20440   96.39550    3.34670    3.19630    4.01910    3.19630    -999.25    0.38070    0.33750    2.39080   -1.39170   -2.20800    4.01910
 5650.00000   11.40800   10.27100   11.40800    -999.25  212.79430    0.16690    0.16690    2.52900    -999.25    0.07360    0.10590    4.69990   86.29900   86.29900   93.48600  101.84050   93.48600    4.69990    4.55020    6.63550    4.55020    -999.25    0.29710    0.25310    2.52900   -2.05840   -3.12860    6.63550
 5700.00000   10.58930    9.86260   10.58930    -999.25  155.40500    0.10990    0.10990    2.52910    -999.25    0.08110    0.10580    6.43480   83.51190   83.51190  106.88780  117.94320  106.88780    6.43480    6.12700    8.22640    6.12700    -999.25    0.25340    0.20950    2.52910   -3.19210   -4.26230    8.22640
 5750.00000    9.28420    9.09040    9.28420    -999.25   62.48000    0.04470    0.04470    2.57760    -999.25    0.04810    0.07740   16.00650   72.94990   72.94990   55.23330   59.98400   55.23330   16.00650   15.47710   19.64510   15.47710    -999.25    0.16480    0.12200    2.57760  -24.92070  -25.99100   19.64510
 5800.00000   10.33000    9.58110   10.33000    -999.25   63.48680    0.21380    0.21380    2.56650    -999.25    0.06460    0.08400   15.75700   73.37210   73.37210   60.33200   73.62990   60.33200   15.75700   17.18540   18.89930   17.18540    -999.25    0.18380    0.14060    2.56650  -13.83940  -14.90960   18.89930
 5850.00000    9.98940    9.62850    9.98940    -999.25   81.75210    0.02210    0.02210    2.50790    -999.25    0.09540    0.11820   12.23210   75.02030   75.02030   57.94310   61.87350   57.94310   12.23210   12.69900   13.95700   12.69900    -999.25    0.20660    0.16310    2.50790   -9.78760  -14.10730   13.95700
 5900.00000    9.74100    9.65210    9.74100    -999.25   77.40660    0.05560    0.05560    2.58800    -999.25    0.03860    0.07140   12.92320   72.99880   72.99880   85.92820   93.74790   85.92820   12.92320   13.36920   15.84690   13.36920    -999.25    0.27540    0.23140    2.58800   -8.28690  -12.36390   15.84690
 5950.00000    9.65790    9.50330    9.65790    -999.25   88.72010    0.04040    0.04040    2.59810    -999.25    0.03950    0.06540   11.27140   75.49480   75.49480   97.59550   99.85620   97.59550   11.27140   11.46160   13.94460   11.46160    -999.25    0.27440    0.23040    2.59810   -8.19140  -11.30840   13.94460
 6000.00000   10.29530   10.33750   10.29530    -999.25   69.43760    0.03050    0.03050    2.52900    -999.25    0.07460    0.10590   14.40570   73.20600   73.20600   64.01700   72.43850   64.01700   14.40570   12.14990   25.91750   12.14990    -999.25    0.25510    0.21120    2.52900   -8.12820  -10.29140   25.91750
 6050.00000    9.92970    9.79410    9.92970    -999.25   65.34400    0.05600    0.05600    2.52470    -999.25    0.11430    0.10830   15.30420   83.01910   83.01910   89.70560  105.82460   89.70560   15.30420   15.73210   20.67010   15.73210    -999.25    0.32300    0.27920    2.52470   -5.22540   -6.43500   20.67010
