~Version ---------------------------------------------------
VERS.      2.0 : CWLS log ASCII Standard -VERSION 2.0
WRAP.       NO : One line per depth step
CREA. 12/18/17 : LAS Creation Date
~Well ------------------------------------------------------
STRT.FT                             1350.0 : START DEPTH
STOP.FT                            11950.0 : STOP DEPTH
STEP.FT                           50.00000 : STEP LENGTH
NULL.                              -999.25 : NULL VALUE
COMP.                 CHEVRON STANDARD LTD : COMPANY
WELL. CHEVRON AMOCO WASKAHIGAN 10-17-64-24 : WELL
FLD .                                      : FIELD
LOC .                                      : LOCATION
CTRY.                               CANADA : COUNTRY
SRVC.                         Schlumberger : SERVICE COMPANY
DATE.                          17-Sep-1977 : LOGDATE
PROV.                              Alberta : PROVINCE
UWI .                     100101706424W500 : UNIQUE WELL ID
SLAT.WGS84                        54.54045 : SURFACE LATITUDE
SLON.WGS84                       -117.5875 : SURFACE LONGITUDE
~Curve Information -----------------------------------------
DEPT    .FT    : Depth Curve
CALDED  .IN    : CALIPER FROM DENSITY LOG [ADJ. TO RESISTIVITY LOG]
CALSED  .IN    : CALIPER FROM SONIC LOG  [ADJ. TO RESISTIVITY LOG]
CALWS   .IN    : CALIPER [CALSED]
CONDWS  .MMHO  : CONDUCTIVITY [1000/DRESWS]
DCORWS  .G/C3  : DENSITY CORRECTION [DRHOED]
DENWS   .G/C3  : FORMATION BULK DENSITY [RHOBED SPL. TO CALC, FROM DPHILSED M=2.71, F=1.00 FROM 11478'-11488']
DPHILSED.V/V   : DENSITY POROSITY LIMESTONE [M=2.71, F=1.00] FROM DENSITY LOG  [ADJ. TO RESISTIVITY LOG]
DPHISSED.V/V   : DENSITY POROSITY SANDSTONE [M=2.65, F=1.00] FROM DENSITY LOG  [ADJ. TO RESISTIVITY LOG]
DPOLSWS .V/V   : DENSITY POROSITY SANDSTONE [CALC. FROM DENWS  [M=2.71, F=1.00]
DRESWS  .OHMM  : DEEP RESISTIVITY [ILDED]
DRHOED  .G/C3  : DENSITY CORRECTION FROM DENSITY LOG [ [ADJ. TO RESISTIVITY / DPHISSED & DPHILSED]
DTED    .US/F  : DELTA TIME FROM SONIC LOG  [ADJ. TO RESISTIVITY LOG]
DTWS    .US/F  : COMPRSSIONAL SONIC[ DTED]
GRDED   .GAPI  : GAMMA RAY FROM DENSITY LOG  [ADJ. TO RESISTIVITY LOG]
GRSED   .GAPI  : GAMMA RAY FROM SONIC LOG  [ADJ. TO RESISTIVITY LOG]
GRWS    .GAPI  : GAMMA RAY [GRSED SPL. TO GRDED @ 11900']
ILDED   .OHMM  : DEEP INDUCTION LOG RESISTIVITY FROM RESISTIVITY LOG
ILMED   .OHMM  : MEDIUM INDUCTION LOG RESISTIVITY FROM RESISTIVITY LOG
LL8ED   .OHMM  : LATEROLOG FROM RESISTIVITY LOG
MRESWS  .OHMM  : MEDIUM RESISTIVITY [ILMED]
NPHILSED.V/V   : NEUTRON POROSITY LIMESTONE FROM DENSITY LOG  [ADJ. TO RESISTIVITY LOG]
NPHISSED.V/V   : NEUTRON POROSITY SANDSTONE FROM DENSITY LOG  [ADJ. TO RESISTIVITY LOG]
NPOLSWS .V/V   : NEUTRON POROSITY LIMESTONE[NPHISSED MATRIX CONVERSION FOR LIMESTONE SPL. TO NPHILSED @ 9050'
RHOBED  .G/C3  : BULK DENSITY FROM DENSITY LOG [ [ADJ. TO RESISTIVITY/ DPHISSED & DPHILSED]
SPRED   .MV    : SPONTANEOUS POTENTIAL FROM RESISTIVITY LOG
SPWS    .MV    : SPONTANEOUS POTENTIAL [BASELINE 0 MV,SPRED]
SRESWS  .OHMM  : SHALLOW RESISTIVITY [LL8ED]
TENDED  .LBF   : TENSION FROM DENSITY LOG  [ADJ. TO RESISTIVITY LOG]
TENSED  .LBF   : TENSION FROM SONIC LOG  [ADJ. TO RESISTIVITY LOG]
~Params ----------------------------------------------------
PD  .                     GL : PERMANENT DATUM
EPD .FT               2874.1 : ELEVATION PERMANENT DATUM
LMF .                     KB : LOG MEASURED FROM
DAPD.FT                 18.5 : FEET ABOVE PERMANENT DATUM
EKB .FT               2892.6 : KELLY BUSHING
EGL .FT               2874.1 : GROUND LEVEL
DATE.               09/17/77 : RUN DATE
RUN .                      1 : RUN NUMBER
DD  .FT                11989 : DEPTH DRILLER
DL  .FT                11985 : DEPTH LOGGER
BLI .FT                11979 : BOTTOM LOG INTERVAL
TLI .FT                 1516 : TOP LOG INTERVAL
CBD .FT              1516.87 : CASING BOTTOM DRILLER
CBL .FT                 1516 : CASING BOTTOM LOGGER
BS  .IN                 8.75 : BIT SIZE
BSD .FT                11989 : BIT SIZE AT DEPTH
DFT .                    GEL : DRILLING FLUID TYPE
DFD .                      9 : DRILLING FLUID DENSITY
DFV .                     90 : DRILLING FLUID VISCOSITY
DFPH.                    9.5 : DRILLING FLUID PH
DFL .                    8.4 : DRILLING FLUID LOSS
MSS .               FLOWLINE : MUD SAMPLE SOURCE
RMS .OHMM               1.53 : RESISTIVITY MUD SAMPLE
MST .DEGF                 68 : MUD SAMPLE TEMPERATURE
RMF .OHMM               1.36 : RESISTIVITY MUD FILTRATE SAMPLE
MFST.DEGF                 62 : MUD FILTRATE SAMPLE TEMPERATURE
RMC .OHMM               1.37 : RESISTIVITY MUD CAKE
MCST.DEGF                 62 : MUD CAKE SAMPLE TEMPERATURE
TCS .HRS                   5 : TIME CIRCULATED STOPPED
LUN .                   7772 : LOGGING UNIT NUMBER
LUL .                    EDM : LOGGING UNIT LOCATION
ENGI.         BERNISKY TRACY : RECORDING ENGINEER
WITN.             RICHARDSON : WITNESSED BY
CLNT.                A2DTECH : CLIENT CODE
ORIG.            2" 5" PRINT : ORIGIN OF DATA
UWI .       100101706424W500 : UNIQUE WELL ID
DICO. A2D Technologies, Inc. : DIGITIZING COMPANY
~Other -----------------------------------------------------
DIL-CNFD-SONIC LOG RUN
SONIC 2' DEEP TO DIL. GAP IN GRDED FROM 6074'-6090'& 6110' -6132' & GAP IN NPHISSED FROM 6087'-6102' & 6124'-6138' DUE TO REMOVE INVALID VALUE
~ASCII -----------------------------------------------------
# ...
 8850.00000    -999.25    8.92480    8.92480   47.52690    -999.25    -999.25    -999.25    -999.25    -999.25   21.04070    -999.25   57.88600   57.88600    -999.25   67.64110   67.64110   21.04070   23.57000   32.65120   23.57000    -999.25    -999.25    -999.25    -999.25  -49.68690  -11.70050   32.65120    -999.25 3345.35530
 8900.00000    -999.25    8.95220    8.95220   17.36750    -999.25    -999.25    -999.25    -999.25    -999.25   57.57890    -999.25   53.19140   53.19140    -999.25   41.98010   41.98010   57.57890   76.98740  146.12080   76.98740    -999.25    -999.25    -999.25    -999.25  -36.33170   -9.42670  146.12080    -999.25 3254.62410
 8950.00000    -999.25    9.07970    9.07970   13.77910    -999.25    -999.25    -999.25    -999.25    -999.25   72.57360    -999.25   55.02190   55.02190    -999.25   46.66330   46.66330   72.57360  175.05070  217.12300  175.05070    -999.25    -999.25    -999.25    -999.25  -11.68740   -8.86280  217.12300    -999.25 4616.00710
 9000.00000    -999.25    8.86320    8.86320    7.55260    -999.25    -999.25    -999.25    -999.25    -999.25  132.40460    -999.25   51.52320   51.52320    -999.25   25.03490   25.03490  132.40460  263.49480  191.88000  263.49480    -999.25    -999.25    -999.25    -999.25    0.92670  -11.47200  191.88000    -999.25 4685.91140
 9050.00000    -999.25    8.88250    8.88250   30.60890    -999.25    -999.25    -999.25    -999.25    -999.25   32.67060    -999.25   57.78000   57.78000    -999.25   37.35650   37.35650   32.67060   33.57230   40.78440   33.57230    -999.25    -999.25    -999.25    -999.25  -32.15090  -44.12840   40.78440    -999.25 4616.26480
 9100.00000    -999.25    8.87190    8.87190   21.77170    -999.25    -999.25    -999.25    -999.25    -999.25   45.93120    -999.25   54.29510   54.29510    -999.25   25.43790   25.43790   45.93120   52.57640   58.21940   52.57640    -999.25    -999.25    -999.25    -999.25  -58.26840  -69.82040   58.21940    -999.25 4622.26830
 9150.00000    -999.25    8.75110    8.75110   25.83160    -999.25    -999.25    -999.25    -999.25    -999.25   38.71220    -999.25   55.72030   55.72030    -999.25   50.28770   50.28770   38.71220   41.78280   53.10600   41.78280    -999.25    -999.25    -999.25    -999.25  -57.81880  -68.94750   53.10600    -999.25 4526.19110
 9200.00000    -999.25    8.66760    8.66760   10.85700    -999.25    -999.25    -999.25    -999.25    -999.25   92.10620    -999.25   53.91030   53.91030    -999.25   35.36860   35.36860   92.10620  121.21180  132.68780  121.21180    -999.25    -999.25    -999.25    -999.25  -57.53820  -68.24350  132.68780    -999.25 4406.95470
 9250.00000    -999.25    8.78510    8.78510   16.81830    -999.25    -999.25    -999.25    -999.25    -999.25   59.45890    -999.25   55.69310   55.69310    -999.25   50.55930   50.55930   59.45890   68.83210   97.79670   68.83210    -999.25    -999.25    -999.25    -999.25  -15.45720  -25.73920   97.79670    -999.25 4290.52890
 9300.00000    -999.25    8.78260    8.78260   15.86870    -999.25    -999.25    -999.25    -999.25    -999.25   63.17360    -999.25   59.73730   59.73730    -999.25   77.14430   77.14430   63.17360   90.62890  122.63720   90.62890    -999.25    -999.25    -999.25    -999.25   -0.53500  -10.39570  122.63720    -999.25 4185.66630
 9350.00000    -999.25    8.63130    8.63130    3.26210    -999.25    -999.25    -999.25    -999.25    -999.25  306.55190    -999.25   51.98320   51.98320    -999.25   23.75280   23.75280  306.55190  580.04270  574.07650  580.04270    -999.25    -999.25    -999.25    -999.25  -13.35490  -22.79020  574.07650    -999.25 4202.52750
 9400.00000    -999.25    8.89550    8.89550    0.64710    -999.25    -999.25    -999.25    -999.25    -999.25 1545.47030    -999.25   50.55240   50.55240    -999.25   21.53240   21.53240 1545.47030  209.67000 1394.47160  209.67000    -999.25    -999.25    -999.25    -999.25  -16.39910  -28.69170 1394.47160    -999.25 4125.59050
 9450.00000    -999.25    8.73090    8.73090    0.56020    -999.25    -999.25    -999.25    -999.25    -999.25 1785.19190    -999.25   79.38500   79.38500    -999.25  262.53850  262.53850 1785.19190 1218.70370 1426.84010 1218.70370    -999.25    -999.25    -999.25    -999.25  -58.30830  -74.08300 1426.84010    -999.25 4052.28470
 9500.00000    -999.25    9.02690    9.02690    0.67260    -999.25    -999.25    -999.25    -999.25    -999.25 1486.74890    -999.25   47.84220   47.84220    -999.25   13.57120   13.57120 1486.74890 1456.03480 1430.95680 1456.03480    -999.25    -999.25    -999.25    -999.25 -106.26250 -125.51940 1430.95680    -999.25 4621.02370
 9550.00000    -999.25    9.11190    9.11190    0.71020    -999.25    -999.25    -999.25    -999.25    -999.25 1408.02860    -999.25   48.10980   48.10980    -999.25   14.14710   14.14710 1408.02860 1524.76490 1234.39060 1524.76490    -999.25    -999.25    -999.25    -999.25  -86.36680 -109.08850 1234.39060    -999.25 4541.11980
 9600.00000    -999.25    9.16750    9.16750    0.66870    -999.25    -999.25    -999.25    -999.25    -999.25 1495.49980    -999.25   47.90210   47.90210    -999.25   13.32230   13.32230 1495.49980  687.61770  606.92720  687.61770    -999.25    -999.25    -999.25    -999.25 -107.30160 -133.52290  606.92720    -999.25 4438.62760
 9650.00000    -999.25    9.31670    9.31670    0.68880    -999.25    -999.25    -999.25    -999.25    -999.25 1451.88750    -999.25   47.93870   47.93870    -999.25   12.22260   12.22260 1451.88750 1048.62300  685.39450 1048.62300    -999.25    -999.25    -999.25    -999.25  -94.40950 -124.11300  685.39450    -999.25 4211.95860
 9700.00000   12.71960    9.27510    9.27510    0.77420    0.22150    2.46700    0.14620    -999.25    0.14210 1291.57400    0.22150   47.20740   47.20740   14.43210    9.62200    9.62200 1291.57400 1548.43590  853.50720 1548.43590    0.02130    -999.25    0.02130    2.46700 -121.46420 -154.64990  853.50720 3934.43800 4300.01480
 9750.00000   10.66920    8.97640    8.97640    7.48190    0.23900    2.62680    0.04440    -999.25    0.04870  133.65570    0.23900   48.86880   48.86880    8.66800    6.47800    6.47800  133.65570  102.82260  163.35440  102.82260    0.02580    -999.25    0.02580    2.62680 -113.72400 -150.39180  163.35440 3904.31350 4201.88390
 9800.00000   11.31160    9.20890    9.20890    2.60560    0.24740    2.40650    0.17290    -999.25    0.17750  388.44970    0.24740   48.20200   48.20200   14.30710    9.84380    9.84380  388.44970  281.13590  273.58970  281.13590    0.02780    -999.25    0.02780    2.40650  -94.30320 -134.43580  273.58970 3907.97730 4119.06960
 9850.00000   12.61130    9.32130    9.32130    1.45520    0.18790    2.37190    0.21130    -999.25    0.19770  687.17690    0.18790   49.53970   49.53970   13.75820   11.19100   11.19100  687.17690  407.09830  545.70930  407.09830    0.04120    -999.25    0.04120    2.37190 -114.75160 -158.38380  545.70930 3917.27930 4108.11820
 9900.00000    9.33650    8.87420    8.87420   11.24380    0.00130    2.69900    0.00450    -999.25    0.00640   88.93780    0.00130   49.78160   49.78160   14.22240   14.33000   14.33000   88.93780  103.80070  109.78230  103.80070    0.03220    -999.25    0.03220    2.69900 -124.12050 -171.23490  109.78230 3875.52830 4013.54910
 9950.00000    9.84440    8.98260    8.98260    3.29230    0.15090    2.67610    0.02110    -999.25    0.01980  303.73580    0.15090   49.70660   49.70660   12.94850    9.55230    9.55230  303.73580  220.98500  284.80020  220.98500    0.01040    -999.25    0.01040    2.67610 -153.24780 -203.84440  284.80020 3852.45560 4026.96390
 10000.00000   11.01620    9.18130    9.18130    3.09220    0.24210    2.62090    0.03800    -999.25    0.05210  323.39210    0.24210   49.41560   49.41560   15.18710   12.25690   12.25690  323.39210  235.07870  443.26990  235.07870    0.00740    -999.25    0.00740    2.62090 -178.92050 -232.99920  443.26990 3828.36620 3840.73760
 10050.00000   12.20680    9.31220    9.31220    2.50160    0.22040    2.44760    0.15760    -999.25    0.15350  400.20610    0.22040   49.66310   49.66310   11.36480    9.33570    9.33570  400.20610  179.90200  247.20840  179.90200    0.00810    -999.25    0.00810    2.44760 -176.62840 -234.17200  247.20840 3819.04980 3783.79220
