~Version ---------------------------------------------------
VERS.      2.0 : CWLS log ASCII Standard -VERSION 2.0
WRAP.       NO : One line per depth step
CREA. 08/27/14 : LAS Creation Date
~Well ------------------------------------------------------
STRT.FT                            1200.0 : START DEPTH
STOP.FT                           11700.0 : STOP DEPTH
STEP.FT                          50.00000 : STEP LENGTH
NULL.                             -999.25 : NULL VALUE
COMP.        PAN AMERICAN PETROLEUM CORP. : COMPANY
WELL. PAN AM FINA G-1 KAYBOBS 10-19-58-18 : WELL
FLD .                                  WC : FIELD
LOC .                                     : LOCATION
CTRY.                              CANADA : COUNTRY
SRVC.                        Schlumberger : SERVICE COMPANY
DATE.                         16-Apr-1969 : LOGDATE
PROV.                             Alberta : PROVINCE
UWI .                    100101905818W500 : UNIQUE WELL ID
SLAT.WGS84                       54.03118 : SURFACE LATITUDE
SLON.WGS84                      -116.6587 : SURFACE LONGITUDE
~Curve Information -----------------------------------------
DEPT   .FT                : Depth Curve
CALD   .IN   45 280 60 00 : CALIPER FROM DENSITY LOG
CALN   .IN   41 280 60 00 : CALIPER FROM NEUTRON LOG
CALS   .IN   60 280 50 00 : CALIPER FROM SONIC LOG
DCOR   .G/C3 45 356 01 00 : DENSITY CORRECTION
DPHI_LS.DEC  45 890 10 00 : DENSITY POROSITY LIMESTONE
DT     .US/F 60 500 00 00 : DELTA-T (INTERVAL TRANSIT TIME)
GRN    .GAPI 41 310 01 00 : GAMMA RAY FROM GRN LOG
GRS    .GAPI 60 310 01 00 : GAMMA RAY FROM SONIC LOG
ILD    .OHMM 07 120 46 00 : INDUCTION DEEP RESISTIVITY
ILM    .OHMM 07 120 44 00 : INDUCTION MEDIUM RESISTIVITY
LL8    .OHMM 07 220 08 00 : LATEROLOG 8
RHOB   .G/C3 45 350 01 00 : BULK DENSITY
SNP_LS .DEC  41 890 01 00 : SIDEWALL NEUTRON POROSITY [LIMESTONE]
SPR    .MV   07 010 01 00 : SPONTANEOUS POTENTIAL FROM RESISTIVITY LOG
~Params ----------------------------------------------------
PD  .                     GL : PERMANENT DATUM
EPD .FT                 3475 : ELEVATION PERMANENT DATUM
LMF .                     KB : LOG MEASURED FROM
DAPD.FT                   12 : FEET ABOVE PERMANENT DATUM
EKB .FT                 3487 : KELLY BUSHING
EGL .FT                 3475 : GROUND LEVEL
DATE.               04/16/69 : RUN DATE
RUN .                      1 : RUN NUMBER
DD  .FT                11735 : DEPTH DRILLER
DL  .FT                11734 : DEPTH LOGGER
BLI .FT                11729 : BOTTOM LOG INTERVAL
TLI .FT                 1202 : TOP LOG INTERVAL
CBD .FT                 1202 : CASING BOTTOM DRILLER
CBL .FT                 1202 : CASING BOTTOM LOGGER
BS  .IN                 8.75 : BIT SIZE
BSD .FT                11735 : BIT SIZE AT DEPTH
DFT .              GEL BENEX : DRILLING FLUID TYPE
DFD .                    9.3 : DRILLING FLUID DENSITY
DFV .                     90 : DRILLING FLUID VISCOSITY
DFPH.                    8.0 : DRILLING FLUID PH
DFL .                   11.2 : DRILLING FLUID LOSS
RMS .OHMM               2.37 : RESISTIVITY MUD SAMPLE
MST .DEGF                 67 : MUD SAMPLE TEMPERATURE
RMF .OHMM               1.81 : RESISTIVITY MUD FILTRATE SAMPLE
MFST.DEGF                 66 : MUD FILTRATE SAMPLE TEMPERATURE
RMC .OHMM               2.83 : RESISTIVITY MUD CAKE
MCST.DEGF                 68 : MUD CAKE SAMPLE TEMPERATURE
RMB .OHMM               0.62 : RESISTIVITY MUD AT BHT
TCS .HRS                   2 : TIME CIRCULATED STOPPED
LUN .                   7502 : LOGGING UNIT NUMBER
LUL .                    EDM : LOGGING UNIT LOCATION
ENGI.               ARMENTAN : RECORDING ENGINEER
WITN.                   CHUK : WITNESSED BY
CLNT.                A2DTECH : CLIENT CODE
ORIG.            2" 5" PRINT : ORIGIN OF DATA
UWI .       100101905818W500 : UNIQUE WELL ID
DICO. A2D Technologies, Inc. : DIGITIZING COMPANY
~Other -----------------------------------------------------
~ASCII -----------------------------------------------------
# ...
 8550.00000    -999.25    -999.25   10.59850    -999.25    -999.25   51.13800    -999.25    9.11860   73.81820   97.55620  145.08870    -999.25    -999.25 -143.42190
 8600.00000    -999.25    -999.25    9.94870    -999.25    -999.25   62.09130    -999.25   40.73650    3.93690    4.41370   10.93350    -999.25    -999.25 -132.38210
 8650.00000    -999.25    -999.25    9.48360    -999.25    -999.25   59.08660    -999.25   56.65270    7.50860    7.64070   11.48350    -999.25    -999.25 -117.07200
 8700.00000    -999.25    -999.25    9.71630    -999.25    -999.25   54.25690    -999.25   37.74470   23.37570   30.02690   88.94650    -999.25    -999.25  -88.56700
 8750.00000    -999.25    -999.25    9.70900    -999.25    -999.25   57.91670    -999.25   43.11800   14.19340   13.89980   34.56130    -999.25    -999.25  -53.93550
 8800.00000    -999.25    -999.25    9.97750    -999.25    -999.25   54.07110    -999.25   40.55470   54.47170   65.51230   86.17480    -999.25    -999.25  -36.66390
 8850.00000    -999.25    -999.25   10.02270    -999.25    -999.25   59.09300    -999.25   36.18720   15.80180   14.73890   22.40970    -999.25    -999.25  -19.90100
 8900.00000    -999.25    -999.25    9.60320    -999.25    -999.25   52.85150    -999.25   27.12070   61.40810   67.67250  105.91320    -999.25    -999.25   11.51310
 8950.00000    -999.25    -999.25    9.55450    -999.25    -999.25   52.42070    -999.25   19.75510  191.46120  185.76490  278.92330    -999.25    -999.25   -7.25560
 9000.00000    -999.25    -999.25    9.48480    -999.25    -999.25   52.67540    -999.25   26.50820  119.60860  112.54920  145.64460    -999.25    -999.25   -5.32540
 9050.00000    -999.25    -999.25    9.64290    -999.25    -999.25   54.44150    -999.25   36.68980   61.86630   66.42460   75.63380    -999.25    -999.25    3.11070
 9100.00000    -999.25    -999.25    9.60950    -999.25    -999.25   55.87180    -999.25   47.22600   40.32580   45.69940   56.32990    -999.25    -999.25  -85.78480
 9150.00000    -999.25    -999.25    8.65400    -999.25    -999.25   65.26940    -999.25   84.46370   61.08310   66.92310   83.61020    -999.25    -999.25  -59.72200
 9200.00000    -999.25    -999.25    9.73820    -999.25    -999.25   49.46420    -999.25   27.31560  140.11300  322.00300  895.82870    -999.25    -999.25 -106.24800
 9250.00000    -999.25    -999.25   10.39880    -999.25    -999.25   50.87240    -999.25   12.90120  492.59540  367.51310  647.30340    -999.25    -999.25 -172.52340
 9300.00000    -999.25    -999.25   10.18290    -999.25    -999.25   49.83280    -999.25   17.69780  475.37700  679.91850  496.28450    -999.25    -999.25 -140.83690
 9350.00000    -999.25    -999.25   10.30910    -999.25    -999.25   50.10760    -999.25   12.10220  606.32750 1002.60880  498.10700    -999.25    -999.25 -163.36340
 9400.00000    -999.25    -999.25   10.47920    -999.25    -999.25   69.86430    -999.25    9.96730  315.57760  213.00530  492.42070    -999.25    -999.25 -184.44280
 9450.00000    -999.25    -999.25   10.32040    -999.25    -999.25   54.01300    -999.25   11.69760  373.59480  641.26860  237.68150    -999.25    -999.25 -143.87030
 9500.00000    -999.25    -999.25   10.68220    -999.25    -999.25   55.27780    -999.25   13.52930  393.37820  423.53750  449.74690    -999.25    -999.25 -174.71750
 9550.00000    -999.25    -999.25    9.57640    -999.25    -999.25   50.77450    -999.25    6.94910   87.46680   84.83430  121.63860    -999.25    -999.25 -162.41690
 9600.00000    -999.25    -999.25   10.66240    -999.25    -999.25   73.24480    -999.25    8.41440  332.40570  203.45770  272.24770    -999.25    -999.25 -167.67060
 9650.00000    -999.25    -999.25   10.39350    -999.25    -999.25   50.69130    -999.25   12.86790  436.50200  265.09100  312.92910    -999.25    -999.25 -181.98170
 9700.00000    -999.25    -999.25   10.46030    -999.25    -999.25   65.40820    -999.25   10.96910  362.69710  378.17800  414.33010    -999.25    -999.25 -188.09470
 9750.00000    -999.25    -999.25   10.54580    -999.25    -999.25   51.79870    -999.25   15.77400  512.96170  221.42180  620.42370    -999.25    -999.25 -173.64380
 9800.00000    -999.25    -999.25   10.14140    -999.25    -999.25   50.32240    -999.25    8.21070  326.10410  248.51770  322.81950    -999.25    -999.25 -160.01610
 9850.00000    -999.25    -999.25   10.39640    -999.25    -999.25   50.26840    -999.25    9.19830  636.85240  258.92310  420.21980    -999.25    -999.25 -146.34610
 9900.00000    -999.25    -999.25   10.55720    -999.25    -999.25   50.69400    -999.25   15.58800  425.26180  318.30350  485.96710    -999.25    -999.25 -179.94330
 9950.00000    -999.25    -999.25    9.48080    -999.25    -999.25   57.30590    -999.25   43.19480   10.03610    8.53770   15.41480    -999.25    -999.25 -114.44240
 10000.00000    -999.25    -999.25    9.68800    -999.25    -999.25   48.98390    -999.25   19.45300  207.79170  303.58780 1032.91210    -999.25    -999.25 -157.09590
 10050.00000    -999.25    -999.25   10.26830    -999.25    -999.25   50.62080    -999.25   18.40830  420.65970  452.96260  696.92630    -999.25    -999.25 -132.09690
 10100.00000    -999.25    -999.25   10.06330    -999.25    -999.25   50.02390    -999.25   22.54440   99.38150   90.17770  229.24960    -999.25    -999.25 -126.55510
 10150.00000    -999.25    -999.25    9.92360    -999.25    -999.25   51.02670    -999.25   24.17370  287.70070  275.95050  342.76820    -999.25    -999.25  -94.22300
 10200.00000    -999.25    -999.25    9.81770    -999.25    -999.25   52.65170    -999.25   26.36080   71.61150   73.09110   99.06130    -999.25    -999.25  -75.51430
 10250.00000    -999.25    -999.25    9.75830    -999.25    -999.25   52.23990    -999.25   29.59380  101.59630  110.35060  146.03010    -999.25    -999.25  -56.31130
 10300.00000    -999.25    -999.25    9.77990    -999.25    -999.25   52.24230    -999.25   27.04530   76.40950   84.55480  107.31120    -999.25    -999.25  -32.59260
 10350.00000    -999.25    -999.25    9.31790    -999.25    -999.25   53.26580    -999.25   28.09910   73.34900   79.52840   93.13780    -999.25    -999.25  -25.09430
 10400.00000    -999.25    -999.25    9.92060    -999.25    -999.25   52.24260    -999.25   23.59210   81.93240   90.37820  120.16210    -999.25    -999.25  -31.48000
 10450.00000    -999.25    -999.25   10.03490    -999.25    -999.25   58.89280    -999.25   44.53480   21.14490   21.77900   26.53180    -999.25    -999.25  -20.30980
 10500.00000    -999.25    -999.25   10.00110    -999.25    -999.25   58.73860    -999.25   44.65780   22.16960   23.57080   30.92880    -999.25    -999.25  -25.28720
 10550.00000    -999.25    -999.25   10.13320    -999.25    -999.25   61.08260    -999.25   49.15620   16.64080   17.66320   24.27030    -999.25    -999.25  -35.25980
 10600.00000    -999.25    -999.25   10.37350    -999.25    -999.25   62.90050    -999.25   82.26150   13.95270   16.01150   26.50710    -999.25    -999.25  -37.44870
 10650.00000    -999.25    -999.25    9.83590    -999.25    -999.25   63.83100    -999.25   75.15730   47.90420   59.76640   90.71760    -999.25    -999.25  -51.41170
 10700.00000    -999.25    -999.25   10.26110    -999.25    -999.25   66.07090    -999.25   62.14410   12.89140   13.04580   18.34090    -999.25    -999.25  -45.50500
 10750.00000   13.74140   13.85200   11.36990    0.22700    0.14250   72.35000   68.22630   74.19740    9.31010    9.60800   13.62960    2.47550    0.28320  -48.05700
 10800.00000    9.42010    9.38610    9.70950    0.08500    0.02200   61.22960   56.80130   63.23480   22.09560   26.84740   50.07140    2.69240    0.08810  -51.06150
 10850.00000    9.48930    9.50380    9.79400    0.19610    0.02170   62.91310   58.84320   63.57440   16.70240   18.24100   27.46440    2.70170    0.11210  -62.42910
 10900.00000    9.19440    8.93750    9.15720    0.03810   -0.02350   55.77070   42.10830   50.82410   35.69600   42.41780   71.80730    2.77340    0.05280  -56.67770
 10950.00000    9.41800    9.68890   10.02910    0.23470   -0.01480   64.48180   72.08960   82.70920   18.30450   19.93900   28.59450    2.72120    0.10470  -39.16050
