~Version ---------------------------------------------------
VERS.      2.0 : CWLS log ASCII Standard -VERSION 2.0
WRAP.       NO : One line per depth step
CREA. 08/31/17 : LAS Creation Date
~Well ------------------------------------------------------
STRT.FT                       1300.0 : START DEPTH
STOP.FT                      12650.0 : STOP DEPTH
STEP.FT                     50.00000 : STEP LENGTH
NULL.                        -999.25 : NULL VALUE
COMP.           PETROFINA CANADA LTD : COMPANY
WELL. FINA AMOCO HB MAYBERNE 10-11-5 : WELL
FLD .                                : FIELD
LOC .                                : LOCATION
CTRY.                         CANADA : COUNTRY
SRVC.                   Schlumberger : SERVICE COMPANY
DATE.                    03-Apr-1977 : LOGDATE
PROV.                        Alberta : PROVINCE
UWI .               100101105718W500 : UNIQUE WELL ID
SLAT.WGS84                  53.91479 : SURFACE LATITUDE
SLON.WGS84                 -116.5629 : SURFACE LONGITUDE
~Curve Information -----------------------------------------
DEPT    .FT    : Depth Curve
CALDED  .IN    : DIFFERENTIAL CALIPER FROM DENSITY LOG
CALSED  .IN    : CALIPER FROM SONIC LOG [ADJ. TO GRED]
CALWS   .IN    : CALIPER [CALSED]
CONDWS  .MMHO  : CONDCUTIVITY [1000/DRESWS]
DCORED  .G/C3  : DENSITY CORRECTION FROM DENSITY LOG
DCORWS  .G/C3  : DENSITY CORRECTION [DRHOED]
DENWS   .G/C3  : FORMATION BULK DENSITY [RHOBED]
DPHILSED.V/V   : DENSITY POROSITY LIME [M=2.71, F=1.0] FROM DENSITY LOG [ADJ. TO RHOBED]
DPHISSED.V/V   : DENSITY POROSITY SAND [M=2.65, F=1.0] FROM DENSITY LOG [ADJ, TO RHOBED]
DPOLSWS .V/V   : DENSITY POROSITY LIME [CALC FROM DENWS, M=2.71, F=1.0]
DRESWS  .OHMM  : DEEP RESISTIVITY [ILDED]
DTED    .US/F  : DELTA-T FROM SONIC LOG [ADJ. TO GRDED]
DTWS    .US/F  : COMPRESSIONAL SONIC [DTED]
GRDED   .GAPI  : GAMMA RAY FROM DENSITY LOG
GRSED   .GAPI  : GAMMA RAY FROM SONIC LOG
GRWS    .GAPI  : GAMMA RAY [GRSED]
ILDED   .OHMM  : DEEP INDUCTION RESISTIVITY FROM RESISTIVITY LOG
ILMED   .OHMM  : MEDIUM INDUCTION RESISTIVITY FROM RESISTIVITY LOG
LL8ED   .OHMM  : LATEROLOG-8 RESISTIVITY FROM RESISTIVITY LOG
MRESWS  .OHMM  : MEDIUM RESISTIVITY [ILMED]
NPHILSED.V/V   : NEUTRON POROSITY LIME FROM DENSITY LOG [ADJ. TO RHOBED]
NPOLSWS .V/V   : NEUTRON POROSITY LIME [SS CONVERTS TO LS. SPL. TO LS @ 8849']
NPORSSED.V/V   : NEUTRON POROSITY SAND FROM DENSITY LOG [ADJ. TO RHOBED]
RHOBED  .G/C3  : DENSITY FORMATION DENSITY FROM DENSITY LOG
SPHIED  .V/V   : SONIC POROSITY [DTM=189, DTF=55.6] FROM SONIC LOG [ADJ. TO GRDED]
SPRED   .MV    : SPONTANEOUS POTENTIAL FROM RESISTIVITY LOG
SPWS    .MV    : SPONTANEOUS POTENTIAL [BASELINE 0 MV, SPRED]
SRESWS  .OHMM  : SHALLOW RESISTIVITY [LL8ED]
~Params ----------------------------------------------------
PD  .                     GL : PERMANENT DATUM
EPD .FT                 4315 : ELEVATION PERMANENT DATUM
LMF .                     KB : LOG MEASURED FROM
DAPD.FT                   17 : FEET ABOVE PERMANENT DATUM
EKB .FT                 4322 : KELLY BUSHING
EGL .FT                 4315 : GROUND LEVEL
DATE.               04/03/77 : RUN DATE
RUN .                      1 : RUN NUMBER
DD  .FT                12670 : DEPTH DRILLER
DL  .FT                12672 : DEPTH LOGGER
BLI .FT                12669 : BOTTOM LOG INTERVAL
TLI .FT                 1324 : TOP LOG INTERVAL
CBD .FT                 1327 : CASING BOTTOM DRILLER
CBL .FT                 1324 : CASING BOTTOM LOGGER
BS  .IN                 8.75 : BIT SIZE
BSD .FT                12670 : BIT SIZE AT DEPTH
DFT .               GEL CHEM : DRILLING FLUID TYPE
DFD .                      9 : DRILLING FLUID DENSITY
DFV .                    130 : DRILLING FLUID VISCOSITY
DFPH.                     10 : DRILLING FLUID PH
MSS .               FLOWLINE : MUD SAMPLE SOURCE
RMS .OHMM                3.2 : RESISTIVITY MUD SAMPLE
MST .DEGF                 56 : MUD SAMPLE TEMPERATURE
RMF .OHMM               2.94 : RESISTIVITY MUD FILTRATE SAMPLE
MFST.DEGF                 62 : MUD FILTRATE SAMPLE TEMPERATURE
RMB .OHMM               0.88 : RESISTIVITY MUD AT BHT
TCS .HRS                   4 : TIME CIRCULATED STOPPED
LUN .                   7667 : LOGGING UNIT NUMBER
LUL .                    EDM : LOGGING UNIT LOCATION
ENGI.          CAMPBELL BIGG : RECORDING ENGINEER
WITN.         SANDERS DAVIES : WITNESSED BY
CLNT.                A2DTECH : CLIENT CODE
ORIG.            2" 5" PRINT : ORIGIN OF DATA
UWI .       100101105718W500 : UNIQUE WELL ID
DICO. A2D Technologies, Inc. : DIGITIZING COMPANY
~Other -----------------------------------------------------
~ASCII -----------------------------------------------------
# ...
 2550.00000    -999.25    8.50350    8.50350  101.75000    -999.25    -999.25    -999.25    -999.25    -999.25    -999.25    9.82930   88.10300   88.10300    -999.25   71.13860   71.13860    9.82930    9.33970    8.95780    9.33970    -999.25    -999.25    -999.25    -999.25    0.25130  -34.63890  -11.88440    8.95780
 2600.00000    -999.25    9.13310    9.13310  147.00240    -999.25    -999.25    -999.25    -999.25    -999.25    -999.25    6.80910   94.85350   94.85350    -999.25  102.47440  102.47440    6.80910    6.63740   10.96670    6.63740    -999.25    -999.25    -999.25    -999.25    0.25410  -21.01670   -2.70600   10.96670
 2650.00000    -999.25    9.49770    9.49770  135.25600    -999.25    -999.25    -999.25    -999.25    -999.25    -999.25    7.40930   85.36450   85.36450    -999.25   93.26270   93.26270    7.40930    7.94080    8.23790    7.94080    -999.25    -999.25    -999.25    -999.25    0.25640  -27.37220  -10.15370    8.23790
 2700.00000    -999.25    9.65560    9.65560  244.34940    -999.25    -999.25    -999.25    -999.25    -999.25    -999.25    4.09730   96.00720   96.00720    -999.25   90.72190   90.72190    4.09730    4.35900    4.31310    4.35900    -999.25    -999.25    -999.25    -999.25    0.37770  -25.13250   -7.91400    4.31310
 2750.00000    -999.25    9.99740    9.99740  212.96560    -999.25    -999.25    -999.25    -999.25    -999.25    -999.25    4.70540   91.87070   91.87070    -999.25   93.32940   93.32940    4.70540    4.87580    4.96260    4.87580    -999.25    -999.25    -999.25    -999.25    0.34290  -23.56100   -6.34250    4.96260
 2800.00000    -999.25    9.16050    9.16050   78.62180    -999.25    -999.25    -999.25    -999.25    -999.25    -999.25   12.71980   94.21090   94.21090    -999.25   62.06790   62.06790   12.71980   11.91990   11.48780   11.91990    -999.25    -999.25    -999.25    -999.25    0.23010  -32.16960  -14.95110   11.48780
 2850.00000    -999.25    9.59800    9.59800  207.40750    -999.25    -999.25    -999.25    -999.25    -999.25    -999.25    4.82920  129.80190  129.80190    -999.25   89.59840   89.59840    4.82920    5.14040    8.00880    5.14040    -999.25    -999.25    -999.25    -999.25    0.37700  -22.10060   -4.36920    8.00880
 2900.00000    -999.25    9.94920    9.94920  274.34120    -999.25    -999.25    -999.25    -999.25    -999.25    -999.25    3.64650  111.37820  111.37820    -999.25   95.09210   95.09210    3.64650    3.75560    4.94940    3.75560    -999.25    -999.25    -999.25    -999.25    0.33610  -24.19390   -5.61190    4.94940
 2950.00000    -999.25    9.95020    9.95020  166.09690    -999.25    -999.25    -999.25    -999.25    -999.25    -999.25    6.02070   89.21410   89.21410    -999.25  108.71490  108.71490    6.02070    6.36830    6.52690    6.36830    -999.25    -999.25    -999.25    -999.25    0.25690  -22.04930   -2.61240    6.52690
 3000.00000    -999.25    9.68560    9.68560   42.56560    -999.25    -999.25    -999.25    -999.25    -999.25    -999.25   23.51610   74.32790   74.32790    -999.25   57.32360   57.32360   23.51610   28.93650   39.49280   28.93650    -999.25    -999.25    -999.25    -999.25    0.09310  -35.75270  -15.46950   39.49280
 3050.00000    -999.25    9.73540    9.73540  120.76150    -999.25    -999.25    -999.25    -999.25    -999.25    -999.25    8.28700   93.26310   93.26310    -999.25   74.30430   74.30430    8.28700    9.24510   10.32950    9.24510    -999.25    -999.25    -999.25    -999.25    0.22880  -28.21700   -7.08740   10.32950
 3100.00000    -999.25    9.75980    9.75980  113.61730    -999.25    -999.25    -999.25    -999.25    -999.25    -999.25    8.80400   72.11820   72.11820    -999.25   61.92850   61.92850    8.80400    9.33800    8.72410    9.33800    -999.25    -999.25    -999.25    -999.25    0.18840  -30.41530   -8.43100    8.72410
 3150.00000    -999.25   10.04410   10.04410  169.83540    -999.25    -999.25    -999.25    -999.25    -999.25    -999.25    5.89100   89.10700   89.10700    -999.25   80.49560   80.49560    5.89100    6.14650    6.60060    6.14650    -999.25    -999.25    -999.25    -999.25    0.22980  -28.55970   -5.72470    6.60060
 3200.00000    -999.25   10.14600   10.14600  119.93380    -999.25    -999.25    -999.25    -999.25    -999.25    -999.25    8.33840   84.27440   84.27440    -999.25   75.84360   75.84360    8.33840    8.75560    8.57120    8.75560    -999.25    -999.25    -999.25    -999.25    0.19080  -30.86060   -7.17080    8.57120
 3250.00000    -999.25   11.51770   11.51770  202.68770    -999.25    -999.25    -999.25    -999.25    -999.25    -999.25    4.93400   86.19550   86.19550    -999.25   85.71340   85.71340    4.93400    5.28990    4.60420    5.28990    -999.25    -999.25    -999.25    -999.25    0.27090  -27.68190   -3.14560    4.60420
 3300.00000    -999.25   10.26540   10.26540  190.38960    -999.25    -999.25    -999.25    -999.25    -999.25    -999.25    5.25400   90.97390   90.97390    -999.25   86.92140   86.92140    5.25400    5.47460    5.74450    5.47460    -999.25    -999.25    -999.25    -999.25    0.21360  -28.05930   -3.03950    5.74450
 3350.00000    -999.25    9.54390    9.54390  118.45220    -999.25    -999.25    -999.25    -999.25    -999.25    -999.25    8.44490   84.20440   84.20440    -999.25   76.32010   76.32010    8.44490   10.17160   12.86840   10.17160    -999.25    -999.25    -999.25    -999.25    0.12630  -30.52580   -5.66960   12.86840
 3400.00000    -999.25   10.30640   10.30640  201.16040    -999.25    -999.25    -999.25    -999.25    -999.25    -999.25    4.97360   86.47080   86.47080    -999.25   89.41970   89.41970    4.97360    5.24170    5.40970    5.24170    -999.25    -999.25    -999.25    -999.25    0.23720  -28.51500   -3.82150    5.40970
 3450.00000    -999.25    9.92960    9.92960  718.02730    -999.25    -999.25    -999.25    -999.25    -999.25    -999.25    1.39290  107.65980  107.65980    -999.25  123.03660  123.03660    1.39290    1.58790    1.72470    1.58790    -999.25    -999.25    -999.25    -999.25    0.45150  -29.43480   -4.90480    1.72470
 3500.00000    -999.25   10.83210   10.83210  255.61720    -999.25    -999.25    -999.25    -999.25    -999.25    -999.25    3.92340   84.57950   84.57950    -999.25   93.38760   93.38760    3.92340    4.26250    4.42800    4.26250    -999.25    -999.25    -999.25    -999.25    0.43750  -27.75530   -3.38730    4.42800
 3550.00000    -999.25    9.95450    9.95450  306.86980    -999.25    -999.25    -999.25    -999.25    -999.25    -999.25    3.25890   91.48930   91.48930    -999.25   97.64350   97.64350    3.25890    3.44920    3.81170    3.44920    -999.25    -999.25    -999.25    -999.25    0.29960  -24.66860   -0.46240    3.81170
 3600.00000    -999.25    9.76670    9.76670  253.50050    -999.25    -999.25    -999.25    -999.25    -999.25    -999.25    3.95020  106.53460  106.53460    -999.25  106.86090  106.86090    3.95020    4.37070    4.78760    4.37070    -999.25    -999.25    -999.25    -999.25    0.30210  -25.80550   -1.76290    4.78760
 3650.00000    -999.25    9.56230    9.56230  148.50540    -999.25    -999.25    -999.25    -999.25    -999.25    -999.25    6.77370   81.65740   81.65740    -999.25   79.53070   79.53070    6.77370    7.59980    6.11310    7.59980    -999.25    -999.25    -999.25    -999.25    0.23670  -30.24090   -6.36100    6.11310
 3700.00000    -999.25    9.70820    9.70820  305.02720    -999.25    -999.25    -999.25    -999.25    -999.25    -999.25    3.27850   96.86130   96.86130    -999.25  108.28290  108.28290    3.27850    3.38690    3.58560    3.38690    -999.25    -999.25    -999.25    -999.25    0.33610  -26.45670   -2.81360    3.58560
 3750.00000    -999.25    9.91770    9.91770  176.34280    -999.25    -999.25    -999.25    -999.25    -999.25    -999.25    5.68350   88.12580   88.12580    -999.25   79.81480   79.81480    5.68350    6.47790    6.22530    6.47790    -999.25    -999.25    -999.25    -999.25    0.22290  -24.99990   -1.74780    6.22530
