~Version ---------------------------------------------------
VERS.      2.0 : CWLS log ASCII Standard -VERSION 2.0
WRAP.       NO : One line per depth step
CREA. 12/21/17 : LAS Creation Date
~Well ------------------------------------------------------
STRT.FT                    300.0 : START DEPTH
STOP.FT                   9850.0 : STOP DEPTH
STEP.FT                 50.00000 : STEP LENGTH
NULL.                    -999.25 : NULL VALUE
COMP. PHILLIPS PETROLEUM COMPANY : COMPANY
WELL.    PHILLIPS A KAYBOB 10-16 : WELL
FLD .                     kaybob : FIELD
LOC .                            : LOCATION
CTRY.                     CANADA : COUNTRY
SRVC.                      Welex : SERVICE COMPANY
DATE.                21-Apr-1958 : LOGDATE
PROV.                    Alberta : PROVINCE
UWI .           100101606419W500 : UNIQUE WELL ID
SLAT.WGS84              54.53981 : SURFACE LATITUDE
SLON.WGS84             -116.8075 : SURFACE LONGITUDE
~Curve Information -----------------------------------------
DEPT   .FT    : Depth Curve
CALMED .IN    : CALIPER FROM MICROLOG
CALWS  .IN    : CALIPER (CALMED)
CILDED .MMHO  : CONDUCTIVITY FROM LOG
CONDWS .MMHO  : CONDUCTIVITY (1000/DRESWS)
DRESWS .OHMM  : DEEP RESISTIVITY (GUARDED)
GRED   .GAPI  : GAMMA RAY CBL -CASED HOLE (ADJ TO RES.)
GRNED  .CPS   : GAMMA RAY GR/NEUTRON LOG (ADJ TO RES.)
GRWS   .GAPI  : GAMMA RAY (GRED/GRNED @ 1502')
GUARDED.OHMM  : GUARD LOG RESISTIVITY 10'
NEUTED .CPS   : NEUTRON GR/NEUTRON LOG (ADJ TO RES.)
NEUTWS .CPS   : NEUTRON (NEUTED)
SPMED  .MV    : SPONTANEOUS POTENTIAL FROM MICROLOG
SPRED  .MV    : Spontaneous Potential  RESISTIVITY LOG
SPWS   .MV    : SPONTANEOUS POTENTIAL BASELINE 0 MV (SPRED)
~Params ----------------------------------------------------
PD  .                     CF : PERMANENT DATUM
LMF .                     KB : LOG MEASURED FROM
DAPD.FT                   13 : FEET ABOVE PERMANENT DATUM
DMF .                     KB : DRILLING MEASURED FROM
EKB .FT                 2512 : KELLY BUSHING
EDF .FT                 2510 : DRILLING FLOOR
EGL .FT                 2499 : GROUND LEVEL
DATE.               04/21/58 : RUN DATE
RUN .                      1 : RUN NUMBER
DD  .FT                 9900 : DEPTH DRILLER
DL  .FT                 9896 : DEPTH LOGGER
BLI .FT                 9891 : BOTTOM LOG INTERVAL
TLI .FT                 1510 : TOP LOG INTERVAL
CS  .IN                10.75 : CASING SIZE
CBD .FT                 1510 : CASING BOTTOM DRILLER
CBL .FT                 1510 : CASING BOTTOM LOGGER
BS  .IN                7.875 : BIT SIZE
BSD .FT                 9900 : BIT SIZE AT DEPTH
DFT .            OIL MULSION : DRILLING FLUID TYPE
DFD .                   10.6 : DRILLING FLUID DENSITY
DFV .                    112 : DRILLING FLUID VISCOSITY
DFPH.                   10.0 : DRILLING FLUID PH
DFL .                    4.8 : DRILLING FLUID LOSS
MSS .             CIRCULATED : MUD SAMPLE SOURCE
RMS .OHMM               2.75 : RESISTIVITY MUD SAMPLE
MST .DEGF                 58 : MUD SAMPLE TEMPERATURE
RMF .OHMM               0.65 : RESISTIVITY MUD FILTRATE SAMPLE
MFST.DEGF                180 : MUD FILTRATE SAMPLE TEMPERATURE
RMC .OHMM               1.15 : RESISTIVITY MUD CAKE
MCST.DEGF                180 : MUD CAKE SAMPLE TEMPERATURE
RMB .OHMM               0.94 : RESISTIVITY MUD AT BHT
ENGI.         FOWLER CARBERT : RECORDING ENGINEER
WITN.         HANKINS FOSTER : WITNESSED BY
CLNT.                A2DTECH : CLIENT CODE
ORIG.            2" 5" PRINT : ORIGIN OF DATA
UWI .       100101606419W500 : UNIQUE WELL ID
DICO. A2D Technologies, Inc. : DIGITIZING COMPANY
~Other -----------------------------------------------------
CILDED does not appear to be a standard curve as seen on IE logs, therefore, did not use it.
~ASCII -----------------------------------------------------
# ...
 5200.00000    9.04700    9.04700   19.41870   87.55570   11.42130   35.94300   80.84000   80.84000   11.42130  367.28630  367.28630 -179.40000 -180.77710    8.65820
 5250.00000   10.44300   10.44300   81.81260  432.76930    2.31070   51.65270   99.26190   99.26190    2.31070  356.92410  356.92410 -178.91300 -180.82600    6.46810
 5300.00000    9.68970    9.68970   25.58190  127.25070    7.85850   38.91860  100.04830  100.04830    7.85850  423.09840  423.09840 -197.95100 -200.42260  -15.26970
 5350.00000   10.25000   10.25000    5.91650   19.96370   50.09080   44.38300   89.16610   89.16610   50.09080  313.44710  313.44710 -181.60100 -185.59210   -2.58040
 5400.00000    9.53970    9.53970   38.92180  171.75930    5.82210   31.96380   79.97820   79.97820    5.82210  404.15730  404.15730 -188.51100 -189.74120   -8.87070
 5450.00000    9.57590    9.57590   33.06160  157.30440    6.35710   51.91620  103.05320  103.05320    6.35710  379.25030  379.25030 -178.75700 -181.68350   -2.95420
 5500.00000   10.01660   10.01660   69.74190  214.88740    4.65360   59.37970  113.31300  113.31300    4.65360  368.67650  368.67650 -180.91500 -184.25540   -7.66730
 5550.00000    9.49330    9.49330   38.24220  201.21130    4.96990   51.11250  106.20050  106.20050    4.96990  331.63570  331.63570 -178.93000 -182.44650   -7.99960
 5600.00000    8.74120    8.74120   15.72060   65.42060   15.28570   29.36610   61.66950   61.66950   15.28570  433.69390  433.69390 -200.78000 -202.92190  -30.61620
 5650.00000    8.76580    8.76580   15.33900   74.37430   13.44550   46.06200   82.09200   82.09200   13.44550  381.54960  381.54960 -183.34600 -187.03600  -16.87150
 5700.00000    9.71960    9.71960   19.61060   89.52470   11.17010   60.70840  115.04930  115.04930   11.17010  359.41560  359.41560 -182.52500 -185.55320  -17.52990
 5750.00000    8.01090    8.01090   18.36100  102.72850    9.73440   70.42230  120.03810  120.03810    9.73440  385.70990  385.70990 -178.31000 -180.98390  -15.10180
 5800.00000    8.92640    8.92640   26.79540  163.81360    6.10450   49.95680  100.01410  100.01410    6.10450  306.50110  306.50110 -170.51600 -173.10900   -9.36810
 5850.00000   11.25050   11.25050   99.77650  464.72720    2.15180   42.70640  100.08630  100.08630    2.15180  287.73150  287.73150 -171.36600 -172.31030  -10.71060
 5900.00000    7.94630    7.94630   12.51960   32.29160   30.96780   78.34270  125.60990  125.60990   30.96780  308.08090  308.08090 -176.59600 -176.93950  -17.48100
 5950.00000    7.39150    7.39150    0.88780    0.50000 1999.95350  134.27000  151.39650  151.39650 1999.95350  455.73500  455.73500 -130.54400 -128.13370  -12.90200
 6000.00000    9.74580    9.74580   35.07800   98.61840   10.14010   43.65530   83.29460   83.29460   10.14010  416.71570  416.71570 -190.68100 -188.28670  -20.90350
 6050.00000    8.41550    8.41550   20.51110   51.51080   19.41340   51.29460  106.13820  106.13820   19.41340  435.27180  435.27180 -191.58200 -190.46960  -19.41860
 6100.00000    8.18770    8.18770   28.29330   67.89790   14.72800   45.71060  104.12650  104.12650   14.72800  467.52830  467.52830 -184.10100 -185.21360  -15.40200
 6150.00000    8.59120    8.59120   43.19550   94.08220   10.62900   85.59610  134.82170  134.82170   10.62900  443.94460  443.94460 -187.43300 -189.56430  -20.99210
 6200.00000    7.04730    7.04730   11.08200   26.68530   37.47380   17.39650   46.46630   46.46630   37.47380  560.58510  560.58510 -266.00700 -269.45370 -102.12090
 6250.00000    8.18840    8.18840    6.89320    5.97060  167.48840   26.36830   52.06540   52.06540  167.48840  600.72940  600.72940 -197.67300 -201.26730  -35.17390
 6300.00000    8.60110    8.60110    4.10450    8.11030  123.30000   36.60610   44.04090   44.04090  123.30000  513.38540  513.38540 -268.42800 -272.46010 -107.60610
 6350.00000    7.75140    7.75140    2.24800    5.04050  198.39270   29.03650   79.12940   79.12940  198.39270  672.04710  672.04710 -158.37700 -160.85690    2.75770
 6400.00000    9.15860    9.15860   18.75490   29.75470   33.60810   43.02880   88.75610   88.75610   33.60810  464.39920  464.39920 -169.73900 -171.00670   -8.63160
 6450.00000    9.20580    9.20580   12.52540   17.74280   56.36090   10.16990   41.27940   41.27940   56.36090  451.69550  451.69550 -265.47300 -268.09390 -106.95820
 6500.00000    -999.25    -999.25   72.48070  206.22810    4.84900   15.84190   54.24710   54.24710    4.84900  347.79580  347.79580    -999.25 -257.09740  -97.20110
 6550.00000    -999.25    -999.25   20.05470   25.21950   39.65180   14.65680   55.97880   55.97880   39.65180  447.02430  447.02430    -999.25 -200.45090  -41.79400
 6600.00000    -999.25    -999.25    3.91650    8.80670  113.55020   26.91290   63.51560   63.51560  113.55020  546.33990  546.33990    -999.25 -193.92580  -36.50830
 6650.00000    -999.25    -999.25    3.53450    6.00320  166.57770    9.41340   38.85770   38.85770  166.57770  615.45320  615.45320    -999.25 -332.59790 -176.41980
 6700.00000    -999.25    -999.25    4.18250    8.33030  120.04410    8.36890   38.17850   38.17850  120.04410  637.31320  637.31320    -999.25 -327.58450 -172.64590
 6750.00000    -999.25    -999.25   62.63010  136.80830    7.30950   11.31240   49.95850   49.95850    7.30950  429.02450  429.02450    -999.25 -206.33840  -52.63920
 6800.00000    -999.25    -999.25    -999.25  424.88100    2.35360   45.44790   97.10220   97.10220    2.35360  378.50800  378.50800    -999.25 -193.65160  -41.19180
 6850.00000    -999.25    -999.25   55.33210  145.68340    6.86420   42.89890  100.82890  100.82890    6.86420  478.90950  478.90950    -999.25 -183.90500  -32.68460
 6900.00000    -999.25    -999.25   26.41440   90.92810   10.99770   24.48550   64.82440   64.82440   10.99770  479.13990  479.13990    -999.25 -162.86550  -13.27780
 6950.00000    -999.25    -999.25    0.98260    1.46750  681.45390   27.15800   65.53350   65.53350  681.45390  563.14150  563.14150    -999.25 -189.85980  -44.13370
 7000.00000    -999.25    -999.25   10.32440   22.56620   44.31410   15.25140   51.03280   51.03280   44.31410  614.22080  614.22080    -999.25 -174.86960  -33.00510
 7050.00000    -999.25    -999.25   11.20650   21.12860   47.32920    7.22230   43.85360   43.85360   47.32920  657.88210  657.88210    -999.25 -229.23100  -91.22800
 7100.00000    -999.25    -999.25   18.23230   39.15550   25.53920   25.41370   91.80740   91.80740   25.53920  557.27140  557.27140    -999.25 -202.88290  -68.74150
 7150.00000    -999.25    -999.25    6.83020   14.86100   67.29030   23.12260   63.34130   63.34130   67.29030  640.79740  640.79740    -999.25 -193.14020  -62.86040
 7200.00000    -999.25    -999.25    1.56200    2.87260  348.12180   25.43250   68.42830   68.42830  348.12180  721.64040  721.64040    -999.25 -186.15280  -59.73460
 7250.00000    -999.25    -999.25    0.85390    0.81380 1228.80470   20.44940   59.09740   59.09740 1228.80470  735.77690  735.77690    -999.25 -220.85080  -98.29410
 7300.00000    -999.25    -999.25    7.46330   16.22390   61.63760   31.64680   70.53870   70.53870   61.63760  567.76230  567.76230    -999.25 -184.72730  -66.03220
 7350.00000    -999.25    -999.25    9.89380   24.05370   41.57370   30.16490   82.55450   82.55450   41.57370  519.13960  519.13960    -999.25 -196.04340  -81.20990
 7400.00000    -999.25    -999.25    0.96910    0.69000 1449.33170  176.21440  189.02550  189.02550 1449.33170  703.71940  703.71940    -999.25 -128.22810  -17.25610
 7450.00000    -999.25    -999.25    2.30280    3.65100  273.89940    6.75870   37.98820   37.98820  273.89940  769.88820  769.88820    -999.25 -216.24480 -108.05380
 7500.00000    -999.25    -999.25    0.95640    1.38710  720.93480    6.23230   36.29720   36.29720  720.93480  770.65600  770.65600    -999.25 -200.77720  -94.04650
 7550.00000    -999.25    -999.25    1.34400    2.09060  478.32430    7.52970   38.70310   38.70310  478.32430  775.32580  775.32580    -999.25 -223.20470 -117.93420
 7600.00000    -999.25    -999.25    1.12590    1.56190  640.26520    5.50430   32.93270   32.93270  640.26520  752.40560  752.40560    -999.25 -261.40650 -157.59630
