~Version ---------------------------------------------------
VERS.      2.0 : CWLS log ASCII Standard -VERSION 2.0
WRAP.       NO : One line per depth step
CREA. 09/20/13 : LAS Creation Date
~Well ------------------------------------------------------
STRT.M                                    400.0 : START DEPTH
STOP.M                                   2550.0 : STOP DEPTH
STEP.M                                 50.00000 : STEP LENGTH
NULL.                                   -999.25 : NULL VALUE
COMP.              HUSKY OIL OPERATIONS LIMITED : COMPANY
WELL. CANTERRA ET AL TWINING 10-30-32-23 #10-30 : WELL
FLD .                                           : FIELD
LOC .                                           : LOCATION
CTRY.                                    CANADA : COUNTRY
SRVC.                              Schlumberger : SERVICE COMPANY
DATE.                               19-Sep-1988 : LOGDATE
PROV.                                   Alberta : PROVINCE
UWI .                          100103003223W400 : UNIQUE WELL ID
SLAT.WGS84                             51.77547 : SURFACE LATITUDE
SLON.WGS84                            -113.2476 : SURFACE LONGITUDE
~Curve Information -----------------------------------------
DEPT    .M      : DEPTH METER
CALDED  .MM     : CALIPER FROM DENSITY LOG [ADJ.TO DISFL LOG]
CALSDED .MM     : CALIPER FROM DENSITY LOG [ADJ.TO DISFL LOG]
CALSED  .MM     : CALIPER FROM SONIC LOG [ADJ.TO DISFL LOG]
CALWS   .MM     : CALIPER [CALDED]
CONDWS  .MMHO   : CONDUCTIVITY [1000/DRESWS]
DCORWS  .KG/M3  : DENSITY CORRECTION [DRHOED]
DENWS   .KG/M3  : FORMATION BULK DENSITY [RHOBED]
DPOLSWS .V/V    : DENSITY POROSITY LIMESTONE [CALC. FROM DENWS M=2710, F=1000]
DRESWS  .OHMM   : DEEP RESISTIVITY [ILDED]
DRHOED  .KG/M3  : BULK DENSITY CORRECTION FROM DENSITY LOG [ADJ.TO DISFL LOG]
DTED    .US/M   : DELTA-T  FROM SONIC LOG [ADJ.TO DISFL LOG]
DTWS    .US/M   : COMPRESSIONAL SONIC [DTED]
GRDED   .GAPI   : GAMMA RAY FROM DENSITY LOG [ADJ.TO DISFL LOG]
GRR1ED  .GAPI   : GAMMA RAY FROM DLL LOG [ADJ.TO DISFL LOG]
GRRED   .GAPI   : GAMMA RAY FROM DISFL LOG
GRSED   .GAPI   : GAMMA RAY FROM SONIC LOG [ADJ.TO DISFL LOG]
GRWS    .GAPI   : GAMMA RAY [GRSED SPL. TO GRRED @ 369 M]
ILDED   .OHMM   : DEEP INDUCTION FROM DISFL LOG
ILMED   .OHMM   : MEDIUM INDUCTION FROM DISFL LOG
LLDED   .OHMM   : DEEP LATEROLOG FROM DLL LOG
LLSED   .OHMM   : SHALLOW LATEROLOG FROM DLL LOG
MRESWS  .OHMM   : MEDIUM RESISTIVITY [ILMED]
NPHILSED.V/V    : NEUTRON POROSITY LIMESTONE FROM DENSITY LOG [ADJ.TO DISFL LOG]
NPHISSED.V/V    : NEUTRON POROSITY SANDSTONE FROM DENSITY LOG [ADJ.TO DISFL LOG]
NPOLSWS .V/V    : NEUTRON POROSITY LIMESTONE [NPHILSED]
PEFED   .B/E    : PHOTOELECTRIC FACTOR FROM DENSITY LOG [ADJ.TO DISFL LOG]
PEFWS   .B/E    : PHOTOELECTRIC FACTOR [PEFED]
RHOBED  .KG/M3  : BULK DENSITY FROM DENSITY LOG [ADJ.TO DISFL LOG]
SFLUED  .OHMM   : SHALLOW FOCUSED FROM DISFL LOG
SPR1ED  .MV     : SPONTANEOUS POTENTIAL DLL LOG [ADJ.TO DISFL LOG]
SPRED   .MV     : SPONTANEOUS POTENTIAL FROM DISFL LOG
SPWS    .MV     : SPONTANEOUS POTENTIAL [BASELINE 0 MV, SPRED]
SRESWS  .OHMM   : SHALLOW RESISTIVITY [SFLUED]
TENDED  .N      : TENSION FROM DENSITY LOG [ADJ.TO DISFL LOG]
TENR1ED .N      : TENSION FROM DLL LOG [ADJ.TO DISFL LOG]
TENRED  .N      : TENSION FROM DISFL LOG
TENSED  .N      : TENSION FROM SONIC LOG [ADJ.TO DISFL LOG]
~Params ----------------------------------------------------
PD  .                         GL : PERMANENT DATUM
EPD .M                     882.7 : ELEVATION PERMANENT DATUM
LMF .                         KB : LOG MEASURED FROM
DAPD.M                       4.9 : FEET ABOVE PERMANENT DATUM
DMF .                         KB : DRILLING MEASURED FROM
EKB .M                     887.6 : KELLY BUSHING
EDF .M                     887.4 : DRILLING FLOOR
EGL .M                     882.7 : GROUND LEVEL
DATE.                   09/19/88 : RUN DATE
RUN .                          1 : RUN NUMBER
DD  .M                      2564 : DEPTH DRILLER
DL  .M                    2561.2 : DEPTH LOGGER
BLI .M                    2560.7 : BOTTOM LOG INTERVAL
TLI .M                     392.2 : TOP LOG INTERVAL
CS  .MM                    244.5 : CASING SIZE
CBD .M                       393 : CASING BOTTOM DRILLER
CBL .M                     392.2 : CASING BOTTOM LOGGER
BS  .MM                      222 : BIT SIZE
BSD .M                      2564 : BIT SIZE AT DEPTH
DFT .                   GEL CHEM : DRILLING FLUID TYPE
DFD .                       1070 : DRILLING FLUID DENSITY
DFV .                        120 : DRILLING FLUID VISCOSITY
DFPH.                       10.5 : DRILLING FLUID PH
DFL .                          9 : DRILLING FLUID LOSS
MSS .                   FLOWLINE : MUD SAMPLE SOURCE
RMS .OHMM                   1.48 : RESISTIVITY MUD SAMPLE
MST .DEGC                   15.5 : MUD SAMPLE TEMPERATURE
RMF .OHMM                    0.9 : RESISTIVITY MUD FILTRATE SAMPLE
MFST.DEGC                   15.5 : MUD FILTRATE SAMPLE TEMPERATURE
RMC .OHMM                   2.31 : RESISTIVITY MUD CAKE
MCST.DEGC                   15.5 : MUD CAKE SAMPLE TEMPERATURE
MFSS.                   MEASURED : MUD FILTRATE SAMPLE SOURCE
MCSS.                 CALCULATED : MUD CAKE SAMPLE SOURCE
RMB .OHMM                  0.575 : RESISTIVITY MUD AT BHT
TCS .HRS                    1100 : TIME CIRCULATED STOPPED
TLAB.HRS                     630 : TIME LOGGER AT BOTTOM
LUN .                       8175 : LOGGING UNIT NUMBER
LUL .                     BROOKS : LOGGING UNIT LOCATION
ENGI.                    CAMERON : RECORDING ENGINEER
WITN.                    JOHNSON : WITNESSED BY
CLNT.                    A2DTECH : CLIENT CODE
ORIG. 6.5"/100M 16.5"/100M PRINT : ORIGIN OF DATA
UWI .           100103003223W400 : UNIQUE WELL ID
DICO.     A2D Technologies, Inc. : DIGITIZING COMPANY
~Other -----------------------------------------------------
RUN#1: DIL-BHC LOG RAN IN COMBO & CNL-LDT LOG
RUN#2: DIL-SFL-DLL-BHC-CNL-LDT LOG RAN
~ASCII -----------------------------------------------------
  400.00000  236.35670  240.44480  243.69470  236.35670  122.59260  179.27730 2016.22300    0.40570    8.15710  179.27730  333.94160  333.94160   79.38750    -999.25   78.80320   76.72560   78.80320    8.15710    7.80030    -999.25    -999.25    7.80030    0.27740    -999.25    0.27740    2.30920    2.30920 2016.22300   15.61010    -999.25 -240.29990  -17.64500   15.61010 46508.90630    -999.25 46791.32120 33948.55720
  450.00000  224.80850  267.65400  250.46860  224.80850    2.32470    0.62750 1293.24410    0.82850  430.16120    0.62750  456.82490  456.82490   19.74450    -999.25   19.38080   19.88320   19.38080  430.16120  167.75530    -999.25    -999.25  167.75530    0.57780    -999.25    0.57780    0.63940    0.63940 1293.24410  320.90400    -999.25 -239.92660   -6.57560  320.90400 49886.59720    -999.25 49417.17790 34715.20060
  500.00000  363.83650  185.54850  260.50510  363.83650  214.63830  120.47870 2011.37130    0.40860    4.65900  120.47870  321.32390  321.32390   89.59270    -999.25   89.40570   90.52910   89.40570    4.65900    4.16250    -999.25    -999.25    4.16250    0.28260    -999.25    0.28260    2.32760    2.32760 2011.37130    6.64590    -999.25 -235.00020   -0.66990    6.64590 53696.70720    -999.25 52842.69990 38356.16880
  550.00000  359.68030  234.48240  255.77980  359.68030  229.31050   34.34860 1763.56050    0.55350    4.36090   34.34860  340.06750  340.06750   99.91800    -999.25   99.65090  100.36020   99.65090    4.36090    4.00300    -999.25    -999.25    4.00300    0.36270    -999.25    0.36270    2.39840    2.39840 1763.56050    4.80230    -999.25 -237.59630   -2.28670    4.80230 52852.09360    -999.25 53502.77870 40505.57420
  600.00000  273.14910  243.69290  249.89090  273.14910  274.51410   72.21950 1799.32810    0.53260    3.64280   72.21950  328.26040  328.26040   75.63730    -999.25   74.55240   78.98170   74.55240    3.64280    3.11600    -999.25    -999.25    3.11600    0.29180    -999.25    0.29180    2.33950    2.33950 1799.32810    3.45560    -999.25 -237.20090   -0.91200    3.45560 56876.79660    -999.25 57469.63720 42426.28700
  650.00000  290.66060  254.36950  255.79970  290.66060  178.24040  144.57630 2011.08830    0.40870    5.61040  144.57630  335.90050  335.90050   66.69950    -999.25   66.37130   78.28950   66.37130    5.61040    4.77350    -999.25    -999.25    4.77350    0.32950    -999.25    0.32950    2.61060    2.61060 2011.08830    4.61850    -999.25 -237.39710   -0.12890    4.61850 56231.66160    -999.25 56001.79250 42466.65500
  700.00000  368.13340  338.91080  296.65650  368.13340  262.04760    0.54770 1273.33010    0.84020    3.81610    0.54770  317.36130  317.36130   63.57030    -999.25   62.59420   67.35350   62.59420    3.81610    3.61590    -999.25    -999.25    3.61590    0.41500    -999.25    0.41500    1.59770    1.59770 1273.33010    3.35710    -999.25 -237.08890   -2.44920    3.35710 60093.75160    -999.25 59987.61810 47732.99780
  750.00000  292.61430  238.19520  257.41950  292.61430  219.17330   45.10460 1690.55860    0.59620    4.56260   45.10460  320.79420  320.79420   69.88210    -999.25   70.95410   79.93520   70.95410    4.56260    4.33050    -999.25    -999.25    4.33050    0.34030    -999.25    0.34030    2.25020    2.25020 1690.55860    4.65670    -999.25 -237.58380   -5.65380    4.65670 60355.43920    -999.25 59953.20420 48332.45720
  800.00000  269.39700  244.94740  246.74220  269.39700  188.78250   46.58190 1687.07570    0.59820    5.29710   46.58190  360.67410  360.67410   64.97480    -999.25   64.63500   63.86680   64.63500    5.29710    5.14470    -999.25    -999.25    5.14470    0.35740    -999.25    0.35740    2.00490    2.00490 1687.07570    3.83150    -999.25 -235.70900   -6.48860    3.83150 60693.96540    -999.25 61160.17870 51486.48470
  850.00000  286.94640  228.27510  244.53330  286.94640  192.33730   83.40790 2298.70090    0.24050    5.19920   83.40790  303.53210  303.53210   65.63440    -999.25   65.83910   71.53700   65.83910    5.19920    4.91120    -999.25    -999.25    4.91120    0.29320    -999.25    0.29320    2.79080    2.79080 2298.70090    5.73360    -999.25 -233.35940   -5.19590    5.73360 62351.36510    -999.25 62406.73090 52135.04140
  900.00000  419.41410  232.49330  230.58380  419.41410  135.39860   31.08410 1687.43190    0.59800    7.38560   31.08410  306.90030  306.90030   82.52210    -999.25   82.41960   97.37190   82.41960    7.38560    6.75990    -999.25    -999.25    6.75990    0.34350    -999.25    0.34350    2.19390    2.19390 1687.43190    7.57780    -999.25 -236.30550   -6.66690    7.57780 62727.71780    -999.25 62656.71670 52592.37280
  950.00000  395.97610  226.77150  256.11680  395.97610  109.61670   27.61200 1823.38570    0.51850    9.12270   27.61200  285.43740  285.43740   92.74460    -999.25   92.65080  106.62730   92.65080    9.12270    7.17320    -999.25    -999.25    7.17320    0.30880    -999.25    0.30880    2.32470    2.32470 1823.38570    8.56190    -999.25 -238.59000   -7.70690    8.56190 65245.09700    -999.25 65751.27420 54702.90990
 1000.00000  280.32790  232.16390  240.89420  280.32790   80.64060  134.70520 2515.70580    0.11360   12.40070  134.70520  293.30400  293.30400   92.30710    -999.25   94.19910  111.95100   94.19910   12.40070   11.33260    -999.25    -999.25   11.33260    0.26380    -999.25    0.26380    2.87890    2.87890 2515.70580   12.85180    -999.25 -236.28170   -4.72080   12.85180 66244.05230    -999.25 66939.76650 57416.26520
 1050.00000  289.05000  297.08410  251.28950  289.05000  111.17530   81.36490 1929.80420    0.45630    8.99480   81.36490  286.14380  286.14380   93.81720    -999.25   92.78470  102.62020   92.78470    8.99480    8.32170    -999.25    -999.25    8.32170    0.26830    -999.25    0.26830    2.38360    2.38360 1929.80420    9.28760    -999.25 -236.64600   -5.84980    9.28760 73680.78830    -999.25 73189.42020 57844.58000
 1100.00000  282.24500  303.41490  269.70510  282.24500  124.03250   95.08080 2007.17290    0.41100    8.06240   95.08080  294.99150  294.99150  102.57430    -999.25  101.61150  112.63920  101.61150    8.06240    7.65850    -999.25    -999.25    7.65850    0.26120    -999.25    0.26120    2.24130    2.24130 2007.17290    8.82770    -999.25 -233.63440   -3.60300    8.82770 73338.68780    -999.25 72612.88850 60039.76890
 1150.00000  301.75040  272.05070  278.26390  301.75040  137.17420   67.89140 1742.04790    0.56610    7.29000   67.89140  283.30170  283.30170   99.01360    -999.25   99.54040  108.45190   99.54040    7.29000    7.01520    -999.25    -999.25    7.01520    0.28220    -999.25    0.28220    2.14250    2.14250 1742.04790    8.39430    -999.25 -233.16470   -3.75280    8.39430 75543.97100    -999.25 75182.19380 62501.86310
 1200.00000  307.69010  267.80220  273.86510  307.69010  123.55750  108.37180 1962.75650    0.43700    8.09340  108.37180  284.32230  284.32230  102.69560    -999.25  103.09140  113.85410  103.09140    8.09340    7.21090    -999.25    -999.25    7.21090    0.29010    -999.25    0.29010    2.30930    2.30930 1962.75650    8.19250    -999.25 -230.96030   -4.21750    8.19250 78563.68360    -999.25 79785.15290 63935.81480
 1250.00000  264.64120  255.78120  258.34470  264.64120  143.72150   96.71520 2089.57280    0.36280    6.95790   96.71520  279.50620  279.50620  105.32810    -999.25  105.75360  123.53920  105.75360    6.95790    6.72400    -999.25    -999.25    6.72400    0.24360    -999.25    0.24360    2.78530    2.78530 2089.57280    8.96310    -999.25 -227.32070   -4.02160    8.96310 80441.58560    -999.25 79676.36110 65565.94020
 1300.00000  298.83420  272.89970  275.79500  298.83420  147.32530  133.63470 2020.90490    0.40300    6.78770  133.63470  302.75170  302.75170  113.96390    -999.25  114.08580  126.70960  114.08580    6.78770    6.59100    -999.25    -999.25    6.59100    0.31450    -999.25    0.31450    2.64820    2.64820 2020.90490    8.48300    -999.25 -228.35390   -8.49860    8.48300 79298.76010    -999.25 78786.17060 70620.99490
