~Version ---------------------------------------------------
VERS.      2.0 : CWLS log ASCII Standard -VERSION 2.0
WRAP.       NO : One line per depth step
CREA. 08/31/17 : LAS Creation Date
~Well ------------------------------------------------------
STRT.FT                            1150.0 : START DEPTH
STOP.FT                           11550.0 : STOP DEPTH
STEP.FT                          50.00000 : STEP LENGTH
NULL.                             -999.25 : NULL VALUE
COMP.    AMOCO CANADA PETROLEUM CO., LTD. : COMPANY
WELL. AMOCO HB FINA SOUTH FORK 10-8-59-19 : WELL
FLD .                                     : FIELD
LOC .                                     : LOCATION
CTRY.                              CANADA : COUNTRY
SRVC.                        Schlumberger : SERVICE COMPANY
DATE.                         10-Oct-1977 : LOGDATE
PROV.                             Alberta : PROVINCE
UWI .                    100100805919W500 : UNIQUE WELL ID
SLAT.WGS84                       54.08913 : SURFACE LATITUDE
SLON.WGS84                      -116.8085 : SURFACE LONGITUDE
~Curve Information -----------------------------------------
DEPT    .FT    : Depth Curve
CALDED  .IN    : CALIPER FROM CNT-CFD LOG [ADJ. TO ILDED]
CALSED  .IN    : CALIPER FROM BCS LOG [ADJ. TO ILDED]
CALWS   .IN    : CALIPER [CALDED]
CONDWS  .MMHO  : CONDUCTIVITY [1000/DRESWS]
DCORED  .G/C3  : DENSITY CORRECTION FROM CNT-CFD LOG [ADJ. TO ILDED]
DCORWS  .G/C3  : DENSITY CORRECTION [DCORED]
DENWS   .G/C3  : FORMATION BULK DENSITY [RHOBED]
DPHILSED.V/V   : DENSITY POROSITY LIMESTONE [M=2.71,F=1.0] FROM CNT-CFD LOG [ADJ. TO ILDED]
DPHISSED.V/V   : DENSITY POROSITY SANDSTONE [M=2.65,F=1.0] FROM CNT-CFD LOG [ADJ. TO ILDED]
DPOLSWS .V/V   : DENSITY POROSITY LIMESTONE [CALCULATED FROM DENWS, M=2.71, F=1.0]
DRESWS  .OHMM  : DEEP RESISTIVITY [ILDED]
DTED    .US/F  : DELTA-T (INTERVAL TRANSIT TIME) FROM BCS LOG [ADJ. TO ILDED]
DTWS    .US/F  : COMPRESSIONAL  SONIC [DTED]
GRDED   .GAPI  : GAMMA RAY FROM CNT-CFD LOG [ADJ. TO ILDED]
GRSED   .GAPI  : GAMMA RAY FROM BCS LOG [ADJ. TO ILDED]
GRWS    .GAPI  : GAMMA RAY [GRSED]
ILDED   .OHMM  : DEEP INDUCTION FROM DILL LOG
ILMED   .OHMM  : MEDIUM INDUCTION FROM DILL LOG
LL8ED   .OHMM  : LATEROLOG 8 FROM DILL LOG
MRESWS  .OHMM  : MEDIUM RESISTIVITY [ILMED]
NPHILSED.V/V   : NEUTRON POROSITY LIMESTONE FROM CNT-CFD LOG [ADJ. TO ILDED]
NPHISSED.V/V   : NEUTRON POROSITY SANDSTONE FROM CNT-CFD LOG [ADJ. TO ILDED]
NPOLSWS .V/V   : NEUTRON POROSITY LIMESTONE [NPHISSED CONVERTED TO LIMESTONE MATRIX, SPL. TO NPHILSED @7662.5']
RHOBED  .G/C3  : BULK DENSITY FROM CNT-CFD LOG [ADJ. TO ILDED]
SPRED   .MV    : SPONTANEOUS POTENTIAL FROM DILL LOG
SPWS    .MV    : SPONTANEOUS POTENTIAL [BASELINE 0 MV, SPRED]
SRESWS  .OHMM  : SHALLOW RESISTIVITY [LL8ED]
~Params ----------------------------------------------------
PD  .                     GL : PERMANENT DATUM
EPD .FT                 2976 : ELEVATION PERMANENT DATUM
LMF .                     KB : LOG MEASURED FROM
DAPD.FT                 20.7 : FEET ABOVE PERMANENT DATUM
EKB .FT               2996.7 : KELLY BUSHING
EGL .FT                 2976 : GROUND LEVEL
DATE.               10/10/77 : RUN DATE
RUN .                      1 : RUN NUMBER
DD  .FT                11577 : DEPTH DRILLER
DL  .FT                11569 : DEPTH LOGGER
BLI .FT                11563 : BOTTOM LOG INTERVAL
TLI .FT                 1534 : TOP LOG INTERVAL
CBD .FT                 1535 : CASING BOTTOM DRILLER
CBL .FT                 1534 : CASING BOTTOM LOGGER
BS  .IN                 8.75 : BIT SIZE
BSD .FT                11577 : BIT SIZE AT DEPTH
DFT .                    GEL : DRILLING FLUID TYPE
DFD .                      9 : DRILLING FLUID DENSITY
DFV .                     80 : DRILLING FLUID VISCOSITY
DFPH.                    8.5 : DRILLING FLUID PH
DFL .                    8.8 : DRILLING FLUID LOSS
MSS .               FLOWLINE : MUD SAMPLE SOURCE
RMS .OHMM               2.24 : RESISTIVITY MUD SAMPLE
MST .DEGF                 54 : MUD SAMPLE TEMPERATURE
RMF .OHMM               1.98 : RESISTIVITY MUD FILTRATE SAMPLE
MFST.DEGF                 64 : MUD FILTRATE SAMPLE TEMPERATURE
TCS .HRS                   3 : TIME CIRCULATED STOPPED
LUN .                   7772 : LOGGING UNIT NUMBER
LUL .                    EDM : LOGGING UNIT LOCATION
ENGI.         BERNISKY TRACY : RECORDING ENGINEER
WITN.                 NEWELL : WITNESSED BY
CLNT.                A2DTECH : CLIENT CODE
ORIG.            2" 5" PRINT : ORIGIN OF DATA
UWI .       100100805919W500 : UNIQUE WELL ID
DICO. A2D Technologies, Inc. : DIGITIZING COMPANY
~Other -----------------------------------------------------
~ASCII -----------------------------------------------------
# ...
 8950.00000    8.85750    8.72170    8.85750   22.41080    0.04360    0.04360    2.70410    0.00300    -999.25    0.00350   44.62670   60.32980   60.32980   97.88030   98.89540   98.89540   44.62670   39.32420   50.85080   39.32420    0.08470    -999.25    0.08470    2.70410 -394.94450  -49.36070   50.85080
 9000.00000    9.80260    9.14660    9.80260    0.69180    0.24200    0.24200    2.71700   -0.00810    -999.25   -0.00410 1445.57420   49.93800   49.93800   32.17930   27.56730   27.56730 1445.57420  344.51670  970.65380  344.51670    0.01180    -999.25    0.01180    2.71700 -420.78100  -75.79080  970.65380
 9050.00000   10.29110    9.08200   10.29110    0.67860    0.24800    0.24800    2.64560    0.03490    -999.25    0.03770 1473.53830   49.37390   49.37390   12.87860   13.81260   13.81260 1473.53830  721.95200 1369.58900  721.95200    0.00560    -999.25    0.00560    2.64560 -490.38200 -152.78220 1369.58900
 9100.00000   10.30850    9.13270   10.30850    0.98500    0.24920    0.24920    2.66940    0.02580    -999.25    0.02370 1015.47610   48.43840   48.43840   14.07310    9.86710    9.86710 1015.47610  546.28230  785.04460  546.28230    0.00620    -999.25    0.00620    2.66940 -517.69380 -187.53310  785.04460
 9150.00000   11.48000    9.15060   11.48000    0.67250    0.19740    0.19740    2.55790    0.09220    -999.25    0.08890 1486.99550   48.88060   48.88060   11.79460    8.28990    8.28990 1486.99550  927.32200  719.78850  927.32200    0.01660    -999.25    0.01660    2.55790 -540.40870 -217.63840  719.78850
 9200.00000   12.20070    9.16720   12.20070    5.40780    0.19120    0.19120    2.51180    0.12070    -999.25    0.11590  185.95940   48.92510   48.92510   12.03610   10.79110   10.79110  185.95940  407.17950  286.16520  407.17950    0.06950    -999.25    0.06950    2.51180 -472.51710 -157.18590  286.16520
 9250.00000   10.76170    8.94270   10.76170    0.65470    0.20550    0.20550    2.54500    0.10050    -999.25    0.09650 1527.44200   49.12490   49.12490   10.51630   12.79310   12.79310 1527.44200  884.85330 1410.90330  884.85330    0.02220    -999.25    0.02220    2.54500 -484.78560 -176.84480 1410.90330
 9300.00000   11.13230    9.14530   11.13230    5.04370    0.24940    0.24940    2.53900    0.10190    -999.25    0.10000  198.26700   50.11890   50.11890   18.25410   16.94540   16.94540  198.26700  548.38000  709.98860  548.38000    0.02660    -999.25    0.02660    2.53900 -454.11330 -153.56290  709.98860
 9350.00000   11.85290    9.24270   11.85290    4.57700    0.22980    0.22980    2.34640    0.21660    -999.25    0.21260  218.58380   49.52980   49.52980   10.38280    9.79850    9.79850  218.58380  355.21510  228.58520  355.21510    0.04500    -999.25    0.04500    2.34640 -387.82110  -94.70980  228.58520
 9400.00000   11.97630    9.27860   11.97630    5.73950    0.24870    0.24870    2.49110    0.12740    -999.25    0.12800  174.23210   49.18340   49.18340    9.63100    9.20460    9.20460  174.23210  253.39920  269.96510  253.39920    0.03280    -999.25    0.03280    2.49110 -317.56060  -31.47020  269.96510
 9450.00000   12.65570    9.75720   12.65570    1.67760    0.15410    0.15410    2.45670    0.15330    -999.25    0.14820  612.47420   49.59240   49.59240   13.57290   12.73000   12.73000  612.47420  339.42170  439.40580  339.42170    0.04940    -999.25    0.04940    2.45670 -350.46940  -69.93370  439.40580
 9500.00000   12.29730    9.32130   12.29730    0.70920    0.24700    0.24700    2.43680    0.16180    -999.25    0.15980 1410.01830   51.74140   51.74140   16.72150   12.21020   12.21020 1410.01830  942.56560  476.71090  942.56560    0.03960    -999.25    0.03960    2.43680 -333.24470  -58.22730  476.71090
 9550.00000   12.31490    9.50990   12.31490    5.85770    0.17750    0.17750    2.42730    0.16810    -999.25    0.16530  170.71500   51.64250   51.64250   12.15460   11.76310   11.76310  170.71500  252.68480  318.52070  252.68480    0.03090    -999.25    0.03090    2.42730 -373.23290 -103.73390  318.52070
 9600.00000    9.20950    9.02610    9.20950    2.91370    0.03460    0.03460    2.63020    0.04000    -999.25    0.04670  343.77080   48.53920   48.53920    6.66830    7.15540    7.15540  343.77080  520.10980  344.26720  520.10980    0.02210    -999.25    0.02210    2.63020 -391.78320 -127.83880  344.26720
 9650.00000   11.40430    9.25010   11.40430    1.26150    0.10610    0.10610    2.53420    0.10220    -999.25    0.10280  792.69960   49.10180   49.10180   17.34520   13.84800   13.84800  792.69960 1475.80100  422.67670 1475.80100    0.00850    -999.25    0.00850    2.53420 -416.76970 -158.34370  422.67670
 9700.00000   10.57720    9.66780   10.57720   23.80340    0.24070    0.24070    2.63060    0.04890    -999.25    0.04640   42.03560   52.18280   52.18280   20.00450   20.73630   20.73630   42.03560   58.26260   89.04380   58.26260    0.05260    -999.25    0.05260    2.63060 -387.50560 -134.63420   89.04380
 9750.00000   11.09470    9.18610   11.09470   22.71490    0.20020    0.20020    2.56780    0.08470    -999.25    0.08320   44.02390   49.24140   49.24140   15.91650   16.22280   16.22280   44.02390   52.36310  154.70310   52.36310    0.06710    -999.25    0.06710    2.56780 -408.18820 -160.83520  154.70310
 9800.00000   10.19270    9.24330   10.19270    5.57210    0.15320    0.15320    2.69670    0.00900    -999.25    0.00780  179.46400   49.41840   49.41840   23.80380   15.79060   15.79060  179.46400  354.20400  213.60380  354.20400    0.03160    -999.25    0.03160    2.69670 -470.57600 -228.74130  213.60380
 9850.00000   11.00160    9.34580   11.00160    6.99140    0.23850    0.23850    2.63000    0.04850    -999.25    0.04680  143.07340   49.84000   49.84000   22.19060   21.05810   21.05810  143.07340  591.52960  275.56520  591.52960    0.02700    -999.25    0.02700    2.63000 -344.40900 -108.12900  275.56520
 9900.00000   11.26370    9.39230   11.26370    1.66830    0.25020    0.25020    2.56000    0.09120    -999.25    0.08770  599.41630   49.47390   49.47390   25.65380   28.04690   28.04690  599.41630  301.72740  318.97190  301.72740    0.01570    -999.25    0.01570    2.56000 -267.40910  -36.64740  318.97190
 9950.00000   10.14060    9.28790   10.14060    4.19450    0.25100    0.25100    2.74100   -0.01780    -999.25   -0.01810  238.59630   50.35720   50.35720   29.23860   25.79110   25.79110  238.59630  189.58240  272.56980  189.58240    0.01660    -999.25    0.01660    2.74100 -304.50130  -79.29420  272.56980
 10000.00000    9.96200    9.20700    9.96200    5.15230    0.24910    0.24910    2.70130    0.00300    -999.25    0.00510  194.08810   51.27540   51.27540   29.31650   31.22190   31.22190  194.08810  165.31590  250.55200  165.31590    0.01630    -999.25    0.01630    2.70130 -402.54280 -182.85410  250.55200
 10050.00000    9.10630    8.96950    9.10630    7.66050    0.01230    0.01230    2.74770   -0.02570    -999.25   -0.02200  130.53900   51.78930   51.78930   34.92320   26.87460   26.87460  130.53900  106.84740  160.41930  106.84740    0.02360    -999.25    0.02360    2.74770 -449.08600 -234.91560  160.41930
 10100.00000    9.04440    8.90010    9.04440    8.26300    0.00860    0.00860    2.71810   -0.00770    -999.25   -0.00470  121.02390   52.22820   52.22820   32.65920   27.91690   27.91690  121.02390  106.32600  138.05570  106.32600    0.02480    -999.25    0.02480    2.71810 -320.61270 -111.99700  138.05570
 10150.00000    9.18910    9.06410    9.18910    8.94630    0.05180    0.05180    2.77720   -0.04250    -999.25   -0.03930  111.77760   52.18450   52.18450   32.31560   27.16570   27.16570  111.77760   97.22640  147.37620   97.22640    0.02170    -999.25    0.02170    2.77720 -315.42300 -112.32560  147.37620
 10200.00000    9.06440    8.92690    9.06440   14.51770    0.01240    0.01240    2.71040   -0.00410    -999.25   -0.00030   68.90470   53.34200   53.34200   34.64720   30.03520   30.03520   68.90470   62.10940  102.93310   62.10940    0.04120    -999.25    0.04120    2.71040 -403.59880 -206.05610  102.93310
