~Version ---------------------------------------------------
VERS.      2.0 : CWLS log ASCII Standard -VERSION 2.0
WRAP.       NO : One line per depth step
CREA. 12/29/17 : LAS Creation Date
~Well ------------------------------------------------------
STRT.FT                     1350.0 : START DEPTH
STOP.FT                    12700.0 : STOP DEPTH
STEP.FT                   50.00000 : STEP LENGTH
NULL.                      -999.25 : NULL VALUE
COMP. TRANS-PRAIRIES PIPELINES LTD : COMPANY
WELL. TPPL DEEP VALLEY 11-21-64-25 : WELL
FLD .                              : FIELD
LOC .                              : LOCATION
CTRY.                       CANADA : COUNTRY
SRVC.                 Schlumberger : SERVICE COMPANY
DATE.                  04-Jan-1974 : LOGDATE
PROV.                      Alberta : PROVINCE
UWI .             100112106425W500 : UNIQUE WELL ID
SLAT.WGS84                54.55513 : SURFACE LATITUDE
SLON.WGS84               -117.7228 : SURFACE LONGITUDE
~Curve Information -----------------------------------------
DEPT    .FT    : Depth Curve
CALDED  .IN    : CALIPER FROM DENSITY LOG [ADJ. TO RESISTIVITY LOG]
CALSED  .IN    : CALIPER FROM SONIC LOG [ADJ. TO RESISTIVITY LOG]
CALWS   .IN    : CALIPER [CALSED]
CILDED  .MMHO  : CONDUCTIVITY FROM RESISTIVITY LOG
CONDWS  .MMHO  : CONDUCTIVITY [1000/DRESWS]
DCORWS  .G/C3  : DENSITY CORRECTION [DRHOED]
DENWS   .G/C3  : FORMATION BULK DENSITY [RHOBED]
DPHILSED.V/V   : DENSITY POROSITY LIMESTONE [M=2.71 F=1.00] FROM DENSITY LOG [ADJ. TO RHOBED/RESISTIVITY LOG]
DPHISSED.V/V   : DENSITY POROSITY SANDSTONE [M=2.65 F=1.00] FROM DENSITY LOG [ADJ. TO RHOBED/RESISTIVITY LOG]
DPOLSWS .V/V   : DENSITY POROSITY LIMESTONE [CALC FROM DENWS,M=2.71 F=1.00]
DRESWS  .OHMM  : DEEP RESISTIVITY [1000/CILDED IF ILDED<=5, ILDED]
DRHOED  .G/C3  : DENSITY CORRECTION FROM DENSITY LOG [ADJ. TO RESISTIVITY LOG]
DTED    .US/F  : DELTA T FROM SONIC LOG [ADJ. TO RESISTIVITY LOG]
DTWS    .US/F  : COMPRESSIONAL SONIC [DTED]
GRDED   .GAPI  : GAMMA RAY FROM DENSITY LOG [ADJ. TO RESISTIVITY LOG]
GRSED   .GAPI  : GAMMA RAY FROM SONIC LOG [ADJ. TO RESISTIVITY LOG]
GRWS    .GAPI  : GAMMA RAY [GRSED SPL. TO GRDED @ 7211']
ILDED   .OHMM  : DEEP INDUCTION FROM RESISTIVITY LOG
NPHILSED.V/V   : NEUTRON POROSITY LIMESTONE FROM DENSITY LOG [ADJ. TO RHOBED/RESISTIVITY LOG]
NPHISSED.V/V   : NEUTRON POROSITY SANDSTONE FROM DENSITY LOG [ADJ. TO RHOBED/RESISTIVITY LOG]
NPOLSWS .V/V   : NEUTRON POROSITY LIMESTONE [NPHISSED CONVERTED TO LIMESTONE MATRIX, SPL. TO NPHILSED @ 7065']
RHOBED  .G/C3  : BULK DENSITY FROM DENSITY LOG [ADJ. TO RESISTIVITY LOG]
SNED    .OHMM  : SHORT NORMAL FROM RESISTIVITY LOG
SPRED   .MV    : SPONTANEOUS POTENTIAL FROM RESISTIVITY LOG
SPWS    .MV    : SPONATENOUS POTENTIAL [BASELINE 0 MV, SPRED]
SRESWS  .OHMM  : SHALLOW RESISTIVITY [SNED]
~Params ----------------------------------------------------
PD  .                     GL : PERMANENT DATUM
EPD .FT                 2726 : ELEVATION PERMANENT DATUM
LMF .                     KB : LOG MEASURED FROM
DAPD.FT                   22 : FEET ABOVE PERMANENT DATUM
EKB .FT                 2748 : KELLY BUSHING
EDF .FT                 2726 : DRILLING FLOOR
DATE.               01/04/74 : RUN DATE
RUN .                      3 : RUN NUMBER
DD  .FT                12720 : DEPTH DRILLER
DL  .FT                12719 : DEPTH LOGGER
BLI .FT                12713 : BOTTOM LOG INTERVAL
TLI .FT                11088 : TOP LOG INTERVAL
CBD .FT                 1313 : CASING BOTTOM DRILLER
CBL .FT                 1314 : CASING BOTTOM LOGGER
BS  .IN                 8.75 : BIT SIZE
BSD .FT                12720 : BIT SIZE AT DEPTH
DFT .               GEL CHEM : DRILLING FLUID TYPE
DFD .                    9.6 : DRILLING FLUID DENSITY
DFV .                     97 : DRILLING FLUID VISCOSITY
DFL .                   10.9 : DRILLING FLUID LOSS
RMS .OHMM               2.08 : RESISTIVITY MUD SAMPLE
MST .DEGF                 50 : MUD SAMPLE TEMPERATURE
RMF .OHMM               1.51 : RESISTIVITY MUD FILTRATE SAMPLE
MFST.DEGF                 58 : MUD FILTRATE SAMPLE TEMPERATURE
RMC .OHMM               2.27 : RESISTIVITY MUD CAKE
MCST.DEGF                 52 : MUD CAKE SAMPLE TEMPERATURE
TCS .HRS                 2.5 : TIME CIRCULATED STOPPED
LUN .                   7691 : LOGGING UNIT NUMBER
LUL .                    EDM : LOGGING UNIT LOCATION
ENGI.                  LEITH : RECORDING ENGINEER
WITN.        SLOAN MCDONNELL : WITNESSED BY
CLNT.                A2DTECH : CLIENT CODE
ORIG.            2" 5" PRINT : ORIGIN OF DATA
UWI .       100112106425W500 : UNIQUE WELL ID
DICO. A2D Technologies, Inc. : DIGITIZING COMPANY
~Other -----------------------------------------------------
CNFD-IEL-BCS LOG RAN.
RUN#2: FDC ONLY TO 11088' & CNL ONLY TO 11650'
~ASCII -----------------------------------------------------
# ...
 2700.00000    -999.25    9.75880    9.75880  166.02930  164.92130    -999.25    -999.25    -999.25    -999.25    -999.25    6.06350    -999.25   95.94890   95.94890    -999.25   65.89800   65.89800    6.06350    -999.25    -999.25    -999.25    -999.25    6.34970  -34.01400   -2.99330    6.34970
 2750.00000    -999.25    9.26300    9.26300   62.85400   65.27540    -999.25    -999.25    -999.25    -999.25    -999.25   15.31970    -999.25   82.72990   82.72990    -999.25   44.90330   44.90330   15.31970    -999.25    -999.25    -999.25    -999.25   19.33080  -33.86500   -3.20760   19.33080
 2800.00000    -999.25    9.42830    9.42830   66.68900   67.31600    -999.25    -999.25    -999.25    -999.25    -999.25   14.85530    -999.25   86.87090   86.87090    -999.25   59.79550   59.79550   14.85530    -999.25    -999.25    -999.25    -999.25   16.71880  -35.05500   -4.76090   16.71880
 2850.00000    -999.25   10.12310   10.12310  167.24090  168.31620    -999.25    -999.25    -999.25    -999.25    -999.25    5.94120    -999.25   98.97460   98.97460    -999.25   74.15580   74.15580    5.94120    -999.25    -999.25    -999.25    -999.25    6.47990  -33.87160   -3.94310    6.47990
 2900.00000    -999.25    9.87380    9.87380   51.61730   49.13280    -999.25    -999.25    -999.25    -999.25    -999.25   20.35300    -999.25   90.99150   90.99150    -999.25   46.01230   46.01230   20.35300    -999.25    -999.25    -999.25    -999.25   23.10010  -35.96470   -6.39950   23.10010
 2950.00000    -999.25   12.05310   12.05310  189.51770  189.51240    -999.25    -999.25    -999.25    -999.25    -999.25    5.27670    -999.25  107.91890  107.91890    -999.25   61.11700   61.11700    5.27670    -999.25    -999.25    -999.25    -999.25    6.22510  -32.76070   -3.56120    6.22510
 3000.00000    -999.25    9.91150    9.91150  227.00230  227.00230    -999.25    -999.25    -999.25    -999.25    -999.25    4.40520    -999.25   96.78060   96.78060    -999.25   73.96740   73.96740    4.27980    -999.25    -999.25    -999.25    -999.25    5.82160  -33.28880   -4.45250    5.82160
 3050.00000    -999.25    8.98960    8.98960   64.30330   68.94980    -999.25    -999.25    -999.25    -999.25    -999.25   14.50330    -999.25   88.74380   88.74380    -999.25   44.09350   44.09350   14.50330    -999.25    -999.25    -999.25    -999.25   16.27730  -32.88390   -4.41090   16.27730
 3100.00000    -999.25    9.27820    9.27820  120.98310  126.07480    -999.25    -999.25    -999.25    -999.25    -999.25    7.93180    -999.25   89.67370   89.67370    -999.25   66.15870   66.15870    7.93180    -999.25    -999.25    -999.25    -999.25    9.61710  -32.53640   -4.42910    9.61710
 3150.00000    -999.25    9.00210    9.00210   64.86740   70.28250    -999.25    -999.25    -999.25    -999.25    -999.25   14.22830    -999.25   94.08740   94.08740    -999.25   50.92060   50.92060   14.22830    -999.25    -999.25    -999.25    -999.25   18.40920  -44.89310  -17.14910   18.40920
 3200.00000    -999.25    9.37430    9.37430  104.40070  106.13010    -999.25    -999.25    -999.25    -999.25    -999.25    9.42240    -999.25   83.81650   83.81650    -999.25   63.01910   63.01910    9.42240    -999.25    -999.25    -999.25    -999.25   10.48450  -32.57580   -5.19740   10.48450
 3250.00000    -999.25    9.72180    9.72180  132.23520  129.96130    -999.25    -999.25    -999.25    -999.25    -999.25    7.69460    -999.25   89.39110   89.39110    -999.25   60.49230   60.49230    7.69460    -999.25    -999.25    -999.25    -999.25    9.01780  -31.97710   -4.96200    9.01780
 3300.00000    -999.25    9.71040    9.71040  139.72270  141.29680    -999.25    -999.25    -999.25    -999.25    -999.25    7.07730    -999.25   90.14290   90.14290    -999.25   66.16420   66.16420    7.07730    -999.25    -999.25    -999.25    -999.25    8.84730  -31.84410   -5.19230    8.84730
 3350.00000    -999.25    9.09640    9.09640  115.36210  121.31360    -999.25    -999.25    -999.25    -999.25    -999.25    8.24310    -999.25   88.70160   88.70160    -999.25   67.01130   67.01130    8.24310    -999.25    -999.25    -999.25    -999.25    9.67200  -32.55710   -6.27090    9.67200
 3400.00000    -999.25    9.39240    9.39240  153.65080  155.20960    -999.25    -999.25    -999.25    -999.25    -999.25    6.44290    -999.25   94.61240   94.61240    -999.25   73.57050   73.57050    6.44290    -999.25    -999.25    -999.25    -999.25    7.53440  -31.77890   -5.84210    7.53440
 3450.00000    -999.25    9.24290    9.24290  138.21600  142.39540    -999.25    -999.25    -999.25    -999.25    -999.25    7.02270    -999.25   93.61010   93.61010    -999.25   72.41660   72.41660    7.02270    -999.25    -999.25    -999.25    -999.25    8.63210  -31.50550   -5.66870    8.63210
 3500.00000    -999.25   10.80290   10.80290   99.38090  102.14300    -999.25    -999.25    -999.25    -999.25    -999.25    9.79020    -999.25   88.45250   88.45250    -999.25   84.75080   84.75080    9.79020    -999.25    -999.25    -999.25    -999.25   10.85160  -32.33340   -6.59600   10.85160
 3550.00000    -999.25   10.77880   10.77880   93.95050   93.47980    -999.25    -999.25    -999.25    -999.25    -999.25   10.69750    -999.25   88.25100   88.25100    -999.25   85.84420   85.84420   10.69750    -999.25    -999.25    -999.25    -999.25   12.02660  -32.72410   -7.08600   12.02660
 3600.00000    -999.25   10.13740   10.13740   91.85860   94.49740    -999.25    -999.25    -999.25    -999.25    -999.25   10.58230    -999.25   98.29150   98.29150    -999.25  110.80000  110.80000   10.58230    -999.25    -999.25    -999.25    -999.25   13.19350  -31.83520   -6.29710   13.19350
 3650.00000    -999.25    9.40250    9.40250   68.25720   70.19370    -999.25    -999.25    -999.25    -999.25    -999.25   14.24630    -999.25   90.71800   90.71800    -999.25  120.59040  120.59040   14.24630    -999.25    -999.25    -999.25    -999.25   18.77130  -31.41800   -5.97920   18.77130
 3700.00000    -999.25   10.22780   10.22780   77.02310   79.92770    -999.25    -999.25    -999.25    -999.25    -999.25   12.51130    -999.25   91.20980   91.20980    -999.25  106.32200  106.32200   12.51130    -999.25    -999.25    -999.25    -999.25   15.99020  -30.61830   -5.27950   15.99020
 3750.00000    -999.25    9.86690    9.86690   76.67340   79.36890    -999.25    -999.25    -999.25    -999.25    -999.25   12.59940    -999.25   88.77230   88.77230    -999.25  102.05270  102.05270   12.59940    -999.25    -999.25    -999.25    -999.25   15.68490  -30.57840   -5.33890   15.68490
 3800.00000    -999.25    9.82160    9.82160   99.47720  101.73560    -999.25    -999.25    -999.25    -999.25    -999.25    9.82940    -999.25   93.17400   93.17400    -999.25  109.50880  109.50880    9.82940    -999.25    -999.25    -999.25    -999.25   11.86900  -31.51410   -6.37400   11.86900
 3850.00000    -999.25   10.42270   10.42270   97.43740   99.95000    -999.25    -999.25    -999.25    -999.25    -999.25   10.00500    -999.25   89.18130   89.18130    -999.25  108.86020  108.86020   10.00500    -999.25    -999.25    -999.25    -999.25   11.45510  -31.36870   -6.32860   11.45510
 3900.00000    -999.25   10.47700   10.47700   74.23390   76.51810    -999.25    -999.25    -999.25    -999.25    -999.25   13.06880    -999.25   82.37350   82.37350    -999.25   89.94050   89.94050   13.06880    -999.25    -999.25    -999.25    -999.25   14.25870  -31.62110   -6.68030   14.25870
 3950.00000    -999.25   11.37120   11.37120   82.83270   82.37100    -999.25    -999.25    -999.25    -999.25    -999.25   12.14020    -999.25   91.70240   91.70240    -999.25   94.96610   94.96610   12.14020    -999.25    -999.25    -999.25    -999.25   13.51520  -30.67980   -5.83900   13.51520
 4000.00000    -999.25   10.85860   10.85860   90.69140   91.83920    -999.25    -999.25    -999.25    -999.25    -999.25   10.88860    -999.25   87.69260   87.69260    -999.25  106.91270  106.91270   10.88860    -999.25    -999.25    -999.25    -999.25   12.37170  -30.40590   -5.66440   12.37170
