~Version ---------------------------------------------------
VERS.      2.0 : CWLS log ASCII Standard -VERSION 2.0
WRAP.       NO : One line per depth step
CREA. 01/02/18 : LAS Creation Date
~Well ------------------------------------------------------
STRT.FT                                 1000.0 : START DEPTH
STOP.FT                                 9800.0 : STOP DEPTH
STEP.FT                               50.00000 : STEP LENGTH
NULL.                                  -999.25 : NULL VALUE
COMP. THE BRITISH AMERICAN OIL COMPANY LIMITED : COMPANY
WELL.                    BA IOSEGUN 2-11-67-20 : WELL
FLD .                                          : FIELD
LOC .                                          : LOCATION
CTRY.                                   CANADA : COUNTRY
SRVC.                             Schlumberger : SERVICE COMPANY
DATE.                              02-Mar-1963 : LOGDATE
PROV.                                  Alberta : PROVINCE
UWI .                         100021106720W500 : UNIQUE WELL ID
SLAT.WGS84                            54.77967 : SURFACE LATITUDE
SLON.WGS84                           -116.9329 : SURFACE LONGITUDE
~Curve Information -----------------------------------------
DEPT  .FT    : Depth Curve
CALSED.IN    : CALIPER FROM SONIC LOG
CALWS .IN    : CALIPER [CALSED]
CILDED.MMHO  : INDUCTION DEEP CONDUCTIVITY FROM IEL
CONDWS.MMHO  : CONDUCTIVITY [1000/DRESWS]
DRESWS.OHMM  : DEEP RESISTIVITY [ILDED, IF ILDED<2;1000/CILDED]
DTED  .US/F  : DELTA TIME  (INTERVAL TRANSIT TIME)  FROM SONIC LOG
DTWS  .US/F  : COMPRESSIONAL SONIC [DTED]
GRSED .GAPI  : GAMMA RAY FROM SONIC LOG
GRWS  .GAPI  : GAMMA RAY [GRSED]
ILDED .OHMM  : INDUCTION DEEP RESISTIVITY FROM IEL
SNED  .OHMM  : SHORT NORMAL RESISTIVITY FROM IEL
SPRED .MV    : SPONTANEOUS POTENTIAL FROM IEL
SPWS  .MV    : SPONTANEOUS POTENTIAL [BASELINE 0 MV] [SPRED]
SRESWS.OHMM  : SHALLOW RESISTIVITY [SNED]
~Params ----------------------------------------------------
PD  .                     GL : PERMANENT DATUM
EPD .FT                 2507 : ELEVATION PERMANENT DATUM
LMF .                     KB : LOG MEASURED FROM
DAPD.FT                   18 : FEET ABOVE PERMANENT DATUM
EKB .FT                 2525 : KELLY BUSHING
EGL .FT                 2507 : GROUND LEVEL
DATE.              03/02/196 : RUN DATE
RUN .                      2 : RUN NUMBER
DD  .FT                 9825 : DEPTH DRILLER
DL  .FT                 9831 : DEPTH LOGGER
BLI .FT                 9830 : BOTTOM LOG INTERVAL
TLI .FT                 9589 : TOP LOG INTERVAL
CBD .FT                 1015 : CASING BOTTOM DRILLER
CBL .FT                 1018 : CASING BOTTOM LOGGER
BS  .IN                    9 : BIT SIZE
BSD .FT                 9831 : BIT SIZE AT DEPTH
DFT .           OIL EMULSION : DRILLING FLUID TYPE
DFD .                    9.8 : DRILLING FLUID DENSITY
DFV .                    180 : DRILLING FLUID VISCOSITY
DFPH.                     10 : DRILLING FLUID PH
DFL .                    7.0 : DRILLING FLUID LOSS
RMS .OHMM               0.95 : RESISTIVITY MUD SAMPLE
MST .DEGF                 82 : MUD SAMPLE TEMPERATURE
RMF .OHMM               1.07 : RESISTIVITY MUD FILTRATE SAMPLE
MFST.DEGF                 50 : MUD FILTRATE SAMPLE TEMPERATURE
RMC .OHMM               1.97 : RESISTIVITY MUD CAKE
MCST.DEGF                 50 : MUD CAKE SAMPLE TEMPERATURE
RMB .OHMM               0.41 : RESISTIVITY MUD AT BHT
MRT .DEGF                190 : MAXIMUM RECORDED TEMPERATURE
LUN .                1534 VV : LOGGING UNIT NUMBER
ENGI.                MCKEOWN : RECORDING ENGINEER
WITN.              MCDERMOTT : WITNESSED BY
CLNT.                A2DTECH : CLIENT CODE
ORIG.           2', 5' PRINT : ORIGIN OF DATA
UWI .       100021106720W500 : UNIQUE WELL ID
DICO. A2D Technologies, Inc. : DIGITIZING COMPANY
~Other -----------------------------------------------------
CILD USED SCALES 500/0 FROM START TO 9750' AND SCALES 1000/0 FROM 9750'-END.
IEL LOG TAKEN FROM RUN 1 FROM START TO 9750 AND RUN 2 FROM 9750'-END.
~ASCII -----------------------------------------------------
# ...
 5900.00000   10.03130   10.03130   18.29400   14.14440   70.69940   49.44400   49.44400   40.81930   40.81930   70.69940  107.93240 -150.18920  -87.88780  107.93240
 5950.00000    9.36890    9.36890   99.08810   93.65310   10.67770   62.03280   62.03280   38.01990   38.01990   10.67770   36.95930 -140.41970  -78.05550   36.95930
 6000.00000   10.31680   10.31680   47.38450   44.05210   22.70040   53.86800   53.86800   31.54240   31.54240   22.70040   59.21510 -188.04570 -125.61880   59.21510
 6050.00000   10.36740   10.36740  286.01490  271.73910    3.68000   62.91270   62.91270   49.56760   49.56760    3.68000   16.79700 -159.36500  -96.87540   16.79700
 6100.00000   10.94690   10.94690   45.99540   44.34510   22.55040   61.48000   61.48000   60.13160   60.13160   22.55040   32.15770  -66.67530   -4.12290   32.15770
 6150.00000   10.15930   10.15930   18.05350   14.97150   66.79360   55.59780   55.59780   44.03870   44.03870   66.79360   57.71050  -59.60950    3.00560   57.71050
 6200.00000   10.66450   10.66450  371.15520  339.84710    2.94250   63.28430   63.28430   45.88980   45.88980    2.94250   14.69290 -155.83920  -93.16130   14.69290
 6250.00000   10.98410   10.98410  418.62890  348.08030    2.87290   69.37450   69.37450   45.14420   45.14420    2.87290   12.92990 -151.69410  -88.95350   12.92990
 6300.00000   11.29790   11.29790  133.01200  129.97140    7.69400   60.91450   60.91450   42.57270   42.57270    7.69400   20.67940 -130.75150  -67.94820   20.67940
 6350.00000   10.36750   10.36750   20.29660   17.97480   55.63340   57.07320   57.07320   30.68160   30.68160   55.63340   96.90440 -149.29900  -86.43290   96.90440
 6400.00000   10.53100   10.53100   42.67650   38.96210   25.66600   56.35500   56.35500   32.65780   32.65780   25.66600   58.86590 -139.10550  -76.17670   58.86590
 6450.00000   10.36580   10.36580   35.87660   31.22120   32.02950   55.76300   55.76300   33.22700   33.22700   32.02950   70.42770 -142.39700  -79.40540   70.42770
 6500.00000   10.00360   10.00360   22.71060   20.13230   49.67140   56.87200   56.87200   32.19590   32.19590   49.67140   87.32840 -139.87320  -76.81890   87.32840
 6550.00000   10.89460   10.89460  263.61890  248.94820    4.01690   71.09050   71.09050   65.15480   65.15480    4.01690    6.55700 -104.19420  -41.07710    6.55700
 6600.00000   10.87990   10.87990  107.74980  109.12860    9.16350   61.93800   61.93800   62.79310   62.79310    9.16350   21.00840  -98.10230  -34.92250   21.00840
 6650.00000   12.14680   12.14680   74.60400   72.19330   13.85170   58.29520   58.29520   44.00560   44.00560   13.85170   17.02240  -60.70420    2.53830   17.02240
 6700.00000   11.21710   11.21710  101.19990   92.30030   10.83420   75.31500   75.31500   68.16920   68.16920   10.83420   15.34380  -62.37640    0.92890   15.34380
 6750.00000    9.82290    9.82290   33.12970   29.99390   33.34010   58.95770   58.95770   40.03000   40.03000   33.34010   46.76560 -105.22450  -41.85650   46.76560
 6800.00000    9.88130    9.88130   11.23120    8.12740  123.04080   56.52120   56.52120   34.42470   34.42470  123.04080   86.88710 -102.72610  -39.29530   86.88710
 6850.00000    9.72080    9.72080   23.63250   21.15700   47.26570   60.00750   60.00750   56.37150   56.37150   47.26570   49.84330  -69.20450   -5.71100   49.84330
 6900.00000    9.94820    9.94820   23.94460   20.86970   47.91630   61.77520   61.77520   55.80280   55.80280   47.91630    -999.25  -84.84960  -21.29340    -999.25
 6950.00000    9.72970    9.72970   16.35230   16.83250   59.40880   59.90220   59.90220   49.50990   49.50990   59.40880   62.85340  -84.54200  -20.92300   62.85340
 7000.00000    9.98290    9.98290   26.79300   23.88530   41.86670   61.21380   61.21380   57.99150   57.99150   41.86670   44.69660  -75.83650  -12.15480   44.69660
 7050.00000    9.88120    9.88120   24.90040   21.55330   46.39650   61.25750   61.25750   55.88940   55.88940   46.39650   46.45310  -86.22080  -22.47630   46.45310
 7100.00000    9.91950    9.91950   16.58010   13.55080   73.79620   58.73650   58.73650   50.86980   50.86980   73.79620   74.92850  -70.39770   -6.59050   74.92850
 7150.00000   11.00540   11.00540   15.71280   11.94360   83.72710   54.61520   54.61520   35.34000   35.34000   83.72710   83.55350  -95.71130  -31.84140   83.55350
 7200.00000   10.61080   10.61080   11.20690    4.88620  204.65990   54.84500   54.84500   31.43380   31.43380  204.65990  160.95650  -99.42280  -35.49010  160.95650
 7250.00000   10.72860   10.72860    9.70420    5.86610  170.46970   52.96250   52.96250   31.28900   31.28900  170.46970  119.22410 -145.02850  -81.03310  119.22410
 7300.00000   10.44940   10.44940   10.92390    4.44100  225.17620   52.23950   52.23950   35.05710   35.05710  225.17620  180.11830 -116.33850  -52.28030  180.11830
 7350.00000   10.14630   10.14630   21.84730   19.85390   50.36800   54.67570   54.67570   32.64300   32.64300   50.36800  102.44870 -185.27250 -121.15160  102.44870
 7400.00000    9.63710    9.63710    8.76810    4.85040  206.16780   51.61720   51.61720   27.73020   27.73020  206.16780  154.53120 -118.17280  -53.98920  154.53120
 7450.00000    9.64000    9.64000    9.26940    4.23120  236.34090   50.54620   50.54620   30.71820   30.71820  236.34090  184.72970 -122.17810  -57.93170  184.72970
 7500.00000    9.94110    9.94110   12.62970    8.69280  115.03740   52.41370   52.41370   28.31540   28.31540  115.03740   96.81200 -161.87070  -97.56160   96.81200
 7550.00000    9.66890    9.66890    9.98080    6.36720  157.05430   53.75950   53.75950   27.90020   27.90020  157.05430  128.52600 -171.52710 -107.15520  128.52600
 7600.00000    9.65650    9.65650    8.74060    3.41660  292.69050   53.23700   53.23700   31.54540   31.54540  292.69050  205.12030 -141.95930  -77.52470  205.12030
 7650.00000    9.49560    9.49560   10.44300    4.04460  247.24220   53.90150   53.90150   30.52290   30.52290  247.24220  147.55580 -145.73910  -81.24180  147.55580
 7700.00000    9.52540    9.52540   10.78460    3.61340  276.74840   53.93480   53.93480   35.53380   35.53380  276.74840  236.53280 -139.09880  -74.53870  236.53280
 7750.00000    9.38200    9.38200    8.33400    6.75910  147.94870   55.09500   55.09500   29.81530   29.81530  147.94870  137.89310 -148.66340  -84.04060  137.89310
 7800.00000    9.50360    9.50360   17.96440   14.25140   70.16870   54.39370   54.39370   30.51200   30.51200   70.16870   81.40970 -187.75230 -123.06670   81.40970
 7850.00000    8.61020    8.61020  119.54980  118.51290    8.43790   59.22100   59.22100   29.59510   29.59510    8.43790   55.87800 -230.72600 -165.97770   55.87800
 7900.00000    9.58100    9.58100   27.87560   20.61900   48.49890   51.63730   51.63730   30.28780   30.28780   48.49890   87.32630 -195.52440 -130.71340   87.32630
 7950.00000    9.69590    9.69590   22.15370   18.88160   52.96150   53.37450   53.37450   36.21180   36.21180   52.96150   82.97310 -190.08150 -125.20770   82.97310
 8000.00000    9.70250    9.70250   44.56350   38.52440   25.95760   58.29870   58.29870   50.89280   50.89280   25.95760    -999.25 -187.62080 -122.68430    -999.25
 8050.00000    8.97760    8.97760   40.36790   36.43560   27.44570   56.09080   56.09080   32.54510   32.54510   27.44570   67.34950 -192.23270 -127.23340   67.34950
 8100.00000    9.94280    9.94280   60.02330   58.66580   17.04570   57.35680   57.35680   41.18640   41.18640   17.04570   30.03190 -135.22730  -70.16530   30.03190
 8150.00000    9.94840    9.94840   11.72460    8.66250  115.43950   56.56400   56.56400   49.29200   49.29200  115.43950  100.46800  -70.69880   -5.57410  100.46800
 8200.00000   10.01810   10.01810   21.54760   20.09700   49.75870   57.66700   57.66700   50.78280   50.78280   49.75870   49.28940  -81.60280  -16.63920   49.28940
 8250.00000    9.84920    9.84920    9.98440    8.09140  123.58830   55.29200   55.29200   39.56600   39.56600  123.58830  101.77840 -112.41650  -48.28560  101.77840
 8300.00000   10.20430   10.20430   69.66500   67.06140   14.91170   63.73450   63.73450   55.85710   55.85710   14.91170   21.05110  -87.79310  -24.49480   21.05110
