~Version ---------------------------------------------------
VERS.      2.0 : CWLS log ASCII Standard -VERSION 2.0
WRAP.       NO : One line per depth step
CREA. 12/20/17 : LAS Creation Date
~Well ------------------------------------------------------
STRT.FT                    1500.0 : START DEPTH
STOP.FT                    9800.0 : STOP DEPTH
STEP.FT                  50.00000 : STEP LENGTH
NULL.                     -999.25 : NULL VALUE
COMP.  PHILLIPS PETROLEUM COMPANY : COMPANY
WELL. PHILLIPS KAYBOB 12-15-64-19 : WELL
FLD .                             : FIELD
LOC .                             : LOCATION
CTRY.                      CANADA : COUNTRY
SRVC.                       Welex : SERVICE COMPANY
DATE.                 11-Jan-1958 : LOGDATE
PROV.                     Alberta : PROVINCE
UWI .            100121506419W500 : UNIQUE WELL ID
SLAT.WGS84               54.53978 : SURFACE LATITUDE
SLON.WGS84              -116.7947 : SURFACE LONGITUDE
~Curve Information -----------------------------------------
DEPT  .FT    : Depth Curve
CALIED.IN    : CALIPER FROM CALIPER LOG
CALWS .IN    : CALIPER [CALIED]
CONDWS.MMHO  : CONDUCTIVITY [1000/DRESWS]
DRESWS.OHMM  : DEEP RESISTIVITY [LT09ED]
GRNED .CPS   : GAMMA RAY FROM GRN LOG [ADJ. TO RESISTIVITY LOG]
GRWS  .CPS   : GAMMA RAY [GRNED]
LT09ED.OHMM  : 9 FOOT LATERAL [3iZ9'] RESSITIVITY FROM RESISTIVITY LOG
LT16ED.OHMM  : 16 FOOT LATERAL[3iZ16'] RESSITIVITY FROM RESISTIVITY LOG
NEUTED.CPS   : NEUTRON FROM GRN LOG [ADJ. TO RESISTIVITY LOG]
NEUTWS.CPS   : NEUTRON [NEUTED]
SNED  .OHMM  : 18 INCH  SHORT NORMAL [2Z18"] FROM RESISTIVITY LOG
SPRED .MV    : SPONTANEOUS POTENTIAL FROM RESISTIVITY LOG
SPWS  .MV    : SPONTANEOUS POTENTIAL [BASELINE 0 MV,SPRED]
SRESWS.OHMM  : SHALLOW RESISTIVITY [SNED]
~Params ----------------------------------------------------
PD  .                                        GL : PERMANENT DATUM
EPD .FT                                    2430 : ELEVATION PERMANENT DATUM
LMF .                                        KB : LOG MEASURED FROM
DMF .                                        KB : DRILLING MEASURED FROM
EKB .FT                                    2442 : KELLY BUSHING
EGL .FT                                    2430 : GROUND LEVEL
DATE.                                  01/11/58 : RUN DATE
RUN .                                         1 : RUN NUMBER
DD  .FT                                    9825 : DEPTH DRILLER
DL  .FT                                    9817 : DEPTH LOGGER
BLI .FT                                    9816 : BOTTOM LOG INTERVAL
TLI .FT                                    1514 : TOP LOG INTERVAL
CS  .IN                                  13.375 : CASING SIZE
CBD .FT                                 1513.95 : CASING BOTTOM DRILLER
CBL .FT                                    1514 : CASING BOTTOM LOGGER
BS  .IN                                       9 : BIT SIZE
BSD .FT                                    9825 : BIT SIZE AT DEPTH
DFT . OIL EMULSION CAUSTIC GEL DRISCOSE RAYFLOW : DRILLING FLUID TYPE
DFD .                                      10.9 : DRILLING FLUID DENSITY
DFV .                                        74 : DRILLING FLUID VISCOSITY
DFPH.                                         9 : DRILLING FLUID PH
MSS .                                CIRCULATED : MUD SAMPLE SOURCE
RMS .OHMM                                   3.3 : RESISTIVITY MUD SAMPLE
MST .DEGF                                    54 : MUD SAMPLE TEMPERATURE
RMF .OHMM                                  0.56 : RESISTIVITY MUD FILTRATE SAMPLE
MFST.DEGF                                   182 : MUD FILTRATE SAMPLE TEMPERATURE
RMC .OHMM                                  1.25 : RESISTIVITY MUD CAKE
MCST.DEGF                                   182 : MUD CAKE SAMPLE TEMPERATURE
RMB .OHMM                                  1.05 : RESISTIVITY MUD AT BHT
ENGI.                           EDWARDS CARBERT : RECORDING ENGINEER
WITN.                           TIBBETTS HUNTER : WITNESSED BY
CLNT.                                   A2DTECH : CLIENT CODE
ORIG.                               2" 5" PRINT : ORIGIN OF DATA
UWI .                          100121506419W500 : UNIQUE WELL ID
DICO.                    A2D Technologies, Inc. : DIGITIZING COMPANY
~Other -----------------------------------------------------
EL-GRN-CALIPER LOG RUN
ALL GRN DATA FROM TOP TO 4600' & ALL EL DATA FROM TOP TO 3350' & 3500' TO 4600' FROM 2" SCALE SECTION
~ASCII -----------------------------------------------------
 1500.00000    -999.25    -999.25    -999.25    -999.25   41.38340   41.38340    -999.25    -999.25  206.22760  206.22760    -999.25    -999.25    -999.25    -999.25
 1550.00000    -999.25    -999.25  159.00780    6.28900   76.88070   76.88070    6.28900    7.40550  280.30520  280.30520    4.13630  -76.61660   -2.63010    4.13630
 1600.00000    -999.25    -999.25   46.01400   21.73250   60.74530   60.74530   21.73250   19.87470  259.25080  259.25080    9.95860  -90.54230  -16.40870    9.95860
 1650.00000    -999.25    -999.25  278.12540    3.59550   70.46090   70.46090    3.59550    3.88150  232.36430  232.36430    3.15090  -77.20020   -2.92050    3.15090
 1700.00000    -999.25    -999.25  127.78900    7.82540   75.41890   75.41890    7.82540    5.83950  244.07480  244.07480    3.58230  -76.86700   -2.44030    3.58230
 1750.00000    -999.25    -999.25  108.98830    9.17530   47.79460   47.79460    9.17530    6.69640  288.17960  288.17960   12.11260  -86.61020  -12.03740   12.11260
 1800.00000    -999.25    -999.25  180.13800    5.55130   68.54520   68.54520    5.55130    5.66570  257.90290  257.90290    4.98340  -76.29930   -1.58030    4.98340
 1850.00000    -999.25    -999.25  137.02200    7.29810   63.81790   63.81790    7.29810    5.76080  240.60250  240.60250    3.85520  -76.88120   -2.01520    3.85520
 1900.00000    -999.25    -999.25  204.52410    4.88940   69.75820   69.75820    4.88940    4.30120  248.74790  248.74790    3.65740  -76.88840   -1.87630    3.65740
 1950.00000    -999.25    -999.25   61.90490   16.15380   55.17630   55.17630   16.15380   12.68460  310.99870  310.99870    9.11310  -79.62150   -4.46230    9.11310
 2000.00000    -999.25    -999.25  160.08450    6.24670   62.07020   62.07020    6.24670    5.72050  308.33260  308.33260    6.50210  -77.49730   -2.19200    6.50210
 2050.00000    -999.25    -999.25  169.96110    5.88370   68.36990   68.36990    5.88370    6.00790  294.00680  294.00680    4.89010  -77.19110   -1.73970    4.89010
 2100.00000    -999.25    -999.25   43.30220   23.09350   53.17110   53.17110   23.09350   25.32840  289.65800  289.65800    9.85600  -85.70060  -10.10210    9.85600
 2150.00000    -999.25    -999.25   71.22510   14.04000   65.50210   65.50210   14.04000    7.06470  309.03980  309.03980    9.13430  -79.57280   -3.82820    9.13430
 2200.00000    -999.25    -999.25  174.40750    5.73370   64.14510   64.14510    5.73370    5.39540  256.43310  256.43310    3.85090  -77.60130   -1.70960    3.85090
 2250.00000    -999.25    -999.25  202.60550    4.93570   68.96690   68.96690    4.93570    4.71970  272.17390  272.17390    4.22960  -77.85680   -1.81900    4.22960
 2300.00000    -999.25    -999.25  126.09550    7.93050   53.68910   53.68910    7.93050    8.57960  304.60550  304.60550    7.47330  -84.34370   -8.15980    7.47330
 2350.00000    -999.25    -999.25  133.58800    7.48570   74.50390   74.50390    7.48570    6.77960  245.62040  245.62040    4.54030  -79.16850   -2.83750    4.54030
 2400.00000    -999.25    -999.25  241.77370    4.13610   56.20790   56.20790    4.13610    3.55570  262.17520  262.17520    4.86860  -81.64260   -5.16550    4.86860
 2450.00000    -999.25    -999.25  175.17740    5.70850   63.88210   63.88210    5.70850    4.57350  241.99260  241.99260    3.89970  -79.89700   -3.27290    3.89970
 2500.00000    -999.25    -999.25   69.32310   14.42520   66.31980   66.31980   14.42520   12.67130  269.53540  269.53540    6.36510  -80.87710   -4.10690    6.36510
 2550.00000    -999.25    -999.25   80.54710   12.41510   64.38900   64.38900   12.41510   12.07520  315.25360  315.25360   10.40360  -85.71620   -8.79980   10.40360
 2600.00000    -999.25    -999.25  162.04300    6.17120   67.98210   67.98210    6.17120    5.73450  249.95630  249.95630    4.31420  -81.19630   -4.13290    4.31420
 2650.00000    -999.25    -999.25  145.14420    6.88970   70.81880   70.81880    6.88970    8.08970  244.60610  244.60610    5.02500  -83.13890   -5.92940    5.02500
 2700.00000    -999.25    -999.25  141.40870    7.07170   89.72620   89.72620    7.07170    5.78600  233.49430  233.49430    6.31520  -84.57650   -7.21990    6.31520
 2750.00000    -999.25    -999.25   97.63810   10.24190   89.17390   89.17390   10.24190    9.10700  234.22590  234.22590    7.63830  -85.17880   -7.67610    7.63830
 2800.00000    -999.25    -999.25   99.51930   10.04830   96.96570   96.96570   10.04830    8.75690  227.18850  227.18850    6.30280  -85.08940   -7.44060    6.30280
 2850.00000    -999.25    -999.25  100.55410    9.94490  113.73970  113.73970    9.94490    8.20130  226.76700  226.76700    7.31580  -84.10190   -6.30600    7.31580
 2900.00000    -999.25    -999.25   70.29480   14.22580  109.00280  109.00280   14.22580   10.45190  251.22250  251.22250    9.46760  -85.30070   -7.35870    9.46760
 2950.00000    -999.25    -999.25   93.47450   10.69810  104.54630  104.54630   10.69810    9.08040  241.93940  241.93940    7.51640  -85.12680   -7.03770    7.51640
 3000.00000   11.77220   11.77220  105.22770    9.50320   96.71040   96.71040    9.50320    8.11200  238.17290  238.17290    6.34320  -85.91680   -7.68160    6.34320
 3050.00000   12.70040   12.70040  115.60430    8.65020  107.37630  107.37630    8.65020    8.09090  231.55490  231.55490    6.35650  -87.15120   -8.76990    6.35650
 3100.00000   12.57030   12.57030   85.95870   11.63350   94.00590   94.00590   11.63350   10.97640  237.97430  237.97430    7.12130  -88.14850   -9.62010    7.12130
 3150.00000   11.68670   11.68670   71.59890   13.96670   88.81150   88.81150   13.96670   13.65350  255.69630  255.69630    7.96800  -88.31100   -9.63650    7.96800
 3200.00000   11.94390   11.94390   92.52580   10.80780  104.42620  104.42620   10.80780    9.86460  240.79030  240.79030    7.43100  -87.12160   -8.30010    7.43100
 3250.00000   12.23540   12.23540  115.76890    8.63790  108.67160  108.67160    8.63790    7.37230  228.52120  228.52120    6.35030  -87.86510   -8.89750    6.35030
 3300.00000   12.42770   12.42770   97.71920   10.23340  108.09630  108.09630   10.23340    8.31670  244.27320  244.27320    6.79040  -87.12480   -8.01100    6.79040
 3350.00000   12.47290   12.47290  103.92090    9.62270   95.67810   95.67810    9.62270    9.06570  247.72800  247.72800    7.42020  -86.68280   -7.42200    7.42020
 3400.00000   12.13100   12.13100   76.47660   13.07590   92.97200   92.97200   13.07590   10.19340  247.51810  247.51810    8.93400  -86.72260   -7.31570    8.93400
 3450.00000   12.19900   12.19900   98.87280   10.11400  105.40370  105.40370   10.11400    9.59000  243.44370  243.44370    7.79170  -86.59660   -7.04260    7.79170
 3500.00000   12.31660   12.31660   95.83590   10.43450  102.92730  102.92730   10.43450   10.77070  253.01140  253.01140    7.56190  -86.17730   -6.47720    7.56190
 3550.00000   12.50710   12.50710   90.21610   11.08450  108.87260  108.87260   11.08450    9.54940  242.22390  242.22390    7.54740  -88.87750   -9.03130    7.54740
 3600.00000   12.61050   12.61050  107.74000    9.28160  111.94130  111.94130    9.28160    8.33750  247.76130  247.76130    6.91110  -88.57740   -8.58410    6.91110
 3650.00000   12.94910   12.94910   89.73760   11.14360  107.09420  107.09420   11.14360    9.03280  254.67740  254.67740    7.58820  -87.71900   -7.57960    7.58820
 3700.00000   12.58140   12.58140  112.75100    8.86910  106.18340  106.18340    8.86910    7.48890  242.16010  242.16010    7.09810  -86.88610   -6.59960    7.09810
 3750.00000   11.55310   11.55310   91.25750   10.95800  104.59590  104.59590   10.95800    9.06620  235.92320  235.92320    8.42440  -86.04340   -5.61080    8.42440
 3800.00000   11.18860   11.18860   81.91080   12.20840  106.63690  106.63690   12.20840    9.59290  237.73330  237.73330    9.43200  -86.31000   -5.73130    9.43200
 3850.00000    9.87940    9.87940   62.25990   16.06170  132.03150  132.03150   16.06170   14.72810  238.46190  238.46190   12.29770  -86.11090   -5.38510   12.29770
 3900.00000    9.54110    9.54110   62.51880   15.99520  115.82650  115.82650   15.99520   12.13290  255.34220  255.34220   13.10510  -86.00130   -5.12940   13.10510
