~Version ---------------------------------------------------
VERS.      2.0 : CWLS log ASCII Standard -VERSION 2.0
WRAP.       NO : One line per depth step
CREA. 10/13/14 : LAS Creation Date
~Well ------------------------------------------------------
STRT.ft                              300.0 : START DEPTH
STOP.ft                            15450.0 : STOP DEPTH
STEP.ft                           50.00000 : STEP LENGTH
NULL.                              -999.25 : NULL VALUE
COMP.                        BANFF OIL LTD : COMPANY
WELL. BANFF AQUIT CHIEFCO WAWA 11-20-42-13 : WELL
FLD .                                      : FIELD
LOC .                                      : LOCATION
CTRY.                               CANADA : COUNTRY
SRVC.               Schlumberger of Canada : SERVICE COMPANY
DATE.                          07-Apr-1970 : LOGDATE
PROV.                              Alberta : PROVINCE
UWI .                     100112004213W500 : UNIQUE WELL ID
SLAT.WGS84                        52.63304 : SURFACE LATITUDE
SLON.WGS84                       -115.8375 : SURFACE LONGITUDE
~Curve Information -----------------------------------------
DEPT   .ft                : DEPTH FEET
CALD   .IN   45 280 60 00 : CALIPER FROM DENSITY LOG
CALN   .IN   41 280 60 00 : CALIPER FROM NEUTRON LOG
CALS   .IN   60 280 50 00 : CALIPER FROM SONIC LOG
CORR   .G/C3 45 356 01 00 : DENSITY CORRECTION
DPHI_LS.DEC  45 890 10 00 : DENSITY POROSITY LIMESTONE
DT     .US/F 60 500 00 00 : DELTA-T (INTERVAL TRANSIT TIME)
GRD    .GAPI 45 310 01 00 : GAMMA RAY FROM DENSITY LOG
GRD_R  .GAPI 45 310 01 00 : GAMMA RAY FROM DENSITY LOG FROM REPEAT
GRN    .GAPI 41 310 01 00 : GAMMA RAY FROM GRN LOG
GRS    .GAPI 60 310 01 00 : GAMMA RAY FROM SONIC LOG
ILD    .OHMM 07 120 46 00 : INDUCTION DEEP RESISTIVITY
ILM    .OHMM 07 120 44 00 : INDUCTION MEDIUM RESISTIVITY
ILM_R  .OHMM 07 120 44 00 : INDUCTION MEDIUM RESISTIVITY FROM REPEAT
LL8    .OHMM 07 220 08 00 : LATEROLOG 8
RHOB   .G/C3 45 350 01 00 : BULK DENSITY
SNP_LS .DEC  41 890 01 00 : SIDEWALL NEUTRON POROSITY [LIMESTONE]
SPR    .MV   07 010 01 00 : SPONTANEOUS POTENTIAL FROM RESISTIVITY LOG
SPR_R  .MV   07 010 01 00 : SPONTANEOUS POTENTIAL FROM RESISTIVITY LOG FROM REPEAT
~Params ----------------------------------------------------
PD  .                     GL : PERMANENT DATUM
EPD .FT                 4345 : ELEVATION PERMANENT DATUM
LMF .                     KB : LOG MEASURED FROM
DAPD.FT                   14 : FEET ABOVE PERMANENT DATUM
EKB .FT                 4359 : KELLY BUSHING
EGL .FT                 4345 : GROUND LEVEL
DATE.               06/04/70 : RUN DATE
RUN .                      3 : RUN NUMBER
DD  .FT                15476 : DEPTH DRILLER
DL  .FT                15473 : DEPTH LOGGER
BLI .FT                15471 : BOTTOM LOG INTERVAL
TLI .FT                14327 : TOP LOG INTERVAL
CBD .FT                12360 : CASING BOTTOM DRILLER
CBL .FT                12355 : CASING BOTTOM LOGGER
BS  .IN                    6 : BIT SIZE
BSD .FT                15476 : BIT SIZE AT DEPTH
DFT .               GEL CHEM : DRILLING FLUID TYPE
DFD .                    8.9 : DRILLING FLUID DENSITY
DFV .                     47 : DRILLING FLUID VISCOSITY
DFPH.                     11 : DRILLING FLUID PH
DFL .                   12.4 : DRILLING FLUID LOSS
MSS .               FLOWLINE : MUD SAMPLE SOURCE
RMS .OHMM               2.62 : RESISTIVITY MUD SAMPLE
TCS .HRS                   4 : TIME CIRCULATED STOPPED
LUN .                  CSU C : LOGGING UNIT NUMBER
LUL .                 364 RD : LOGGING UNIT LOCATION
ENGI.                 MEGSON : RECORDING ENGINEER
WITN.                BRINKER : WITNESSED BY
CLNT.                A2DTECH : CLIENT CODE
ORIG.        2" 5" 10" PRINT : ORIGIN OF DATA
UWI .       100112004213W500 : UNIQUE WELL ID
DICO. A2D Technologies, Inc. : DIGITIZING COMPANY
~Other -----------------------------------------------------
~ASCII -----------------------------------------------------
# ...
 11950.00000    8.52790    8.76020    8.53520    0.04800    0.00520   51.62210   31.79430    -999.25   14.46120   11.66080  197.76300  243.95070    -999.25  491.43070    2.69920    0.06600 -310.18520    -999.25
 12000.00000    7.66240    8.14410    7.83330    0.08950    0.13260   58.08890   12.35820    -999.25   14.88200   12.87950  105.11800  150.79790    -999.25  137.02670    2.46470    0.18610 -365.74090    -999.25
 12050.00000    8.89280    8.82430    8.01120    0.13650    0.06060   51.17870   24.97390    -999.25   18.65540   17.69660  204.93930 1345.14220    -999.25  182.02870    2.61460    0.11330 -328.58020    -999.25
 12100.00000    8.71720    9.06170    8.61300    0.03000   -0.02270   48.46100   41.38130    -999.25   47.42540   39.87210 1630.52950 1499.53050    -999.25  721.86250    2.75120    0.02770 -300.38050    -999.25
 12150.00000    9.06790    9.29110    8.83040    0.05340   -0.00580   55.98950   63.82460    -999.25   65.67470   60.95430   28.87960   27.40070    -999.25   42.06940    2.70960    0.06430 -296.87810    -999.25
 12200.00000    8.70580    8.97590    8.62280    0.04480   -0.15010   50.27650    6.76490    -999.25    7.68360    7.39610 1282.02310 1500.80370    -999.25 1411.97960    2.95430    0.00000 -268.50390    -999.25
 12250.00000    8.70550    8.99220    8.61230    0.02030   -0.12550   50.19910   11.35790    -999.25   13.63930   11.62620  122.10160  170.79970    -999.25 1579.93380    2.91740   -0.00090 -272.35510    -999.25
 12300.00000    8.71560    9.38240    9.01070    0.00740    0.01620   48.96380    6.26220    -999.25   10.58820    9.76520 1631.60770 1406.26290    -999.25 1565.02640    2.68210    0.01470 -285.14820    -999.25
 12350.00000    8.60460    8.60720    8.55620    0.03760    0.04190   53.00890    -999.25    -999.25   13.10950    8.46150   10.62380   15.77840    -999.25   65.35790    2.63250    0.02290 -300.04560    -999.25
 12400.00000    6.71810    6.69650    6.29780    0.21270    0.03990   52.00750    -999.25    -999.25   10.11480    7.39020  258.76910  409.82320    -999.25 1587.24780    2.60560    0.04610    -999.25    -999.25
 12450.00000    5.69700    7.48140    6.14520    0.23450    0.02470   52.01950    -999.25    -999.25   67.52290   47.24420   43.71920   46.78140    -999.25   71.11020    2.65140    0.06670    -999.25    -999.25
 12500.00000    7.02270    6.74030    6.20920    0.25000    0.13240   58.71860    -999.25    -999.25   58.85730   55.99920   31.76950   39.43780    -999.25   56.21060    2.38540    0.06700    -999.25    -999.25
 12550.00000    7.42860    7.03690    6.20280    0.25880    0.12280   48.53130    -999.25    -999.25   40.58470   31.18340  935.83600 1448.73220    -999.25 1679.50150    2.44400    0.03830    -999.25    -999.25
 12600.00000    7.31600    7.00200    6.33170    0.25000    0.11870   56.83920    -999.25    -999.25   79.03000   75.99020  253.37500  314.94740    -999.25  384.09430    2.43040    0.04900    -999.25    -999.25
 12650.00000    6.73630    6.57640    6.20120    0.25000    0.07130   53.89610    -999.25    -999.25   64.00080   54.48340 1636.35740 1541.50990    -999.25  259.64810    2.51860    0.03570    -999.25    -999.25
 12700.00000    6.99010    6.64880    6.16370    0.20180    0.05200   50.13910    -999.25    -999.25   13.75180    5.91050 1623.97340 1494.03660    -999.25 1061.54760    2.61260    0.00500    -999.25    -999.25
 12750.00000   10.41850    9.91370    6.85210    0.21560    0.16400   42.74820    -999.25    -999.25   17.42530   11.12950   32.17700   17.77850    -999.25   36.03080    2.28880    0.15850    -999.25    -999.25
 12800.00000    6.47520    6.40320    6.16450    0.25000    0.08060   79.54940    -999.25    -999.25   20.68580   18.25870   62.99400   60.64680    -999.25  105.48790    2.52680    0.03760    -999.25    -999.25
 12850.00000    6.51500    5.82860    6.08740    0.22140    0.14670   55.82930    -999.25    -999.25   28.18650   24.82420   57.06550   50.81730    -999.25   74.10830    2.33030    0.07780    -999.25    -999.25
 12900.00000    6.19060    6.66210    6.29250    0.04370    0.02990   63.59480    -999.25    -999.25   87.10740   84.10540   57.84090   47.92470    -999.25   70.26480    2.63000    0.08730    -999.25    -999.25
 12950.00000    5.84130    5.69790    6.03630    0.00860    0.01310   55.49860    -999.25    -999.25   82.09010   84.04980   81.75960   77.66390    -999.25   68.77730    2.67570    0.03140    -999.25    -999.25
 13000.00000    7.92800    8.19210    6.30790    0.17830    0.06930   50.15200    -999.25    -999.25    7.05490    4.36230 1632.57170  215.45800    -999.25  757.05220    2.53390    0.04120    -999.25    -999.25
 13050.00000    8.35590    8.14880    6.17750    0.19790    0.02790   46.48230    -999.25    -999.25    8.40480    4.46590 1594.61390  517.83530    -999.25 1727.14490    2.64540    0.02950    -999.25    -999.25
 13100.00000   10.77330   12.03850    6.48520    0.23850    0.15090   46.28220    -999.25    -999.25   13.44230   12.33410  208.65210  346.27300    -999.25 1079.45390    2.32960    0.14870    -999.25    -999.25
 13150.00000    6.35300    7.23830    6.12370    0.20190   -0.06740   51.24610    -999.25    -999.25   18.86580   12.48760  592.35600  679.85420    -999.25  128.38820    2.89760    0.18200    -999.25    -999.25
 13200.00000    6.50520    7.67760    6.15620    0.24780   -0.01120   50.50530    -999.25    -999.25   12.39520   10.19100 1598.82140 1711.89870    -999.25  500.12390    2.74490    0.03810    -999.25    -999.25
 13250.00000   13.15320   13.45400    8.96720    0.18230    0.30000   59.38720    -999.25    -999.25   11.86540   12.53070  143.83870   57.45580    -999.25  249.58570    1.91500    0.30420    -999.25    -999.25
 13300.00000   10.77480   11.08470    6.42420    0.24230    0.01690   55.65080    -999.25    -999.25   10.03340    6.62630 1649.03490  213.45100    -999.25  246.81400    2.67600    0.10200    -999.25    -999.25
 13350.00000    6.45710    6.52160    6.11780    0.11670   -0.04660   47.48940    -999.25    -999.25   13.06780   13.85520   79.51340  145.34460    -999.25  400.90870    2.82470    0.04910    -999.25    -999.25
 13400.00000    6.45560    5.80820    6.08160    0.11910   -0.03630   49.39910    -999.25    -999.25    6.91560    2.93510   59.35030  177.76360    -999.25  316.75910    2.80880    0.03560    -999.25    -999.25
 13450.00000    6.03540    6.27570    6.20180    0.23160   -0.02020   47.21160    -999.25    -999.25    8.72020    7.51160   24.27040   45.13660    -999.25  182.45530    2.71460    0.08630    -999.25    -999.25
 13500.00000   10.31550    9.16690    7.73900    0.26260    0.21360   52.34110    -999.25    -999.25   11.68290    9.69980 1661.12930   90.84630    -999.25  291.13050    2.18280    0.09330    -999.25    -999.25
 13550.00000    9.17510    8.55110    6.41390    0.25000    0.17690   49.88780    -999.25    -999.25   12.39910   10.70350 1629.96570 1624.18920    -999.25  646.86400    2.26520    0.08640    -999.25    -999.25
 13600.00000    6.64800    6.76290    6.17740    0.26070   -0.07340   50.31590    -999.25    -999.25   10.04670    7.68070 1688.84620 1603.91590    -999.25 1730.16550    2.87460    0.02120    -999.25    -999.25
 13650.00000    7.01000    6.37370    6.15040    0.06170   -0.01890   48.36790    -999.25    -999.25   23.57850   21.89060 1637.98860 1635.67570    -999.25 1706.13810    2.74090    0.02980  -49.05140    -999.25
 13700.00000    6.11800    5.70050    6.02910    0.04750   -0.09660   50.16940    -999.25    -999.25   10.47960    6.08780 1797.54760 1730.69180    -999.25 1952.79990    2.96400    0.01180 -302.65820    -999.25
 13750.00000    7.64220    7.52900    6.21070    0.21940    0.05810   50.72520    -999.25    -999.25   13.76870   11.19300 1574.70810  508.65750    -999.25 1834.76860    2.47420    0.08150  -47.56480    -999.25
 13800.00000    8.57910    9.62690    6.33200    0.25000    0.22200   42.35780    -999.25    -999.25   24.41560   21.36020 1593.87880   89.67670    -999.25 2000.34450    2.12690    0.06490    -999.25    -999.25
