~Version ---------------------------------------------------
VERS.      2.0 : CWLS log ASCII Standard -VERSION 2.0
WRAP.       NO : One line per depth step
CREA. 08/31/17 : LAS Creation Date
~Well ------------------------------------------------------
STRT.FT                            1500.0 : START DEPTH
STOP.FT                           12250.0 : STOP DEPTH
STEP.FT                          50.00000 : STEP LENGTH
NULL.                             -999.25 : NULL VALUE
COMP.            CHEVRON STANDARD LIMITED : COMPANY
WELL. CHEVRON NORCEN PL BRAZEAU 7-4-49-12 : WELL
FLD .                                     : FIELD
LOC .                                     : LOCATION
CTRY.                              CANADA : COUNTRY
SRVC.                        Schlumberger : SERVICE COMPANY
DATE.                         05-Jun-1978 : LOGDATE
PROV.                             Alberta : PROVINCE
UWI .                    100070404912W500 : UNIQUE WELL ID
SLAT.WGS84                       53.19691 : SURFACE LATITUDE
SLON.WGS84                      -115.6898 : SURFACE LONGITUDE
~Curve Information -----------------------------------------
DEPT    .FT    : Depth Curve
CALDED  .IN    : CALIPER FROM CNFD LOG
CALSED  .IN    : CALIPER FROM SONIC LOG [ADJ.TO GRDED]
CALWS   .IN    : CALIPER [CALSED]
CONDWS  .MMHO  : CONDUCTIVITY [1000/DRESWS]
DCORED  .G/C3  : DENSITY CORRECTION FROM CNFD LOG
DCORWS  .G/C3  : DENSITY CORRECTION [DCORED]
DENWS   .G/C3  : FORMATION BULK DENSITY [CALCULATED FROM DPOLSWS, M=2.71, F=1.00]
DPHILSED.V/V   : DENSITY POROSITY LIMESTONE [M=2.71, F=1.0] FROM CNFD LOG [ADJ.TO RHOBED]
DPHISSED.V/V   : DENSITY POROSITY SANDSTONE [M=2.65, F=1.0] FROM CNFD LOG [ADJ.TO RHOBED]
DPOLSWS .V/V   : DENSITY POROSITY LIMESTONE [DPHISSED CONVERTED TO LIMESTONE MATRIX,M=2.71, F=1.0, SPL.TO DPHILSED @ 2605.3']
DRESWS  .OHMM  : DEEP RESISTIVITY [ILDED]
DTED    .US/F  : DELTA-T FROM BCS LOG [ADJ.TO GRDED]
DTWS    .US/F  : COMPRESSIONAL SONIC [DTED]
GRDED   .GAPI  : GAMMA RAY FROM CNFD LOG
GRSED   .GAPI  : GAMMA RAY FROM BCS LOG [ADJ.TO GRDED]
GRWS    .GAPI  : GAMMA RAY [GRSED]
ILDED   .OHMM  : DEEP INDUCTION FROM DIL-LAT LOG
ILMED   .OHMM  : MEDIUM INDUCTION FROM DIL-LAT LOG
LL8ED   .OHMM  : LATEROLOG-8 FROM DIL-LAT LOG
MRESWS  .OHMM  : MEDIUM RESISTIVITY [ILMED]
NPHILSED.V/V   : NEUTRON POROSITY LIMESTONE FROM CNFD LOG [ADJ.TO RHOBED]
NPHISSED.V/V   : NEUTRON POROSITY SANDSTONE FROM CNFD LOG [ADJ.TO RHOBED]
NPOLSWS .V/V   : NEUTRON POROSITY LIMESTONE [NPHISSED CONVERTED TO LIMESTONE MATRIX & SPL. TO NPHILSED @ 2605']
RHOBED  .G/C3  : FORMATION BULK DENSITY FROM CNFD LOG
SPRED   .MV    : SPONTANEOUS POTENTIAL FROM DIL-LAT LOG
SPWS    .MV    : SPONTANEOUS POTENTIAL [BASELINE 0 MV,SPRED]
SRESWS  .OHMM  : SHALLOW RESISTIVITY [LL8ED]
~Params ----------------------------------------------------
PD  .                     GL : PERMANENT DATUM
EPD .FT               3221.1 : ELEVATION PERMANENT DATUM
LMF .                     KB : LOG MEASURED FROM
DAPD.FT                 18.9 : FEET ABOVE PERMANENT DATUM
DMF .                     KB : DRILLING MEASURED FROM
EKB .FT                 3240 : KELLY BUSHING
EGL .FT               3221.1 : GROUND LEVEL
DATE.               06/05/78 : RUN DATE
RUN .                      1 : RUN NUMBER
DD  .FT                12300 : DEPTH DRILLER
DL  .FT                12303 : DEPTH LOGGER
BLI .FT                12297 : BOTTOM LOG INTERVAL
TLI .FT                 1518 : TOP LOG INTERVAL
CBD .FT                 1518 : CASING BOTTOM DRILLER
CBL .FT                 1518 : CASING BOTTOM LOGGER
BS  .IN                 8.75 : BIT SIZE
BSD .FT                12300 : BIT SIZE AT DEPTH
DFT .                    GEL : DRILLING FLUID TYPE
DFD .                     11 : DRILLING FLUID DENSITY
DFV .                     68 : DRILLING FLUID VISCOSITY
DFPH.                   10.5 : DRILLING FLUID PH
MSS .               FLOWLINE : MUD SAMPLE SOURCE
RMS .OHMM               3.34 : RESISTIVITY MUD SAMPLE
MST .DEGF                 68 : MUD SAMPLE TEMPERATURE
TCS .HRS                 350 : TIME CIRCULATED STOPPED
LUN .                   7802 : LOGGING UNIT NUMBER
LUL .                    EDM : LOGGING UNIT LOCATION
ENGI.            STEENBERGEN : RECORDING ENGINEER
WITN.             RICHARDSON : WITNESSED BY
CLNT.                A2DTECH : CLIENT CODE
ORIG.            2" 5" PRINT : ORIGIN OF DATA
UWI .       100070404912W500 : UNIQUE WELL ID
DICO. A2D Technologies, Inc. : DIGITIZING COMPANY
~Other -----------------------------------------------------
~ASCII -----------------------------------------------------
# ...
 5400.00000    -999.25    9.81650    9.81650   97.06100    -999.25    -999.25    -999.25    -999.25    -999.25    -999.25   10.30280   75.61010   75.61010    -999.25  109.25000  109.25000   10.30280   10.96980   12.01070   10.96980    -999.25    -999.25    -999.25    -999.25  -18.37420   -8.02980   12.01070
 5450.00000    -999.25   10.26470   10.26470   98.00610    -999.25    -999.25    -999.25    -999.25    -999.25    -999.25   10.20350   74.47330   74.47330    -999.25  114.02830  114.02830   10.20350   10.85990   11.96180   10.85990    -999.25    -999.25    -999.25    -999.25  -17.95290   -7.60850   11.96180
 5500.00000    -999.25   10.35910   10.35910  105.25210    -999.25    -999.25    -999.25    -999.25    -999.25    -999.25    9.50100   78.15220   78.15220    -999.25  113.88690  113.88690    9.50100   10.12290   11.05860   10.12290    -999.25    -999.25    -999.25    -999.25  -17.19080   -6.84640   11.05860
 5550.00000    -999.25   10.43960   10.43960  102.36040    -999.25    -999.25    -999.25    -999.25    -999.25    -999.25    9.76940   81.82380   81.82380    -999.25  127.10130  127.10130    9.76940   10.39940   11.37510   10.39940    -999.25    -999.25    -999.25    -999.25  -16.29600   -5.95160   11.37510
 5600.00000    -999.25   10.21690   10.21690   85.65820    -999.25    -999.25    -999.25    -999.25    -999.25    -999.25   11.67430   79.78590   79.78590    -999.25  125.26410  125.26410   11.67430   12.48480   15.27130   12.48480    -999.25    -999.25    -999.25    -999.25  -17.00300   -6.65860   15.27130
 5650.00000    -999.25   10.03930   10.03930   93.99820    -999.25    -999.25    -999.25    -999.25    -999.25    -999.25   10.63850   83.37360   83.37360    -999.25  135.07540  135.07540   10.63850   11.32390   14.31880   11.32390    -999.25    -999.25    -999.25    -999.25  -16.78080   -6.43640   14.31880
 5700.00000    -999.25    9.93320    9.93320   99.96300    -999.25    -999.25    -999.25    -999.25    -999.25    -999.25   10.00370   79.28130   79.28130    -999.25  110.22900  110.22900   10.00370   10.64710   12.84110   10.64710    -999.25    -999.25    -999.25    -999.25  -16.43520   -6.09080   12.84110
 5750.00000    -999.25    9.64670    9.64670  118.41750    -999.25    -999.25    -999.25    -999.25    -999.25    -999.25    8.44470   75.67990   75.67990    -999.25  104.99270  104.99270    8.44470    9.00540   10.67460    9.00540    -999.25    -999.25    -999.25    -999.25  -17.94380   -7.59940   10.67460
 5800.00000    -999.25    9.72820    9.72820  158.94970    -999.25    -999.25    -999.25    -999.25    -999.25    -999.25    6.29130   79.89370   79.89370    -999.25  127.34270  127.34270    6.29130    6.69590    7.48880    6.69590    -999.25    -999.25    -999.25    -999.25  -17.34750   -7.00310    7.48880
 5850.00000    -999.25    9.42070    9.42070  141.87620    -999.25    -999.25    -999.25    -999.25    -999.25    -999.25    7.04840   79.82230   79.82230    -999.25  119.92240  119.92240    7.04840    7.50270    8.02800    7.50270    -999.25    -999.25    -999.25    -999.25  -16.54470   -6.20030    8.02800
 5900.00000    -999.25    9.64500    9.64500  112.63930    -999.25    -999.25    -999.25    -999.25    -999.25    -999.25    8.87790   75.98930   75.98930    -999.25   98.92530   98.92530    8.87790    9.45160   10.05940    9.45160    -999.25    -999.25    -999.25    -999.25  -17.83800   -7.49360   10.05940
 5950.00000    -999.25    9.26060    9.26060  127.64090    -999.25    -999.25    -999.25    -999.25    -999.25    -999.25    7.83480   78.52700   78.52700    -999.25   99.88210   99.88210    7.83480    8.36180    9.04380    8.36180    -999.25    -999.25    -999.25    -999.25  -16.96570   -6.62130    9.04380
 6000.00000    -999.25    9.06740    9.06740  101.70970    -999.25    -999.25    -999.25    -999.25    -999.25    -999.25    9.83190   69.09560   69.09560    -999.25   96.15440   96.15440    9.83190   10.48870   15.42520   10.48870    -999.25    -999.25    -999.25    -999.25  -17.10160   -6.75720   15.42520
 6050.00000    -999.25    9.37630    9.37630  118.25920    -999.25    -999.25    -999.25    -999.25    -999.25    -999.25    8.45600   77.31270   77.31270    -999.25  119.29890  119.29890    8.45600    9.00250    9.64720    9.00250    -999.25    -999.25    -999.25    -999.25  -17.67540   -7.33100    9.64720
 6100.00000    -999.25    9.91140    9.91140  145.47360    -999.25    -999.25    -999.25    -999.25    -999.25    -999.25    6.87410   81.00470   81.00470    -999.25  132.00520  132.00520    6.87410    7.31760    8.47720    7.31760    -999.25    -999.25    -999.25    -999.25  -16.56710   -6.22270    8.47720
 6150.00000   10.67680    9.58560    9.58560  146.88170    0.12680    0.12680    2.60100    -999.25    0.02970    0.06370    6.80820   80.36660   80.36660  101.51480  124.07400  124.07400    6.80820    7.25080    8.15690    7.25080    -999.25    0.33480    0.29100    2.60260  -17.65860   -7.31420    8.15690
 6200.00000    9.92710    9.20920    9.20920  156.92910    0.14720    0.14720    2.37410    -999.25    0.16720    0.19640    6.37230   82.20570   82.20570  105.81250  112.59570  112.59570    6.37230    6.78530    7.34260    6.78530    -999.25    0.33490    0.29110    2.38270  -18.83100   -8.48660    7.34260
 6250.00000   10.24090    9.02050    9.02050  126.98900    0.17870    0.17870    2.25150    -999.25    0.24150    0.26810    7.87470   82.61810   82.61810  100.07720  113.98730  113.98730    7.87470    8.43840    8.94560    8.43840    -999.25    0.33790    0.29410    2.26750  -18.54960   -8.20520    8.94560
 6300.00000    9.93880    8.96670    8.96670   48.45340    0.21230    0.21230    2.41160    -999.25    0.14450    0.17450   20.63840   73.92240   73.92240   76.04220   80.47860   80.47860   20.63840   21.56660   27.36770   21.56660    -999.25    0.19040    0.14710    2.42710  -24.83940  -14.49500   27.36770
 6350.00000   11.46080    9.30020    9.30020   74.51510    0.21140    0.21140    2.47720    -999.25    0.10470    0.13610   13.42010   72.48220   72.48220   91.65310  103.34700  103.34700   13.42010   14.41580   15.57700   14.41580    -999.25    0.22510    0.18140    2.48960  -20.42370  -10.07930   15.57700
 6400.00000   11.97830    9.50190    9.50190  109.13580    0.13020    0.13020    2.25190    -999.25    0.24130    0.26790    9.16290   77.34130   77.34130  107.67650  127.76110  127.76110    9.16290    9.76640   10.88170    9.76640    -999.25    0.23220    0.18840    2.33140  -20.77320  -10.42880   10.88170
 6450.00000   13.34860    9.72880    9.72880  104.32990    0.05980    0.05980    2.10850    -999.25    0.32820    0.35180    9.58660   74.34650   74.34650   87.78950   98.16360   98.16360    9.58660   10.29290   11.11940   10.29290    -999.25    0.28680    0.24280    2.13190  -19.78090   -9.43650   11.11940
 6500.00000   13.21980    9.55460    9.55460  110.32410    0.09720    0.09720    2.16140    -999.25    0.29610    0.32080    9.06420   76.03360   76.03360  100.90080  121.95330  121.95330    9.06420    9.64930   10.43340    9.64930    -999.25    0.26930    0.22530    2.20160  -20.42160  -10.07720   10.43340
 6550.00000   13.77120   10.09890   10.09890  123.23310    0.02550    0.02550    1.98060    -999.25    0.40570    0.42660    8.11470   79.00130   79.00130   90.23050  120.05180  120.05180    8.11470    8.66040    9.08110    8.66040    -999.25    0.35310    0.30950    1.99700  -19.34370   -8.99930    9.08110
 6600.00000   13.30290    9.72650    9.72650  113.34140    0.05750    0.05750    1.99740    -999.25    0.39550    0.41670    8.82290   83.34560   83.34560   97.50460  123.91890  123.91890    8.82290    9.39040    9.89520    9.39040    -999.25    0.34190    0.29820    1.99400  -18.05340   -7.70900    9.89520
 6650.00000   13.03600   10.27970   10.27970  125.17370   -0.03930   -0.03930    1.93320    -999.25    0.43440    0.45420    7.98890   93.40830   93.40830   99.44880  114.86470  114.86470    7.98890    7.35100    9.77530    7.35100    -999.25    0.43170    0.38950    1.93750  -16.90790   -6.56350    9.77530
