~Version ---------------------------------------------------
VERS.      2.0 : CWLS log ASCII Standard -VERSION 2.0
WRAP.       NO : One line per depth step
CREA. 08/31/17 : LAS Creation Date
~Well ------------------------------------------------------
STRT.FT                          1500.0 : START DEPTH
STOP.FT                         11900.0 : STOP DEPTH
STEP.FT                        50.00000 : STEP LENGTH
NULL.                           -999.25 : NULL VALUE
COMP.  AMOCO CANADA PETROLEUM CO., LTD. : COMPANY
WELL. AMOCO HB FINA FIR S-I  7-26-59-20 : WELL
FLD .                                   : FIELD
LOC .                                   : LOCATION
CTRY.                            CANADA : COUNTRY
SRVC.            Schlumberger of Canada : SERVICE COMPANY
DATE.                       07-Jan-1978 : LOGDATE
PROV.                           Alberta : PROVINCE
UWI .                  100072605920W500 : UNIQUE WELL ID
SLAT.WGS84                     54.12779 : SURFACE LATITUDE
SLON.WGS84                    -116.8825 : SURFACE LONGITUDE
~Curve Information -----------------------------------------
DEPT    .FT    : Depth Curve
CALDED  .IN    : CALIPER FROM CNFD LOG
CALSED  .IN    : CALIPER FROM BCS LOG [ADJ. TO GRDED]
CALWS   .IN    : CALIPER [CALSED]
CONDWS  .MMHO  : CONDUCTIVITY [1000/DRESWS]
DCORED  .G/C3  : DENSITY CORRECTION FROM CNFD LOG
DCORWS  .G/C3  : DENSITY CORRECTION [DCORED]
DENWS   .G/C3  : FORMATION BULK DENSITY [RHOBED]
DPHILSED.V/V   : DENSITY POROSITY LIMESTONE [M=2.71, F=1.0] FROM CNFD LOG [ADJ. TO RHOBED]
DPHISSED.V/V   : DENSITY POROSITY SANDSTONE [M=2.65, F=1.0] FROM CNFD LOG [ADJ. TO RHOBED]
DPOLSWS .V/V   : DENSITY POROSITY LIMESTONE [CALCULATED FROM DENWS, M=2.71, F=1.0]
DRESWS  .OHMM  : DEEP RESISTIVITY [ILDED]
DTED    .US/F  : ACOUSTIC TRANSIT TIME SLOWNESS, DELTA T FROM BCS LOG [ADJ. TO GRDED]
DTWS    .US/F  : COMPRESSIONAL SONIC [DTED]
GRDED   .GAPI  : GAMMA RAY FROM CNFD LOG
GRSED   .GAPI  : GAMMA RAY FROM BCS LOG [ADJ. TO GRDED]
GRWS    .GAPI  : GAMMA RAY [GRSED]
ILDED   .OHMM  : DEEP INDUCTION FROM DILL LOG
ILMED   .OHMM  : MEDIUM INDUCTION FROM DILL LOG
LL8ED   .OHMM  : LATEROLOG RESISTIVITY FROM DILL LOG
MRESWS  .OHMM  : MEDIUM RESISTIVITY [ILMED]
NPHILSED.V/V   : NEUTRON POROSITY LIMESTONE FROM CNFD LOG [ADJ. TO RHOBED]
NPHISSED.V/V   : NEUTRON POROSITY SANDSTONE FROM CNFD LOG [ADJ. TO RHOBED]
NPOLSWS .V/V   : NEUTRON POROSITY LIMESTONE [NPHISSED CONVERTED TO LIMESTONE MATRIX, SPL. TO NPHILSED @ 2468.27M]
RHOBED  .G/C3  : HRDD HIGH RESOLUTION FORMATION DENSITY FROM CNFD LOG
SPRED   .MV    : SPONTANEOUS POTENTIAL FROM DILL LOG
SRESWS  .OHMM  : SHALLOW RESISTIVITY [LL8ED]
~Params ----------------------------------------------------
PD  .                     GL : PERMANENT DATUM
EPD .FT              3289.04 : ELEVATION PERMANENT DATUM
LMF .                     KB : LOG MEASURED FROM
DAPD.FT                 21.2 : FEET ABOVE PERMANENT DATUM
EKB .FT              3310.24 : KELLY BUSHING
EGL .FT              3289.04 : GROUND LEVEL
DATE.               01/07/78 : RUN DATE
RUN .                      1 : RUN NUMBER
DD  .FT                11910 : DEPTH DRILLER
DL  .FT                11919 : DEPTH LOGGER
BLI .FT                11913 : BOTTOM LOG INTERVAL
TLI .FT                 1534 : TOP LOG INTERVAL
CBD .FT                 1534 : CASING BOTTOM DRILLER
CBL .FT                 1534 : CASING BOTTOM LOGGER
BS  .IN                 8.75 : BIT SIZE
BSD .FT                11910 : BIT SIZE AT DEPTH
DFT .                    GEL : DRILLING FLUID TYPE
DFD .                    9.5 : DRILLING FLUID DENSITY
DFV .                    105 : DRILLING FLUID VISCOSITY
DFPH.                    9.5 : DRILLING FLUID PH
DFL .                    9.0 : DRILLING FLUID LOSS
MSS .               FLOWLINE : MUD SAMPLE SOURCE
RMS .OHMM               1.78 : RESISTIVITY MUD SAMPLE
MST .DEGF                 85 : MUD SAMPLE TEMPERATURE
RMF .OHMM               1.74 : RESISTIVITY MUD FILTRATE SAMPLE
MFST.DEGF                 54 : MUD FILTRATE SAMPLE TEMPERATURE
TCS .HRS                   5 : TIME CIRCULATED STOPPED
LUN .                   7730 : LOGGING UNIT NUMBER
LUL .                    EDM : LOGGING UNIT LOCATION
ENGI.   ACKERMAN STEENBERGEN : RECORDING ENGINEER
CLNT.                A2DTECH : CLIENT CODE
ORIG.            2" 5" PRINT : ORIGIN OF DATA
UWI .       100072605920W500 : UNIQUE WELL ID
DICO. A2D Technologies, Inc. : DIGITIZING COMPANY
~Other -----------------------------------------------------
~ASCII -----------------------------------------------------
# ...
 6900.00000   10.81720   11.01040   11.01040   68.39740    0.02960    0.02960    2.58970    -999.25    0.03990    0.07040   14.62050   71.81070   71.81070   68.34040   83.66250   83.66250   15.95650   15.95650   24.06170   15.95650    -999.25    0.19120    0.14790    2.58970 -108.18780   24.06170
 6950.00000   13.54070   11.48380   11.48380  170.92560    0.08950    0.08950    2.37780    -999.25    0.32430    0.19430    5.85050  106.63320  106.63320   79.32980  108.79250  108.79250    6.14370    6.14370    7.23450    6.14370    -999.25    0.48480    0.44310    2.37780 -110.70190    7.23450
 7000.00000   12.03890   11.65200   11.65200   71.20220    0.20450    0.20450    2.30660    -999.25    0.18280    0.23590   14.04450   78.48490   78.48490   65.44510   85.67280   85.67280   14.30120   14.30120   16.01450   14.30120    -999.25    0.32020    0.27630    2.30660 -117.49410   16.01450
 7050.00000   10.90560   10.82980   10.82980  108.44960    0.10030    0.10030    2.62880    -999.25    0.02100    0.04750    9.22090   68.54210   68.54210   59.89320   80.74800   80.74800    9.97810    9.97810   11.50380    9.97810    -999.25    0.18220    0.13910    2.62880 -113.25560   11.50380
 7100.00000   13.39880   11.83020   11.83020   41.11250    0.04870    0.04870    1.48580    -999.25    0.59990    0.71590   24.32350  122.64050  122.64050   45.89730   53.60680   53.60680   30.39540   30.39540   86.60010   30.39540    -999.25    0.64310    0.60140    1.48580 -108.88090   86.60010
 7150.00000   12.79320   11.07700   11.07700   54.73160    0.17610    0.17610    2.30060    -999.25    0.25980    0.23940   18.33490  104.34040  104.34040   80.01580  104.17420  104.17420   18.63850   18.63850   31.14250   18.63850    -999.25    0.43710    0.39480    2.30060 -107.40850   31.14250
 7200.00000   11.63950   10.80280   10.80280   73.64480    0.22090    0.22090    2.49510    -999.25    0.10630    0.12570   13.57870   86.30880   86.30880   74.49080   98.93300   98.93300   19.28450   19.28450   36.24220   19.28450    -999.25    0.24310    0.19920    2.49510 -117.93280   36.24220
 7250.00000   10.56310   10.83760   10.83760   71.14910    0.06600    0.06600    2.58630    -999.25    0.04550    0.07230   14.05500   66.38460   66.38460   58.86980   80.10450   80.10450   15.77610   15.77610   22.56680   15.77610    -999.25    0.17620    0.13310    2.58630 -107.04030   22.56680
 7300.00000   11.12700   10.90820   10.90820   92.49960    0.13310    0.13310    2.56150    -999.25    0.04750    0.08690   10.81330   69.50280   69.50280   69.23520   88.54420   88.54420   11.35020   11.35020   12.44040   11.35020    -999.25    0.21500    0.17130    2.56150 -103.77440   12.44040
 7350.00000   10.40400   10.71240   10.71240   78.32450    0.15500    0.15500    2.47130    -999.25    0.14160    0.13960   12.76740   73.56690   73.56690   74.58490   97.16230   97.16230   12.24140   12.24140   15.27110   12.24140    -999.25    0.27790    0.23390    2.47130 -105.48000   15.27110
 7400.00000    9.70260   10.10790   10.10790   55.51420    0.07600    0.07600    2.62670    -999.25    0.01220    0.04870   18.01980   60.77110   60.77110   67.21540   90.85840   90.85840   21.65750   21.65750   25.48190   21.65750    -999.25    0.21560    0.17200    2.62670 -108.55780   25.48190
 7450.00000    9.60910    9.89850    9.89850   52.01070    0.20790    0.20790    2.67920    -999.25   -0.00700    0.01800   19.22680   66.42810   66.42810   91.39570  109.71670  109.71670   21.08090   21.08090   25.10350   21.08090    -999.25    0.21070    0.16710    2.67920 -108.82480   25.10350
 7500.00000    9.61430    9.94220    9.94220   58.84880    0.12840    0.12840    2.62110    -999.25    0.03820    0.05200   16.99270   68.04800   68.04800   98.35120  122.57860  122.57860   21.22270   21.22270   25.38650   21.22270    -999.25    0.20020    0.15680    2.62110 -107.17040   25.38650
 7550.00000   10.66830   10.19770   10.19770   90.11380    0.20280    0.20280    2.44900    -999.25    0.12960    0.15260   11.09920   73.52440   73.52440   96.90790  115.65220  115.65220   11.49420   11.49420   15.50750   11.49420    -999.25    0.24710    0.20320    2.44900 -104.14580   15.50750
 7600.00000   11.37140    9.83620    9.83620   76.51990    0.26010    0.26010    2.33930    -999.25    0.21370    0.21680   13.06850   67.84740   67.84740   69.34250  100.60430  100.60430   11.66040   11.66040   16.12580   11.66040    -999.25    0.27990    0.23590    2.33930 -102.53880   16.12580
 7650.00000    9.06100    9.53660    9.53660   33.56550    0.03190    0.03190    2.64980    -999.25   -0.00190    0.03520   29.79270   63.54500   63.54500   86.27280  109.55120  109.55120   37.22670   37.22670   42.05130   37.22670    -999.25    0.21990    0.17630    2.64980 -102.84900   42.05130
 7700.00000   10.33450   10.49490   10.49490   27.86630    0.13760    0.13760    2.42380    -999.25    0.12480    0.16740   35.88560   69.05240   69.05240   34.37390   50.81780   50.81780   37.46530   37.46530   44.67880   37.46530    -999.25    0.20230    0.15880    2.42380 -128.32000   44.67880
 7750.00000    9.28940    9.30160    9.30160   53.55210    0.22720    0.22720    2.26750    -999.25    0.20830    0.25880   18.67340   67.81360   67.81360   53.96340   67.65780   67.65780   20.03650   20.03650   22.94930   20.03650    -999.25    0.21170    0.16810    2.26750 -117.89870   22.94930
 7800.00000   10.88000   11.54710   11.54710   84.58470    0.20030    0.20030    2.15360    -999.25    0.26890    0.32540   11.82790   82.10850   82.10850   95.04470  122.46040  122.46040   13.17210   13.17210   17.24840   13.17210    -999.25    0.44070    0.39880    2.15360  -99.16270   17.24840
 7850.00000   12.11690   12.63730   12.63730  219.90590    0.05630    0.05630    1.56470    -999.25    0.60120    0.66980    4.54740   87.70290   87.70290   81.23380  121.11150  121.11150    4.64590    4.64590    5.65320    4.64590    -999.25    0.57410    0.53240    1.56470 -103.13230    5.65320
 7900.00000   12.35640   12.29680   12.29680  153.72220    0.11120    0.11120    1.56350    -999.25    0.59980    0.67050    6.50550   94.41090   94.41090   90.02160  117.83200  117.83200    5.77850    5.77850    7.59870    5.77850    -999.25    0.50610    0.46450    1.56350 -100.32580    7.59870
 7950.00000    -999.25   13.87350   13.87350  365.39020    0.03370    0.03370    1.47170    -999.25    0.59960    0.72420    2.73680  113.43470  113.43470   64.92580   87.17110   87.17110    2.02210    2.02210    4.34980    2.02210    -999.25    0.65860    0.61690    1.47170 -101.73300    4.34980
 8000.00000    8.39270    9.27360    9.27360   23.62210    0.07980    0.07980    2.52750    -999.25    0.08590    0.10670   42.33320   61.82990   61.82990   77.89190  113.00590  113.00590  440.39050  440.39050   89.20670  440.39050    -999.25    0.13180    0.08940    2.52750 -108.57080   89.20670
 8050.00000    8.69490    9.41450    9.41450    6.36510    0.02700    0.02700    2.49590    -999.25    0.06710    0.12520  157.10860   62.09000   62.09000  274.33250  299.92530  299.92530  598.88820  598.88820  186.19370  598.88820    -999.25    0.19300    0.14970    2.49590 -124.25960  186.19370
 8100.00000    8.60200    9.21960    9.21960   22.70080    0.02430    0.02430    2.59060    -999.25    -999.25    0.06980   44.05130   61.56270   61.56270   75.28730   96.10320   96.10320   50.24030   50.24030   51.58240   50.24030    0.09590    -999.25    0.09590    2.59060 -118.98570   51.58240
 8150.00000    8.46130    9.33060    9.33060   18.47380    0.09850    0.09850    2.57960    0.08050    -999.25    0.07630   54.14910   61.60490   61.60490   71.58960   93.89630   93.89630   67.40500   67.40500   72.83840   67.40500    0.09980    -999.25    0.09980    2.57960 -115.88820   72.83840
 8200.00000    8.50020    9.37280    9.37280   30.88550    0.04010    0.04010    2.60670    0.06270    -999.25    0.06040   32.37770   58.05330   58.05330   87.92720  110.27700  110.27700   39.10970   39.10970   41.91470   39.10970    0.09960    -999.25    0.09960    2.60670 -107.70270   41.91470
