~Version ---------------------------------------------------
VERS.      2.0 : CWLS log ASCII Standard -VERSION 2.0
WRAP.       NO : One line per depth step
CREA. 10/19/17 : LAS Creation Date
~Well ------------------------------------------------------
STRT.FT                     1150.0 : START DEPTH
STOP.FT                    11800.0 : STOP DEPTH
STEP.FT                   50.00000 : STEP LENGTH
NULL.                      -999.25 : NULL VALUE
COMP.         PETROFINA CANADA LTD : COMPANY
WELL. PCI AMMIN ECONOMY 11-15-68-2 : WELL
FLD .                              : FIELD
LOC .                              : LOCATION
CTRY.                       CANADA : COUNTRY
SRVC.                      Unknown : SERVICE COMPANY
DATE.                  01-Jan-1900 : LOGDATE
PROV.                      Alberta : PROVINCE
UWI .             100111506802W600 : UNIQUE WELL ID
SLAT.WGS84                54.88852 : SURFACE LATITUDE
SLON.WGS84               -118.2198 : SURFACE LONGITUDE
~Curve Information -----------------------------------------
DEPT    .FT    : Depth Curve
CALDED  .IN    : CALIPER FROM DENSITY LOG [ADJ.TO RESISTIVITY LOG]
CALSED  .IN    : CALIPER FROM SONIC LOG [ADJ.TO RESISTIVITY LOG]
CALWS   .IN    : CALIPER [CALSED]
CONDWS  .MMHO  : CONDUCTIVITY [1000/DRESWS]
DCORWS  .G/C3  : DENSITY CORRECTION [DRHOED]
DENWS   .G/C3  : FORMATION BULK DENSITY [CALC. FROM DPOLSWS, M=2.71, F=1.00]
DPHILSED.V/V   : DENSITY POROSITY LIMESTONE [ASSUMED, M=2.71, F=1.00] FROM DENSITY LOG [ADJ.TO RESISTIVITY LOG]
DPHISSED.V/V   : DENSITY POROSITY SANDSTONE [ASSUMED, M=2.65, F=1.00] FROM DENSITY LOG [ADJ.TO RESISTIVITY LOG]
DPOLSWS .V/V   : DENSITY POROSITY LIMESTONE [DPHISSED CONVERTED TO LIMESTONE MATRIX, M=2.71, F=1.00 SPL.TO DPHILSED @ 6552']
DRESWS  .OHMM  : DEEP RESISTIVITY [ILDED]
DRHOED  .G/C3  : DENSITY CORRECTION FROM DENSITY LOG [ADJ.TO RESISTIVITY LOG]
DTED    .US/F  : DELTA TIME FROM SONIC LOG [ADJ.TO RESISTIVITY LOG]
DTWS    .US/F  : COMPRESSIONAL SONIC [DTED]
GRDED   .GAPI  : GAMMA RAY FROM DENSITY LOG [ADJ.TO RESISTIVITY LOG]
GRSED   .GAPI  : GAMMA RAY FROM SONIC LOG [ADJ.TO RESISTIVITY LOG]
GRWS    .GAPI  : GAMMA RAY [GRSED SPL.TO GRDED @ 11698']
ILDED   .OHMM  : DEEP INDUCTION FROM RESISTIVITY LOG
ILMED   .OHMM  : MEDIUM INDUCTION FROM RESISTIVITY LOG
LL8ED   .OHMM  : LATEROLOG-8 FROM RESISTIVITY LOG
MRESWS  .OHMM  : MEDIUM RESISTIVITY [ILMED]
NPHILSED.V/V   : NEUTRON POROSITY LIMESTONE FROM DENSITY LOG [ADJ.TO RESISTIVITY LOG]
NPHISSED.V/V   : NEUTRON POROSITY SANDSTONE FROM DENSITY LOG [ADJ.TO RESISTIVITY LOG]
NPOLSWS .V/V   : NEUTRON POROSITY LIMESTONE [NPHISSED MATRIX (SLB) CONVERSION FOR LIMESTONE, SPL.TO NPHILSED @ 6552']
RHOBED  .G/C3  : BULK DENSITY FROM DENSITY LOG [ADJ.TO RESISTIVITY LOG]
SPRED   .MV    : SPONTANEOUS POTENTIAL FROM RESISTIVITY LOG
SPWS    .MV    : SPONTANEOUS POTENTIAL [BASELINE 0 MV, SPRED]
SRESWS  .OHMM  : SHALLOW RESISTIVITY [LL8ED]
~Params ----------------------------------------------------
PD  .                     GL : PERMANENT DATUM
EPD .FT               2259.3 : ELEVATION PERMANENT DATUM
LMF .                     KB : LOG MEASURED FROM
DAPD.FT                 13.7 : FEET ABOVE PERMANENT DATUM
EKB .FT                 2273 : KELLY BUSHING
EGL .FT               2259.3 : GROUND LEVEL
DATE.               10/12/76 : RUN DATE
RUN .                      1 : RUN NUMBER
DD  .FT                11825 : DEPTH DRILLER
DL  .FT                11801 : DEPTH LOGGER
BLI .FT                11795 : BOTTOM LOG INTERVAL
TLI .FT                 1228 : TOP LOG INTERVAL
CBD .FT                 1232 : CASING BOTTOM DRILLER
CBL .FT                 1228 : CASING BOTTOM LOGGER
BS  .IN                 8.75 : BIT SIZE
BSD .FT                11825 : BIT SIZE AT DEPTH
DFT .                    GEL : DRILLING FLUID TYPE
DFD .                    8.9 : DRILLING FLUID DENSITY
DFV .                    150 : DRILLING FLUID VISCOSITY
DFPH.                   10.5 : DRILLING FLUID PH
DFL .                    5.8 : DRILLING FLUID LOSS
MSS .               FLOWLINE : MUD SAMPLE SOURCE
RMF .OHMM               0.71 : RESISTIVITY MUD FILTRATE SAMPLE
MFST.DEGF                 76 : MUD FILTRATE SAMPLE TEMPERATURE
RMB .OHMM               0.28 : RESISTIVITY MUD AT BHT
TCS .HRS                 4.5 : TIME CIRCULATED STOPPED
LUN .                   7803 : LOGGING UNIT NUMBER
LUL .                     OC : LOGGING UNIT LOCATION
ENGI.                STADNYK : RECORDING ENGINEER
WITN.                  CLARK : WITNESSED BY
CLNT.                A2DTECH : CLIENT CODE
ORIG.          1" 2.5" PRINT : ORIGIN OF DATA
UWI .       100111506802W600 : UNIQUE WELL ID
DICO. A2D Technologies, Inc. : DIGITIZING COMPANY
~Other -----------------------------------------------------
DI-LL-FDC-CNL-BHC LOG RUN.
~ASCII -----------------------------------------------------
# ...
 6350.00000   13.91630   10.76830   10.76830  159.00530    0.27600    2.26840    -999.25    0.23130    0.25830    6.28910    0.27600   80.33840   80.33840  137.78190  121.05600  121.05600    6.28910    5.53670   30.98980    5.53670    -999.25    0.35980    0.31630    2.28010 -103.04140   -1.05130   30.98980
 6400.00000   15.00000   11.08870   11.08870  275.14930    0.14410    2.60500    -999.25    0.02720    0.06140    3.64890    0.14410   95.29960   95.29960  193.81870  144.39290  144.39290    3.64890    3.34030   17.42000    3.34030    -999.25    0.38670    0.34360    2.59750 -102.80120   -2.98660   17.42000
 6450.00000   15.00000   13.21070   13.21070  251.84480    0.12550    2.39670    -999.25    0.15350    0.18320    3.97070    0.12550   93.74730   93.74730  136.13450  105.07710  105.07710    3.97070    3.54080   13.44300    3.54080    -999.25    0.37900    0.33580    2.40160 -101.88170   -4.25690   13.44300
 6500.00000   15.00000   12.74580   12.74580  336.55300    0.16660    2.47950    -999.25    0.10340    0.13480    2.97130    0.16660  101.51810  101.51810  138.45670  111.47340  111.47340    2.97130    2.50940   12.74850    2.50940    -999.25    0.40410    0.36130    2.48200 -100.39210   -4.94280   12.74850
 6550.00000    9.65780    9.45890    9.45890    4.09690    0.06600    2.44990    -999.25    0.12130    0.15210  244.46150    0.06600   76.46410   76.46410  300.00000  291.36140  291.36140  244.46150  313.39980 1447.83760  313.39980    -999.25    0.24870    0.20480    2.47050 -113.37280  -18.23300 1447.83760
 6600.00000    9.55770    9.48900    9.48900    3.44580    0.01380    2.34270    0.21480    -999.25    0.21480  290.20880    0.01380   76.98640   76.98640  300.00000  300.00000  300.00000  290.20880  665.04380 1433.82070  665.04380    0.23480    -999.25    0.23480    2.34640 -120.95210  -23.86440 1433.82070
 6650.00000    9.71960    9.64600    9.64600    4.79300    0.03160    2.64040    0.04070    -999.25    0.04070  208.71060    0.03160   57.24420   57.24420  121.20130   95.40500   95.40500  208.71060  441.70270 1427.57250  441.70270    0.06950    -999.25    0.06950    2.63830 -115.15200  -17.29020 1427.57250
 6700.00000    9.56060    9.44910    9.44910  154.84190    0.06460    2.56410    0.08530    -999.25    0.08530    6.45820    0.06460   63.74920   63.74920  121.89440  105.89660  105.89660    6.45820    9.49150   74.71530    9.49150    0.09840    -999.25    0.09840    2.56110 -158.02130  -61.03130   74.71530
 6750.00000    9.75740    9.71250    9.71250   51.75290    0.05250    2.68010    0.01750    -999.25    0.01750   19.32260    0.05250   61.68830   61.68830  124.94300  107.45860  107.45860   19.32260   20.42240   86.23430   20.42240    0.07030    -999.25    0.07030    2.66800 -124.50660  -28.38270   86.23430
 6800.00000    9.65870    9.61690    9.61690   38.65570    0.08290    2.63200    0.04560    -999.25    0.04560   25.86970    0.08290   61.26290   61.26290  121.87710  102.24920  102.24920   25.86970   27.74580   97.94340   27.74580    0.05370    -999.25    0.05370    2.63780 -136.02300  -40.76520   97.94340
 6850.00000    9.72990    9.58100    9.58100   25.49280    0.06820    2.66370    0.02710    -999.25    0.02710   39.22680    0.06820   61.00650   61.00650  118.98480  111.49820  111.49820   39.22680   41.71490  173.31850   41.71490    0.05630    -999.25    0.05630    2.66250 -129.70880  -35.32280  173.31850
 6900.00000    9.78110    9.62710    9.62710   34.45680    0.04970    2.64720    0.03680    -999.25    0.03680   29.02650    0.04970   60.48900   60.48900  142.64750  127.15100  127.15100   29.02650   30.68680  116.84710   30.68680    0.04050    -999.25    0.04050    2.64330 -132.17070  -38.65080  116.84710
 6950.00000    9.74150    9.64580    9.64580   33.22440    0.06160    2.62450    0.05000    -999.25    0.05000   30.09840    0.06160   63.96990   63.96990  131.36450  115.21240  115.21240   30.09840   32.67870  104.58790   32.67870    0.05950    -999.25    0.05950    2.62350 -119.30870  -26.66060  104.58790
 7000.00000    9.06080    9.64930    9.64930   26.26860    0.02810    2.66130    0.02850    -999.25    0.02850   38.06820    0.02810   59.80850   59.80850  119.71710  103.03940  103.03940   38.06820   42.23560  180.32290   42.23560    0.06980    -999.25    0.06980    2.65690 -116.77670  -24.99470  180.32290
 7050.00000    9.92150    9.92950    9.92950   43.26330    0.07220    2.66850    0.02430    -999.25    0.02430   23.12020    0.07220   64.45470   64.45470  133.62210  110.61120  110.61120   23.12020   24.52980   92.28230   24.52980    0.07760    -999.25    0.07760    2.66540 -101.13420  -10.21830   92.28230
 7100.00000    9.73050    9.78130    9.78130   20.44370    0.05980    2.66860    0.02420    -999.25    0.02420   48.91490    0.05980   63.99210   63.99210  124.81410  120.55870  120.55870   48.91490   55.26290  202.26680   55.26290    0.09230    -999.25    0.09230    2.66500 -105.12710  -15.08300  202.26680
 7150.00000    9.94750    9.95530    9.95530   23.58430    0.05900    2.63510    0.04380    -999.25    0.04380   42.45840    0.05900   64.56730   64.56730  153.01860  125.64940  125.64940   42.45840   46.09520  200.91360   46.09520    0.11160    -999.25    0.11160    2.63090  -93.41730   -4.02130  200.91360
 7200.00000    9.59160    9.71380    9.71380   32.11400    0.06470    2.62960    0.04700    -999.25    0.04700   31.13910    0.06470   64.35180   64.35180  158.07170  138.41400  138.41400   31.13910   35.03530  164.02350   35.03530    0.09940    -999.25    0.09940    2.62730 -103.21410  -12.72760  164.02350
 7250.00000   10.37630   10.37440   10.37440   22.50880    0.09190    2.73870   -0.01680    -999.25   -0.01680   44.42710    0.09190   64.11170   64.11170  150.06930  122.90380  122.90380   44.42710   50.80520  171.40720   50.80520    0.10530    -999.25    0.10530    2.73390  -94.12190   -2.55200  171.40720
 7300.00000    9.93000   10.16160   10.16160   28.08040    0.04390    2.66080    0.02880    -999.25    0.02880   35.61230    0.04390   62.76720   62.76720  152.19340  133.10260  133.10260   35.61230   38.76670  169.65740   38.76670    0.11200    -999.25    0.11200    2.66180 -101.36240   -8.70910  169.65740
 7350.00000    9.43430    9.36660    9.36660   16.97010    0.05630    2.68810    0.01280    -999.25    0.01280   58.92730    0.05630   53.50110   53.50110   29.18420   27.62550   27.62550   58.92730   69.64600  764.79310   69.64600    0.02800    -999.25    0.02800    2.68630 -130.38550  -36.69200  764.79310
 7400.00000    8.91410    8.61120    8.61120  130.43210    0.10720    2.63650    0.04300    -999.25    0.04300    7.66960    0.10720   58.96040   58.96040   97.58320  105.57730  105.57730    7.66960   12.33950  106.19070   12.33950    0.08870    -999.25    0.08870    2.63890 -180.09500  -85.46000  106.19070
 7450.00000    8.93860    8.89670    8.89670  350.09100    0.13390    2.55280    0.09200    -999.25    0.09200    2.85640    0.13390   64.45890   64.45890  105.10460  106.45990  106.45990    2.85640    4.88210   39.38080    4.88210    0.16380    -999.25    0.16380    2.57900 -177.92340  -82.34060   39.38080
 7500.00000   15.02540   10.47000   10.47000   14.26460    0.26340    2.24590    0.27140    -999.25    0.27140   70.10380    0.26340   53.35760   53.35760   64.82850   54.23510   54.23510   70.10380   71.17730  121.91810   71.17730    0.07440    -999.25    0.07440    2.24710 -168.04170  -71.51730  121.91810
 7550.00000   12.89210   10.47740   10.47740   68.00790    0.29680    2.39510    0.18420    -999.25    0.18420   14.71720    0.29680   66.01220   66.01220  126.89820  117.34890  117.34890   14.71720   13.43440   74.17340   13.43440    0.10740    -999.25    0.10740    2.39920 -100.46920   -3.00330   74.17340
 7600.00000   13.75980   10.03640   10.03640   32.97550    0.27850    2.18110    0.30930    -999.25    0.30930   30.32550    0.27850   64.44070   64.44070   54.68760   45.59040   45.59040   30.32550   26.10960  113.75670   26.10960    0.04460    -999.25    0.04460    2.18500 -132.06910  -36.40710  113.75670
