~Version ---------------------------------------------------
VERS.      2.0 : CWLS log ASCII Standard -VERSION 2.0
WRAP.       NO : One line per depth step
CREA. 01/05/18 : LAS Creation Date
~Well ------------------------------------------------------
STRT.FT                         300.0 : START DEPTH
STOP.FT                       11250.0 : STOP DEPTH
STEP.FT                      50.00000 : STEP LENGTH
NULL.                         -999.25 : NULL VALUE
COMP.            MOBIL OIL CANADA LTD : COMPANY
WELL. MOBIL ET AL ROSEVEAR 10-4-54-15 : WELL
FLD .                              WC : FIELD
LOC .                                 : LOCATION
CTRY.                          CANADA : COUNTRY
SRVC.                    Schlumberger : SERVICE COMPANY
DATE.                     09-Jul-1971 : LOGDATE
PROV.                         Alberta : PROVINCE
UWI .                100100405415W500 : UNIQUE WELL ID
SLAT.WGS84                   53.63557 : SURFACE LATITUDE
SLON.WGS84                  -116.1457 : SURFACE LONGITUDE
~Curve Information -----------------------------------------
DEPT    .FT    : Depth Curve
CALDED  .IN    : CALIPER FROM DENSITY LOG [ADJ. TO RESISTIVITY LOG]
CALNED  .IN    : CALIPER FROM NEUTRON LOG [ADJ. TO RESISTIVITY LOG]
CALSED  .IN    : CALIPER FROM SONIC LOG [ADJ. TO RESISTIVITY LOG]
CALWS   .IN    : CALIPER [CALSED]
CILDED  .MMHO  : CONDUCTIVITY FROM RESISTIVITY LOG
CONDWS  .MMHO  : CONDUCTIVITY [1000/DRESWS]
DCORWS  .G/C3  : DENSITY CORRECTION [DRHOED]
DENWS   .G/C3  : FORMATION BULK DENSITY [RHOBED]
DPHILSED.V/V   : DENSITY POROSITY LIMESTONE [M=2.71 F=1.00] FROM DENSITY LOG [ADJ. TO RESISTIVITY LOG]
DPOLSWS .V/V   : DENSITY POROSITY LIMESTONE [CALC FROM DENWS, M=2.71 F=1.00]
DRESWS  .OHMM  : DEEP RESISTIVITY [1000/CILDED IF ILDED <=1, ILDED]
DRHOED  .G/C3  : DENSITY CORRECTION FROM DENSITY LOG [ADJ. TO RESISTIVITY LOG]
DTED    .US/F  : DELTA-T FROM SONIC LOG [ADJ. TO RESISTIVITY LOG]
DTWS    .US/F  : COMPRESSIONAL SONIC [DTED]
GRDED   .GAPI  : GAMMA RAY FROM DENSITY LOG [ADJ. TO RESISTIVITY LOG]
GRNED   .GAPI  : GAMMA RAY NEUTRON LOG [ADJ. TO RESISTIVITY LOG]
GRSED   .GAPI  : GAMMA RAY FROM SONIC LOG [ADJ. TO RESISTIVITY LOG]
GRWS    .GAPI  : GAMMA RAY [GRSED]
ILDED   .OHMM  : DEEP INDUCTION FROM RERSISTIVITY LOG
MCALED  .IN    : CALIPER FROM MICROLOG
NPOLSWS .V/V   : NEUTRON POROSITY LIMESTONE [SNPLSED]
RHOBED  .G/C3  : BULK DENSITY FROM DENSITY LOG  [ADJ. TO RESISTIVITY LOG]
SNED    .OHMM  : SHORT NORMAL RESISTIVITY FROM RESISTIVITY LOG
SNPLSED .V/V   : SIDE WALL NEUTRON POROSITY FROM DENSITY LOG [ADJ. TO RESISTIVITY LOG]
SPRED   .MV    : SPONTANEOUS POTENTIAL FROM RESISTIVITY LOG
SPWS    .MV    : SPONTANEOUS POTENTIAL [BASELINE 0 MV, SPRED]
SRESWS  .OHMM  : SHALLOW RESISTIVITY [SNED]
~Params ----------------------------------------------------
PD  .                     GL : PERMANENT DATUM
EPD .FT                 2903 : ELEVATION PERMANENT DATUM
LMF .                     KB : LOG MEASURED FROM
DAPD.FT                   13 : FEET ABOVE PERMANENT DATUM
EKB .FT                 2916 : KELLY BUSHING
EGL .FT                 2903 : GROUND LEVEL
DATE.               07/09/71 : RUN DATE
RUN .                      1 : RUN NUMBER
DD  .FT                11300 : DEPTH DRILLER
DL  .FT                11289 : DEPTH LOGGER
BLI .FT                11288 : BOTTOM LOG INTERVAL
TLI .FT                 1176 : TOP LOG INTERVAL
CBD .FT                 1176 : CASING BOTTOM DRILLER
CBL .FT                 1176 : CASING BOTTOM LOGGER
BS  .IN                 8.75 : BIT SIZE
BSD .FT                11300 : BIT SIZE AT DEPTH
DFT .                    GEL : DRILLING FLUID TYPE
DFD .                    9.1 : DRILLING FLUID DENSITY
DFV .                    100 : DRILLING FLUID VISCOSITY
DFPH.                     11 : DRILLING FLUID PH
DFL .                    8.2 : DRILLING FLUID LOSS
RMS .OHMM               2.46 : RESISTIVITY MUD SAMPLE
MST .DEGF                 71 : MUD SAMPLE TEMPERATURE
RMF .OHMM               2.36 : RESISTIVITY MUD FILTRATE SAMPLE
MFST.DEGF                 72 : MUD FILTRATE SAMPLE TEMPERATURE
RMC .OHMM               2.22 : RESISTIVITY MUD CAKE
MCST.DEGF                 72 : MUD CAKE SAMPLE TEMPERATURE
TCS .HRS                   5 : TIME CIRCULATED STOPPED
LUN .                   7501 : LOGGING UNIT NUMBER
LUL .                    EDM : LOGGING UNIT LOCATION
ENGI.                  PLUNE : RECORDING ENGINEER
WITN.                   DOAN : WITNESSED BY
CLNT.                A2DTECH : CLIENT CODE
ORIG.            2" 5" PRINT : ORIGIN OF DATA
UWI .       100100405415W500 : UNIQUE WELL ID
DICO. A2D Technologies, Inc. : DIGITIZING COMPANY
~Other -----------------------------------------------------
~ASCII -----------------------------------------------------
# ...
 8100.00000    9.18290    9.04670    9.12440    9.12440  118.00990  116.65480    0.03460    2.62580    0.05020    0.04920    8.57230    0.03460   68.50700   68.50700   34.01780   32.98170   36.69420   36.69420    8.57230    8.77000    0.09440    2.62580   17.34210    0.09440 -153.67620  -75.33570   17.34210
 8150.00000    9.95950    8.91050    9.63450    9.63450   39.01590   35.57100    0.13880    2.77410   -0.01600   -0.03750   28.11280    0.13880   52.55120   52.55120   14.74210   12.62560   12.62280   12.62280   28.11280    9.14410    0.02780    2.77410   39.79600    0.02780  -95.50440  -24.24710   39.79600
 8200.00000    9.03960    8.80210    9.23130    9.23130   33.23430   33.34030    0.02790    2.72690    0.00890   -0.00990   30.00360    0.02790   54.98390   54.98390   30.72850   28.69270   32.11520   32.11520   30.00360    8.68310    0.03980    2.72690   36.22370    0.03980  -67.95660   -3.69820   36.22370
 8250.00000    8.81120    8.82410    9.08320    9.08320   23.80850   23.76910    0.05060    2.76460   -0.00350   -0.03190   42.07140    0.05060   55.54180   55.54180   38.32290   37.98920   41.11630   41.11630   42.07140    8.58420    0.03530    2.76460   54.20120    0.03530  -67.09580   -3.72940   54.20120
 8300.00000    8.74140    8.86610    9.11800    9.11800   17.05850   17.90390    0.04850    2.76040   -0.00700   -0.02950   55.85380    0.04850   55.19940   55.19940   32.47290   36.66720   35.12200   35.12200   55.85380    8.54610    0.03300    2.76040   63.57180    0.03300  -68.88450   -6.41470   63.57180
 8350.00000    8.67750    8.79870    9.06280    9.06280    4.86480    4.99810    0.03650    2.71520    0.01750   -0.00300  200.07710    0.03650   53.52750   53.52750   27.07140   31.34610   31.25300   31.25300  200.07710    8.56060    0.02140    2.71520  143.48350    0.02140  -68.43670   -6.86800  143.48350
 8400.00000    8.93940    8.85680    9.13680    9.13680   32.69590   32.48230    0.03630    2.71070    0.04160   -0.00040   30.78600    0.03630   60.62270   60.62270   50.27980   48.42060   51.13990   51.13990   30.78600    8.60260    0.05190    2.71070   37.54590    0.05190  -65.39590   -4.71930   37.54590
 8450.00000    8.77950    8.80450    9.07120    9.07120    6.51640    6.71530    0.01120    2.68610    0.03440    0.01400  148.99100    0.01120   61.38290   61.38290   74.65040   85.88670   84.42620   84.42620  148.99100    8.72590    0.05860    2.68610  131.62280    0.05860  -68.07340   -8.29790  131.62280
 8500.00000   10.15650    9.77740    9.27150    9.27150    1.58980    1.95050    0.20580    2.65460    0.01040    0.03240  512.67940    0.20580   52.17310   52.17310   11.11470    7.88650   10.02350   10.02350  512.67940    9.11570    0.02870    2.65460  142.29020    0.02870  -79.16240  -20.27900  142.29020
 8550.00000   11.03260   10.37590    9.64300    9.64300    1.16440    2.00000    0.25000    2.57220    0.11300    0.08060  500.00000    0.25000   49.63850   49.63850   11.52670    9.32840   11.74000   11.74000  500.00000   10.55400    0.07880    2.57220  336.39390    0.07880 -138.99410  -81.00730  336.39390
 8600.00000   12.14950   11.61630    9.71100    9.71100    7.87720    8.36920    0.23520    2.57970    0.11800    0.07620  121.46440    0.23520   50.90780   50.90780   13.75960   12.72230   15.38890   15.38890  121.46440   11.52220    0.08140    2.57970  127.20490    0.08140 -164.35330 -107.26760  127.20490
 8650.00000   15.28370    7.57830   11.25180   11.25180    3.21280    3.36220    0.17020    1.69070    0.58980    0.59610  297.42620    0.17020   50.90980   50.90980   11.33620   11.58140   10.96480   10.96480  297.42620   14.03590    0.49980    1.69070  136.22260    0.49980 -172.65290 -116.45930  136.22260
 8700.00000   15.28370   15.25210    9.63630    9.63630    0.74290    2.00000    0.15640    1.67550    0.58760    0.60500  500.00000    0.15640   48.82370   48.82370   11.97250   11.43640    9.98640    9.98640  500.00000   13.54190    0.38540    1.67550  125.56830    0.38540 -173.88570 -118.59310  125.56830
 8750.00000   15.28370   15.25210   11.22490   11.22490    2.05010    2.00010    0.19700    1.71060    0.49450    0.58440  499.98110    0.19700   51.49570   51.49570   12.93420   12.13070   11.30890   11.30890  499.98110   13.80190    0.40700    1.71060  167.86720    0.40700 -170.69610 -116.29570  167.86720
 8800.00000   14.49010   13.99900   10.08140   10.08140    1.48490    2.18890    0.21800    2.32080    0.22530    0.22760  456.84030    0.21800   52.61740   52.61740   11.40000    7.11800    9.34700    9.34700  456.84030   13.53140    0.13470    2.32080  177.25600    0.13470 -176.40320 -122.89940  177.25600
 8850.00000   12.78650   12.30030   10.42900   10.42900    1.12720    2.00000    0.19960    2.44040    0.17900    0.15770  500.00000    0.19960   52.27000   52.27000    8.79280    9.62570    9.71850    9.71850  500.00000   12.40030    0.11290    2.44040  137.42570    0.11290 -187.86290 -135.26020  137.42570
 8900.00000   12.51820   12.19450    9.78080    9.78080    0.62490    2.00000    0.19620    2.44450    0.18960    0.15530  500.00000    0.19620   51.24960   51.24960    9.52780    9.78300    9.68430    9.68430  500.00000   11.65170    0.10380    2.44450  189.48310    0.10380 -178.49890 -126.78830  189.48310
 8950.00000   14.99530   15.25210    9.70090    9.70090    1.68310    2.24900    0.17720    2.46450    0.17070    0.14360  451.44400    0.17720   52.38560   52.38560   12.82920   13.85720   14.74390   14.74390  451.44400   12.34220    0.11250    2.46450  137.56910    0.11250 -175.21950 -124.40990  137.56910
 9000.00000   14.65830   14.07650    9.78050    9.78050    2.89020    3.34250    0.19190    2.54710    0.10960    0.09530  299.18030    0.19190   50.76640   50.76640   10.31410   10.07450   12.38660   12.38660  299.18030   11.04820    0.10280    2.54710  170.02620    0.10280 -167.76980 -117.85240  170.02620
 9050.00000   12.87480   12.52130    9.65460    9.65460    0.48340    2.00000    0.19680    2.57820    0.05410    0.07710  500.00000    0.19680   53.10780   53.10780   14.69530   14.27720   13.56260   13.56260  500.00000   11.57560    0.06010    2.57820  245.91500    0.06010 -172.34010 -123.31930  245.91500
 9100.00000   12.66790   12.46510    9.61280    9.61280    5.77280    6.01480    0.23440    2.53030    0.11350    0.10510  166.45590    0.23440   51.63740   51.63740   10.22720   10.63530    9.00600    9.00600  166.45590   11.39250    0.09390    2.53030  130.35570    0.09390 -183.31730 -135.19750  130.35570
 9150.00000    9.38380    9.11890    9.07200    9.07200   15.24130   15.66860    0.16930    2.75120   -0.00750   -0.02410   63.82210    0.16930   49.28570   49.28570   11.51690    7.56720   12.92330   12.92330   63.82210    7.17310    0.07700    2.75120   85.84500    0.07700 -201.07590 -153.84830   85.84500
 9200.00000    9.31040    9.92880    9.28340    9.28340    5.26410    5.43710    0.24420    2.57630    0.09120    0.07820  184.19980    0.24420   48.01980   48.01980   17.15610   18.15110   17.82730   17.82730  184.19980    9.32470    0.07720    2.57630  141.80780    0.07720 -126.75240  -80.42580  141.80780
 9250.00000   11.28160   11.02140    9.57590    9.57590    2.62700    2.68610    0.24490    2.33730    0.24860    0.21800  372.28510    0.24490   50.28610   50.28610   12.91140   14.65150   13.69160   13.69160  372.28510   11.51640    0.19620    2.33730  232.13820    0.19620 -156.38870 -110.95430  232.13820
 9300.00000   11.71570   10.89710    9.60210    9.60210    2.54840    2.57070    0.20380    2.09770    0.33830    0.35810  388.99190    0.20380   47.99150   47.99150   14.02220   12.59430   15.99290   15.99290  388.99190   10.42600    0.20030    2.09770  122.47880    0.20030 -163.76190 -119.22410  122.47880
 9350.00000   11.55500   11.16150    9.67570    9.67570    5.14980    5.27030    0.23860    2.58900    0.20170    0.07080  189.82210    0.23860   52.46060   52.46060   20.41550   20.36740   20.67170   20.67170  189.82210   10.54740    0.11020    2.58900   97.86850    0.11020 -144.52860 -100.89180   97.86850
