~Version ---------------------------------------------------
VERS.      2.0 : CWLS log ASCII Standard -VERSION 2.0
WRAP.       NO : One line per depth step
CREA. 08/02/17 : LAS Creation Date
~Well ------------------------------------------------------
STRT.FT                       950.0 : START DEPTH
STOP.FT                     10400.0 : STOP DEPTH
STEP.FT                    50.00000 : STEP LENGTH
NULL.                       -999.25 : NULL VALUE
COMP.    THE CALIFORNIA STANDARD CO : COMPANY
WELL. CALSTAN BA KAYBOB 10-26-64-20 : WELL
FLD .                               : FIELD
LOC .                               : LOCATION
CTRY.                        CANADA : COUNTRY
SRVC.        Schlumberger of Canada : SERVICE COMPANY
DATE.                   15-Dec-1959 : LOGDATE
PROV.                       Alberta : PROVINCE
UWI .              100102606420W500 : UNIQUE WELL ID
SLAT.WGS84                 54.56885 : SURFACE LATITUDE
SLON.WGS84                -116.9082 : SURFACE LONGITUDE
~Curve Information -----------------------------------------
DEPT  .FT         : Depth Curve
CALWS .IN         : CALIPER [MCALED]
CILDED.MMHO       : DEEP INDUCTION CONDUCTIVITY FROM RESISTIVITY LOG
CONDWS.MMHO       : CONDUCTIVITY [1000/DRESWS]
DRESWS.OHMM       : DEEP RESISTIVITY [CALC FROM 1000/CILDED, IF ILDED<1, ILDED]
DTED  .US/F       : DELTA-T (INTERVAL TRANSIT TIME) FROM SONIC LOG
DTWS  .US/F       : COMPRESSIONAL SONIC [DTED]
GRSED .UgRa-Eq/T  : GAMMA RAY FROM SONIC LOG
GRWS  .GAPI       : GAMMA RAY [GRSED*16.5]
ILDED .OHMM       : DEEP INDUCTION FROM RESISTIVITY LOG
MCALED.IN         : MLT (MICROLOG) CALIPER FROM MICROLOG
SNED  .OHMM       : SHORT NORMAL FROM RESISTIVITY LOG
SPRED .MV         : SPONTANEOUS POTENTIAL FROM RESISTIVITY LOG
SPWS  .MV         : SPONTANEOUS POTENTIAL [BASELINE 0 MV, SPRED]
SRESWS.OHMM       : SHALLOW RESISTIVITY [SNED]
~Params ----------------------------------------------------
LMF .                     KB : LOG MEASURED FROM
DMF .                     KB : DRILLING MEASURED FROM
EKB .FT                 2600 : KELLY BUSHING
EGL .FT                 2587 : GROUND LEVEL
DATE.               12/15/59 : RUN DATE
RUN .                      2 : RUN NUMBER
DD  .FT                10482 : DEPTH DRILLER
DL  .FT                10441 : DEPTH LOGGER
BLI .FT                10436 : BOTTOM LOG INTERVAL
TLI .FT                 6426 : TOP LOG INTERVAL
CBD .FT                  998 : CASING BOTTOM DRILLER
CBL .FT                  994 : CASING BOTTOM LOGGER
BS  .IN                    9 : BIT SIZE
BSD .FT                10482 : BIT SIZE AT DEPTH
DFT .                    GEL : DRILLING FLUID TYPE
DFD .                   10.3 : DRILLING FLUID DENSITY
DFV .                    108 : DRILLING FLUID VISCOSITY
DFPH.                   10.5 : DRILLING FLUID PH
DFL .                    5.7 : DRILLING FLUID LOSS
MSS .            CIRCULATION : MUD SAMPLE SOURCE
RMS .OHMM               2.35 : RESISTIVITY MUD SAMPLE
MST .DEGF                 72 : MUD SAMPLE TEMPERATURE
RMF .OHMM               1.55 : RESISTIVITY MUD FILTRATE SAMPLE
MFST.DEGF                 67 : MUD FILTRATE SAMPLE TEMPERATURE
RMC .OHMM               2.81 : RESISTIVITY MUD CAKE
MCST.DEGF                 77 : MUD CAKE SAMPLE TEMPERATURE
RMB .OHMM               0.87 : RESISTIVITY MUD AT BHT
TCS .HRS                 300 : TIME CIRCULATED STOPPED
LUN .                  15730 : LOGGING UNIT NUMBER
LUL .                     WC : LOGGING UNIT LOCATION
ENGI.              HAUSEGGER : RECORDING ENGINEER
WITN.                  CHANT : WITNESSED BY
CLNT.                A2DTECH : CLIENT CODE
ORIG.            2" 5" PRINT : ORIGIN OF DATA
UWI .       100102606420W500 : UNIQUE WELL ID
DICO. A2D Technologies, Inc. : DIGITIZING COMPANY
~Other -----------------------------------------------------
~ASCII -----------------------------------------------------
  950.00000    -999.25    -999.25    -999.25    -999.25    -999.25    -999.25    2.78660   45.97890    -999.25    -999.25    -999.25    -999.25    -999.25    -999.25
 1000.00000   15.13910  239.98030  261.19890    3.82850  162.15660  162.15660    4.39410   72.50270    3.82850   15.13910    5.88230  -89.96530   -4.07290    5.88230
 1050.00000   11.22430  211.99100  215.99210    4.62980  116.20700  116.20700    3.88400   64.08600    4.62980   11.22430    5.93370  -87.45340   -1.62820    5.93370
 1100.00000   12.91620  310.98290  285.51850    3.50240  112.43430  112.43430    3.60910   59.55020    3.50240   12.91620    5.55150  -86.94900   -1.44950    5.55150
 1150.00000   11.68490  267.59690  277.71610    3.60080  131.72490  131.72490    5.04370   83.22110    3.60080   11.68490    4.96010  -86.80210   -1.62630    4.96010
 1200.00000   10.49780  217.49990  218.85190    4.56930  109.16460  109.16460    4.39000   72.43500    4.56930   10.49780    6.11590  -87.30330   -2.45320    6.11590
 1250.00000   12.43690  252.63570  254.49830    3.92930  120.65070  120.65070    5.03340   83.05110    3.92930   12.43690    5.42580  -85.93740   -1.41080    5.42580
 1300.00000   10.42510  262.08090  265.98570    3.75960  119.01490  119.01490    4.43910   73.24600    3.75960   10.42510    4.74640  -84.82720   -0.62430    4.74640
 1350.00000   13.63140  224.73460  237.24230    4.21510  129.19630  129.19630    5.06850   83.63030    4.21510   13.63140    5.52560  -85.85290   -1.97570    5.52560
 1400.00000   10.19590  145.98040  127.34800    7.85250   97.70470   97.70470    3.58490   59.15090    7.85250   10.19590    9.24730  -87.21990   -3.66630    9.24730
 1450.00000   10.09160  322.00500  344.29330    2.90450  124.11300  124.11300    5.31360   87.67440    2.90450   10.09160    3.68630  -85.19070   -1.96290    3.68630
 1500.00000   10.48910  231.87090  245.16410    4.07890  115.81480  115.81480    5.51840   91.05360    4.07890   10.48910    5.28000  -84.63300   -1.72870    5.28000
 1550.00000   10.82180  146.42250  134.40860    7.44000   95.02700   95.02700    4.55000   75.07420    7.44000   10.82180    9.10290  -86.63080   -4.11860    9.10290
 1600.00000   11.94190  326.59300  340.46030    2.93720  126.35980  126.35980    5.22190   86.16130    2.93720   11.94190    3.68700  -84.21480   -2.26650    3.68700
 1650.00000   10.93080  382.07590  376.12370    2.65870  132.35990  132.35990    4.56130   75.26140    2.65870   10.93080    3.19780  -84.80150   -3.41340    3.19780
 1700.00000   12.65640  259.18260  276.75530    3.61330  122.59600  122.59600    4.97720   82.12380    3.61330   12.65640    4.56430  -83.08830   -2.26420    4.56430
 1750.00000   13.30220  233.18120  245.34460    4.07590  108.73590  108.73590    5.06340   83.54610    4.07590   13.30220    4.82000  -82.54010   -2.27620    4.82000
 1800.00000   11.72510  276.56400  294.83740    3.39170  136.04170  136.04170    5.09570   84.07990    3.39170   11.72510    4.45950  -83.06500   -3.25930    4.45950
 1850.00000   10.31700  244.38200  262.95720    3.80290  115.47380  115.47380    4.14560   68.40240    3.80290   10.31700    5.23280  -82.63510   -3.22740    5.23280
 1900.00000    9.37930  105.36900   97.71160   10.23420   90.46000   90.46000    2.92090   48.19490   10.23420    9.37930   12.63500  -83.31430   -4.30210   12.63500
 1950.00000   11.75890  241.96020  257.23470    3.88750  104.49110  104.49110    3.99910   65.98520    3.88750   11.75890    4.82920  -79.88530   -1.27110    4.82920
 2000.00000    9.21140  108.14880  106.41580    9.39710  103.43020  103.43020    3.99940   65.99010    9.39710    9.21140   11.65140  -81.29340   -2.29950   11.65140
 2050.00000    9.31830   50.03110   46.28260   21.60640   69.33390   69.33390    3.00030   49.50410   21.60640    9.31830   22.67930  -92.54360  -13.17000   22.67930
 2100.00000    9.16630  106.50100  111.41560    8.97540  103.98680  103.98680    2.86820   47.32530    8.97540    9.16630   10.19860  -87.11610   -7.36030   10.19860
 2150.00000    9.79340  202.36110  177.00680    5.64950   91.40360   91.40360    3.23630   53.39890    5.64950    9.79340    7.24600  -81.05220   -1.32080    7.24600
 2200.00000   10.62600  252.69250  259.18150    3.85830  117.51740  117.51740    3.66780   60.51870    3.85830   10.62600    4.93010  -80.96230   -1.68430    4.93010
 2250.00000   11.17070  236.29660  248.25600    4.02810  114.48630  114.48630    3.27630   54.05900    4.02810   11.17070    5.07050  -79.83470   -1.00700    5.07050
 2300.00000   11.23050  236.24200  252.28950    3.96370  124.02630  124.02630    4.29210   70.81960    3.96370   11.23050    4.94660  -80.07000   -1.50670    4.94660
 2350.00000    9.23400   47.39930   42.31230   23.63380   77.11900   77.11900    3.01240   49.70460   23.63380    9.23400   22.90190  -85.72850   -7.08140   22.90190
 2400.00000   10.13800  301.64170  314.58410    3.17880  111.08110  111.08110    3.69030   60.88990    3.17880   10.13800    4.50280  -80.02010   -1.28980    4.50280
 2450.00000   11.18350  252.63400  268.41310    3.72560  116.09720  116.09720    4.10010   67.65170    3.72560   11.18350    4.95430  -79.99290   -1.17890    4.95430
 2500.00000   11.71270  212.71110  225.79480    4.42880  101.20440  101.20440    3.55890   58.72180    4.42880   11.71270    5.84730  -80.27820   -1.38100    5.84730
 2550.00000    9.31770  198.15470  195.45760    5.11620   84.50060   84.50060    3.52240   58.12040    5.11620    9.31770    6.93800  -80.70630   -1.72590    6.93800
 2600.00000    9.93410  249.83350  268.70890    3.72150  111.53030  111.53030    4.37560   72.19740    3.72150    9.93410    5.43850  -80.36890   -1.30480    5.43850
 2650.00000    9.63170   60.69520   61.43680   16.27690   76.98630   76.98630    2.89790   47.81530   16.27690    9.63170   20.02290  -88.23470   -9.45120   20.02290
 2700.00000    9.91750  164.06940  151.37980    6.60590   92.99910   92.99910    3.09540   51.07410    6.60590    9.91750    8.79780  -81.02750   -2.95540    8.79780
 2750.00000   11.03480  263.98290  281.47610    3.55270  112.75020  112.75020    3.84320   63.41280    3.55270   11.03480    4.94640  -77.87470   -0.50950    4.94640
 2800.00000    -999.25  211.72460  227.90980    4.38770   98.41990   98.41990    3.87220   63.89050    4.38770    -999.25    5.91610  -77.58710   -0.92870    5.91610
 2850.00000    -999.25  153.95910  145.26650    6.88390  101.94250  101.94250    4.31980   71.27670    6.88390    -999.25    8.18340  -77.47070   -1.31940    8.18340
 2900.00000    -999.25  117.31040  105.99730    9.43420   93.51580   93.51580    4.51780   74.54370    9.43420    -999.25   11.60870  -82.34330   -6.03650   11.60870
 2950.00000    -999.25  138.70340  131.82530    7.58580  108.61030  108.61030    5.93640   97.95060    7.58580    -999.25    9.42410  -82.26230   -5.79910    9.42410
 3000.00000    -999.25  139.65620  131.54430    7.60200  104.47930  104.47930    7.30840  120.58860    7.60200    -999.25   10.62880  -78.32600   -1.78030   10.62880
 3050.00000    -999.25  107.44870  103.85730    9.62860  114.50600  114.50600    5.66480   93.46920    9.62860    -999.25   13.48560  -79.89630   -4.04880   13.48560
 3100.00000    -999.25  140.85390  134.52070    7.43380  107.38370  107.38370    5.82140   96.05310    7.43380    -999.25   10.01330  -77.17450   -2.02990   10.01330
 3150.00000    -999.25  167.60740  166.77790    5.99600  103.20830  103.20830    6.32520  104.36580    5.99600    -999.25    7.67060  -79.16640   -4.26910    7.67060
 3200.00000   11.20700  144.50180  139.16920    7.18550  107.73490  107.73490    5.81610   95.96560    7.18550   11.20700    9.15240  -76.39720   -1.69930    9.15240
 3250.00000   11.08260  127.69310  126.17820    7.92530   90.62370   90.62370    5.55030   91.57990    7.92530   11.08260    9.70280  -77.14370   -2.64390    9.70280
 3300.00000   10.52120  130.72250  130.18630    7.68130   99.62750   99.62750    5.58210   92.10470    7.68130   10.52120    9.90460  -78.54960   -4.24780    9.90460
 3350.00000   10.84650  129.23190  125.52880    7.96630   96.23560   96.23560    6.02360   99.38940    7.96630   10.84650   10.14800  -73.14910   -1.71390   10.14800
