~Version ---------------------------------------------------
VERS. 2.0 : CWLS log ASCII Standard -VERSION 2.0
WRAP.  NO : ONE LINE PER DEPTH STEP
~Well ------------------------------------------------------
STRT.M                    600.0 : START DEPTH
STOP.M                   3350.0 : STOP DEPTH
STEP.M                 50.00000 : STEP LENGTH
NULL.                   -999.25 : NULL VALUE
COMP. GULF CANADA RESOURCES INC : COMPANY
WELL.    GULF STURLS 4-12-69-26 : WELL
FLD .                           : FIELD
LOC .                           : LOCATION
CTRY.                    CANADA : COUNTRY
SRVC.    Schlumberger of Canada : SERVICE COMPANY
DATE.               20-Feb-1982 : LOGDATE
PROV.                   Alberta : PROVINCE
UWI .          100041206926W500 : UNIQUE WELL ID
SLAT.WGS84             54.95583 : SURFACE LATITUDE
SLON.WGS84            -117.8332 : SURFACE LONGITUDE
~Curve Information -----------------------------------------
DEPT   .M                 : 
GRS    .GAPI 60 310 01 00 : GAMMA RAY FROM SONIC LOG
CALS   .MM   60 280 01 00 : CALIPER FROM SONIC LOG
DTME   .US/M 60 500 00 00 : DELTA-T (INTERVAL TRANSIT TIME) (METERS)
TENS   .LB   60 635 00 00 : TENSION FROM SONIC LOG
ILD    .OHMM 07 120 46 00 : INDUCTION DEEP RESISTIVITY
ILM    .OHMM 07 120 44 00 : INDUCTION MEDIUM RESISTIVITY
SFLU   .OHMM 07 220 01 00 : SHALLOW FOCUSED RESISTIVITY (UNAVERAGED)
SPR    .MV   07 010 01 00 : SPONTANEOUS POTENTIAL FROM RESISTIVITY LOG
TENR   .LB   07 635 00 00 : TENSION FROM RESISTIVITY LOG
NPHI_SS.DEC  42 890 03 00 : NEUTRON POROSITY SANDSTONE
GRD    .GAPI 45 310 01 00 : GAMMA RAY FROM DENSITY LOG
DPHI_SS.DEC  45 890 12 00 : DENSITY POROSITY SANDSTONE
DRHO   .G/C3 45 356 01 00 : BULK DENSITY CORRECTION
TEND   .LB   45 635 00 00 : TENSION FROM DENSITY LOG
CALD   .MM   45 280 60 00 : CALIPER FROM DENSITY LOG
NPHI_LS.DEC  42 890 01 00 : NEUTRON POROSITY LIMESTONE
DPHI_LS.DEC  45 890 10 00 : DENSITY POROSITY LIMESTONE
RHOB   .G/C3 45 350 01 00 : BULK DENSITY
GRR    .GAPI 07 310 01 00 : GAMMA RAY FROM RESISTIVITY LOG
~Params ----------------------------------------------------
PD  .                         GL : PERMANENT DATUM
EPD .M                       740 : ELEVATION PERMANENT DATUM
LMF .                         KB : LOG MEASURED FROM
DAPD.M                      6.55 : FEET ABOVE PERMANENT DATUM
DMF .                         KB : DRILLING MEASURED FROM
EKB .M                    746.55 : KELLY BUSHING
EDF .M                    746.15 : DRILLING FLOOR
EGL .M                       740 : GROUND LEVEL
DATE.                   02/20/82 : RUN DATE
RUN .                          1 : RUN NUMBER
DD  .M                      3373 : DEPTH DRILLER
DL  .M                      3373 : DEPTH LOGGER
BLI .M                      3371 : BOTTOM LOG INTERVAL
TLI .M                       610 : TOP LOG INTERVAL
CS  .MM                      244 : CASING SIZE
CBD .M                       610 : CASING BOTTOM DRILLER
CBL .M                       610 : CASING BOTTOM LOGGER
BS  .MM                      222 : BIT SIZE
BSD .M                      3373 : BIT SIZE AT DEPTH
DFT .                   GEL CHEM : DRILLING FLUID TYPE
DFD .                       1140 : DRILLING FLUID DENSITY
DFV .                         69 : DRILLING FLUID VISCOSITY
DFPH.                         10 : DRILLING FLUID PH
DFL .                        7.4 : DRILLING FLUID LOSS
MSS .                   FLOWLINE : MUD SAMPLE SOURCE
RMS .OHMM                   1.49 : RESISTIVITY MUD SAMPLE
MST .DEGC                   22.7 : MUD SAMPLE TEMPERATURE
RMF .OHMM                   1.38 : RESISTIVITY MUD FILTRATE SAMPLE
MFST.DEGC                   18.3 : MUD FILTRATE SAMPLE TEMPERATURE
RMC .OHMM                  0.437 : RESISTIVITY MUD CAKE
MCST.DEGC                    104 : MUD CAKE SAMPLE TEMPERATURE
MFSS.                      PRESS : MUD FILTRATE SAMPLE SOURCE
MCSS.                      PRESS : MUD CAKE SAMPLE SOURCE
RMB .OHMM                  0.525 : RESISTIVITY MUD AT BHT
TCS .HRS                    1230 : TIME CIRCULATED STOPPED
TLAB.HRS                    1930 : TIME LOGGER AT BOTTOM
LUN .                       8155 : LOGGING UNIT NUMBER
LUL .                         GP : LOGGING UNIT LOCATION
ENGI.                      JONES : RECORDING ENGINEER
WITN.                      ZADEH : WITNESSED BY
CLNT.                    A2DTECH : CLIENT CODE
ORIG. 6.5"/100M 16.5"/100M PRINT : ORIGIN OF DATA
UWI .           100041206926W500 : UNIQUE WELL ID
DICO.     A2D Technologies, Inc. : DIGITIZING COMPANY
~Other -----------------------------------------------------
~ASCII -----------------------------------------------------
  600.00000   40.08030    -999.25    -999.25    -999.25    -999.25    -999.25    -999.25    -999.25    -999.25    0.55160   39.06400    -999.25    -999.25    -999.25    -999.25    -999.25    -999.25    -999.25   41.24010
  650.00000   86.95040  256.80850  289.27470 1246.73390    8.30920    6.99120    6.86590    3.54960 1008.78780    0.40700   92.20630    0.23920    0.04280 1354.40270  407.88880    -999.25    -999.25    2.25400  103.97160
  700.00000  106.90300  252.36480  342.21560 1304.49690    7.01020    6.04200    6.61010    4.42130 1062.32480    0.39950  111.85040    0.20440    0.03200 1358.88990  427.70810    -999.25    -999.25    2.31240  114.85740
  750.00000   89.61140  254.09300  311.58070 1340.14990   10.31210    8.63900    8.38260    4.03260 1103.59910    0.36170   99.24910    0.17870    0.03850 1475.33290  451.58920    -999.25    -999.25    2.35140   88.37110
  800.00000  102.08300  248.94360  328.03230 1408.50670   10.46130   10.46040    7.97200   -0.55740 1147.07700    0.40750   95.52990    0.18400    0.05330 1548.62720  334.94100    -999.25    -999.25    2.34090   96.82260
  850.00000  103.22430  239.40070  296.26790 1430.07260    9.81490    8.34230    8.58670    5.13190 1203.61510    0.38140  106.95910    0.26500    0.04650 1533.89990  300.06380    -999.25    -999.25    2.21480   96.79030
  900.00000  109.54380  243.45620  342.83600 1446.60720    7.13510    6.48290    7.26760    5.91160 1250.80310    0.42030  114.65690    0.30120    0.19840 1560.27980  269.95710    -999.25    -999.25    2.15940  109.62150
  950.00000  101.36530  238.48270  279.48460 1550.22310    9.70470    8.84810   11.83270    6.83810 1284.53810    0.31940  105.29770    0.13230    0.25060 1636.83390  276.85140    -999.25    -999.25    2.40810   98.62900
 1000.00000  108.99510  252.03350  329.51800 1563.87210    7.64780    7.30300    8.62770    6.76310 1353.84810    0.39370  124.51980    0.16150    0.07790 1691.55310  310.91780    -999.25    -999.25    2.38800  126.58670
 1050.00000  102.36820  242.07910  297.87610 1635.09440    7.15160    6.39450    6.41880    5.36850 1389.09520    0.35100  107.24380    0.11820    0.16420 1767.85250  239.86570    -999.25    -999.25    2.37780  100.42410
 1100.00000  102.15240  240.87300  299.34270 1688.31790    6.46970    6.29430    6.70420    8.13770 1434.51820    0.35910   98.22380    0.16380    0.14380 1787.34060  280.15780    -999.25    -999.25    2.36120  102.56100
 1150.00000  106.67350  252.78410  278.06490 1760.52060    8.29540    8.12560    9.18260    7.10030 1505.48050    0.27900   97.42980    0.08030    0.08650 1833.92880  307.34700    -999.25    -999.25    2.51460  102.83080
 1200.00000  206.96550  253.16480  354.17550 1776.21940    4.53180    4.36910    5.31350    8.17710 1541.32480    0.41860  214.94250    0.16870    0.02900 1811.56310  360.83130    -999.25    -999.25    2.37160  203.96660
 1250.00000   90.86740  284.08400  317.28660 1840.88980    4.54830    4.33360    4.78690    8.13880 1595.31950    0.36540   93.61730    0.16630    0.18400 1945.44470  348.13850    -999.25    -999.25    2.37590  102.92850
 1300.00000   33.35950  219.74110  266.33410 1864.82850    6.46100    8.49270   11.97200  -46.19150 1647.57340    0.21240   34.33310    0.16640    0.07610 1993.51640  217.78420    -999.25    -999.25    2.37250   31.92910
 1350.00000   38.74960  234.92170  191.56900 1945.35630   31.87180   41.93520   57.29970    2.35790 1698.04130    0.09400   39.18220   -0.00390    0.00650 2057.02660  246.18760    -999.25    -999.25    2.66470   37.95560
 1400.00000   60.26820  219.17370  259.35080 1971.27160    7.83300   10.10890   13.02230  -34.65350 1746.06690    0.25020   55.32370    0.15600    0.05350 2032.41910  223.33260    -999.25    -999.25    2.39530   52.71990
 1450.00000   57.42870  244.19430  263.59000 2009.88820    7.15740    7.58150   14.12790   -8.33780 1794.26600    0.27690   63.26920    0.07110    0.03420 2110.24270  257.55220    -999.25    -999.25    2.53050   71.16550
 1500.00000   44.90880  218.67390  252.67960 2035.15310    6.09590    8.51100   13.36710  -49.10180 1859.41650    0.22360   51.99340    0.14500    0.02370 2132.28080  226.94410    -999.25    -999.25    2.41110   44.72130
 1550.00000   64.33640  281.05940  218.30210 2140.57400   12.51010   14.67840   24.38420  -22.83020 1892.67960    0.17590   60.97220    0.06600    0.02450 2199.51120  294.25840    -999.25    -999.25    2.51920   59.22460
 1600.00000   87.63060  279.24090  259.19510 2190.19430   11.71970   12.00570   13.65000    1.78250 1933.37710    0.27760   95.44150    0.04220    0.02130 2268.56570  318.75960    -999.25    -999.25    2.58240  106.04010
 1650.00000  106.87820  283.65980  262.26990 2174.62160   14.87360   14.19710   18.77120   10.72530 1981.84960    0.32970  109.96530    0.12010    0.06050 2306.38670  294.16250    -999.25    -999.25    2.52500  121.90320
 1700.00000   71.71180  256.08950  230.21340 2241.05660   16.21560   19.95990   23.62260 -145.41690 2025.62730    0.17950   68.05850    0.07050    0.04480 2333.35350  259.80040    -999.25    -999.25    2.54390   73.79860
 1750.00000   39.54300  227.42420  256.85510 2246.76510    6.97760    9.01380   15.17720 -180.68780 2076.54050    0.22010   42.70300    0.15250    0.07290 2369.59380  230.16150    -999.25    -999.25    2.39720   50.95250
 1800.00000  292.09320  243.15560  351.45360 2331.84300  101.52660  192.12660  672.24570 -133.30240 2110.89820    -999.25  265.27200    -999.25   -0.00500 2449.99050  251.98930    0.38700    0.28310    2.22330  276.22140
 1850.00000   90.07930  243.75610  227.71470 2977.87130    3.36980    4.42390   10.56170 -176.50220 2181.07300    -999.25   90.79580    -999.25    0.04760 2485.02200  296.96750    0.15910    0.10260    2.53550  100.71800
 1900.00000   97.44130  248.39350  221.43170 2920.41410    8.36410    9.62400   12.52670 -138.67340 2246.28270    -999.25   99.09180    -999.25    0.02080 2530.63620  285.05730    0.10300    0.04800    2.63080  101.08360
 1950.00000   92.65870  250.84330  212.43080 2741.10520   13.09750   13.41250   16.71280 -145.84920 2284.53740    -999.25   90.48390    -999.25    0.01270 2639.82350  275.13540    0.08390    0.06820    2.59790   86.51500
 2000.00000   62.69170  249.86130  201.50000 2140.18950   20.93540   31.83250   67.18400 -186.44780 2335.57890    -999.25   39.21300    -999.25    0.02380 2679.85280  235.59680    0.12570    0.08470    2.55870   28.73130
 2050.00000   18.73130  253.96180  204.45740 1688.09010    2.68320    4.15640   14.70810 -227.94070 2385.83470    -999.25   37.94580    -999.25    0.06450 2641.44070  213.92080    0.17150    0.11180    2.52210   37.51220
 2100.00000   57.81180  258.76710  170.07750 2125.60080   69.99110   99.38880  116.46120 -152.02150 2427.24070    -999.25   62.36650    -999.25    0.02170 2759.72000  233.25580    0.04800   -0.03320    2.76330   56.55460
 2150.00000   85.20010  259.74460  208.71690 2193.37400    5.03920    5.21970    6.88390 -167.70810 2485.67850    -999.25   76.68010    -999.25    0.00470 2797.68870  243.54700    0.16300    0.02190    2.67020   76.44430
 2200.00000   28.87350  261.99860  170.79840 2310.44020    6.08300    8.20920   40.27850 -155.94480 2526.97490    -999.25   29.94320    -999.25    0.02030 2827.55810  243.76160    0.03870   -0.00640    2.72760   27.42850
 2250.00000   13.92740  265.39880  166.09920 2291.15330   63.62550   91.47560  109.16710 -204.17550 2564.05130    -999.25   15.55010    -999.25    0.00430 2933.73050  255.74470    0.00640    0.02170    2.67950   16.84910
 2300.00000   14.22660  265.57860  165.77770 2406.79610   12.26040   15.90310  144.09270 -204.98390 2612.83860    -999.25   11.49140    -999.25    0.01840 2974.21950  258.88440    0.00910    0.00520    2.71110   13.93200
 2350.00000   23.74580  269.83990  181.48210 2545.35740   77.67510   98.37200   89.13940 -194.23950 2670.44680    -999.25   30.32930    -999.25    0.03690 3025.50240  269.91660    0.02960    0.04870    2.64330   33.49400
 2400.00000  114.82390  272.27520  242.13520 3021.20430    5.44090    5.78780    8.05990 -148.43580 2726.80350    -999.25  124.85900    -999.25    0.24460 3156.51560  355.18350    0.20810    0.19710    2.33540  128.52390
