~Version ---------------------------------------------------
VERS.      2.0 : CWLS log ASCII Standard -VERSION 2.0
WRAP.       NO : One line per depth step
CREA. 07/23/13 : LAS Creation Date
~Well ------------------------------------------------------
STRT.FT                    300.0 : START DEPTH
STOP.FT                  13950.0 : STOP DEPTH
STEP.FT                 50.00000 : STEP LENGTH
NULL.                    -999.25 : NULL VALUE
COMP.   PENN WEST PETROLEUM LTD. : COMPANY
WELL. CONOCO WEB PECO 6-26-47-15 : WELL
FLD .                       PECO : FIELD
LOC .                            : LOCATION
CTRY.                     CANADA : COUNTRY
SRVC.     Schlumberger of Canada : SERVICE COMPANY
DATE.                03-May-1960 : LOGDATE
PROV.                    Alberta : PROVINCE
UWI .           100062604715W500 : UNIQUE WELL ID
SLAT.WGS84         53.0817985535 : SURFACE LATITUDE
SLON.WGS84       -116.0888900757 : SURFACE LONGITUDE
~Curve Information -----------------------------------------
DEPT .FT            : DEPTH FEET
CALM .IN            : CALIPER FROM MICRO LOG
CILD .MMHO          : CONDUCTIVITY FROM IL LOG
DT   .US/F          : DELTA-T 3 FEET SPACING FROM SONIC LOG
DT_1 .US/F          : DELTA-T 1 FEET SPACING FROM SONIC LOG
GRS  .UG_RA-EQ/TON  : GAMMA RAY FROM SONIC LOG
ILD  .OHMM          : DEEP INDUCTION FROM IL LOG
LN   .OHMM          : LONG NORMAL FROM EL LOG
LT18 .OHMM          : LATERAL 18 FROM EL LOG
MCAL .IN            : CALIPER FROM MICRO LOG
MLL  .OHMM          : MICRO LATEROLOG FROM MICRO LOG
SN   .OHMM          : SHORT NORMAL FROM EL LOG
SPR  .MV            : SPONTANEOUS POTENTIAL FROM EL LOG
SPR_1.MV            : SPONTANEOUS POTENTIAL FROM IL LOG
~Params ----------------------------------------------------
PD  .                    GND : PERMANENT DATUM
LMF .                    GND : LOG MEASURED FROM
DMF .                    GND : DRILLING MEASURED FROM
EGL .FT                 3857 : GROUND LEVEL
DATE.               05/03/60 : RUN DATE
RUN .                      2 : RUN NUMBER
DD  .FT                13975 : DEPTH DRILLER
DL  .FT                13965 : DEPTH LOGGER
BLI .FT                13960 : BOTTOM LOG INTERVAL
TLI .FT                 9389 : TOP LOG INTERVAL
CBD .FT                 9386 : CASING BOTTOM DRILLER
CBL .FT                 9389 : CASING BOTTOM LOGGER
BS  .IN                8.875 : BIT SIZE
BSD .FT                13975 : BIT SIZE AT DEPTH
DFT .                   LIME : DRILLING FLUID TYPE
DFD .                     10 : DRILLING FLUID DENSITY
DFV .                     96 : DRILLING FLUID VISCOSITY
DFPH.                     13 : DRILLING FLUID PH
RMS .OHMM               0.69 : RESISTIVITY MUD SAMPLE
MST .DEGF                 58 : MUD SAMPLE TEMPERATURE
RMF .OHMM                0.4 : RESISTIVITY MUD FILTRATE SAMPLE
MFST.DEGF                 70 : MUD FILTRATE SAMPLE TEMPERATURE
RMC .OHMM                0.7 : RESISTIVITY MUD CAKE
MCST.DEGF                 70 : MUD CAKE SAMPLE TEMPERATURE
RMB .OHMM               0.16 : RESISTIVITY MUD AT BHT
TCS .HRS                   5 : TIME CIRCULATED STOPPED
LUN .               DSU C 72 : LOGGING UNIT NUMBER
ENGI.                  JAMES : RECORDING ENGINEER
WITN.               SHERRIFF : WITNESSED BY
CLNT.                A2DTECH : CLIENT CODE
ORIG.            2" 5" PRINT : ORIGIN OF DATA
UWI .       100062604715W500 : UNIQUE WELL ID
DICO. A2D Technologies, Inc. : DIGITIZING COMPANY
~Other -----------------------------------------------------
~ASCII -----------------------------------------------------
# ...
 10700.00000    9.57930   33.05850   55.94230   57.94540    2.34570   32.17730  101.14690  177.02870    -999.25  357.43120   29.93000    -999.25  -81.44460
 10750.00000   10.24750   12.96730   50.71870   50.25590    0.36460   91.78690  397.54900  456.43610    -999.25  208.24030   60.73640    -999.25 -142.48890
 10800.00000    9.13310   31.55240   53.18080   53.28320    0.66610   32.40970   97.19460  463.74700    -999.25   42.75590   21.08480    -999.25 -160.03230
 10850.00000    8.65740   13.64280   53.16980   52.58910    0.73660   77.71720  156.50710  618.54220    -999.25   16.73670   31.43480    -999.25 -154.93810
 10900.00000    8.78180   73.21510   59.86240   57.75160    3.55960   13.23890   27.60690   78.39360    -999.25   17.00150   13.07340    -999.25  -69.23640
 10950.00000    8.80350   85.52880   59.99350   59.53960    3.06780   11.64980   20.71880   15.24720    -999.25    7.83930   10.72310    -999.25  -48.38710
 11000.00000    8.75790   18.61470   58.46530   58.34260    3.73770   53.13190   94.74570   86.87690    -999.25   26.85170   32.25030    -999.25  -61.96340
 11050.00000    9.77690   20.57430   55.57540   56.35070    1.12090   45.71440   69.14300  100.50250    -999.25   10.50840   23.77380    -999.25  -49.75820
 11100.00000   10.70120   17.26410   53.32210   54.97660    2.69560   55.00340   81.37530  123.55450    -999.25   36.88600   26.84970    -999.25  -78.83560
 11150.00000    9.65510   40.63230   56.26690   56.91120    0.79120   26.88560   83.50740  116.41040    -999.25    2.77700   22.91710    -999.25  -70.90070
 11200.00000    8.92600   15.26990   56.06750   55.90100    2.04480   73.76020  144.30290  241.80110    -999.25   69.96630   37.31230    -999.25  -69.84940
 11250.00000    8.62520   18.97970   57.53510   57.51610    2.92030   52.20320  110.97950  171.47910    -999.25   43.48270   30.62610    -999.25  -59.72660
 11300.00000    8.78120   29.38340   60.80460   64.94390    3.56670   32.28410   54.87760   88.72820    -999.25   30.84140   20.20740    -999.25  -48.64820
 11350.00000    8.77470   25.71870   67.15410   66.50680    3.38660   43.71860   81.14840   99.51350    -999.25   30.67150   28.71000    -999.25  -60.36480
 11400.00000    8.31300   13.12650   52.85590   51.07950    4.72920   81.83380  290.90470   72.32120    -999.25   62.80940   81.61340    -999.25 -125.22020
 11450.00000    9.86440    4.62220   51.65890   51.51530    0.89870  225.61460    -999.25    -999.25    -999.25    5.07560   57.61510    -999.25 -111.28460
 11500.00000   10.52260   42.26190   57.84480   66.31390    1.18580   32.01050  334.12150  408.75710    -999.25    1.89040   27.29540    -999.25 -114.08020
 11550.00000    9.57650   10.68450   51.52270   53.64520    0.70490   91.03680  181.91360  321.77620    -999.25    4.57970   31.20840    -999.25 -137.64530
 11600.00000   12.00990   43.04240   51.82830   53.26150    0.82290   25.22060  247.71840  159.15700    -999.25    8.14260   39.11540    -999.25 -154.51830
 11650.00000   11.23980   36.36560   53.99830   48.54600    0.54070   24.45600  230.50500  144.29030    -999.25    2.01810   42.43610    -999.25 -122.88040
 11700.00000    8.12100   17.70610   50.68230   47.90790    0.63320   61.98070  247.64560  266.21490    -999.25    4.42150   33.12440    -999.25 -103.48760
 11750.00000   11.93910   11.08500   58.36070   55.46700    0.60560   60.72800  192.17510  164.80040    -999.25    8.09150   35.70060    -999.25 -102.17050
 11800.00000   12.24570   13.19970   51.98730   45.94600    0.64700   83.53230  340.22280  125.67950    -999.25    6.65450   21.32920    -999.25 -105.98270
 11850.00000   12.16440   16.89990   57.48230   56.27490    0.76270   46.42600  236.82950   95.77180    -999.25    4.76390   17.54120    -999.25  -92.30000
 11900.00000   10.76710    5.34520   58.35170   49.76770    0.77170  326.45830  271.94690  226.95270    -999.25    4.32020   44.87770    -999.25 -132.45220
 11950.00000   11.17190   14.74920   55.58490   61.34470    0.63280   64.51700  333.16430  325.35420    -999.25    3.65620   43.96930    -999.25 -117.79390
 12000.00000    8.38530    6.99870   52.53640   51.26180    0.82550  231.49720  274.16060  436.28190    -999.25   44.07300   36.88110    -999.25 -118.96570
 12050.00000    8.48220    2.07450   50.63380   52.56830    0.77890  500.28900  254.51450  320.91080    -999.25   57.79110   44.39850    -999.25 -130.86110
 12100.00000   10.47670   21.13970   41.65180   47.59120    1.80390   46.68080  139.96180  218.23940    -999.25    2.31540   23.42780    -999.25 -123.59460
 12150.00000   12.50720   40.88070   54.72520   57.81310    1.78200   25.92480  194.21670  163.64850    -999.25    2.26780   35.53380    -999.25 -138.60360
 12200.00000    9.06160   17.43880   56.61550   57.16140    1.32510   57.61490  182.10440  347.85810    -999.25    4.36780   27.88880    -999.25 -110.08890
 12250.00000    7.99310   36.45370   58.89200   60.49840    2.25010   28.89860   70.33530  170.89530    -999.25   11.17420   19.25660    -999.25  -68.42890
 12300.00000    8.71460   66.88590   66.75180   63.52590    2.74540   14.47530   43.25760  168.48860    -999.25  100.59880   15.64600    -999.25  -48.25360
 12350.00000    9.65420   90.84350   76.27810   79.27030    5.94010   11.24140   21.97660   25.30130    -999.25   10.48140   11.15730    -999.25  -39.03850
 12400.00000    8.37210    4.41570   54.15650   53.20570    1.98530  182.98060  211.17650  105.83050    -999.25  184.02930   66.03960    -999.25  -94.09920
 12450.00000    8.44020   19.83110   56.29030   57.33410    1.75130   64.76770   97.91700   98.50810    -999.25   28.33330   31.97760    -999.25  -65.95380
 12500.00000    9.15610   17.54480   53.94080   52.11080    2.93780   69.74250  129.41550  184.32700    -999.25   27.51220   34.61910    -999.25  -69.20250
 12550.00000    8.80500   29.73530   57.78160   53.31500    1.86560   32.77570   55.82870  145.87990    -999.25   35.31550   19.20630    -999.25  -46.40510
 12600.00000    9.90210  138.77640   69.93090    -999.25    4.58430    7.34070   11.41150   12.09070    -999.25    3.30670    7.41680 -190.25690  -35.80430
 12650.00000    9.14290  151.29970   73.79400    -999.25    4.73370    6.92940    8.49750    6.99230    -999.25    5.43530    6.80630 -130.82290  -29.05440
 12700.00000    8.78090  128.04840   70.66760    -999.25    4.59070    7.97370   11.66550    9.74230    -999.25    7.09940    8.33110  -77.68070  -28.46320
 12750.00000    9.91750  168.33030   90.74090    -999.25    4.68340    6.01940    8.01500    8.75310    -999.25    6.28210    6.42660 -144.08160  -25.25060
 12800.00000   12.46670  287.80390   76.61000    -999.25    5.23380    4.21160    5.67660    6.13640    -999.25    2.04120    3.49950 -158.38040  -22.63530
 12850.00000   10.12510  155.37200   75.28910    -999.25    4.74680    6.62130    9.04940    8.32730    -999.25    4.08520    6.87850 -106.48870  -19.84510
 12900.00000   12.08150  247.00920   74.65480    -999.25    4.45320    4.78570    6.06670    6.34870    -999.25    2.18040    3.90180 -113.59330  -19.19460
 12950.00000   12.83330  271.93300   75.41690    -999.25    4.51270    4.62950    6.26150    6.67630    -999.25    1.18360    4.04900  -25.94690  -19.25970
 13000.00000   11.39150  296.85180   77.28900    -999.25    5.15870    4.09780    5.84500    6.29230    -999.25    1.32760    4.21980    -999.25  -18.32240
 13050.00000    8.80860  164.15520   73.14920    -999.25    4.74100    6.45070    9.78830    7.92920    -999.25    4.84190    7.48350  -48.01420  -19.29700
 13100.00000    8.40630  113.97940   62.82520    -999.25    4.57340    9.25810   12.91500    6.47120    -999.25    5.76700    7.94730    -999.25  -20.35400
 13150.00000    8.55560  184.02930   72.05340    -999.25    4.99100    5.69500    8.98960    9.36280    -999.25    4.54300    6.48660  -86.90290  -15.96830
 13200.00000    8.86310   20.34460   75.48780   78.16330    3.91640   49.42990   58.59800   24.34380    -999.25   56.37700   23.04370    -999.25  -43.14260
 13250.00000    9.03180   47.65190   78.45050   79.42850    4.79170   31.29640   76.58250  142.61260    -999.25   46.06430   21.83370  -77.21390  -36.31610
