~Version ---------------------------------------------------
VERS.      2.0 : CWLS log ASCII Standard -VERSION 2.0
WRAP.       NO : One line per depth step
CREA. 12/15/17 : LAS Creation Date
~Well ------------------------------------------------------
STRT.FT                                  850.0 : START DEPTH
STOP.FT                                 9450.0 : STOP DEPTH
STEP.FT                               50.00000 : STEP LENGTH
NULL.                                  -999.25 : NULL VALUE
COMP. THE BRITISH AMERICAN OIL COMPANY LIMITED : COMPANY
WELL.                 BA SNIPE LAKE 4-22-69-18 : WELL
FLD .                                          : FIELD
LOC .                                          : LOCATION
CTRY.                                   CANADA : COUNTRY
SRVC.                                  Unknown : SERVICE COMPANY
DATE.                              19-Nov-1961 : LOGDATE
PROV.                                  Alberta : PROVINCE
UWI .                         100042206918W500 : UNIQUE WELL ID
SLAT.WGS84                            54.98301 : SURFACE LATITUDE
SLON.WGS84                           -116.6662 : SURFACE LONGITUDE
~Curve Information -----------------------------------------
DEPT  .FT         : Depth Curve
CALWS .IN         : CALIPER [MCALED]
CILDED.MMHO       : CONDUCTIVITY FROM RESISTIVITY LOG
CONDWS.MMHO       : CONDUCTIVITY [1000/DRESWS]
DRESWS.OHMM       : DEEP RESISTIVITY [1000/CILDED, IF ILDED < 1, ILDED]
GRNED .UgRa-Eq/T  : GAMMA RAY FROM GRN LOG [ADJ. TO RESISTIVITY LOG]
GRWS  .GAPI       : GAMMA RAY [UgRa-Eq/T*16.5][GRNED]
ILDED .OHMM       : DEEP INDUCTION LOG RESISTIVITY FROM RESISTIVITY LOG
MCALED.IN         : MLT [MICROLOG][IN*25.4] CALIPER FROM MICROLOG
NEUTED.CPS        : NEUTRON FROM GRN LOG [ADJ. TO RESISTIVITY LOG]
NEUTWS.CPS        : NEUTRON [NEUTED]
SNED  .OHMM       : 16 INCH SHORT NORMAL RESISTIVITY FROM RESISTIVITY LOG
SPRED .MV         : SPONTANEOUS POTENTIAL FROM RESISTIVITY LOG [SPR IS DIVIDED BY 2 TO REDUCE READINGS]
SPWS  .MV         : SPONTANEOUS POTENTIAL [BASELINE TO 0 MV, SPRED]
SRESWS.OHMM       : SHALLOW RESISTIVITY [SNED]
~Params ----------------------------------------------------
PD  .                     GL : PERMANENT DATUM
EPD .FT               2982.5 : ELEVATION PERMANENT DATUM
LMF .                     KB : LOG MEASURED FROM
DAPD.FT                 13.5 : FEET ABOVE PERMANENT DATUM
EKB .FT                 2996 : KELLY BUSHING
EGL .FT               2982.5 : GROUND LEVEL
DATE.               11/19/61 : RUN DATE
RUN .                      2 : RUN NUMBER
DD  .FT                 9486 : DEPTH DRILLER
DL  .FT                 9484 : DEPTH LOGGER
BLI .FT                 9483 : BOTTOM LOG INTERVAL
TLI .FT                 6200 : TOP LOG INTERVAL
CBD .FT                  950 : CASING BOTTOM DRILLER
BS  .IN                    9 : BIT SIZE
BSD .FT                 9486 : BIT SIZE AT DEPTH
DFT .                    GEL : DRILLING FLUID TYPE
DFD .                   10.2 : DRILLING FLUID DENSITY
DFV .                    160 : DRILLING FLUID VISCOSITY
DFPH.                    8.5 : DRILLING FLUID PH
DFL .                    7.6 : DRILLING FLUID LOSS
RMS .OHMM                3.2 : RESISTIVITY MUD SAMPLE
MST .DEGF                 60 : MUD SAMPLE TEMPERATURE
RMF .OHMM                1.6 : RESISTIVITY MUD FILTRATE SAMPLE
MFST.DEGF                 71 : MUD FILTRATE SAMPLE TEMPERATURE
RMC .OHMM                3.0 : RESISTIVITY MUD CAKE
MCST.DEGF                 74 : MUD CAKE SAMPLE TEMPERATURE
RMB .OHMM                1.1 : RESISTIVITY MUD AT BHT
TCS .HRS                   3 : TIME CIRCULATED STOPPED
LUN .                   1534 : LOGGING UNIT NUMBER
LUL .                     WC : LOGGING UNIT LOCATION
ENGI.        MILLS HAUSEGGER : RECORDING ENGINEER
WITN.               ANDERSON : WITNESSED BY
CLNT.                A2DTECH : CLIENT CODE
ORIG.            2" 5" PRINT : ORIGIN OF DATA
UWI .       100042206918W500 : UNIQUE WELL ID
DICO. A2D Technologies, Inc. : DIGITIZING COMPANY
~Other -----------------------------------------------------
~ASCII -----------------------------------------------------
# ...
 3300.00000   11.58620  215.83780  190.12850    5.25960    6.14290  101.35870    5.25960   11.58620  176.47120  176.47120    5.94210  -51.96900  -12.26830    5.94210
 3350.00000   11.45830  235.36220  210.26960    4.75580    6.57160  108.43140    4.75580   11.45830  187.49580  187.49580    5.88380  -51.69300  -11.99230    5.88380
 3400.00000   11.76680  204.14770  180.86780    5.52890    6.19570  102.22910    5.52890   11.76680  188.91150  188.91150    6.13080  -51.04750  -11.34680    6.13080
 3450.00000   10.65490  197.35220  182.64840    5.47500    6.11130  100.83650    5.47500   10.65490  188.64280  188.64280    6.23230  -51.42630  -11.72560    6.23230
 3500.00000   12.70730  269.64130  228.37310    4.37880    5.25180   86.65470    4.37880   12.70730  181.67900  181.67900    5.10460  -49.54910   -9.84840    5.10460
 3550.00000   10.62870  243.19420  215.71720    4.63570    5.78800   95.50200    4.63570   10.62870  188.59030  188.59030    5.25480  -49.91190  -10.21130    5.25480
 3600.00000   12.05260  242.88430  220.93590    4.52620    6.21620  102.56730    4.52620   12.05260  182.66560  182.66560    5.20290  -49.64040   -9.93970    5.20290
 3650.00000   13.43180  250.85910  228.03460    4.38530    6.05360   99.88440    4.38530   13.43180  177.97450  177.97450    5.03170  -48.75600   -9.05530    5.03170
 3700.00000   14.24280  484.24770  394.86670    2.53250    5.53830   91.38190    2.53250   14.24280  178.98090  178.98090    3.14650  -48.60820   -8.90750    3.14650
 3750.00000   14.28040  496.63060  393.49940    2.54130    6.35020  104.77830    2.54130   14.28040  166.61790  166.61790    2.99110  -47.87770   -8.17700    2.99110
 3800.00000   14.25380  337.19170  296.35780    3.37430    5.93890   97.99100    3.37430   14.25380  188.54360  188.54360    4.00400  -48.95320   -9.25250    4.00400
 3850.00000   12.01180  278.15160  245.39880    4.07500    6.75670  111.48560    4.07500   12.01180  192.20010  192.20010    4.84870  -49.16830   -9.46760    4.84870
 3900.00000   11.16340  226.12690  195.24000    5.12190    6.10640  100.75560    5.12190   11.16340  190.36550  190.36550    5.66560  -50.08900  -10.38830    5.66560
 3950.00000   12.61260  364.05790  307.14420    3.25580    4.50810   74.38370    3.25580   12.61260  188.20470  188.20470    3.82750  -50.22570  -10.52500    3.82750
 4000.00000   10.30890  242.37260  218.24530    4.58200    5.54820   91.54530    4.58200   10.30890  200.09550  200.09550    5.28230  -49.96660  -10.26590    5.28230
 4050.00000    9.53400  116.84270  112.43910    8.89370    3.19860   52.77690    8.89370    9.53400  166.00090  166.00090   10.71450  -50.12220  -10.42150   10.71450
 4100.00000    8.49280  358.35620  309.17640    3.23440    2.67010   44.05670    3.23440    8.49280  217.50810  217.50810   15.87260  -88.96370  -49.26300   15.87260
 4150.00000    8.47090  298.56460  263.00560    3.80220    2.84230   46.89710    3.80220    8.47090  216.43400  216.43400   16.36460  -83.20900  -43.50830   16.36460
 4200.00000    9.12840  267.94540  237.20290    4.21580    3.68970   60.88010    4.21580    9.12840  195.80230  195.80230    8.43990  -59.65960  -19.95890    8.43990
 4250.00000   10.22140  216.75500  208.41580    4.79810    2.63290   43.44290    4.79810   10.22140  197.75110  197.75110    6.64120  -51.06050  -11.35980    6.64120
 4300.00000   14.02850  264.21740  227.95140    4.38690    3.82630   63.13400    4.38690   14.02850  192.18120  192.18120    5.49910  -51.13370  -11.43300    5.49910
 4350.00000    9.64140  329.50410  269.75990    3.70700    3.98350   65.72780    3.70700    9.64140  199.88710  199.88710    4.77640  -52.35800  -12.65730    4.77640
 4400.00000    9.42910  279.20560  247.02950    4.04810    5.12530   84.56750    4.04810    9.42910  193.03390  193.03390    5.04580  -49.06600   -9.36530    5.04580
 4450.00000    8.30900  290.16390  244.09890    4.09670    3.18640   52.57560    4.09670    8.30900  219.65210  219.65210   18.45800  -88.11610  -48.41540   18.45800
 4500.00000    8.32790  162.36590  156.69070    6.38200    3.46750   57.21370    6.38200    8.32790  214.50810  214.50810   20.71690  -79.85810  -40.15740   20.71690
 4550.00000    8.56680  316.03930  273.68020    3.65390    3.16330   52.19440    3.65390    8.56680  222.02370  222.02370   12.63050  -85.31400  -45.61330   12.63050
 4600.00000    9.73850  222.15390  198.60580    5.03510    4.63170   76.42310    5.03510    9.73850  211.70550  211.70550    6.05470  -54.77640  -15.07570    6.05470
 4650.00000    8.48360  264.38090  242.57130    4.12250    4.45900   73.57350    4.12250    8.48360  218.20930  218.20930   14.47640  -86.42300  -46.72230   14.47640
 4700.00000    9.68300  200.08970  191.94230    5.20990    3.46500   57.17250    5.20990    9.68300  231.76290  231.76290   11.88630  -65.55650  -25.85580   11.88630
 4750.00000    9.98890  220.82490  205.71480    4.86110    4.78950   79.02590    4.86110    9.98890  200.57850  200.57850    6.25860  -54.64910  -14.94840    6.25860
 4800.00000   10.04770  168.53410  163.56440    6.11380    5.14430   84.88050    6.11380   10.04770  212.58060  212.58060    8.01170  -54.76680  -15.06610    8.01170
 4850.00000    9.67790  569.13070  403.33970    2.47930    4.29780   70.91290    2.47930    9.67790  189.56270  189.56270    3.06300  -50.20360  -10.50290    3.06300
 4900.00000   11.30270  160.55640  164.47100    6.08010    4.46600   73.68900    6.08010   11.30270  226.52720  226.52720    9.52260  -54.10260  -14.40190    9.52260
 4950.00000    9.15390   55.32890   49.79660   20.08170    3.95330   65.22950   20.08170    9.15390  227.67470  227.67470   21.03700  -55.78760  -16.08700   21.03700
 5000.00000   10.34040   99.03650   97.77850   10.22720    4.70150   77.57480   10.22720   10.34040  224.35310  224.35310   14.58170  -54.87980  -15.17920   14.58170
 5050.00000   11.23790  160.05640  151.68750    6.59250    5.88050   97.02830    6.59250   11.23790  194.81380  194.81380    8.53190  -50.52070  -10.82000    8.53190
 5100.00000    8.72340  190.15700  173.41840    5.76640    2.90480   47.92920    5.76640    8.72340  233.85980  233.85980   17.75100  -76.62400  -36.92330   17.75100
 5150.00000    9.98660   54.84220   50.12280   19.95100    6.93550  114.43580   19.95100    9.98660  198.21550  198.21550   32.53770  -44.10200   -4.40130   32.53770
 5200.00000    9.10870    4.67610    2.00000  500.00000    2.74010   45.21160  500.00000    9.10870  261.69300  261.69300  211.83020  -47.26300   -7.80690  211.83020
 5250.00000    8.94770  112.48930  113.52800    8.80840    9.25540  152.71410    8.80840    8.94770  225.06940  225.06940   28.25270  -49.58420  -10.39560   28.25270
 5300.00000    9.43190  482.22380  381.33010    2.62240    3.84920   63.51180    2.62240    9.43190  218.87180  218.87180    8.85090  -85.82430  -46.90330    8.85090
 5350.00000    8.11800 2003.64700 2003.64700    0.49910    1.33700   22.06050    0.92360    8.11800  234.51590  234.51590    7.00140 -136.10330  -97.45150    7.00140
 5400.00000    8.01850  259.70470  230.98960    4.32920    1.80390   29.76440    4.32920    8.01850  267.63260  267.63260   23.96890 -118.70330  -80.31900   23.96890
 5450.00000    9.16710   78.06120   66.17300   15.11190    3.08390   50.88430   15.11190    9.16710  280.20010  280.20010   25.63930  -81.96480  -43.84990   25.63930
 5500.00000    8.52810   39.52670   35.31750   28.31460    2.33570   38.53910   28.31460    8.52810  281.43080  281.43080   51.12390  -81.80710  -43.95980   51.12390
 5550.00000    9.08210   49.16460   41.12250   24.31760    1.44220   23.79630   24.31760    9.08210  296.71970  296.71970   76.71950 -105.24820  -67.66830   76.71950
 5600.00000    9.87020   66.44540   63.57970   15.72830    3.29500   54.36830   15.72830    9.87020  245.26110  245.26110   29.06030  -81.15340  -43.84280   29.06030
 5650.00000    9.98900  339.15190  285.45330    3.50320    2.32980   38.44170    3.50320    9.98900  231.01660  231.01660    9.08080  -90.15420  -53.11110    9.08080
 5700.00000    9.70980   65.31690   65.88010   15.17910    3.95810   65.30870   15.17910    9.70980  274.07900  274.07900   27.00780  -63.07410  -26.30030   27.00780
