~Version ---------------------------------------------------
VERS. 2.0 : CWLS log ASCII Standard -VERSION 2.0
WRAP.  NO : ONE LINE PER DEPTH STEP
~Well ------------------------------------------------------
STRT.M                            300.0 : START DEPTH
STOP.M                           2700.0 : STOP DEPTH
STEP.M                         50.00000 : STEP LENGTH
NULL.                           -999.25 : NULL VALUE
COMP.                      DEVON CANADA : COMPANY
WELL. ANDERSON ET A WIMBORNE 2-15-34-26 : WELL
FLD .                                   : FIELD
LOC .                                   : LOCATION
CTRY.                            CANADA : COUNTRY
SRVC.                      Schlumberger : SERVICE COMPANY
DATE.                       19-Dec-1998 : LOGDATE
PROV.                           Alberta : PROVINCE
UWI .                  100021503426W400 : UNIQUE WELL ID
SLAT.WGS84                51.9115746482 : SURFACE LATITUDE
SLON.WGS84              -113.6033034669 : SURFACE LONGITUDE
~Curve Information -----------------------------------------
DEPT    .M      : DEPTH METERS
AF20ED  .OHMM   : 20 INCH ARRAY RESISTIVITY FOUR FOOT RESOLUTION
AF30ED  .OHMM   : 30 INCH ARRAY RESISTIVITY FOUR FOOT RESOLUTION
AF60ED  .OHMM   : 60 INCH ARRAY RESISTIVITY FOUR FOOT RESOLUTION
AHIBDED .MM     : AIT INPUT BOREHOLE DIAMETER TO AIT PROCESSING
CAL2ED  .MM     : CALIPER 2 FROM DENSITY LOG [ADJ TO GRRED]
CALWS   .MM     : CALIPER [AHIBDED]
CONDWS  .MMHO   : CONDUCTIVITY [1000/DRESWS]
DCORWS  .KG/M3  : DENSITY CORRECTION [HDRAED]
DENWS   .KG/M3  : BULK DENSITY [M=2650 F=1000] [RHOZED]
DPHZSSED.V/V    : DENSITY POROSITY [M=2650 F=1000] FROM DENSITY LOG [ADJ TO GRRED]
DPOLSWS .V/V    : DENSITY POROSITY [M=2710 F=1000] [CALCULATED FROM DENWS]
DRESWS  .OHMM   : DEEP RESISTIVITY [AF60ED]
DTED    .US/M   : DELTA TIME FROM SONIC LOG
DTWS    .US/M   : DELTA TIME [DTED]
GRDED   .GAPI   : GAMMA RAY FROM DENSITY LOG [ADJ TO GRRED]
GRNED   .GAPI   : GAMMA RAY FROM NEUTRON LOG [ADJ TO GRRED]
GRRED   .GAPI   : GAMMA RAY FROM RESISTIVITY LOG
GRSED   .GAPI   : GAMMA RAY FROM SONIC LOG
GRWS    .GAPI   : GAMMA RAY [GRRED, CSG ABOVE 354.5M]
HCALDED .MM     : HILT CALIPER FROM DENSITY LOG [ADJ TO GRRED]
HCALSED .MM     : HILT CALIPER FROM SONIC LOG
HDRAED  .KG/M3  : DENSITY CORRECTION FROM DENSITY LOG [ADJ TO GRRED]
MRESWS  .OHMM   : MEDIUM RESISTIVITY [AF30ED]
NEUTED  .NAPI   : NEUTRON FROM NEUTRON LOG [ADJ TO GRRED]
NEUTWS  .NAPI   : NEUTRON [NEUTED]
NPOLSWS .V/V    : NEUTRON POROSITY LIMESTONE [CONVERTED NPORSSED TO LIMESTONE]
NPORSSED.V/V    : NEUTRON POROSITY SANDSTONE FROM DENSITY LOG [ADJ TO GRRED]
PEFWS   .B/E    : PHOTOELECTRIC FACTOR [PEFZED]
PEFZED  .B/E    : PHOTOELECTRIC FACTOR STANDARD RESOLUTION FROM DENSITY LOG [ADJ TO GRRED]
RHOZED  .KG/M3  : BULK DENSITY FROM DENSITY LOG [ADJ TO GRRED]
SPHIED  .V/V    : SONIC POROSITY FROM SONIC LOG
SPOWS   .V/V    : SONIC POROSITY [SPHIED]
SPRED   .MV     : SPONTANEOUS POTENTIAL FROM RESISTIVITY LOG
SPWS    .MV     : SPONTANEOUS POTENTIAL [BASELINE 0 MV] [SPRED]
SRESWS  .OHMM   : SHALLOW RESISTIVITY [AF20ED]
TENDED  .N      : TENSION FROM DENSITY LOG [ADJ TO GRRED]
TENRED  .N      : TENSION FROM SONIC LOG
~Params ----------------------------------------------------
PD  .                         GL : PERMANENT DATUM
EPD .M                     971.5 : ELEVATION PERMANENT DATUM
LMF .                         KB : LOG MEASURED FROM
DAPD.M                       5.5 : FEET ABOVE PERMANENT DATUM
DMF .                         KB : DRILLING MEASURED FROM
EKB .M                    976.95 : KELLY BUSHING
EDF .M                    976.65 : DRILLING FLOOR
EGL .M                     971.5 : GROUND LEVEL
DATE.                   12/19/98 : RUN DATE
RUN .                          2 : RUN NUMBER
DD  .M                      2740 : DEPTH DRILLER
DL  .M                    2740.5 : DEPTH LOGGER
BLI .M                    2738.1 : BOTTOM LOG INTERVAL
TLI .M                    2319.5 : TOP LOG INTERVAL
CS  .MM                    177.8 : CASING SIZE
CBD .M                      2319 : CASING BOTTOM DRILLER
CBL .M                    2319.5 : CASING BOTTOM LOGGER
BS  .MM                      156 : BIT SIZE
BSD .M                      2740 : BIT SIZE AT DEPTH
DFT .                   GEL CHEM : DRILLING FLUID TYPE
DFD .                       1120 : DRILLING FLUID DENSITY
DFV .                        155 : DRILLING FLUID VISCOSITY
DFPH.                         10 : DRILLING FLUID PH
DFL .                        5.8 : DRILLING FLUID LOSS
MSS .                   FLOWLINE : MUD SAMPLE SOURCE
RMS .OHMM                   1.59 : RESISTIVITY MUD SAMPLE
MST .DEGC                     10 : MUD SAMPLE TEMPERATURE
RMF .OHMM                   1.35 : RESISTIVITY MUD FILTRATE SAMPLE
MFST.DEGC                      9 : MUD FILTRATE SAMPLE TEMPERATURE
RMB .OHMM                  0.536 : RESISTIVITY MUD AT BHT
TCS .HRS                    2000 : TIME CIRCULATED STOPPED
TLAB.HRS                     140 : TIME LOGGER AT BOTTOM
LUN .                       3106 : LOGGING UNIT NUMBER
LUL .                 WAINWRIGHT : LOGGING UNIT LOCATION
ENGI.                      GRANT : RECORDING ENGINEER
WITN.                       RUGD : WITNESSED BY
CLNT.                    A2DTECH : CLIENT CODE
ORIG. 6.5"/100M 16.5"/100M PRINT : ORIGIN OF DATA
UWI .           100021503426W400 : UNIQUE WELL ID
DICO.     A2D Technologies, Inc. : DIGITIZING COMPANY
~Other -----------------------------------------------------
~ASCII -----------------------------------------------------
# ...
 1300.00000    9.95130    9.78900    9.66540  229.10470    -999.25  229.10470  103.46180   31.26630 2582.60010    -999.25    0.07450    9.66540  271.97460  271.97460  122.41980    -999.25  121.66210  121.53520  121.66210  231.97670  229.46700   31.26630    9.78900    -999.25    -999.25    -999.25    -999.25    2.91910    2.91910 2582.60010    -999.25    -999.25  -85.15840   -3.49420    9.95130 12355.47460 12059.01760
 1350.00000    8.15430    7.98440    7.88800  225.55360    -999.25  225.55360  126.77480   51.12720 2571.30000    -999.25    0.08110    7.88800  275.47040  275.47040  119.77650    -999.25  118.48530  118.37980  118.48530  226.32480  225.53390   51.12720    7.98440    -999.25    -999.25    -999.25    -999.25    2.96590    2.96590 2571.30000    -999.25    -999.25  -81.84500   -2.44150    8.15430 12513.43650 12730.75490
 1400.00000    8.47030    8.12290    7.94770  237.94790    -999.25  237.94790  125.82260  263.03150 2531.80000    -999.25    0.10420    7.94770  266.80350  266.80350  127.62260    -999.25  128.48700  127.87820  128.48700  244.39110  245.54300  263.03150    8.12290    -999.25    -999.25    -999.25    -999.25    2.52210    2.52210 2531.80000    -999.25    -999.25  -82.08200   -1.87680    8.47030 12817.88570 12739.54300
 1450.00000    7.62680    7.29170    7.13160  234.22000    -999.25  234.22000  140.22100  344.51800 2542.39990    -999.25    0.09800    7.13160  290.43190  290.43190  132.00330    -999.25  133.11600  132.57730  133.11600  234.00050  240.30330  344.51800    7.29170    -999.25    -999.25    -999.25    -999.25    2.51830    2.51830 2542.39990    -999.25    -999.25  -83.29250   -3.41990    7.62680 12926.29390 13013.11330
 1500.00000   13.64350   12.99310   12.56920  224.60170    -999.25  224.60170   79.55960   -4.41380 2604.30000    -999.25    0.06180   12.56920  273.16890  273.16890  128.67210    -999.25  125.06390  125.21110  125.06390  225.11070  224.73090   -4.41380   12.99310    -999.25    -999.25    -999.25    -999.25    3.87430    3.87430 2604.30000    -999.25    -999.25  -80.18970   -1.72660   13.64350 12789.75780 12735.44730
 1550.00000   11.72610   11.30410   10.91500  221.16630  235.94080  221.16630   91.61700   -2.85570 2475.60010    0.10580    0.13710   10.91500  329.71120  329.71120  215.02440    -999.25  213.74180  213.16040  213.74180  221.01020  219.86740   -2.85570   11.30410    -999.25    -999.25    0.35650    0.39940    3.41590    3.41590 2475.60010    -999.25    -999.25  -78.91360   -3.79450   11.72610 12875.58790 12575.12890
 1600.00000    3.83750    3.74050    3.67330  237.95470  291.23690  237.95470  272.23480  112.37370 2484.70000    0.09670    0.13180    3.67330  302.08530  302.08530  117.79710    -999.25  117.84350  118.54330  117.84350  241.27920  235.90610  112.37370    3.74050    -999.25    -999.25    0.30840    0.35200    2.82220    2.82220 2484.70000    -999.25    -999.25  -78.37160   -2.24630    3.83750 13704.06930 13575.50290
 1650.00000    6.15760    5.69870    5.42600  249.93370  235.26120  249.93370  184.29780   11.70280 2571.30000    0.04610    0.08110    5.42600  259.68840  259.68840  109.62820    -999.25  110.06010  109.19380  110.06010  248.50130  248.49920   11.70280    5.69870    -999.25    -999.25    0.15780    0.20130    2.64610    2.64610 2571.30000    -999.25    -999.25  -79.39990   -2.26850    6.15760 13312.91600 13487.73540
 1700.00000   11.25700   10.99750   10.66050  231.80820  251.31540  231.80820   93.80420   44.26320 1729.10000    0.56160    0.57360   10.66050  342.74720  342.74720   78.21040    -999.25   77.42650   78.81300   77.42650  228.30790  227.14070   44.26320   10.99750    -999.25    -999.25    0.47480    0.51650    0.78210    0.78210 1729.10000    -999.25    -999.25  -81.71710   -9.99980   11.25700 13844.98730 13689.63380
 1750.00000   18.08820   17.26950   16.68430  231.18080  231.29130  231.18080   59.93660  -31.52420 2196.89990    0.27480    0.30010   16.68430  295.38680  295.38680   97.42550    -999.25   97.59720   97.88540   97.59720  227.60380  226.58080  -31.52420   17.26950    -999.25    -999.25    0.21110    0.25500    2.31090    2.31090 2196.89990    -999.25    -999.25  -74.69520  -16.18290   18.08820 14022.48050 14016.98930
 1800.00000   18.88670   17.11700   15.30400  230.40360  233.21580  230.40360   65.34240   31.60870 2574.20000    0.04610    0.07940   15.30400  220.65750  220.65750   73.50640    -999.25   72.57900   71.99210   72.57900  231.59170  231.61990   31.60870   17.11700    -999.25    -999.25    0.11730    0.16010    2.06850    2.06850 2574.20000    -999.25    -999.25  -97.23670  -43.80240   18.88670 14186.85740 14041.73140
 1850.00000  180.45920  132.58340  116.60740  220.80830  224.97260  220.80830    8.57580   -1.39740 2717.00000   -0.03920   -0.00410  116.60740  167.39760  167.39760   37.78650    -999.25   37.80580   38.13470   37.80580  221.43640  220.82150   -1.39740  132.58340    -999.25    -999.25    0.01700    0.05130    4.56760    4.56760 2717.00000    -999.25    -999.25  -88.96450  -39.01330  180.45920 14664.87700 14464.81150
 1900.00000   37.03000   34.24000   32.14020  220.20740  224.81260  220.20740   31.11370   -2.71250 2712.30000   -0.03650   -0.00130   32.14020  192.88480  192.88480   66.49490    -999.25   66.68390   66.47540   66.68390  220.16070  220.25620   -2.71250   34.24000    -999.25    -999.25    0.05860    0.09990    4.39700    4.39700 2712.30000    -999.25    -999.25  -59.93540  -13.46720   37.03000 14594.19630 14506.91020
 1950.00000   19.76050   18.24770   17.15620  215.17810  225.18870  215.17810   58.28800    0.26100 2695.00000   -0.02970    0.00880   17.15620  211.69720  211.69720   75.82250    -999.25   76.37660   74.71910   76.37660  215.38800  214.78820    0.26100   18.24770    -999.25    -999.25    0.09970    0.14210    4.13720    4.13720 2695.00000    -999.25    -999.25  -51.39310   -8.40790   19.76050 15032.79390 15061.87400
 2000.00000   45.11440   40.46340   37.13560  222.27010  226.04200  222.27010   26.92830   -1.21330 2578.59990    0.04240    0.07680   37.13560  270.90150  270.90150  203.99000    -999.25  203.91610  202.75250  203.91610  221.56950  221.94760   -1.21330   40.46340    -999.25    -999.25    0.19570    0.23950    3.59150    3.59150 2578.59990    -999.25    -999.25  -63.77860  -21.61360   45.11440 15257.04390 14933.39550
 2050.00000   87.40810   67.84730   61.21170  220.92610  224.76370  220.92610   16.33670   22.04790 2918.70000   -0.16310   -0.12200   61.21170  174.82680  174.82680   14.55530    -999.25   13.46140   13.09290   13.46140  220.95880  220.84840   22.04790   67.84730    -999.25    -999.25    0.01360    0.04690    4.66610    4.66610 2918.70000    -999.25    -999.25  -48.48940   -6.55210   87.40810 15184.13280 14918.53220
 2100.00000  160.91900  132.94190  122.94610  220.28220  226.30510  220.28220    8.13360    0.04860 2815.20020   -0.10010   -0.06150  122.94610  159.16330  159.16330   15.11630    9.52120   20.16620   20.82390   20.16620  220.44030  220.24150    0.04860  132.94190  465.04480  465.04480    0.07160    0.11360    3.16460    3.16460 2815.20020    -999.25    -999.25  -68.10560  -22.98770  160.91900 15650.79880 15736.78030
 2150.00000  755.53510  733.82860  587.09280  220.21010  225.15750  220.21010    1.70330   -0.46450 2946.89990   -0.17630   -0.13850  587.09280  160.23900  160.23900   14.46820    4.42080   14.26930   14.01760   14.26930  220.09020  220.19130   -0.46450  733.82860  587.47780  587.47780    0.01070    0.04310    4.43970    4.43970 2946.89990    -999.25    -999.25  -94.26050  -45.24250  755.53510 15914.97950 15726.63570
 2200.00000  933.98270  847.30880  583.75110  221.01860  224.83110  221.01860    1.71310  -20.66710 2959.70020   -0.18650   -0.14600  583.75110  162.32900  162.32900   14.44740   11.24920   20.08590   19.91400   20.08590  221.70520  221.08040  -20.66710  847.30880  566.89510  566.89510    0.00100    0.02980    5.01440    5.01440 2959.70020    -999.25    -999.25  -87.52270  -34.56840  933.98270 16068.11430 16087.55860
 2250.00000   67.43050   61.78570   57.59840  219.65200  224.60810  219.65200   17.36160   -3.66400 2782.00000   -0.08220   -0.04210   57.59840  185.21330  185.21330   99.88800   57.89650  102.31440  102.06320  102.31440  220.08550  219.93880   -3.66400   61.78570  382.39980  382.39980    0.14130    0.18450    3.33860    3.33860 2782.00000    -999.25    -999.25  -98.20590  -41.31530   67.43050 15454.08300 15655.22560
