~Version ---------------------------------------------------
VERS.      2.0 : CWLS log ASCII Standard -VERSION 2.0
WRAP.       NO : One line per depth step
CREA. 11/10/17 : LAS Creation Date
~Well ------------------------------------------------------
STRT.FT                       1250.0 : START DEPTH
STOP.FT                      11950.0 : STOP DEPTH
STEP.FT                     50.00000 : STEP LENGTH
NULL.                        -999.25 : NULL VALUE
COMP.       DEVON CANADA CORPORATION : COMPANY
WELL. HOME PACIFIC EDSON 10-28-52-16 : WELL
FLD .                             WC : FIELD
LOC .                                : LOCATION
CTRY.                         CANADA : COUNTRY
SRVC.                   Schlumberger : SERVICE COMPANY
DATE.                    01-Nov-1962 : LOGDATE
PROV.                        Alberta : PROVINCE
UWI .               100102805216W500 : UNIQUE WELL ID
SLAT.WGS84             53.5208008195 : SURFACE LATITUDE
SLON.WGS84           -116.2964055425 : SURFACE LONGITUDE
~Curve Information -----------------------------------------
DEPT  .FT    : Depth Curve
CALWS .IN    : CALIPER [MCALED]
CILDED.MMHO  : CONDUCTIVITY FROM RESISTIVITY LOG
CONDWS.MMHO  : CONDCUTIVITY [1000/DRESWS]
DRESWS.OHMM  : DEEP RESISTIVITY [1000/CILDED IF ILDED <=1, ILDED]
DT1ED .US/F  : DELTA-T (1' SPACING)  FROM SONIC LOG
DTED  .US/F  : DELTA-T (3' SPACING) FROM SONIC LOG
DTWS  .US/F  : COMPRESSIONAL SONIC [DTED]
GRSED .GAPI  : GAMMA RAY FROM SONIC LOG
GRWS  .GAPI  : GAMMA RAY [GRSED]
ILDED .OHMM  : DEEP INDUCTION FROM RESISTIVITY LOG
MCALED.IN    : CALIPER FROM MICROLOG
SNED  .OHMM  : SHORT NORMAL FROM RESISTIVITY LOG
SPRED .MV    : SPONTANEOUS POTENTIAL FROM RESISTIVITY LOG
SPWS  .MV    : SPONTANEOUS POTENTIAL [BASELINE 0 MV, SPRED]
SRESWS.OHMM  : SHALLOE RESISTIVITY [SNED]
~Params ----------------------------------------------------
PD  .                     GL : PERMANENT DATUM
EPD .FT               3083.7 : ELEVATION PERMANENT DATUM
LMF .                     KB : LOG MEASURED FROM
DAPD.FT                 13.4 : FEET ABOVE PERMANENT DATUM
EKB .FT               3097.1 : KELLY BUSHING
EGL .FT               3083.7 : GROUND LEVEL
DATE.               11/01/62 : RUN DATE
RUN .                      2 : RUN NUMBER
DD  .FT                11979 : DEPTH DRILLER
DL  .FT                 5878 : DEPTH LOGGER
BLI .FT                11978 : BOTTOM LOG INTERVAL
TLI .FT                 6100 : TOP LOG INTERVAL
CBD .FT                 1249 : CASING BOTTOM DRILLER
BS  .IN                    9 : BIT SIZE
BSD .FT                11979 : BIT SIZE AT DEPTH
DFT .          XP20 SPERSENE : DRILLING FLUID TYPE
DFD .                   10.6 : DRILLING FLUID DENSITY
DFV .                    105 : DRILLING FLUID VISCOSITY
DFPH.                     11 : DRILLING FLUID PH
DFL .                      5 : DRILLING FLUID LOSS
RMS .OHMM               0.83 : RESISTIVITY MUD SAMPLE
MST .DEGF                 55 : MUD SAMPLE TEMPERATURE
RMF .OHMM               0.59 : RESISTIVITY MUD FILTRATE SAMPLE
MFST.DEGF                 58 : MUD FILTRATE SAMPLE TEMPERATURE
RMC .OHMM               1.01 : RESISTIVITY MUD CAKE
MCST.DEGF                 60 : MUD CAKE SAMPLE TEMPERATURE
RMB .OHMM               0.23 : RESISTIVITY MUD AT BHT
TCS .HRS                 2.5 : TIME CIRCULATED STOPPED
LUN .                   1576 : LOGGING UNIT NUMBER
LUL .                     DV : LOGGING UNIT LOCATION
ENGI.                NORQUAY : RECORDING ENGINEER
WITN.           DAWSON GROVE : WITNESSED BY
CLNT.                A2DTECH : CLIENT CODE
ORIG.            2" 5" PRINT : ORIGIN OF DATA
UWI .       100102805216W500 : UNIQUE WELL ID
DICO. A2D Technologies, Inc. : DIGITIZING COMPANY
~Other -----------------------------------------------------
~ASCII -----------------------------------------------------
 1250.00000   12.85560    -999.25    -999.25    -999.25    -999.25  108.25940  108.25940   28.22580   28.22580    -999.25   12.85560    -999.25    -999.25    -999.25    -999.25
 1300.00000   10.27010   69.15520   71.63630   13.95940    -999.25   91.51310   91.51310   64.20160   64.20160   13.95940   10.27010   15.46870 -140.20880   -2.78290   15.46870
 1350.00000    9.45250   86.36920   82.72600   12.08810    -999.25   88.58530   88.58530   73.15860   73.15860   12.08810    9.45250   12.83030 -140.68920   -3.25250   12.83030
 1400.00000    9.54930   96.45680  103.95330    9.61970    -999.25  116.39140  116.39140   80.57770   80.57770    9.61970    9.54930   10.92550 -140.88630   -3.41850   10.92550
 1450.00000    9.10670   67.02200   67.07450   14.90880    -999.25   90.98040   90.98040   54.73490   54.73490   14.90880    9.10670   12.69190 -145.86970   -8.37070   12.69190
 1500.00000    9.18200   65.21370   64.36080   15.53740    -999.25   90.58950   90.58950   49.13380   49.13380   15.53740    9.18200   14.96020 -149.91550  -12.38550   14.96020
 1550.00000    9.47270  176.73720  209.69200    4.76890    -999.25  106.80320  106.80320   73.62770   73.62770    4.76890    9.47270    5.84440 -141.27130   -3.71020    5.84440
 1600.00000    9.97640   73.35820   75.61890   13.22420    -999.25   85.26010   85.26010   51.05070   51.05070   13.22420    9.97640   13.12010 -140.71340   -3.12110   13.12010
 1650.00000   12.68610  104.78940  104.10590    9.60560    -999.25  126.90630  126.90630   73.52060   73.52060    9.60560   12.68610   15.40050 -139.77020   -2.14690   15.40050
 1700.00000   11.32600  127.21080  133.36180    7.49840    -999.25  108.13000  108.13000   69.76470   69.76470    7.49840   11.32600    6.78720 -140.67420   -3.01960    6.78720
 1750.00000    9.83040   22.95140   22.18700   45.07140    -999.25   68.65230   68.65230   37.91200   37.91200   45.07140    9.83040   35.98410 -145.01130   -7.32570   35.98410
 1800.00000   11.82650  134.87910  136.14700    7.34500    -999.25   91.84650   91.84650   76.56250   76.56250    7.34500   11.82650    6.18460 -140.87660   -3.16000    6.18460
 1850.00000   10.15400   49.63290   49.75170   20.09980    -999.25   85.46140   85.46140   52.39400   52.39400   20.09980   10.15400   16.72190 -142.07860   -4.33070   16.72190
 1900.00000    9.91900  122.90870  119.25630    8.38530    -999.25  104.35120  104.35120   79.21740   79.21740    8.38530    9.91900    6.56950 -140.73110   -2.95220    6.56950
 1950.00000   14.48670  179.18590  183.57040    5.44750    -999.25  117.57680  117.57680   76.00040   76.00040    5.44750   14.48670    4.05760 -140.87340   -3.06320    4.05760
 2000.00000   11.86240  104.78430  118.49320    8.43930    -999.25   93.82100   93.82100   66.71860   66.71860    8.43930   11.86240   11.66690 -140.84360   -3.00240   11.66690
 2050.00000   10.12320   54.67080   56.31170   17.75830    -999.25   83.59940   83.59940   51.42710   51.42710   17.75830   10.12320   17.05410 -141.54050   -3.66830   17.05410
 2100.00000    9.33280   79.09110   82.47630   12.12470    -999.25   81.03210   81.03210   59.62900   59.62900   12.12470    9.33280   13.76120 -142.60740   -4.70390   13.76120
 2150.00000   11.90320  177.63700  205.78250    4.85950    -999.25  116.73520  116.73520   67.94510   67.94510    4.85950   11.90320    7.88070 -139.85690   -1.92240    7.88070
 2200.00000    9.30290   55.72530   59.86810   16.70340    -999.25   83.47970   83.47970   61.79070   61.79070   16.70340    9.30290   18.41720 -145.35380   -7.38810   18.41720
 2250.00000    9.34470   45.19300   42.92270   23.29770    -999.25   74.12150   74.12150   48.66130   48.66130   23.29770    9.34470   24.80360 -144.48580   -6.48900   24.80360
 2300.00000    9.96440   99.57110  104.39180    9.57930    -999.25   83.29250   83.29250   67.86410   67.86410    9.57930    9.96440    8.97780 -141.46420   -3.43640    8.97780
 2350.00000   10.31900   99.13110   99.10800   10.09000    -999.25   84.66230   84.66230   65.43200   65.43200   10.09000   10.31900    8.66440 -140.00670   -1.94760    8.66440
 2400.00000   10.16260   82.50580   84.32490   11.85890    -999.25   82.04460   82.04460   75.12000   75.12000   11.85890   10.16260   10.62910 -140.53050   -2.44040   10.62910
 2450.00000   10.25950   92.48680   90.13800   11.09410    -999.25   82.79730   82.79730   68.98740   68.98740   11.09410   10.25950   10.31210 -141.56000   -3.43870   10.31210
 2500.00000    9.99170  120.64590  114.68940    8.71920    -999.25   83.60610   83.60610   77.23700   77.23700    8.71920    9.99170    7.83040 -140.46780   -2.31540    7.83040
 2550.00000    9.98850  112.04200  110.12250    9.08080    -999.25   93.03310   93.03310   73.11260   73.11260    9.08080    9.98850    7.98610 -141.70710   -3.52370    7.98610
 2600.00000   10.76110  131.79830  129.52360    7.72060    -999.25   92.70640   92.70640   71.61420   71.61420    7.72060   10.76110    7.09840 -141.07180   -2.85720    7.09840
 2650.00000   11.11810   57.38610   53.63540   18.64440    -999.25  122.35690  122.35690   39.80260   39.80260   18.64440   11.11810   20.75330 -140.53810   -2.29240   20.75330
 2700.00000   12.61210  153.96950  177.99930    5.61800    -999.25   92.42310   92.42310   79.35740   79.35740    5.61800   12.61210    6.70370 -140.32870   -2.05180    6.70370
 2750.00000   11.68750  142.72160  158.12030    6.32430    -999.25   92.21090   92.21090   67.65680   67.65680    6.32430   11.68750    9.34580 -139.92460   -1.61670    9.34580
 2800.00000   12.60700   92.61350   95.56300   10.46430    -999.25   91.49880   91.49880   71.25020   71.25020   10.46430   12.60700    9.20290 -147.92900   -9.59000    9.20290
 2850.00000   11.30580   79.37820   83.75420   11.93970    -999.25   85.32480   85.32480   89.73120   89.73120   11.93970   11.30580   11.23410 -141.54350   -3.17330   11.23410
 2900.00000   10.18640   58.47170   58.24210   17.16970    -999.25   77.99300   77.99300   35.65400   35.65400   17.16970   10.18640   15.49460 -141.63260   -3.23130   15.49460
 2950.00000    -999.25  230.29970  225.28610    4.43880    -999.25   93.53590   93.53590   78.96550   78.96550    4.43880    -999.25    3.65130 -140.28870   -1.85620    3.65130
 3000.00000   11.98930  184.56260  185.79420    5.38230    -999.25   93.47070   93.47070   76.76250   76.76250    5.38230   11.98930    4.87280 -140.43680   -1.97330    4.87280
 3050.00000   11.00810  135.53450  135.56380    7.37660    -999.25   87.07100   87.07100   88.30840   88.30840    7.37660   11.00810    6.61600 -140.29310   -1.79850    6.61600
 3100.00000    9.83680   77.48710   79.82760   12.52700    -999.25   79.88560   79.88560   59.68550   59.68550   12.52700    9.83680   11.76070 -141.74580   -3.22000   11.76070
 3150.00000   11.38740  146.90520  154.35670    6.47850    -999.25   87.54180   87.54180   74.86500   74.86500    6.47850   11.38740    6.99880 -141.10210   -2.54530    6.99880
 3200.00000    9.88650   53.55810   54.59260   18.31750    -999.25   75.16880   75.16880   86.67510   86.67510   18.31750    9.88650   20.11200 -139.84480   -1.25670   20.11200
 3250.00000   10.82590  139.52930  162.47220    6.15490    -999.25   93.01060   93.01060   69.64320   69.64320    6.15490   10.82590    7.17740 -140.00150   -1.38240    7.17740
 3300.00000   11.77480  170.08290  147.86990    6.76270    -999.25   89.72150   89.72150   79.21580   79.21580    6.76270   11.77480    5.89870 -140.23820   -1.58810    5.89870
 3350.00000    9.98130  122.52090  147.90930    6.76090    -999.25   87.19060   87.19060   83.16350   83.16350    6.76090    9.98130    8.63260 -140.05290   -1.37150    8.63260
 3400.00000   11.15880  146.77770  169.02740    5.91620    -999.25   86.31800   86.31800   76.39940   76.39940    5.91620   11.15880    5.87800 -140.96140   -2.24900    5.87800
 3450.00000    9.23190   85.52540   89.72630   11.14500    -999.25   84.37520   84.37520   82.43150   82.43150   11.14500    9.23190   12.16460 -141.56920   -2.82550   12.16460
 3500.00000   10.26880  108.78490  114.54100    8.73050    -999.25   78.61840   78.61840   65.83600   65.83600    8.73050   10.26880    9.26180 -140.85800   -2.08330    9.26180
