~Version ---------------------------------------------------
VERS.      2.0 : CWLS log ASCII Standard -VERSION 2.0
WRAP.       NO : One line per depth step
CREA. 09/13/14 : LAS Creation Date
~Well ------------------------------------------------------
STRT.FT                       1500.0 : START DEPTH
STOP.FT                      10400.0 : STOP DEPTH
STEP.FT                     50.00000 : STEP LENGTH
NULL.                        -999.25 : NULL VALUE
COMP.   MERLAND EXPLORATIONS LIMITED : COMPANY
WELL. MERLAND ET AL GIROUXLUX 10-11- : WELL
FLD .                                : FIELD
LOC .                                : LOCATION
CTRY.                         CANADA : COUNTRY
SRVC.                        Unknown : SERVICE COMPANY
DATE.                    26-Feb-1978 : LOGDATE
PROV.                        Alberta : PROVINCE
UWI .               100101106622W500 : UNIQUE WELL ID
SLAT.WGS84                  54.70081 : SURFACE LATITUDE
SLON.WGS84                 -117.2093 : SURFACE LONGITUDE
~Curve Information -----------------------------------------
DEPT   .FT    : DEPTH FEET
CALD   .IN    : CALIPER FROM DENSITY LOG
CALS   .IN    : CALIPER FROM SONIC LOG
DCOR   .G/C3  : DENSITY CORRECTION FROM DENSITY LOG
DPHI_LS.DEC   : DENSITY POROSITY LIMESTONE [M=2.71, F=1.0] FROM DENSITY LOG
DPHI_SS.DEC   : DENSITY POROSITY SANDSTONE [M=2.65, F=1.0] FROM DENSITY LOG
DT     .US/F  : DELTA-T FROM SONIC LOG
GRD    .GAPI  : GAMMA RAY FROM DENSITY LOG
GRS    .GAPI  : GAMMA RAY FROM SONIC LOG
ILD    .OHMM  : DEEP INDUCTION  RESISTIVITY FROM RESISTIVITY LOG
ILM    .OHMM  : MEDIUM INDUCTION RESISTIVITY FROM RESISTIVITY LOG
LL8    .OHMM  : LATEROLOG 8 FROM RESISTIVITY LOG
NPHI_LS.DEC   : NEUTRON POROSITY LIMESTONE FROM DENSITY LOG
NPHI_SS.DEC   : NEUTRON POROSITY SANDSTONE FROM DENSITY LOG
RHOB   .G/C3  : BULK DENSITY FROM DENSITY LOG
SPR    .MV    : SPONTANEOUS POTENTIAL FROM RESISTIVITY LOG
~Params ----------------------------------------------------
PD  .                     GL : PERMANENT DATUM
EPD .FT                 2391 : ELEVATION PERMANENT DATUM
LMF .                     KB : LOG MEASURED FROM
DAPD.FT                   16 : FEET ABOVE PERMANENT DATUM
DMF .                     KB : DRILLING MEASURED FROM
EKB .FT                 2407 : KELLY BUSHING
EGL .FT                 2391 : GROUND LEVEL
DATE.               02/26/78 : RUN DATE
RUN .                      2 : RUN NUMBER
DD  .FT                10409 : DEPTH DRILLER
DL  .FT                10410 : DEPTH LOGGER
BLI .FT                10404 : BOTTOM LOG INTERVAL
TLI .FT                 8200 : TOP LOG INTERVAL
CBD .FT                 1515 : CASING BOTTOM DRILLER
CBL .FT                 1514 : CASING BOTTOM LOGGER
BS  .IN                 8.75 : BIT SIZE
BSD .FT                10409 : BIT SIZE AT DEPTH
DFT .               GEL CHEM : DRILLING FLUID TYPE
DFD .                    9.3 : DRILLING FLUID DENSITY
DFV .                     75 : DRILLING FLUID VISCOSITY
DFPH.                    9.5 : DRILLING FLUID PH
DFL .                    9.2 : DRILLING FLUID LOSS
MSS .               FLOWLINE : MUD SAMPLE SOURCE
RMS .OHMM               2.47 : RESISTIVITY MUD SAMPLE
MST .DEGF                 51 : MUD SAMPLE TEMPERATURE
RMF .OHMM               3.21 : RESISTIVITY MUD FILTRATE SAMPLE
MFST.DEGF                 60 : MUD FILTRATE SAMPLE TEMPERATURE
RMB .OHMM               1.02 : RESISTIVITY MUD AT BHT
TCS .HRS                 3.5 : TIME CIRCULATED STOPPED
LUN .                   7730 : LOGGING UNIT NUMBER
LUL .                    EDM : LOGGING UNIT LOCATION
ENGI.               ACKERMAN : RECORDING ENGINEER
WITN.                  GAWNE : WITNESSED BY
CLNT.                A2DTECH : CLIENT CODE
ORIG.            2" 5" PRINT : ORIGIN OF DATA
UWI .       100101106622W500 : UNIQUE WELL ID
DICO. A2D Technologies, Inc. : DIGITIZING COMPANY
~Other -----------------------------------------------------
~ASCII -----------------------------------------------------
# ...
 3800.00000    9.72100    9.64200    0.14650    -999.25    0.15700   80.68430  107.85130  106.39030   10.99420   10.51830   12.27190    -999.25    0.27500    2.38630  -51.89350
 3850.00000    9.81160    9.83350    0.07600    -999.25    0.12100   79.20520  113.41540  104.95590    8.18560    7.55170    8.77410    -999.25    0.32230    2.44720  -51.14260
 3900.00000    9.54950    9.96330    0.06290    -999.25    0.08420   85.01930  121.65420  122.05740    6.92540    7.15260    7.77610    -999.25    0.35920    2.49360  -49.67860
 3950.00000    9.31950   10.99260    0.14620    -999.25    0.09280   89.86280  125.33460  128.37360    6.24850    6.06880    6.96130    -999.25    0.37820    2.48510  -48.64910
 4000.00000    9.71100   10.06460    0.02860    -999.25    0.07410   83.29470  114.47540  128.18090    9.07760    8.36580    9.94640    -999.25    0.29900    2.54110  -49.45970
 4050.00000   10.30950   10.02280    0.02630    -999.25    0.08600   84.13630  109.73460  115.55250    8.30050    7.72410   10.70000    -999.25    0.29050    2.50210  -49.44280
 4100.00000   12.63100   10.57450    0.00200    -999.25    0.07260   80.49820  107.83850  105.13700    8.31370    7.78420    8.85390    -999.25    0.25300    2.52790  -48.49670
 4150.00000    -999.25    8.61280    0.14240    -999.25    0.19330   89.85800  119.50850  133.19080    4.86490    4.64580    6.01970    -999.25    0.37950    2.34220  -47.43180
 4200.00000   13.81570    9.64310    0.13160    -999.25    0.07360   88.03480  116.10760  127.74760    6.09050    5.82140    7.42810    -999.25    0.36020    2.49920  -46.64630
 4250.00000   12.50370   11.38390    0.07800    -999.25    0.12990  104.60820  134.98860  153.32010    3.36430    3.21560    4.14610    -999.25    0.41900    2.41460  -45.07440
 4300.00000    -999.25    9.78400    0.09440    -999.25    0.21210  103.18690  103.40060  121.96170    3.00970    2.81650    4.00340    -999.25    0.38840    2.30780  -45.32380
 4350.00000    -999.25   10.08370    0.16260    -999.25    0.24540   84.42240  105.25910  110.14030    2.97520    2.61560    3.25990    -999.25    0.44220    2.28040  -45.31510
 4400.00000   14.46770    9.81150    0.06850    -999.25    0.10650   94.77000  113.97660  124.36430    4.09550    3.90060    5.11380    -999.25    0.34590    2.49580  -45.42010
 4450.00000   12.94520   10.99970    0.07170    -999.25    0.08330   92.25180  133.67540  131.44090    4.67410    4.34770    6.06740    -999.25    0.33860    2.51800  -45.03810
 4500.00000   11.57930   11.04640    0.05710    -999.25    0.08370   80.32900  104.08110  113.28720   10.33400    9.14580   11.56000    -999.25    0.25120    2.52640  -46.23960
 4550.00000   11.90290   11.11040    0.00660    -999.25    0.13070   82.34940   79.61130   72.50290   11.39800   10.51810   15.08340    -999.25    0.23750    2.45660  -50.01430
 4600.00000   11.41710   11.42860    0.06250    -999.25    0.08990   80.46250   94.71260  114.39730    8.89660    9.32180   10.01140    -999.25    0.26790    2.49460  -46.68440
 4650.00000   10.20540    8.97160    0.01140    -999.25    0.16940   79.26540   58.25430   56.00010   11.48240   13.11170   15.93330    -999.25    0.30990    2.37180  -67.98190
 4700.00000    8.72800    8.97200    0.05990    -999.25    0.17440   78.68550   48.49430   36.33290   10.10710   13.96910   19.60220    -999.25    0.24870    2.36000  -72.52820
 4750.00000    9.91630   10.86370   -0.01510    -999.25    0.26310   81.24590   96.35060  101.91690    9.69730   10.27600   11.62810    -999.25    0.36510    2.24340  -45.65400
 4800.00000    9.21160   10.09080    0.04800    -999.25    0.11060   74.37180   56.69010   80.38390   11.50600   13.90450   18.10270    -999.25    0.28670    2.46540  -63.77300
 4850.00000   10.09180   11.34650    0.06190    -999.25    0.44720   86.99670   72.67400   82.73020    8.25210    8.11490   22.84480    -999.25    0.63540    1.89280  -45.25100
 4900.00000    9.52390    9.85730    0.12310    -999.25    0.09950   79.49310   59.62290   82.35360    9.97060   12.11240   12.05730    -999.25    0.27540    2.51170  -56.16550
 4950.00000   10.18050   10.90850    0.07360    -999.25    0.12140   69.91310   88.18470   63.12070    8.31820    9.23940    8.41660    -999.25    0.26860    2.45210  -42.51420
 5000.00000   10.66430   12.11610    0.00310    -999.25    0.06560   76.38410   78.56480   74.03390    6.08300    6.36750    7.39420    -999.25    0.27170    2.54170  -42.08110
 5050.00000   10.43330   11.72860    0.02080    -999.25    0.07630   79.35220   82.84270   72.25870    8.92260    9.71280   10.49020    -999.25    0.25490    2.52150  -41.03240
 5100.00000    9.86750   13.05760    0.00510    -999.25    0.05970   82.22450   74.34320   97.54310   11.25400   13.65230   20.30050    -999.25    0.27910    2.36890  -41.22470
 5150.00000    9.96860   11.14520   -0.02200    -999.25    0.05100   60.52750   49.84660   55.78310   14.89280   19.68000   35.95200    -999.25    0.12820    2.56320  -59.47100
 5200.00000   10.21860   11.62610    0.00880    -999.25    0.10190   73.99910   72.23360   77.92250    6.82500    7.49640    8.25120    -999.25    0.27880    2.46760  -48.30390
 5250.00000   10.04360   10.46880    0.01060    -999.25    0.31180   71.80170   54.18010   60.30730   10.01920   11.90480   20.95410    -999.25    0.33600    2.21560  -67.47270
 5300.00000   10.34000   11.49020    0.14330    -999.25    0.08470   75.74310   99.62990   92.10100    7.26420    7.69380    8.45950    -999.25    0.32880    2.50180  -35.45610
 5350.00000    9.93020   11.09500   -0.00380    -999.25    0.06120   75.14460   93.93570   94.77750    9.61860   10.64910   11.98020    -999.25    0.30180    2.56110  -36.82930
 5400.00000   13.48080   11.44060    0.08800    -999.25    0.45110   77.40100   88.00790  120.81820    3.34610    3.80510    4.21320    -999.25    0.50960    1.88400  -37.89110
 5450.00000   10.17360   11.36380    0.01980    -999.25    0.08640   71.39930   56.33210   72.87610   11.84950   15.15650   21.44150    -999.25    0.22470    2.52150  -56.00180
 5500.00000   10.48160   11.22860    0.01380    -999.25    0.11360   71.77630   62.56100   61.31800   10.24240   11.60240   13.25160    -999.25    0.23240    2.46990  -55.84370
 5550.00000   10.32360   10.83360    0.01320    -999.25    0.67750   84.88410   43.12090   60.57790   56.30690   67.10210  233.04740    -999.25    0.62550    1.45510  -44.09410
 5600.00000   14.40120   11.80430    0.23160    -999.25    0.34410   73.37610   92.85570   94.65310    6.88110    8.40200    7.85690    -999.25    0.40130    2.00930  -32.74610
 5650.00000    9.53910   10.61790    0.04080    -999.25    0.05000   69.26880  101.43120   96.48080   11.88080   12.48940   15.97840    -999.25    0.22980    2.59550  -36.40990
 5700.00000    9.61740   10.34590   -0.00060    -999.25    0.02740   69.96440   84.29830  103.56570   18.57860   22.21210   35.71890    -999.25    0.18310    2.58770  -35.67350
 5750.00000   15.02060   13.82420    0.15580    -999.25    0.44970   80.47760   81.17570  108.90510    4.61970    4.83750    5.80030    -999.25    0.49720    1.93500  -29.82360
 5800.00000    -999.25   14.07960    0.15430    -999.25    0.41250   91.68290   89.57360   94.37950    3.05500    3.19840    4.34550    -999.25    0.58350    1.97560  -30.73280
 5850.00000   14.87390   13.21760    0.17680    -999.25    0.44170  107.68960  100.15510   98.11270    4.80350    5.22370    6.79180    -999.25    0.57110    2.00750  -27.20180
 5900.00000    9.03870    9.81630   -0.00070    0.16590    0.14980   90.25100  138.86840  164.25770   68.82470   78.83530  120.81870    0.32570    0.39620    2.37260  -42.58360
 5950.00000    9.39230    9.79470   -0.01200    0.10970    0.02260  103.53150  162.63030  258.00680   28.13900   32.68920   48.06040    0.30210    0.29210    2.56990  -60.90610
 6000.00000   15.02850   13.55250    0.11460    0.44560    -999.25   80.72920  115.46260  115.55340    5.01330    5.35410    6.46160    0.36260    0.43170    1.84850  -33.44060
 6050.00000   10.24620   11.33540    0.01490    0.04740   -0.00600   62.99220  100.59880   97.69380   17.28240   18.74640   21.85690    0.10780    0.15030    2.65770  -27.43970
