~Version ---------------------------------------------------
VERS.      2.0 : CWLS log ASCII Standard -VERSION 2.0
WRAP.       NO : One line per depth step
CREA. 12/29/17 : LAS Creation Date
~Well ------------------------------------------------------
STRT.FT                     1350.0 : START DEPTH
STOP.FT                    12700.0 : STOP DEPTH
STEP.FT                   50.00000 : STEP LENGTH
NULL.                      -999.25 : NULL VALUE
COMP. TRANS-PRAIRIES PIPELINES LTD : COMPANY
WELL. TPPL DEEP VALLEY 11-21-64-25 : WELL
FLD .                              : FIELD
LOC .                              : LOCATION
CTRY.                       CANADA : COUNTRY
SRVC.                 Schlumberger : SERVICE COMPANY
DATE.                  04-Jan-1974 : LOGDATE
PROV.                      Alberta : PROVINCE
UWI .             100112106425W500 : UNIQUE WELL ID
SLAT.WGS84                54.55513 : SURFACE LATITUDE
SLON.WGS84               -117.7228 : SURFACE LONGITUDE
~Curve Information -----------------------------------------
DEPT    .FT    : Depth Curve
CALDED  .IN    : CALIPER FROM DENSITY LOG [ADJ. TO RESISTIVITY LOG]
CALSED  .IN    : CALIPER FROM SONIC LOG [ADJ. TO RESISTIVITY LOG]
CALWS   .IN    : CALIPER [CALSED]
CILDED  .MMHO  : CONDUCTIVITY FROM RESISTIVITY LOG
CONDWS  .MMHO  : CONDUCTIVITY [1000/DRESWS]
DCORWS  .G/C3  : DENSITY CORRECTION [DRHOED]
DENWS   .G/C3  : FORMATION BULK DENSITY [RHOBED]
DPHILSED.V/V   : DENSITY POROSITY LIMESTONE [M=2.71 F=1.00] FROM DENSITY LOG [ADJ. TO RHOBED/RESISTIVITY LOG]
DPHISSED.V/V   : DENSITY POROSITY SANDSTONE [M=2.65 F=1.00] FROM DENSITY LOG [ADJ. TO RHOBED/RESISTIVITY LOG]
DPOLSWS .V/V   : DENSITY POROSITY LIMESTONE [CALC FROM DENWS,M=2.71 F=1.00]
DRESWS  .OHMM  : DEEP RESISTIVITY [1000/CILDED IF ILDED<=5, ILDED]
DRHOED  .G/C3  : DENSITY CORRECTION FROM DENSITY LOG [ADJ. TO RESISTIVITY LOG]
DTED    .US/F  : DELTA T FROM SONIC LOG [ADJ. TO RESISTIVITY LOG]
DTWS    .US/F  : COMPRESSIONAL SONIC [DTED]
GRDED   .GAPI  : GAMMA RAY FROM DENSITY LOG [ADJ. TO RESISTIVITY LOG]
GRSED   .GAPI  : GAMMA RAY FROM SONIC LOG [ADJ. TO RESISTIVITY LOG]
GRWS    .GAPI  : GAMMA RAY [GRSED SPL. TO GRDED @ 7211']
ILDED   .OHMM  : DEEP INDUCTION FROM RESISTIVITY LOG
NPHILSED.V/V   : NEUTRON POROSITY LIMESTONE FROM DENSITY LOG [ADJ. TO RHOBED/RESISTIVITY LOG]
NPHISSED.V/V   : NEUTRON POROSITY SANDSTONE FROM DENSITY LOG [ADJ. TO RHOBED/RESISTIVITY LOG]
NPOLSWS .V/V   : NEUTRON POROSITY LIMESTONE [NPHISSED CONVERTED TO LIMESTONE MATRIX, SPL. TO NPHILSED @ 7065']
RHOBED  .G/C3  : BULK DENSITY FROM DENSITY LOG [ADJ. TO RESISTIVITY LOG]
SNED    .OHMM  : SHORT NORMAL FROM RESISTIVITY LOG
SPRED   .MV    : SPONTANEOUS POTENTIAL FROM RESISTIVITY LOG
SPWS    .MV    : SPONATENOUS POTENTIAL [BASELINE 0 MV, SPRED]
SRESWS  .OHMM  : SHALLOW RESISTIVITY [SNED]
~Params ----------------------------------------------------
PD  .                     GL : PERMANENT DATUM
EPD .FT                 2726 : ELEVATION PERMANENT DATUM
LMF .                     KB : LOG MEASURED FROM
DAPD.FT                   22 : FEET ABOVE PERMANENT DATUM
EKB .FT                 2748 : KELLY BUSHING
EDF .FT                 2726 : DRILLING FLOOR
DATE.               01/04/74 : RUN DATE
RUN .                      3 : RUN NUMBER
DD  .FT                12720 : DEPTH DRILLER
DL  .FT                12719 : DEPTH LOGGER
BLI .FT                12713 : BOTTOM LOG INTERVAL
TLI .FT                11088 : TOP LOG INTERVAL
CBD .FT                 1313 : CASING BOTTOM DRILLER
CBL .FT                 1314 : CASING BOTTOM LOGGER
BS  .IN                 8.75 : BIT SIZE
BSD .FT                12720 : BIT SIZE AT DEPTH
DFT .               GEL CHEM : DRILLING FLUID TYPE
DFD .                    9.6 : DRILLING FLUID DENSITY
DFV .                     97 : DRILLING FLUID VISCOSITY
DFL .                   10.9 : DRILLING FLUID LOSS
RMS .OHMM               2.08 : RESISTIVITY MUD SAMPLE
MST .DEGF                 50 : MUD SAMPLE TEMPERATURE
RMF .OHMM               1.51 : RESISTIVITY MUD FILTRATE SAMPLE
MFST.DEGF                 58 : MUD FILTRATE SAMPLE TEMPERATURE
RMC .OHMM               2.27 : RESISTIVITY MUD CAKE
MCST.DEGF                 52 : MUD CAKE SAMPLE TEMPERATURE
TCS .HRS                 2.5 : TIME CIRCULATED STOPPED
LUN .                   7691 : LOGGING UNIT NUMBER
LUL .                    EDM : LOGGING UNIT LOCATION
ENGI.                  LEITH : RECORDING ENGINEER
WITN.        SLOAN MCDONNELL : WITNESSED BY
CLNT.                A2DTECH : CLIENT CODE
ORIG.            2" 5" PRINT : ORIGIN OF DATA
UWI .       100112106425W500 : UNIQUE WELL ID
DICO. A2D Technologies, Inc. : DIGITIZING COMPANY
~Other -----------------------------------------------------
CNFD-IEL-BCS LOG RAN.
RUN#2: FDC ONLY TO 11088' & CNL ONLY TO 11650'
~ASCII -----------------------------------------------------
# ...
 9450.00000    8.97160    8.84560    8.84560   25.40650   17.21080    0.02720    2.70450   -0.00200    -999.25    0.00320   58.10320    0.02720   57.17030   57.17030   49.19020    -999.25   49.19020   58.10320    -999.25    -999.25    -999.25    2.70450   53.48330   81.51080  -24.85780   53.48330
 9500.00000    8.83560    8.77070    8.77070    6.37970    2.01250    0.00230    2.71380    0.00050    -999.25   -0.00220  496.89450    0.00230   53.03420   53.03420   31.49400    -999.25   31.49400  496.89450    0.02600    -999.25    0.02600    2.71380  162.96330   86.18530  -20.22570  162.96330
 9550.00000   10.66500    8.88640    8.88640    9.25760    2.12350    0.25420    2.56350    0.08640    -999.25    0.08570  470.91050    0.25420   63.89010   63.89010   81.20850    -999.25   81.20850  470.91050    0.10130    -999.25    0.10130    2.56350  104.37790   80.90070  -25.55280  104.37790
 9600.00000    9.18350    8.86500    8.86500   32.29720   20.73660    0.11410    2.74320   -0.02020    -999.25   -0.01940   48.22390    0.11410   50.03810   50.03810  262.59450    -999.25  262.59450   48.22390    0.00620    -999.25    0.00620    2.74320   56.57660   81.66630  -24.82990   56.57660
 9650.00000    9.62180    9.35160    9.35160    0.94100    2.01250    0.11720    2.73290   -0.00830    -999.25   -0.01340  496.89450    0.11720   48.50520   48.50520   12.95610    -999.25   12.95610  496.89450   -0.00040    -999.25   -0.00040    2.73290  433.99380   42.58800  -63.95070  433.99380
 9700.00000   10.96310    9.60190    9.60190    1.92960    2.01250    0.16810    2.69020    0.01590    -999.25    0.01160  496.89450    0.16810   48.46840   48.46840   11.41450    -999.25   11.41450  496.89450   -0.00180    -999.25   -0.00180    2.69020  390.93060   34.88460  -71.69680  390.93060
 9750.00000    9.67530    9.41010    9.41010    2.14130    2.01250    0.17910    2.73370   -0.01180    -999.25   -0.01390  496.89450    0.17910   48.51520   48.51520    7.94060    -999.25    7.94060  496.89450   -0.00260    -999.25   -0.00260    2.73370  283.25100   25.08990  -81.53390  283.25100
 9800.00000    9.80510    9.33830    9.33830    0.25600    2.01250    0.15050    2.80870   -0.05350    -999.25   -0.05770  496.89450    0.15050   77.24920   77.24920    6.61230    -999.25    6.61230  496.89450    0.00400    -999.25    0.00400    2.80870  269.37220   23.71520  -82.95110  269.37220
 9850.00000    8.94630    8.79510    8.79510    1.76620    2.01250    0.02060    2.74620   -0.02240    -999.25   -0.02120  496.89450    0.02060   47.82820   47.82820   10.30900    -999.25   10.30900  496.89450    0.00140    -999.25    0.00140    2.74620  195.84690    2.36550 -104.34350  195.84690
 9900.00000    8.75890    8.76260    8.76260    7.49090    2.00140    0.02610    2.71590   -0.00190    -999.25   -0.00350  499.64440    0.02610   48.84610   48.84610    8.02340    -999.25    8.02340  499.64440    0.00770    -999.25    0.00770    2.71590  114.87520  -51.09260 -157.84410  114.87520
 9950.00000    8.79780    8.76210    8.76210    7.53440    1.73420    0.00320    2.75760   -0.02710    -999.25   -0.02780  576.63820    0.00320   48.39310   48.39310    7.04580    -999.25    7.04580  576.63820    0.00890    -999.25    0.00890    2.75760  123.85720  -44.67960 -151.47380  123.85720
 10000.00000    8.83700    8.88910    8.88910    5.30030    2.01250    0.05020    2.74670   -0.01920    -999.25   -0.02140  496.89450    0.05020   50.02590   50.02590   11.35700    -999.25   11.35700  496.89450    0.00670    -999.25    0.00670    2.74670  127.10710  -24.83880 -131.67540  127.10710
 10050.00000    8.74720    8.81310    8.81310    8.23170    4.77890    0.00710    2.72260   -0.00340    -999.25   -0.00740  209.25500    0.00710   48.81060   48.81060    9.91390    -999.25    9.91390  209.25500    0.00770    -999.25    0.00770    2.72260   94.06720  -78.01550 -184.89460   94.06720
 10100.00000    8.47120    8.42700    8.42700   39.04420   33.87740    0.08040    2.69410    0.00890    -999.25    0.00930   29.51820    0.08040   52.91210   52.91210   10.53440    -999.25   10.53440   29.51820    0.10870    -999.25    0.10870    2.69410   83.58790 -119.09410 -226.01590   83.58790
 10150.00000    8.55370    8.46570    8.46570   22.65270   19.19570    0.05090    2.59850    0.06250    -999.25    0.06520   52.09490    0.05090   60.48770   60.48770   11.10730    -999.25   11.10730   52.09490    0.14960    -999.25    0.14960    2.59850   41.01710  -95.62730 -202.59160   41.01710
 10200.00000    8.60150    8.60510    8.60510   30.41200   25.01360    0.07940    2.77080   -0.02920    -999.25   -0.03560   39.97830    0.07940   48.89160   48.89160    9.30320    -999.25    9.30320   39.97830    0.12510    -999.25    0.12510    2.77080   60.83450  -94.14340 -201.15040   60.83450
 10250.00000    8.78220    8.52510    8.52510  107.82560  103.99980    0.06010    2.84430   -0.08330    -999.25   -0.07850    9.61540    0.06010   48.86860   48.86860    9.79010    -999.25    9.79010    9.61540    0.07330    -999.25    0.07330    2.84430   42.72770  -86.55630 -193.60570   42.72770
 10300.00000    8.57140    8.91390    8.91390  135.41210  132.44680    0.08530    2.61980    0.05450    -999.25    0.05270    7.55020    0.08530   60.86160   60.86160   11.78550    -999.25   11.78550    7.55020    0.17220    -999.25    0.17220    2.61980   20.02730  -48.13400 -155.22590   20.02730
 10350.00000    8.48660    8.90320    8.90320  326.40580  326.40580    0.16400    2.77730   -0.04300    -999.25   -0.03940    3.06370    0.16400   55.10240   55.10240   27.60080    -999.25   27.60080    3.22640    0.15320    -999.25    0.15320    2.77730   18.91730  -58.20810 -165.34270   18.91730
 10400.00000    8.63910    8.43170    8.43170  117.74230   90.29670    0.06400    2.77370   -0.02800    -999.25   -0.03730   11.07460    0.06400   51.80410   51.80410   13.62980    -999.25   13.62980   11.07460    0.17840    -999.25    0.17840    2.77370   48.28920  -45.96850 -153.14560   48.28920
 10450.00000    8.68420    8.68360    8.68360   77.70980   67.69290    0.09160    2.77020   -0.02830    -999.25   -0.03520   14.77260    0.09160   52.24940   52.24940   14.24190    -999.25   14.24190   14.77260    0.12930    -999.25    0.12930    2.77020   46.48920  -66.63130 -173.85110   46.48920
 10500.00000    8.98020    8.82870    8.82870   18.80210    9.22130    0.24190    2.83630   -0.08010    -999.25   -0.07390  108.44440    0.24190   47.46590   47.46590   19.13240    -999.25   19.13240  108.44440    0.06040    -999.25    0.06040    2.83630   93.08890  -71.56430 -178.82660   93.08890
 10550.00000   10.54600    9.53890    9.53890    4.98130    2.01250    0.25730    2.49960    0.13290    -999.25    0.12300  496.89450    0.25730   48.40340   48.40340   22.42540    -999.25   22.42540  496.89450    0.01420    -999.25    0.01420    2.49960  269.87300    4.95850 -102.34620  269.87300
 10600.00000    9.32150    9.28190    9.28190    2.25600    2.01250    0.19390    2.68860    0.01470    -999.25    0.01250  496.89450    0.19390   49.82190   49.82190   25.12600    -999.25   25.12600  496.89450    0.02290    -999.25    0.02290    2.68860  199.94780   58.22050  -49.12690  199.94780
 10650.00000    8.94050    8.74980    8.74980   26.25080   22.53880    0.00910    2.73650   -0.01710    -999.25   -0.01550   44.36790    0.00910   54.02840   54.02840   31.53070    -999.25   31.53070   44.36790    0.04730    -999.25    0.04730    2.73650   44.64820   52.92080  -54.46910   44.64820
 10700.00000    8.71850    8.64420    8.64420    4.13900    2.01250    0.00720    2.70930    0.00410    -999.25    0.00040  496.89450    0.00720   52.44880   52.44880   23.67860    -999.25   23.67860  496.89450    0.03410    -999.25    0.03410    2.70930  172.15560   51.29120  -56.14140  172.15560
 10750.00000    8.84520    8.78890    8.78890   48.98040   44.16920    0.00400    2.70360    0.00470    -999.25    0.00370   22.64020    0.00400   56.18900   56.18900   36.40820    -999.25   36.40820   22.64020    0.05580    -999.25    0.05580    2.70360   33.69770   72.39210  -35.08300   33.69770
