~Version ---------------------------------------------------
VERS.      2.0 : CWLS log ASCII Standard -VERSION 2.0
WRAP.       NO : One line per depth step
CREA. 11/16/17 : LAS Creation Date
~Well ------------------------------------------------------
STRT.FT                         1050.0 : START DEPTH
STOP.FT                        10100.0 : STOP DEPTH
STEP.FT                       50.00000 : STEP LENGTH
NULL.                          -999.25 : NULL VALUE
COMP.             PETROFINA CANADA LTD : COMPANY
WELL.        FINA ET AL WIND 7-7-61-16 : WELL
FLD .                                  : FIELD
LOC .                                  : LOCATION
CTRY.                           CANADA : COUNTRY
SRVC. Schlumberger Well Surveying Corp : SERVICE COMPANY
DATE.                      23-Jan-1978 : LOGDATE
PROV.                          Alberta : PROVINCE
UWI .                 100070706116W500 : UNIQUE WELL ID
SLAT.WGS84                    54.25864 : SURFACE LATITUDE
SLON.WGS84                    -116.383 : SURFACE LONGITUDE
~Curve Information -----------------------------------------
DEPT    .FT    : Depth Curve
CALDED  .IN    : CALIPER FROM DENSITY LOG [ADJ.TO RESISTIVITY LOG]
CALSED  .IN    : CALIPER FROM SONIC LOG [ADJ.TO RESISTIVITY LOG]
CALWS   .IN    : CALIPER [CALSED]
CONDWS  .MMHO  : CONDUCTIVITY [1000/DRESWS]
DCORWS  .G/C3  : DENSITY CORRECTION [DRHOED]
DENWS   .G/C3  : FORMATION BULK DENSITY [RHOBED]
DPHILSED.V/V   : DENSITY POROSITY LIMESTONE [M=2.71, F=1.00] FROM DENSITY LOG [ADJ.TO RESISTIVITY LOG]
DPHISSED.V/V   : DENSITY POROSITY SANDSTONE [M=2.65, F=1.00] FROM DENSITY LOG [ADJ.TO RESISTIVITY LOG]
DPOLSWS .V/V   : DENSITY POROSITY LIMESTONE [CALC FROM DENWS, M=2.71, F=1.00]
DRESWS  .OHMM  : DEEP RESISTIVITY [ILDED]
DRHOED  .G/C3  : DENSITY CORRECTION FROM DENSITY LOG [ADJ.TO RESISTIVITY LOG]
DTED    .US/F  : DELTA TIME FROM SONIC LOG [ADJ.TO RESISTIVITY LOG]
DTWS    .US/F  : COMPRESSIONAL SONIC [DTED]
GRDED   .GAPI  : GAMMA RAY FROM DENSITY LOG [ADJ.TO RESISTIVITY LOG]
GRDRED  .GAPI  : GAMMA RAY [FROM REPEAT SECTION] FROM DENSITY LOG [ADJ.TO RESISTIVITY LOG]
GRSED   .GAPI  : GAMMA RAY FROM SONIC LOG [ADJ.TO RESISTIVITY LOG]
GRSRED  .GAPI  : GAMMA RAY [FROM REPEAT SECTION] FROM SONIC LOG [ADJ.TO RESISTIVITY LOG]
GRWS    .GAPI  : GAMMA RAY [GRSED SPL.TO GRSRED @ 10087.5']
ILDED   .OHMM  : DEEP INDUCTION FROM RESISTIVITY LOG
ILMED   .OHMM  : MEDIUM INDUCTION FROM RESISTIVITY LOG
LL8ED   .OHMM  : LATEROLOG 8 FROM RESISTIVITY LOG
MRESWS  .OHMM  : MEDIUM RESISTIVITY [ILMED]
NPHILSED.V/V   : NEUTRON POROSITY LIMESTONE FROM DENSITY LOG [ADJ.TO RESISTIVITY LOG]
NPHISSED.V/V   : NEUTRON POROSITY SANDSTONE FROM DENSITY LOG [ADJ.TO RESISTIVITY LOG]
NPOLSWS .V/V   : NEUTRON POROSITY LIMESTONE [NPHISSED MATRIX (SLB) CONVERSION FOR LIMESTONE, SPL.TO NPHILSED @ 6298']
RHOBED  .G/C3  : BULK DENSITY FROM DENSITY LOG [ADJ.TO RESISTIVITY LOG]
SPRED   .MV    : SPONTANEOUS POTENTIAL FROM RESISTIVITY LOG
SPWS    .MV    : SPONTANEOUS POTENTIAL [BASELINE 0 MV, SPRED]
SRESWS  .OHMM  : SHALLOW RESISTIVITY [LL8ED]
~Params ----------------------------------------------------
PD  .                     GL : PERMANENT DATUM
EPD .FT               2840.2 : ELEVATION PERMANENT DATUM
LMF .                     KB : LOG MEASURED FROM
DAPD.FT                 13.8 : FEET ABOVE PERMANENT DATUM
EKB .FT                 2854 : KELLY BUSHING
EGL .FT               2840.2 : GROUND LEVEL
DATE.               01/23/78 : RUN DATE
RUN .                      1 : RUN NUMBER
DD  .FT                10130 : DEPTH DRILLER
DL  .FT                10136 : DEPTH LOGGER
BLI .FT                10130 : BOTTOM LOG INTERVAL
TLI .FT                 1041 : TOP LOG INTERVAL
CBD .FT                 1041 : CASING BOTTOM DRILLER
CBL .FT                 1041 : CASING BOTTOM LOGGER
BS  .IN                7.875 : BIT SIZE
BSD .FT                10130 : BIT SIZE AT DEPTH
DFT .               GEL CHEM : DRILLING FLUID TYPE
DFD .                    9.1 : DRILLING FLUID DENSITY
DFV .                     88 : DRILLING FLUID VISCOSITY
DFPH.                    9.6 : DRILLING FLUID PH
DFL .                      6 : DRILLING FLUID LOSS
MSS .               FLOWLINE : MUD SAMPLE SOURCE
RMF .OHMM                2.1 : RESISTIVITY MUD FILTRATE SAMPLE
MFST.DEGF                 61 : MUD FILTRATE SAMPLE TEMPERATURE
RMB .OHMM               0.67 : RESISTIVITY MUD AT BHT
TCS .HRS                 2.5 : TIME CIRCULATED STOPPED
LUN .                   7730 : LOGGING UNIT NUMBER
LUL .                    EDM : LOGGING UNIT LOCATION
ENGI.               CAMPBELL : RECORDING ENGINEER
WITN.                  SMITH : WITNESSED BY
CLNT.                A2DTECH : CLIENT CODE
ORIG.            2" 5" PRINT : ORIGIN OF DATA
UWI .       100070706116W500 : UNIQUE WELL ID
DICO. A2D Technologies, Inc. : DIGITIZING COMPANY
~Other -----------------------------------------------------
~ASCII -----------------------------------------------------
# ...
 7300.00000    8.79850    8.81070    8.81070    5.79090    0.01190    2.71220   -0.00430    -999.25   -0.00130  172.68510    0.01190   52.07480   52.07480   25.74700    -999.25   30.48110    -999.25   30.48110  172.68510  186.74120  294.58130  186.74120    0.01920    -999.25    0.01920    2.71220 -102.17930  -48.08570  294.58130
 7350.00000    8.81000    8.82530    8.82530    6.46770    0.02800    2.71560   -0.00500    -999.25   -0.00320  154.61390    0.02800   53.65910   53.65910   34.62460    -999.25   37.01800    -999.25   37.01800  154.61390  193.27520  301.46400  193.27520    0.03080    -999.25    0.03080    2.71560  -82.52300  -28.02240  301.46400
 7400.00000    8.85900    8.97230    8.97230    2.19110   -0.00060    2.68330    0.00840    -999.25    0.01560  456.38350   -0.00060   55.50020   55.50020   56.51380    -999.25   61.78410    -999.25   61.78410  456.38350  883.46460 1294.15880  883.46460    0.04790    -999.25    0.04790    2.68330 -107.17240  -52.26730 1294.15880
 7450.00000    8.94150    8.93580    8.93580   62.43350    0.03280    2.65070    0.03040    -999.25    0.03460   16.01710    0.03280   70.43320   70.43320  248.72930    -999.25  230.31800    -999.25  230.31800   16.01710   16.38270   18.98400   16.38270    0.14520    -999.25    0.14520    2.65070  -72.52360  -17.21160   18.98400
 7500.00000    9.14730    9.06220    9.06220    2.63800    0.03500    2.71410   -0.00890    -999.25   -0.00240  379.07660    0.03500   49.61750   49.61750   15.73590    -999.25   15.47950    -999.25   15.47950  379.07660  501.34090  814.57910  501.34090    0.00590    -999.25    0.00590    2.71410 -126.71940  -69.27050  814.57910
 7550.00000    8.81830    9.05070    9.05070    2.49130   -0.01190    2.66840    0.01330    -999.25    0.02430  401.39940   -0.01190   48.93760   48.93760   19.79000    -999.25   18.27970    -999.25   18.27970  401.39940  367.09370  596.63760  367.09370    0.01360    -999.25    0.01360    2.66840 -146.73840  -87.54710  596.63760
 7600.00000   10.50980    9.39460    9.39460    3.27570    0.22380    2.66770    0.01540    -999.25    0.02480  305.28320    0.22380   48.54200   48.54200   15.69030    -999.25   20.14380    -999.25   20.14380  305.28320  215.31740  450.60640  215.31740    0.00990    -999.25    0.00990    2.66770 -161.12130 -100.29240  450.60640
 7650.00000    9.50400    9.15790    9.15790   10.21710    0.06610    2.62810    0.04340    -999.25    0.04790   97.87550    0.06610   49.22050   49.22050   14.09320    -999.25   14.88790    -999.25   14.88790   97.87550   88.89510  114.43970   88.89510    0.01380    -999.25    0.01380    2.62810 -156.36230  -93.90380  114.43970
 7700.00000   10.29890    9.34810    9.34810    2.92500    0.19770    2.60390    0.05190    -999.25    0.06200  341.95200    0.19770   47.95420   47.95420   12.59570    -999.25   10.92140    -999.25   10.92140  341.95200  280.18560  368.36380  280.18560    0.02530    -999.25    0.02530    2.60390 -152.48050  -88.38430  368.36380
 7750.00000   11.20770    9.50070    9.50070    1.44630    0.12300    2.51930    0.10960    -999.25    0.11150  691.42420    0.12300   48.30100   48.30100    8.72960    -999.25   10.62890    -999.25   10.62890  691.42420  221.91190  451.86730  221.91190    0.00990    -999.25    0.00990    2.51930 -202.68550 -136.95980  451.86730
 7800.00000    8.39760    8.51860    8.51860   52.12870    0.18490    2.63110    0.04380    -999.25    0.04610   19.18330    0.18490   52.50300   52.50300   10.70660    -999.25   12.45040    -999.25   12.45040   19.18330   27.80060  168.18100   27.80060    0.07170    -999.25    0.07170    2.63110 -189.00780 -121.65630  168.18100
 7850.00000   10.94530    9.46730    9.46730   17.19000    0.20970    2.53740    0.09850    -999.25    0.10100   58.26860    0.20970   48.89240   48.89240   13.14420    -999.25   13.85170    -999.25   13.85170   58.26860   52.12090   64.60610   52.12090    0.01700    -999.25    0.01700    2.53740 -156.64080  -87.65170   64.60610
 7900.00000   11.92770    9.53720    9.53720    2.96240    0.21830    2.60460    0.04830    -999.25    0.06170  337.56400    0.21830   48.66180   48.66180   14.35820    -999.25   16.06450    -999.25   16.06450  337.56400  171.54510  401.65530  171.54510    0.01040    -999.25    0.01040    2.60460 -154.47160  -83.85290  401.65530
 7950.00000   10.81540    9.32350    9.32350    5.84450    0.24870    2.55690    0.08220    -999.25    0.08950  171.35870    0.24870   48.89570   48.89570   12.50010    -999.25   14.41090    -999.25   14.41090  171.35870  131.34000  144.35620  131.34000    0.01010    -999.25    0.01010    2.55690 -155.92120  -83.66490  144.35620
 8000.00000    9.61610    9.26990    9.26990   12.77780    0.10540    2.73620   -0.02430    -999.25   -0.01530   78.26060    0.10540   50.99120   50.99120   12.75350    -999.25   12.47810    -999.25   12.47810   78.26060   69.58870   92.64980   69.58870    0.01890    -999.25    0.01890    2.73620 -152.84110  -78.95510   92.64980
 8050.00000    9.70620    8.90790    8.90790   28.00150    0.13230    2.60250    0.04740    -999.25    0.06290   35.71240    0.13230   51.32290   51.32290   10.06690    -999.25   13.90370    -999.25   13.90370   35.71240   36.67500   56.57990   36.67500    0.02210    -999.25    0.02210    2.60250 -157.74950  -82.23780   56.57990
 8100.00000   11.22630    9.18940    9.18940   10.62090    0.23160    2.53300    0.09940    -999.25    0.10350   94.22190    0.23160   49.40730   49.40730   14.56250    -999.25   14.75770    -999.25   14.75770   94.22190  131.10230  143.64980  131.10230    0.00810    -999.25    0.00810    2.53300 -156.90420  -79.75490  143.64980
 8150.00000   11.73350    9.86120    9.86120    5.16720    0.13310    2.61380    0.05490    -999.25    0.05630  193.52850    0.13310   49.32440   49.32440   21.61740    -999.25   25.53110    -999.25   25.53110  193.52850  169.52030  528.72220  169.52030    0.02800    -999.25    0.02800    2.61380 -149.31640  -70.53750  528.72220
 8200.00000    9.16870    9.19030    9.19030   51.22060    0.04230    2.69440    0.00130    -999.25    0.00920   19.59470    0.04230   52.23380   52.23380   42.67030    -999.25   38.66730    -999.25   38.66730   19.59470   21.82540   45.47770   21.82540    0.07140    -999.25    0.07140    2.69440 -124.42070  -44.00410   45.47770
 8250.00000    9.28600    9.20590    9.20590    4.44500    0.00630    2.80890   -0.08050    -999.25   -0.05780  224.97070    0.00630   49.22250   49.22250   45.23820    -999.25   41.70510    -999.25   41.70510  224.97070  317.55390  814.19010  317.55390    0.01670    -999.25    0.01670    2.80890 -128.32010  -51.08930  814.19010
 8300.00000   10.58330    9.47500    9.47500   11.43620    0.20360    2.62920    0.02340    -999.25    0.04730   87.44170    0.20360   49.84260   49.84260   19.89720    -999.25   22.30960    -999.25   22.30960   87.44170   71.68740  178.20790   71.68740    0.06680    -999.25    0.06680    2.62920 -160.65270  -87.60520  178.20790
 8350.00000    9.70480    9.08980    9.08980   16.50240    0.12420    2.68020    0.01680    -999.25    0.01750   60.60350    0.12420   49.30510   49.30510   34.87170    -999.25   38.46370    -999.25   38.46370   60.60350   57.27110   65.01760   57.27110    0.07070    -999.25    0.07070    2.68020 -132.16610  -63.32830   65.01760
 8400.00000   11.34090    9.64150    9.64150   31.97230    0.25550    2.46820    0.13690    -999.25    0.14140   31.27710    0.25550   51.42720   51.42720   28.00720    -999.25   33.21250    -999.25   33.21250   31.27710   28.25680   38.70590   28.25680    0.09420    -999.25    0.09420    2.46820 -122.20670  -57.54830   38.70590
 8450.00000    9.36170    9.45090    9.45090    6.53880   -0.00470    2.71680   -0.01560    -999.25   -0.00390  152.96870   -0.00470   50.70600   50.70600   33.07310    -999.25   31.15250    -999.25   31.15250  152.96870  178.52360  280.93070  178.52360    0.01850    -999.25    0.01850    2.71680  -73.24620  -12.79740  280.93070
 8500.00000    9.48370    9.61990    9.61990    7.97830    0.02410    2.73150   -0.02600    -999.25   -0.01260  125.33990    0.02410   51.25700   51.25700   35.37730    -999.25   36.35300    -999.25   36.35300  125.33990  132.44960  212.78840  132.44960    0.02200    -999.25    0.02200    2.73150  -72.87320  -16.60390  212.78840
