~Version ---------------------------------------------------
VERS.      2.0 : CWLS log ASCII Standard -VERSION 2.0
WRAP.       NO : One line per depth step
CREA. 08/12/13 : LAS Creation Date
~Well ------------------------------------------------------
STRT.M                           450.0 : START DEPTH
STOP.M                          3450.0 : STOP DEPTH
STEP.M                        50.00000 : STEP LENGTH
NULL.                          -999.25 : NULL VALUE
COMP. AMOCO CANADA PETROLEUM CO., LTD. : COMPANY
WELL.    ULSTER ANTE CREEKK 5-22-66-25 : WELL
FLD .                       ANTE CREEK : FIELD
LOC .                                  : LOCATION
CTRY.                           CANADA : COUNTRY
SRVC.                          Unknown : SERVICE COMPANY
DATE.                      24-Sep-1983 : LOGDATE
PROV.                          Alberta : PROVINCE
UWI .                 100052206625W500 : UNIQUE WELL ID
SLAT.WGS84                    54.72352 : SURFACE LATITUDE
SLON.WGS84                   -117.7013 : SURFACE LONGITUDE
~Curve Information -----------------------------------------
DEPT    .M      : DEPTH METER
ACED    .US/M   : ACOUSTIC FROM SONIC LOG [ADJ. TO RESISTIVITY LOG]
C13ED   .MM     : CALIPER 13 PAD ELECTRODE FROM DENSITY LOG [ADJ. TO RESISTIVITY LOG]
C24ED   .MM     : CALIPER 24 FROM DENSITY LOG [ADJ. TO RESISTIVITY LOG]
CALSED  .MM     : CALIPER FROM SONIC LOG [ADJ. TO RESISTIVITY LOG]
CALWS   .MM     : CALIPER [C13ED]
CNCLSED .V/V    : COMPENSATED NEUTRON POROSITY LIMESTONE FROM DENSITY LOG [ADJ. TO RESISTIVITY LOG]
CNCSSED .V/V    : COMPENSATED NEUTRON POROSITY SANDSTONE FROM DENSITY LOG [ADJ. TO RESISTIVITY LOG]
CONDWS  .MMHO   : CONDUCTIVITY [1000/DRESWS]
CORRED  .KG/M3  : DENSITY CORRECTION FROM DENSITY LOG [ADJ. TO RHOBED/RESISTIVITY LOG]
DCORWS  .KG/M3  : DENSITY CORRECTION [CORRED]
DENED   .KG/M3  : COMPENSATED BULK DENSITY FROM DENSITY LOG [ADJ. TO RHOBED/RESISTIVITY LOG]
DENWS   .KG/M3  : FORMATION BULK DENSITY [CALC. FROM DENWS, M=2710 ,F=1000]
DPOLSWS .V/V    : DENSITY POROSITY LIMESTONE [PORDSSED CONVERTED TO LIMESTONE MATRIX, M=2710, F=1000, SPL. TO PORDLSED @ 1947.2 M]
DRESWS  .OHMM   : DEEP RESISTIVITY [RILDED]
DTWS    .US/M   : COMPRESSIONAL SONIC [ACED]
GRDED   .GAPI   : GAMMA RAY FROM DENSITY LOG [ADJ. TO RESISTIVITY LOG]
GRRED   .GAPI   : GAMMA RAY FROM RESISTIVITY LOG
GRWS    .GAPI   : GAMMA RAY [GRRED SPL. TO GRDED @ 3446 M]
MRESWS  .OHMM   : MEDIUM RESISTIVITY [RILMED]
NPOLSWS .V/V    : NEUTRON POROSITY LIMESTONE [CNCSSED CONVERTED TO LIMESTONE MATRIX, SPL. TO CNCLSED @ 1974.2 M]
PORDLSED.V/V    : DENSITY POROSITY LIMESTONE [M=2710, F=1000] FROM DENSITY LOG [ADJ. TO RESISTIVITY LOG]
PORDSSED.V/V    : DENSITY POROSITY SANDSTONE [M=2650, F=1000] FROM DENSITY LOG [ADJ. TO RESISTIVITY LOG]
RFOCED  .OHMM   : SHALLOW FOCUSED RESISTIVITY FROM RESISTIVITY LOG
RILDED  .OHMM   : DEEP INDUCTION  RESISTIVITY FROM RESISTIVITY LOG
RILMED  .OHMM   : MEDIUM INDUCTION RESISTIVITY FROM RESISTIVITY LOG
SPRED   .MV     : SPONTANEOUS POTENTIAL FROM RESISTIVITY LOG
SPWS    .MV     : SPONTANEOUS POTENTIAL [BASELINE 0 MV, SPRED]
SRESWS  .OHMM   : SHALLOW RESISTIVITY [RFOCED]
TENDED  .N      : TENSION FROM DENSITY LOG [ADJ. TO RESISTIVITY LOG]
TENRED  .N      : TENSION FROM RESISTIVITY LOG
~Params ----------------------------------------------------
PD  .                         GL : PERMANENT DATUM
EPD .M                    762.45 : ELEVATION PERMANENT DATUM
LMF .                         KB : LOG MEASURED FROM
DAPD.M                      7.45 : FEET ABOVE PERMANENT DATUM
DMF .                         KB : DRILLING MEASURED FROM
EKB .M                     769.9 : KELLY BUSHING
EGL .M                    762.45 : GROUND LEVEL
DATE.                   09/24/83 : RUN DATE
RUN .                          1 : RUN NUMBER
DD  .M                      3460 : DEPTH DRILLER
DL  .M                    3457.8 : DEPTH LOGGER
BLI .M                    3457.3 : BOTTOM LOG INTERVAL
TLI .M                     448.7 : TOP LOG INTERVAL
CS  .MM                      244 : CASING SIZE
CBD .M                       448 : CASING BOTTOM DRILLER
CBL .M                     448.7 : CASING BOTTOM LOGGER
BS  .MM                      219 : BIT SIZE
BSD .M                      3460 : BIT SIZE AT DEPTH
DFT .                   GEL CHEM : DRILLING FLUID TYPE
DFD .                       1100 : DRILLING FLUID DENSITY
DFV .                         55 : DRILLING FLUID VISCOSITY
DFPH.                       10.5 : DRILLING FLUID PH
DFL .                         10 : DRILLING FLUID LOSS
MSS .                       CIRC : MUD SAMPLE SOURCE
RMS .OHMM                    2.7 : RESISTIVITY MUD SAMPLE
MST .DEGC                     19 : MUD SAMPLE TEMPERATURE
RMF .OHMM                    1.8 : RESISTIVITY MUD FILTRATE SAMPLE
MFST.DEGC                     19 : MUD FILTRATE SAMPLE TEMPERATURE
RMC .OHMM                    1.7 : RESISTIVITY MUD CAKE
MCST.DEGC                     19 : MUD CAKE SAMPLE TEMPERATURE
MFSS.                       MEAS : MUD FILTRATE SAMPLE SOURCE
MCSS.                       MEAS : MUD CAKE SAMPLE SOURCE
RMB .OHMM                   0.83 : RESISTIVITY MUD AT BHT
TCS .HRS                      29 : TIME CIRCULATED STOPPED
LUN .                       6217 : LOGGING UNIT NUMBER
LUL .                         GP : LOGGING UNIT LOCATION
ENGI.             HODSON BROTHEN : RECORDING ENGINEER
WITN.                    TUSTIAN : WITNESSED BY
CLNT.                    A2DTECH : CLIENT CODE
ORIG. 6.5"/100M 16.5"/100M PRINT : ORIGIN OF DATA
UWI .           100052206625W500 : UNIQUE WELL ID
DICO.     A2D Technologies, Inc. : DIGITIZING COMPANY
~Other -----------------------------------------------------
CNFD-DIFL-BCS LOG RAN
DIFL RUN SEPERATELY AFTER AC DUE TO TOOL MALFUNCTION
~ASCII -----------------------------------------------------
# ...
 1650.00000  256.36580  282.66560  256.56280  286.68700  282.66560    -999.25    0.26520  146.94650    3.70000    3.70000 2553.70000 2552.98000    0.09180    6.80520  256.36580   74.13350   68.93000   68.93000    7.08460    0.22520    -999.25    0.05880    7.41480    6.80520    7.08460  -39.83320   -5.15580    7.41480 -564.58750 -1702.67120
 1700.00000  225.47820  304.32810  282.97960  297.62360  304.32810    -999.25    0.21420   62.65230  118.90000  118.90000 2487.70000 2485.82500    0.13110   15.96110  225.47820   61.20510   55.61150   55.61150   16.85760    0.17420    -999.25    0.09950   17.10560   15.96110   16.85760  -47.70850  -10.05000   17.10560 -946.51720 -3057.65600
 1750.00000  256.84730  298.03820  248.22760  283.31050  298.03820    -999.25    0.27270  120.43550  172.80000  172.80000 2457.10000 2449.52500    0.15230    8.30320  256.84730   62.71020   55.90430   55.90430   10.21430    0.23270    -999.25    0.12150   11.97660    8.30320   10.21430  -74.21930  -39.99910   11.97660 -714.52860 -2293.95820
 1800.00000  240.14230  307.59430  242.76710  297.58030  307.59430    -999.25    0.30640   74.80330   42.10000   42.10000 2584.30000 2571.29500    0.08110   13.36840  240.14230   84.19740   77.60180   77.60180   13.92170    0.26640    -999.25    0.04770   13.98360   13.36840   13.92170  -42.38910   -3.51510   13.98360 -1323.97450 -1748.25710
 1850.00000  236.14940  310.25940  283.25090  316.79250  310.25940    -999.25    0.27280   68.62760  125.00000  125.00000 2386.70000 2381.21500    0.19230   14.57140  236.14940   90.97330   93.42590   93.42590   16.40970    0.23280    -999.25    0.16290   14.24600   14.57140   16.40970  -52.38580  -13.51180   14.24600 -974.50990 -4178.13760
 1900.00000  227.06610  274.89790  238.55800  275.92420  274.89790    -999.25    0.22810   74.54510  260.00000  260.00000 2536.20000 2534.00500    0.10290   13.41470  227.06610   61.66430   56.91770   56.91770   22.05860    0.18810    -999.25    0.07030   26.64050   13.41470   22.05860  -79.92160  -38.71470   26.64050 -1315.07470 -2064.17890
 1950.00000  256.79390  240.78540  200.66490  229.80890  240.78540    -999.25    0.27380  254.16190  169.60000  169.60000 2398.90000 2398.54000    0.18210    3.93450  256.79390   31.50250   31.55180   31.55180    6.92420    0.23380    -999.25    0.15240   14.48090    3.93450    6.92420 -126.88780  -85.05950   14.48090 -1781.87170 -2926.01740
 2000.00000  282.92550  266.63110  225.71560  254.75310  266.63110    0.31060    -999.25    -999.25   72.80000   72.80000 2443.20000 2452.47400    0.15060    -999.25  282.92550  187.68500  185.56860  185.56860 1981.14260    0.31060    0.15060    -999.25 1935.13120    -999.25 1981.14260  -64.20130  -21.62190 1935.13120 -1916.48290 -4984.73610
 2050.00000  216.88120  300.94000  267.26460  286.98900  300.94000    0.17410    -999.25   46.16660   59.10000   59.10000 2650.00000 2645.19100    0.03790   21.66070  216.88120   93.72000   87.82990   87.82990   22.49560    0.17410    0.03790    -999.25   23.38140   21.66070   22.49560  -54.52190   -8.81290   23.38140 -948.97790 -2377.54130
 2100.00000  194.12360  284.40390  252.49880  254.71850  284.40390    0.08910    -999.25   25.58060   40.70000   40.70000 2663.80000 2659.72600    0.02940   39.09210  194.12360   80.75360   72.95450   72.95450   39.56850    0.08910    0.02940    -999.25   40.30400   39.09210   39.56850  -59.19800  -15.08870   40.30400 -1916.29430 -3114.45870
 2150.00000  210.25010  315.47150  280.43550  274.48110  315.47150    0.16260    -999.25   32.78630  117.60000  117.60000 2709.40000 2687.25700    0.01330   30.50050  210.25010  104.93970   96.50510   96.50510   30.03310    0.16260    0.01330    -999.25   28.88840   30.50050   30.03310  -41.72490   -6.61480   28.88840 -903.61660 -2180.35280
 2200.00000  183.80890  253.55120  230.69860  252.85840  253.55120    0.16770    -999.25   43.21630   77.80000   77.80000 2691.30000 2693.75500    0.00950   23.13940  183.80890   62.94980   60.03640   60.03640   23.68390    0.16770    0.00950    -999.25   21.60970   23.13940   23.68390  -86.68930  -42.55840   21.60970 -2185.74120 -3711.84360
 2250.00000  157.21350  268.95290  238.89980  241.32320  268.95290    0.01180    -999.25    1.05230   -1.00000   -1.00000 2926.50000 2886.30100   -0.10310  950.29160  157.21350   14.63070   13.91030   13.91030 2015.39820    0.01180   -0.10310    -999.25 1989.97410  950.29160 2015.39820 -101.10300  -57.03120 1989.97410 -1094.50060 -1964.33190
 2300.00000  170.83750  246.21590  229.05820  235.80690  246.21590    0.07150    -999.25   83.96380  142.10000  142.10000 2750.60000 2751.04000   -0.02400   11.90990  170.83750   17.01910   14.95390   14.95390   28.07580    0.07150   -0.02400    -999.25 2009.22840   11.90990   28.07580 -171.94940 -130.74160 2009.22840 -887.61300 -1336.08050
 2350.00000  188.73810  268.77120  239.45690  248.15750  268.77120    0.11460    -999.25   45.58510   19.10000   19.10000 2690.80000 2687.08600    0.01340   21.93700  188.73810   52.05490   46.77650   46.77650   16.90610    0.11460    0.01340    -999.25   19.13810   21.93700   16.90610  -72.58260  -34.23870   19.13810 -2233.58120 -4111.94120
 2400.00000  176.81990  263.93960  270.86900  252.53780  263.93960    0.10490    -999.25  140.91850   35.90000   35.90000 2685.60000 2613.89800    0.05620    7.09630  176.81990   32.92810   31.42850   31.42850    8.67680    0.10490    0.05620    -999.25   18.72630    7.09630    8.67680 -120.84880  -85.36890   18.72630  -63.16100 -3290.57850
 2450.00000  167.58240  263.56900  291.19500  264.99940  263.56900    0.03610    -999.25    2.36700   54.70000   54.70000 2704.60000 2699.56900    0.00610  422.47090  167.58240   15.64160   15.60290   15.60290 2021.06870    0.03610    0.00610    -999.25 1978.70960  422.47090 2021.06870  -68.33790  -35.86040 1978.70960 -1375.68520 -2862.69470
 2500.00000  207.80980  275.05650  268.97710  261.56750  275.05650    0.16520    -999.25   94.98030   55.10000   55.10000 2643.90000 2607.05800    0.06020   10.52850  207.80980   85.41760   77.09960   77.09960   12.67870    0.16520    0.06020    -999.25   18.29350   10.52850   12.67870  -42.48220  -14.21820   18.29350 -897.46480 -2225.01360
 2550.00000  234.36660  306.55310  417.43550  333.55700  306.55310    0.19240    -999.25  121.06680   60.10000   60.10000 2481.00000 2627.57800    0.04820    8.25990  234.36660   80.00960   71.05350   71.05350    8.07430    0.19240    0.04820    -999.25   10.19560    8.25990    8.07430  -47.63610  -34.96170   10.19560 -955.23740 -1920.17390
 2600.00000  181.83170  266.88510  219.38930  237.44560  266.88510    0.06470    -999.25   15.89910   29.30000   29.30000 2702.20000 2695.80700    0.00830   62.89680  181.83170   48.59550   47.38350   47.38350   79.09110    0.06470    0.00830    -999.25   93.83250   62.89680   79.09110  -26.52840  -18.24150   93.83250 -765.95190 -2948.61280
 2650.00000  174.23790  268.10990  223.09830  239.29700  268.10990    0.06040    -999.25    8.41990   37.50000   37.50000 2725.20000 2722.31200   -0.00720  118.76640  174.23790   39.93790   40.87880   40.87880  184.33540    0.06040   -0.00720    -999.25  212.32140  118.76640  184.33540  -28.59060  -22.88150  212.32140 -2051.92930 -3105.55890
 2700.00000  195.26230  258.56430  247.34850  243.57580  258.56430    0.13990    -999.25   38.21610   10.60000   10.60000 2682.90000 2668.44700    0.02430   26.16700  195.26230   88.90110   84.87810   84.87810   27.91710    0.13990    0.02430    -999.25   36.46270   26.16700   27.91710  -54.07530  -44.81620   36.46270 -1325.89640 -1707.83510
 2750.00000  157.67800  249.27130  297.07950  249.01760  249.27130    0.01330    -999.25    -999.25   39.30000   39.30000 2699.30000 2693.92600    0.00940    -999.25  157.67800   16.81750   16.92940   16.92940 1958.84360    0.01330    0.00940    -999.25 1991.15560    -999.25 1958.84360 -128.04470 -115.23570 1991.15560 -1250.98870 -2027.34920
 2800.00000  159.12770  247.77430  306.68620  245.27670  247.77430    0.01350    -999.25    -999.25   24.00000   24.00000 2716.70000 2706.23800    0.00220    -999.25  159.12770   11.28810   13.32390   13.32390 1990.10780    0.01350    0.00220    -999.25 1991.90670    -999.25 1990.10780 -139.43190 -123.07290 1991.90670 -1765.14970 -1665.32060
