~Version ---------------------------------------------------
VERS. 2.0 : CWLS log ASCII Standard -VERSION 2.0
WRAP.  NO : ONE LINE PER DEPTH STEP
~Well ------------------------------------------------------
STRT.F                          1250.0 : START DEPTH
STOP.F                         11000.0 : STOP DEPTH
STEP.F                        50.00000 : STEP LENGTH
NULL.                          -999.25 : NULL VALUE
COMP.             MOBIL OIL CANADA LTD : COMPANY
WELL. MOBIL ET AL ROSEVEAR 10-19-53-14 : WELL
FLD .                                  : FIELD
LOC .                                  : LOCATION
CTRY.                           CANADA : COUNTRY
SRVC.                     Schlumberger : SERVICE COMPANY
DATE.                      04-Mar-1978 : LOGDATE
PROV.                          Alberta : PROVINCE
UWI .                 100101905314W500 : UNIQUE WELL ID
SLAT.WGS84                    53.59265 : SURFACE LATITUDE
SLON.WGS84                   -116.0472 : SURFACE LONGITUDE
~Curve Information -----------------------------------------
DEPT   .F    0   1   0  0 : 1 MEASURED DEPTH
GRD    .GAPI 45 310 01 00 : GAMMA RAY FROM DENSITY LOG
DRHO   .G/C3 45 356 01 00 : BULK DENSITY CORRECTION
RHOB   .G/C3 45 350 01 00 : BULK DENSITY
NPHI_SS.DEC  42 890 03 00 : NEUTRON POROSITY SANDSTONE
DPHI_SS.DEC  45 890 12 00 : DENSITY POROSITY SANDSTONE
CALD   .IN   45 280 60 00 : CALIPER FROM DENSITY LOG
NPHI_LS.DEC  42 890 01 00 : NEUTRON POROSITY LIMESTONE
DPHI_LS.DEC  45 890 10 00 : DENSITY POROSITY LIMESTONE
DT     .US/F 60 500 00 00 : DELTA-T (INTERVAL TRANSIT TIME)
SPR    .MV   07 010 01 00 : SPONTANEOUS POTENTIAL FROM RESISTIVITY LOG
ILD    .OHMM 07 120 46 00 : INDUCTION DEEP RESISTIVITY
ILM    .OHMM 07 120 44 00 : INDUCTION MEDIUM RESISTIVITY
LL8    .OHMM 07 220 08 00 : LATEROLOG 8
~Params ----------------------------------------------------
PD  .                     GL : PERMANENT DATUM
EPD .FT               2885.2 : ELEVATION PERMANENT DATUM
LMF .                     KB : LOG MEASURED FROM
DAPD.FT                 13.8 : FEET ABOVE PERMANENT DATUM
EKB .FT                 2899 : KELLY BUSHING
EGL .FT               2885.2 : GROUND LEVEL
DATE.               03/04/78 : RUN DATE
RUN .                      1 : RUN NUMBER
DD  .FT                11010 : DEPTH DRILLER
DL  .FT                11002 : DEPTH LOGGER
BLI .FT                10999 : BOTTOM LOG INTERVAL
TLI .FT                 1207 : TOP LOG INTERVAL
CBD .FT                 1205 : CASING BOTTOM DRILLER
CBL .FT                 1207 : CASING BOTTOM LOGGER
BS  .IN                 8.75 : BIT SIZE
BSD .FT                11010 : BIT SIZE AT DEPTH
DFT .               GEL CHEM : DRILLING FLUID TYPE
DFD .                    9.2 : DRILLING FLUID DENSITY
DFV .                    132 : DRILLING FLUID VISCOSITY
DFPH.                     10 : DRILLING FLUID PH
DFL .                    9.4 : DRILLING FLUID LOSS
MSS .               FLOWLINE : MUD SAMPLE SOURCE
RMS .OHMM               1.94 : RESISTIVITY MUD SAMPLE
MST .DEGF                 64 : MUD SAMPLE TEMPERATURE
RMF .OHMM               2.12 : RESISTIVITY MUD FILTRATE SAMPLE
MFST.DEGF                 59 : MUD FILTRATE SAMPLE TEMPERATURE
RMB .OHMM               0.65 : RESISTIVITY MUD AT BHT
TCS .HRS                   3 : TIME CIRCULATED STOPPED
LUN .                   7730 : LOGGING UNIT NUMBER
LUL .                    EDM : LOGGING UNIT LOCATION
ENGI.               CAMPBELL : RECORDING ENGINEER
WITN.              MATHEWSON : WITNESSED BY
CLNT.                A2DTECH : CLIENT CODE
ORIG.            2" 5" PRINT : ORIGIN OF DATA
UWI .       100101905314W500 : UNIQUE WELL ID
DICO. A2D Technologies, Inc. : DIGITIZING COMPANY
~Other -----------------------------------------------------
~ASCII -----------------------------------------------------
# ...
 3850.00000   81.95480    0.12990    2.32220    0.40010    0.19990   10.16230    -999.25    -999.25   85.98960  -39.18540    6.40720    6.01720    5.60990
 3900.00000   77.76490    0.15920    2.27340    0.49340    0.22790   10.54880    -999.25    -999.25   91.57010  -39.76620    5.50730    4.65090    5.02790
 3950.00000   67.49880    0.23140    2.20180    0.35840    0.23720   10.70210    -999.25    -999.25   76.38900  -39.93700    8.00750    7.26600    9.02790
 4000.00000   72.72010    0.25000    2.38100    0.34990    0.22230    9.25030    -999.25    -999.25   85.23030  -40.60330    7.41520    7.05520   10.37600
 4050.00000   75.74540    0.16030    2.25400    0.35260    0.24140    9.31610    -999.25    -999.25   79.14620  -40.59720    8.21320    7.86980   12.07170
 4100.00000   85.33440    0.24190    2.34920    0.29060    0.16210   10.00780    -999.25    -999.25   75.20920  -41.77050    9.00160    8.28560   10.13630
 4150.00000   84.70070    0.05450    2.42990    0.32300    0.09460    9.71980    -999.25    -999.25   80.28420  -41.19550    6.74610    5.99120    8.28680
 4200.00000   68.90090    0.11370    2.36190    0.30440    0.16660   10.24240    -999.25    -999.25   80.85540  -46.67440    8.74740    8.89600    9.18100
 4250.00000   87.49670    0.06500    2.19520    0.51820    0.42550   10.10310    -999.25    -999.25  107.56220  -41.51760    5.82790    5.19510    6.42870
 4300.00000   80.02460    0.06540    2.56040    0.32100    0.04550   10.01960    -999.25    -999.25   79.15640  -44.72050    9.52660    9.98560   12.51710
 4350.00000   74.55880    0.02270    2.54700    0.32990    0.06410    9.13360    -999.25    -999.25   81.81740  -42.38450    9.00130    9.55490    9.55720
 4400.00000   93.40940    0.01330    2.48580    0.34600    0.08010   11.23940    -999.25    -999.25   86.18890  -41.09530    5.83970    6.10130    6.32450
 4450.00000  109.41410    0.04580    2.54710    0.25350   -0.00610   10.81360    -999.25    -999.25   76.75280  -41.81700    7.99630    8.57150    8.49830
 4500.00000  113.94130    0.00480    2.56040    0.29890    0.03580   11.30710    -999.25    -999.25   81.29850  -43.07050    8.24020    8.77500    9.31310
 4550.00000  118.37370    0.10080    2.57470    0.30170    0.07240   10.50540    -999.25    -999.25   80.59250  -42.69020    8.59990    8.99990    9.49050
 4600.00000  117.59550    0.06120    2.58420    0.29370    0.08890   10.36700    -999.25    -999.25   77.04270  -42.72350    9.43850    9.97630   10.64410
 4650.00000  117.94490    0.01920    2.49290    0.27280    0.07880   10.12570    -999.25    -999.25   78.18600  -42.19280   10.02070   10.57630   11.35360
 4700.00000  131.18770    0.03490    2.49220    0.33250    0.08740    9.98870    -999.25    -999.25   82.76450  -41.27600   10.64610   10.99550   12.74570
 4750.00000  146.24120    0.08940    2.33370    0.34500    0.16970   10.06640    -999.25    -999.25   85.77610  -40.45460    9.32190    9.81190   12.24690
 4800.00000  142.96840    0.06830    2.43780    0.31580    0.09080    9.97720    -999.25    -999.25   84.30860  -41.20670   11.84690   12.42190   15.77420
 4850.00000  125.09390    0.22880    2.46400    0.32540    0.07410   10.60060    -999.25    -999.25   83.33100  -41.69570    9.08120    9.86680   11.72810
 4900.00000  118.91900    0.22720    2.44250    0.29020    0.13120   10.29290    -999.25    -999.25   79.64900  -42.75510    8.24990    8.84010    9.63900
 4950.00000  121.80060    0.03650    2.44730    0.35120    0.14350   10.21150    -999.25    -999.25   80.59310  -42.31840    6.94850    7.38490    7.79630
 5000.00000  102.04200    0.13160    1.89750    0.39830    0.44080   10.81070    -999.25    -999.25   79.06530  -41.65900    7.33470    7.91330    8.99510
 5050.00000  113.71770    0.15500    1.98940    0.38810    0.41700   10.97070    -999.25    -999.25   82.04930  -41.56990    6.91210    7.44950    7.64880
 5100.00000  103.94220    0.16960    1.98310    0.31700    0.39590   10.75670    -999.25    -999.25   76.71490  -41.86020    8.73740    9.31890    9.96490
 5150.00000  114.62710    0.13640    1.84680    0.32250    0.47560   12.10400    -999.25    -999.25   77.70820  -41.10660    7.31630    8.01110    9.19300
 5200.00000  122.52110    0.11630    1.91800    0.42190    0.39540   11.38280    -999.25    -999.25   87.28770  -39.88950    8.89940    9.46880   10.51810
 5250.00000  124.07860    0.22800    2.03530    0.37580    0.39280   10.89470    -999.25    -999.25   82.65800  -40.45300    6.26440    6.49220    7.42800
 5300.00000  100.26050    0.09430    1.72200    0.40640    0.57520   14.08250    -999.25    -999.25   83.08750  -41.38400    7.70960    6.94180    8.32580
 5350.00000  123.36000    0.19750    2.20660    0.30300    0.25100   11.20250    -999.25    -999.25   78.04720  -41.56970    8.62670    9.62820    9.91570
 5400.00000   89.63850    0.25940    2.45900    0.20210    0.12680    9.21920    -999.25    -999.25   71.11740  -46.51980   14.92190   15.62230   19.59780
 5450.00000  126.88990    0.21120    2.13380    0.29000    0.28390    9.28320    -999.25    -999.25   81.23950  -40.36020   10.27490   10.57570   11.27900
 5500.00000  118.05610    0.19580    2.17510    0.30430    0.24940    9.97860    -999.25    -999.25   77.47250  -40.19970    9.95540   10.56520   12.12710
 5550.00000  107.72530    0.11890    1.97230    0.36320    0.36870   10.38500    -999.25    -999.25   76.30720  -40.60640    8.67670    9.25030   11.20270
 5600.00000  111.70390    0.25090    2.23040    0.29420    0.32290   10.46620    -999.25    -999.25   74.87040  -40.64130   11.04900   10.56650   11.23340
 5650.00000  113.56720    0.20720    2.10190    0.35940    0.36660   13.30580    -999.25    -999.25   84.46700  -39.31860    8.78530    9.28830   10.49960
 5700.00000  104.44310    0.08500    1.53950    0.53740    -999.25   14.12240    -999.25    -999.25   91.52910  -36.75650    8.42870    7.25110    9.05590
 5750.00000  141.74730    0.20940    2.16280    0.34620    0.26660    9.92390    -999.25    -999.25   84.93890  -38.09440   12.45090   12.91090   16.91330
 5800.00000  119.10960    0.18990    1.97060    0.35930    0.38620   10.83430    -999.25    -999.25   84.84780  -36.87590   11.30870   10.28280   14.42300
 5850.00000  141.98220    0.21880    2.29590    0.36120    0.21660   10.04960    -999.25    -999.25   86.51090  -37.15040   13.05880   13.53150   18.72850
 5900.00000  147.75890    0.25500    2.32330    0.34190    0.22030    9.67100    -999.25    -999.25   85.56230  -38.13420   16.55430   17.06980   25.19230
 5950.00000  154.44460    0.21730    2.41410    0.35790    0.11840    9.51640    -999.25    -999.25   88.78220  -37.47410   17.59180   18.20150   27.90750
 6000.00000  132.41570    0.22430    2.14950    0.38670    0.29950   12.85990    -999.25    -999.25   89.55940  -36.89610   12.71640   11.73600   17.24800
 6050.00000  127.38640    0.08790    2.24100    0.51090    0.21950   11.58410    -999.25    -999.25   91.22890  -36.28420   11.98260   10.73270   14.83330
 6100.00000   95.01100    0.17070    1.92640    0.41850    0.42640   14.57860    -999.25    -999.25   80.26280  -37.05260    7.82080    6.89140    8.58100
 6150.00000  115.20450    0.24200    2.33220    0.45720    0.31220   14.98750    -999.25    -999.25   81.46340  -36.29810    9.05000    8.58010   10.77490
 6200.00000  114.28640    0.22110    2.07120    0.36710    0.31670   14.26170    -999.25    -999.25   79.08050  -37.01740    8.84730    8.17850    9.48440
 6250.00000  102.46520    0.21170    2.26300    0.54370    0.28850   14.98590    -999.25    -999.25   80.26240  -35.90230    8.90840    8.25150   11.91390
 6300.00000  109.08870    0.14630    2.09070    0.39310    0.37350   13.42650    -999.25    -999.25   80.27260  -34.48170    8.19650    7.01650    9.44400
 6350.00000  147.34180    0.13510    2.53630    0.54040    0.09390   14.38600    -999.25    -999.25   87.08060  -34.23220    7.02780    6.35050    9.74480
 6400.00000  103.71220    0.22960    1.87440    -999.25    0.50550   13.99180    -999.25    -999.25   86.94860  -33.24960    4.28380    3.80420    5.26650
