~Version ---------------------------------------------------
VERS.      2.0 : CWLS log ASCII Standard -VERSION 2.0
WRAP.       NO : One line per depth step
CREA. 07/10/13 : LAS Creation Date
~Well ------------------------------------------------------
STRT.FT                         55.3 : START DEPTH
STOP.FT                      11119.8 : STOP DEPTH
STEP.FT                      0.50000 : STEP LENGTH
NULL.                        -999.25 : NULL VALUE
COMP.         PACIFIC PETROLEUMS LTD : COMPANY
WELL. PACIFIC ET AL TONY 10-18-63-21 : WELL
FLD .                     TONY TOWER : FIELD
LOC .                                : LOCATION
CTRY.                         CANADA : COUNTRY
SRVC.                   Schlumberger : SERVICE COMPANY
DATE.                    24-Sep-1975 : LOGDATE
PROV.                        Alberta : PROVINCE
UWI .               100101806321W500 : UNIQUE WELL ID
SLAT.WGS84                  54.45338 : SURFACE LATITUDE
SLON.WGS84                 -117.1585 : SURFACE LONGITUDE
~Curve Information -----------------------------------------
DEPT   .FT    : DEPTH FEET
CALD   .IN    : CALIPER FROM DENSITY LOG
DCOR   .G/C3  : DENSITY CORRECTION FROM DENSITY LOG
DPHI_LS.DEC   : DENSITY POROSITY LIMESTONE [M=2.71,F=1.0] FROM DENSITY LOG
DPHI_SS.DEC   : DENSITY POROSITY SANDSTONE [M=2.65,F=1.0] FROM DENSITY LOG
GRD    .GAPI  : GAMMA RAY FROM DENSITY LOG
ILD    .OHMM  : DEEP INDUCTION FROM RESISTIVITY LOG
ILM    .OHMM  : MEDIUM INDUCTION FROM RESISTIVITY LOG
LL8    .OHMM  : LATEROLOG FROM RESISTIVITY LOG
NPHI_LS.DEC   : NEUTRON POROSITY LIMESTONE FROM DENSITY LOG
NPHI_SS.DEC   : NEUTRON POROSITY SANDSTONE FROM DENSITY LOG
RHOB   .G/C3  : BULK DENSITY FROM DENSITY LOG
SPR    .MV    : SPONTANEOUS POTENTIAL FROM RESISTIVITY LOG
~Params ----------------------------------------------------
PD  .                     GL : PERMANENT DATUM
EPD .FT                 2714 : ELEVATION PERMANENT DATUM
LMF .                     KB : LOG MEASURED FROM
DAPD.FT                 13.7 : FEET ABOVE PERMANENT DATUM
EKB .FT               2727.7 : KELLY BUSHING
EGL .FT                 2714 : GROUND LEVEL
DATE.               09/24/75 : RUN DATE
RUN .                      1 : RUN NUMBER
DD  .FT                11125 : DEPTH DRILLER
DL  .FT                11121 : DEPTH LOGGER
BLI .FT                11115 : BOTTOM LOG INTERVAL
TLI .FT                 1125 : TOP LOG INTERVAL
CBD .FT                 1125 : CASING BOTTOM DRILLER
CBL .FT                 1125 : CASING BOTTOM LOGGER
BS  .IN                 8.75 : BIT SIZE
BSD .FT                11125 : BIT SIZE AT DEPTH
DFT .               GEL CHEM : DRILLING FLUID TYPE
DFD .                    9.3 : DRILLING FLUID DENSITY
DFV .                    147 : DRILLING FLUID VISCOSITY
DFPH.                    9.5 : DRILLING FLUID PH
DFL .                    9.2 : DRILLING FLUID LOSS
MSS .               FLOWLINE : MUD SAMPLE SOURCE
RMS .OHMM               1.62 : RESISTIVITY MUD SAMPLE
MST .DEGF                 72 : MUD SAMPLE TEMPERATURE
RMF .OHMM               1.26 : RESISTIVITY MUD FILTRATE SAMPLE
MFST.DEGF                 68 : MUD FILTRATE SAMPLE TEMPERATURE
RMB .OHMM               0.41 : RESISTIVITY MUD AT BHT
TCS .HRS                 3.5 : TIME CIRCULATED STOPPED
LUN .                   7691 : LOGGING UNIT NUMBER
LUL .                    EDM : LOGGING UNIT LOCATION
ENGI.              CROCKFORD : RECORDING ENGINEER
WITN.                   ROSS : WITNESSED BY
CLNT.                A2DTECH : CLIENT CODE
ORIG.            2" 5" PRINT : ORIGIN OF DATA
UWI .       100101806321W500 : UNIQUE WELL ID
DICO. A2D Technologies, Inc. : DIGITIZING COMPANY
~Other -----------------------------------------------------
~ASCII -----------------------------------------------------
# ...
 4451.30000   10.86930    0.11620    -999.25    0.09400  105.71260    9.94350    8.91600   11.15440    -999.25    0.24490    2.45960  -90.65860
 4451.80000   10.81350    0.15590    -999.25    0.09220  104.33030    9.87970    8.85260   10.60950    -999.25    0.24280    2.52120  -90.80320
 4452.30000   10.94760    0.16750    -999.25    0.11510  103.44610    9.71170    8.78970   10.33590    -999.25    0.23850    2.49270  -91.11980
 4452.80000   10.79680    0.17880    -999.25    0.09820  103.50010    9.54660    8.72720   10.18670    -999.25    0.23270    2.47260  -91.47980
 4453.30000   10.98500    0.17880    -999.25    0.10940  103.84420    9.38430    8.45410   10.05990    -999.25    0.23460    2.49760  -91.76600
 4453.80000   11.04620    0.18280    -999.25    0.10850  104.52850    9.22470    8.18230    9.90980    -999.25    0.24200    2.48840  -91.93290
 4454.30000   11.11210    -999.25    -999.25    0.11400  105.74600    9.06790    8.02310    9.74650    -999.25    0.24800    2.47690  -92.19670
 4454.80000   11.18280    -999.25    -999.25    0.11240  106.85170    8.92680    7.91950    9.51350    -999.25    0.25320    2.46910  -92.06500
 4455.30000   10.93390    -999.25    -999.25    0.11780  107.95060    8.79400    7.81540    9.28360    -999.25    0.25940    2.46930  -91.45040
 4455.80000   10.98610    -999.25    -999.25    0.10470  109.03450    8.65930    7.71150    9.28360    -999.25    0.26590    2.48590  -90.85050
 4456.30000   11.34460    -999.25    -999.25    0.10840  109.95530    8.53830    7.63350    9.46260    -999.25    0.27780    2.48950  -90.25500
 4456.80000   11.30730    -999.25    -999.25    0.12750  110.87610    8.46540    7.60310    9.62330    -999.25    0.28640    2.46870  -90.26340
 4457.30000   11.03310    -999.25    -999.25    0.14180  111.33020    8.39870    7.54360    9.68110    -999.25    0.28320    2.43740  -90.20620
 4457.80000   11.21080    0.18170    -999.25    0.11990  111.30610    8.40400    7.41790    9.55290    -999.25    0.27490    2.42870  -90.14910
 4458.30000   11.41620    0.17250    -999.25    0.12840  110.84540    8.40920    7.29170    9.37970    -999.25    0.26590    2.46600  -90.29280
 4458.80000   11.38420    0.15920    -999.25    0.12960  110.29430    8.41450    7.19420    9.14650    -999.25    0.25570    2.44590  -90.74520
 4459.30000   11.08130    0.14590    -999.25    0.11870  109.41040    8.41980    7.27420    9.02120    -999.25    0.24860    2.44140  -91.19770
 4459.80000   11.50290    0.16440    -999.25    0.12750  108.53510    8.42500    7.35510    9.02700    -999.25    0.25710    2.47010  -91.10400
 4460.30000   12.03300    0.16310    -999.25    0.17780  108.03030    8.43030    7.43680    9.13490    -999.25    0.27020    2.45910  -90.99120
 4460.80000   11.68110    0.16970    -999.25    0.18860  107.86490    8.43560    7.51950    9.44280    -999.25    0.28310    2.34530  -90.87840
 4461.30000   11.55660    0.18610    -999.25    0.19420  108.47010    8.44080    7.56540    9.76120    -999.25    0.29150    2.35410  -90.76560
 4461.80000   11.66170    -999.25    -999.25    0.18540  109.12970    8.44290    7.56880    9.90060    -999.25    0.29750    2.35910  -90.78760
 4462.30000   11.41160    -999.25    -999.25    0.19570  109.76970    8.44400    7.57230    9.96310    -999.25    0.29550    2.34440  -90.99830
 4462.80000   11.35370    -999.25    -999.25    0.18100  110.63880    8.44520    7.55210    9.98010    -999.25    0.28910    2.33760  -91.20900
 4463.30000   11.44950    -999.25    -999.25    0.14660  111.79480    8.44640    7.48790    9.92690    -999.25    0.28820    2.36080  -90.71170
 4463.80000   11.64470    -999.25    -999.25    0.11150  112.95070    8.44760    7.42420    9.76770    -999.25    0.29410    2.44930  -90.20640
 4464.30000   11.42350    -999.25    -999.25    0.12650  114.10670    8.44880    7.39170    9.61100    -999.25    0.29560    2.47740  -89.70110
 4464.80000   11.56360    -999.25    -999.25    0.13910  115.24640    8.45000    7.39170    9.57100    -999.25    0.29200    2.45190  -89.67660
 4465.30000   11.51990    -999.25    -999.25    0.12670  115.93120    8.45120    7.40290    9.59800    -999.25    0.29180    2.43330  -90.16950
 4465.80000   11.84950    -999.25    -999.25    0.10090  116.16510    8.48360    7.41950    9.65000    -999.25    0.29300    2.45360  -90.90030
 4466.30000   11.81150    -999.25    -999.25    0.09800  115.54340    8.52810    7.43620    9.83410    -999.25    0.29110    2.50070  -91.85930
 4466.80000   11.36710    -999.25    -999.25    0.10340  114.20330    8.58110    7.45280    9.85000    -999.25    0.28970    2.49260  -92.72520
 4467.30000   11.42350    0.16040    -999.25    0.09780  112.86770    8.63900    7.46950    9.81580    -999.25    0.29480    2.48530  -92.51560
 4467.80000   11.44070    0.14290    -999.25    0.08220  111.76570    8.69720    7.49290    9.82990    -999.25    0.30130    2.50950  -92.30600
 4468.30000   11.59140    0.13540    -999.25    0.07550  110.57250    8.75590    7.53710   10.10320    -999.25    0.29940    2.52550  -91.76940
 4468.80000   11.60240    0.13970    -999.25    0.06540  109.85630    8.81490    7.58400   10.43820    -999.25    0.29600    2.53680  -91.04830
 4469.30000   11.65300    0.17340    -999.25    0.05350  109.31090    8.85080    7.64360   10.55650    -999.25    0.29280    2.57020  -90.32720
 4469.80000   11.63370    0.18760    -999.25    0.06030  108.33180    8.88200    7.72970   10.38330    -999.25    0.29010    2.56000  -89.60610
 4470.30000   12.07000    0.17620    -999.25    0.07690  107.21820    8.91340    7.83280   10.14130    -999.25    0.28750    2.52040  -89.02600
 4470.80000   11.83010    0.16710    -999.25    0.08430  106.91230    8.90570    7.85320   10.21970    -999.25    0.28480    2.53370  -88.68560
 4471.30000   12.15130    0.18470    -999.25    0.08190  108.18890    8.89040    7.85320   10.38760    -999.25    0.28300    2.53580  -89.07380
 4471.80000   12.57270    0.16340    -999.25    0.10390  109.59020    8.87510    7.86140   10.03160    -999.25    0.28190    2.50190  -89.71990
 4472.30000   11.83440    0.11690    -999.25    0.08530  110.97090    8.85980    7.87300    9.97830    -999.25    0.28290    2.49130  -90.41690
 4472.80000   11.59480    0.10730    -999.25    0.07150  112.19010    8.84450    7.88460   10.10290    -999.25    0.28350    2.52820  -91.11380
 4473.30000   11.85590    0.13340    -999.25    0.04800  113.40920    8.82930    7.89610   10.20470    -999.25    0.28350    2.55240  -91.60880
 4473.80000   11.84850    0.16250    -999.25    0.05650  114.31570    8.82300    7.90770   10.13760    -999.25    0.28230    2.57720  -91.36360
 4474.30000   11.39070    0.14980    -999.25    0.06590  114.32860    8.82340    7.91930   10.02820    -999.25    0.28060    2.54850  -91.11850
 4474.80000   11.59050    0.13540    -999.25    0.05920  114.04550    8.82380    7.93100   10.18550    -999.25    0.27900    2.55140  -90.87310
 4475.30000   11.46720    0.12980    -999.25    0.05840  113.82610    8.77850    7.94260   10.34450    -999.25    0.27750    2.56300  -90.62780
 4475.80000   11.36770    0.13800    -999.25    0.07620  113.77500    8.72040    7.93260   10.48880    -999.25    0.27700    2.55350  -90.98080
 4476.30000   11.43360    0.12920    -999.25    0.08420  113.87350    8.66280    7.88020   10.49940    -999.25    0.28110    2.53050  -91.39900
 4476.80000   11.00550    0.14410    -999.25    0.08070  112.74860    8.60280    7.76300   10.39000    -999.25    0.28530    2.52020  -91.37140
 4477.30000   11.06950    0.16790    -999.25    0.06930  110.58450    8.54050    7.58500   10.21720    -999.25    0.28370    2.54530  -90.76750
 4477.80000   11.58440    0.15140    -999.25    0.07760  108.28250    8.47870    7.41110    9.85830    -999.25    0.27690    2.53900  -90.16350
 4478.30000   11.63660    0.11590    -999.25    0.07170  107.31640    8.41730    7.39110    9.52070    -999.25    0.27740    2.53220  -89.59770
 4478.80000   11.74510    0.09210    -999.25    0.06510  109.40250    8.35640    7.40290    9.42680    -999.25    0.28100    2.54440  -89.83500
