~Version ---------------------------------------------------
VERS. 2.0 : CWLS log ASCII Standard -VERSION 2.0
WRAP. YES : MULTIPLE LINES PER DEPTH STEP
~Well ------------------------------------------------------
STRT.FT                      2000.0 : START DEPTH
STOP.FT                     17600.0 : STOP DEPTH
STEP.FT                    50.00000 : STEP LENGTH
NULL.                      -99925.0 : NULL VALUE
COMP.        SEAFORT PETROLEUM LTD. : COMPANY
WELL. SEAFORT ET AL KAKWA 2-20-61-7 : WELL
FLD .                               : FIELD
LOC .                               : LOCATION
CTRY.                        CANADA : COUNTRY
SRVC.        Schlumberger of Canada : SERVICE COMPANY
DATE.                   12-Aug-1975 : LOGDATE
PROV.                       Alberta : PROVINCE
UWI .              100022006107W600 : UNIQUE WELL ID
SLAT.WGS84                 54.28609 : SURFACE LATITUDE
SLON.WGS84                -119.0081 : SURFACE LONGITUDE
~Curve Information -----------------------------------------
DEPT    .FT    : DEPTH FEET
CALDED  .IN    : CALIPER FROM DENSITY LOG [ADJ TO GRRED]
CALSED  .IN    : CALIPER FROM SONIC LOG
CALWS   .IN    : CALIPER [CALSED]
CONDWS  .MMHO  : CONDUCTIVITY [1000/DRESWS]
DCORED  .G/C3  : DENSITY CORRECTION FROM DENSITY LOG [ADJ TO GRRED]
DCORWS  .G/C3  : DENSITY CORRECTION [DCORED]
DENWS   .G/C3  : BULK DENSITY [M=2.65 F=1.0] <14590> [M=2.71 F=1.0] [RHOBED]
DPHILSED.V/V   : DENSITY POROSITY [M=2.71 F=1.0] FROM DENSITY LOG [ADJ TO GRRED]
DPHISSED.V/V   : DENSITY POROSITY [M=2.65 F=1.0] FROM DENSITY LOG [ADJ TO GRRED]
DPOWS   .V/V   : DENSITY POROSITY [M=2.71 F=1.0] [CALCULATED FROM DENWS]
DRESWS  .OHMM  : DEEP RESISTIVITY [SPL ILDED <14590> LLDED]
DTED    .US/F  : DELTA TIME FROM SONIC LOG
DTWS    .US/F  : DELTA TIME [DTED]
GRDED   .GAPI  : GAMMA RAY FROM DENSITY LOG [ADJ TO GRRED]
GRRED   .GAPI  : GAMMA RAY FROM RESISTIVITY LOG
GRSED   .GAPI  : GAMMA RAY FROM SONIC LOG
GRWS    .GAPI  : GAMMA RAY [GRSED, CSG ABOVE 2005F]
ILDED   .OHMM  : INDUCTION LOG DEEP RESISTIVITY
ILMED   .OHMM  : INDUCTION LOG MEDIUM RESISTIVITY
LL8ED   .OHMM  : 8 INCH LATEROLOG RESISTIVITY
LLDED   .OHMM  : LATEROLOG DEEP RESISTIVITY
LLSED   .OHMM  : LATEROLOG SHALLOW RESISTIVITY
MRESWS  .OHMM  : MEDIUM RESISTIVITY [ILMED]
NPHILSED.V/V   : NEUTRON POROSITY LIMESTONE FROM DENSITY LOG [ADJ TO GRRED]
NPHISSED.V/V   : NEUTRON POROSITY SANDSTONE FROM DENSITY LOG [ADJ TO GRRED]
NPOWS   .V/V   : NEUTRON POROSITY LIMESTONE [CONVERTED NPHISSED TO LIMESTONE SPL WITH NPHILSED @14516F]
RHOBED  .G/C3  : BULK DENSITY FROM DENSITY LOG [ADJ TO GRRED]
SPRED   .MV    : SPONTANEOUS POTENTIAL FROM RESISTIVITY LOG
SPWS    .MV    : SPONTANEOUS POTENTIAL [BASELINE 0 MV] [SPRED]
SRESWS  .OHMM  : SHALLOW RESISTIVITY [SPL LL8ED <14590> LLSED]
~Params ----------------------------------------------------
PD  .                     GL : PERMANENT DATUM
EPD .FT                 3465 : ELEVATION PERMANENT DATUM
LMF .                     KB : LOG MEASURED FROM
DAPD.FT                   21 : FEET ABOVE PERMANENT DATUM
EKB .FT                 3486 : KELLY BUSHING
EGL .FT                 3465 : GROUND LEVEL
DATE.               10/06/75 : RUN DATE
RUN .                      2 : RUN NUMBER
DD  .FT                17618 : DEPTH DRILLER
DL  .FT                17600 : DEPTH LOGGER
BLI .FT                17600 : BOTTOM LOG INTERVAL
TLI .FT                14577 : TOP LOG INTERVAL
CBD .FT                14590 : CASING BOTTOM DRILLER
CBL .FT                14577 : CASING BOTTOM LOGGER
BS  .IN                  9.5 : BIT SIZE
BSD .FT                17618 : BIT SIZE AT DEPTH
DFT .                    GEL : DRILLING FLUID TYPE
DFD .                   13.8 : DRILLING FLUID DENSITY
DFV .                    115 : DRILLING FLUID VISCOSITY
DFPH.                     11 : DRILLING FLUID PH
DFL .                      7 : DRILLING FLUID LOSS
RMS .OHMM              0.809 : RESISTIVITY MUD SAMPLE
MST .DEGF                 75 : MUD SAMPLE TEMPERATURE
WITN.                  BROWN : WITNESSED BY
CLNT.                A2DTECH : CLIENT CODE
ORIG.               5" PRINT : ORIGIN OF DATA
UWI .       100022006107W600 : UNIQUE WELL ID
DICO. A2D Technologies, Inc. : DIGITIZING COMPANY
~Other -----------------------------------------------------
~ASCII -----------------------------------------------------
# ...
 3200.00000   -99925.0    9.86380    9.86380  360.04900   -99925.0   -99925.0   -99925.0   -99925.0   -99925.0   -99925.0    2.77740   91.00990   91.00990   -99925.0   98.41860  138.64520  138.64520    2.77740    3.16690    3.38780    4.70380    3.65010    3.16690   -99925.0   -99925.0   -99925.0   -99925.0  -68.92290   -1.64400    3.38780
 3250.00000   -99925.0    9.97110    9.97110  138.61550   -99925.0   -99925.0   -99925.0   -99925.0   -99925.0   -99925.0    7.21420   68.88290   68.88290   -99925.0   64.25900   81.71910   81.71910    7.21420   11.97270    7.59280   16.29540   11.79120   11.97270   -99925.0   -99925.0   -99925.0   -99925.0  -70.30320   -3.19870    7.59280
 3300.00000   -99925.0   10.98060   10.98060  141.05760   -99925.0   -99925.0   -99925.0   -99925.0   -99925.0   -99925.0    7.08930   77.93860   77.93860   -99925.0   77.30450   92.05830   92.05830    7.08930   13.08740    9.17130   15.55870   10.96600   13.08740   -99925.0   -99925.0   -99925.0   -99925.0  -73.53980   -6.60970    9.17130
 3350.00000   -99925.0   10.69310   10.69310  111.08890   -99925.0   -99925.0   -99925.0   -99925.0   -99925.0   -99925.0    9.00180   73.75480   73.75480   -99925.0   69.54390   86.32890   86.32890    9.00180   31.32900    9.29630   14.74290   10.65810   31.32900   -99925.0   -99925.0   -99925.0   -99925.0  -72.12320   -5.36750    9.29630
 3400.00000   -99925.0   10.49440   10.49440  178.06270   -99925.0   -99925.0   -99925.0   -99925.0   -99925.0   -99925.0    5.61600   80.80340   80.80340   -99925.0   73.30360   91.43100   91.43100    5.61600    9.39940    6.96630    9.92300    8.20420    9.39940   -99925.0   -99925.0   -99925.0   -99925.0  -72.65020   -6.06880    6.96630
 3450.00000   -99925.0   11.03190   11.03190  194.17850   -99925.0   -99925.0   -99925.0   -99925.0   -99925.0   -99925.0    5.14990   86.04810   86.04810   -99925.0   87.32520  123.10000  123.10000    5.14990    8.48670    4.27980    8.18310    6.03920    8.48670   -99925.0   -99925.0   -99925.0   -99925.0  -72.28680   -5.87980    4.27980
 3500.00000   -99925.0   10.68220   10.68220   59.62670   -99925.0   -99925.0   -99925.0   -99925.0   -99925.0   -99925.0   16.77100   75.38240   75.38240   -99925.0   53.86070   63.27730   63.27730   16.77100   22.93780   11.85450   30.07650   22.08610   22.93780   -99925.0   -99925.0   -99925.0   -99925.0  -71.66260   -5.43000   11.85450
 3550.00000   -99925.0   10.58910   10.58910  126.32640   -99925.0   -99925.0   -99925.0   -99925.0   -99925.0   -99925.0    7.91600   72.22510   72.22510   -99925.0   60.60990   84.00780   84.00780    7.91600   15.05500    7.19930   26.01720   17.92190   15.05500   -99925.0   -99925.0   -99925.0   -99925.0  -71.43720   -5.37900    7.19930
 3600.00000   -99925.0   10.84350   10.84350  117.91620   -99925.0   -99925.0   -99925.0   -99925.0   -99925.0   -99925.0    8.48060   75.85380   75.85380   -99925.0   68.67860   91.20990   91.20990    8.48060   12.56260    6.77300   22.91820   16.49320   12.56260   -99925.0   -99925.0   -99925.0   -99925.0  -71.08400   -5.20010    6.77300
 3650.00000   -99925.0   13.48880   13.48880  806.97220   -99925.0   -99925.0   -99925.0   -99925.0   -99925.0   -99925.0    1.23920  132.00690  132.00690   -99925.0   64.54170   76.00450   76.00450    1.23920    4.47310    2.46450    9.54510    2.26360    4.47310   -99925.0   -99925.0   -99925.0   -99925.0  -69.43040   -3.72090    2.46450
 3700.00000   -99925.0   12.22030   12.22030  323.66650   -99925.0   -99925.0   -99925.0   -99925.0   -99925.0   -99925.0    3.08960   83.55290   83.55290   -99925.0   69.81800   90.71530   90.71530    3.08960   15.85690    6.04940    9.12190    4.86710   15.85690   -99925.0   -99925.0   -99925.0   -99925.0  -72.77780   -7.24270    6.04940
 3750.00000   -99925.0   13.58740   13.58740  235.43820   -99925.0   -99925.0   -99925.0   -99925.0   -99925.0   -99925.0    4.24740   81.00560   81.00560   -99925.0   67.77690   97.67200   97.67200    4.24740    6.02100    4.48470   10.44440    6.67870    6.02100   -99925.0   -99925.0   -99925.0   -99925.0  -73.50570   -8.14500    4.48470
 3800.00000   -99925.0   10.98370   10.98370  165.36310   -99925.0   -99925.0   -99925.0   -99925.0   -99925.0   -99925.0    6.04730   83.69550   83.69550   -99925.0   74.34520  101.42020  101.42020    6.04730   12.32490    6.75070   11.44230    8.65500   12.32490   -99925.0   -99925.0   -99925.0   -99925.0  -74.11470   -8.92830    6.75070
 3850.00000   -99925.0   11.52140   11.52140  134.85630   -99925.0   -99925.0   -99925.0   -99925.0   -99925.0   -99925.0    7.41530   78.44330   78.44330   -99925.0   73.81460   97.58970   97.58970    7.41530   10.05120    7.03140   10.97690    9.24320   10.05120   -99925.0   -99925.0   -99925.0   -99925.0  -73.03400   -8.02200    7.03140
 3900.00000   -99925.0   10.05850   10.05850  140.24060   -99925.0   -99925.0   -99925.0   -99925.0   -99925.0   -99925.0    7.13060   77.86370   77.86370   -99925.0   69.09730  103.58610  103.58610    7.13060   12.25940    8.41540   14.02020   11.31590   12.25940   -99925.0   -99925.0   -99925.0   -99925.0  -70.31150   -5.47390    8.41540
 3950.00000   -99925.0   11.57500   11.57500  295.41230   -99925.0   -99925.0   -99925.0   -99925.0   -99925.0   -99925.0    3.38510  101.61840  101.61840   -99925.0   75.10480   99.81960   99.81960    3.38510    7.36870    5.46180   11.20560    5.70780    7.36870   -99925.0   -99925.0   -99925.0   -99925.0  -69.00650   -4.34330    5.46180
 4000.00000   -99925.0   13.63710   13.63710  457.58210   -99925.0   -99925.0   -99925.0   -99925.0   -99925.0   -99925.0    2.18540  116.10090  116.10090   -99925.0   64.97620   82.20990   82.20990    2.18540    6.24010    4.11280   12.12070    4.76690    6.24010   -99925.0   -99925.0   -99925.0   -99925.0  -68.20340   -3.71450    4.11280
 4050.00000   -99925.0   10.23490   10.23490   83.83560   -99925.0   -99925.0   -99925.0   -99925.0   -99925.0   -99925.0   11.92810   68.28230   68.28230   -99925.0   52.00460   65.44270   65.44270   11.92810   29.45960   22.02950   38.43470   34.13710   29.45960   -99925.0   -99925.0   -99925.0   -99925.0  -72.99020   -8.67570   22.02950
 4100.00000   -99925.0   12.45750   12.45750   88.58570   -99925.0   -99925.0   -99925.0   -99925.0   -99925.0   -99925.0   11.28850   72.67140   72.67140   -99925.0   60.98620   68.79650   68.79650   11.28850 1136.14750   10.01020   26.81510   12.70750 1136.14750   -99925.0   -99925.0   -99925.0   -99925.0  -66.18390   -1.99600   10.01020
 4150.00000   -99925.0   13.44940   13.44940   59.02630   -99925.0   -99925.0   -99925.0   -99925.0   -99925.0   -99925.0   16.94160   60.16730   60.16730   -99925.0   48.79080   62.10160   62.10160   16.94160 1320.84620    5.65110   27.23340    8.92620 1320.84620   -99925.0   -99925.0   -99925.0   -99925.0  -65.60500   -1.15750    5.65110
 4200.00000   -99925.0   10.60310   10.60310  171.89220   -99925.0   -99925.0   -99925.0   -99925.0   -99925.0   -99925.0    5.81760   84.46250   84.46250   -99925.0   75.09600   90.34680   90.34680    5.81760   13.34210    7.18310   15.91730   10.30330   13.34210   -99925.0   -99925.0   -99925.0   -99925.0  -70.79570   -6.08860    7.18310
 4250.00000   -99925.0   10.27750   10.27750   75.51560   -99925.0   -99925.0   -99925.0   -99925.0   -99925.0   -99925.0   13.24230   67.27740   67.27740   -99925.0   47.69940   54.55610   54.55610   13.24230   41.43820   21.74200   45.21260   36.36020   41.43820   -99925.0   -99925.0   -99925.0   -99925.0  -72.18570   -7.21900   21.74200
 4300.00000   -99925.0   11.48410   11.48410   75.16140   -99925.0   -99925.0   -99925.0   -99925.0   -99925.0   -99925.0   13.30470   66.81830   66.81830   -99925.0   46.39950   53.69580   53.69580   13.30470   19.21450   15.47000   36.40770   23.89060   19.21450   -99925.0   -99925.0   -99925.0   -99925.0  -72.78040   -7.55400   15.47000
 4350.00000   -99925.0   12.55500   12.55500   92.58230   -99925.0   -99925.0   -99925.0   -99925.0   -99925.0   -99925.0   10.80120   80.04700   80.04700   -99925.0   52.44440   72.80820   72.80820   10.80120    3.51560   10.00130   26.36520   18.00580    3.51560   -99925.0   -99925.0   -99925.0   -99925.0  -71.18600   -5.70000   10.00130
