~Version ---------------------------------------------------
VERS.      2.0 : CWLS log ASCII Standard -VERSION 2.0
WRAP.       NO : One line per depth step
CREA. 12/15/17 : LAS Creation Date
~Well ------------------------------------------------------
STRT.FT                          950.0 : START DEPTH
STOP.FT                         9600.0 : STOP DEPTH
STEP.FT                       50.00000 : STEP LENGTH
NULL.                          -999.25 : NULL VALUE
COMP.             QUASAR PETROLEUM LTD : COMPANY
WELL. QUASAR SIEBENS SUNSET 1-29-69-18 : WELL
FLD .                                  : FIELD
LOC .                                  : LOCATION
CTRY.                           CANADA : COUNTRY
SRVC.                     Schlumberger : SERVICE COMPANY
DATE.                      27-Dec-1974 : LOGDATE
PROV.                          Alberta : PROVINCE
UWI .                 100012906918W500 : UNIQUE WELL ID
SLAT.WGS84                    54.99883 : SURFACE LATITUDE
SLON.WGS84                   -116.6996 : SURFACE LONGITUDE
~Curve Information -----------------------------------------
DEPT  .FT    : Depth Curve
CALSED.IN    : CALIPER FROM SONIC LOG
CALWS .IN    : CALIPER [CALSED]
CILDED.MMHO  : CONDUCTIVITY FROM RESISTIVITY LOG
CONDWS.MMHO  : CONDUCTIVITY [1000/DRESWS]
DRESWS.OHMM  : DEEP RESISTIVITY [1000/CILDED IF ILDED <=5, ILDED & SPL. TO ILDED @ 3490']
DTED  .US/F  : DELTA-T FROM SONIC LOG
DTWS  .US/F  : COMPRESSIONAL SONIC [DTED]
GRSED .GAPI  : GAMMA RAY FROM SONIC LOG
GRWS  .GAPI  : GAMMA RAY [GRSED]
ILDED .OHMM  : DEEP INDUCTION RESISTIVITY FROM RESISTIVITY LOG
ILMED .OHMM  : MEDIUM INDUCTION RESISTIVITY FROM RESISTIVITY LOG
LL8ED .OHMM  : LATEROLOG 8 RESISTIVITY FROM RESISTIVITY LOG
MRESWS.OHMM  : MEDIUM RESISTIVITY [ILMED]
SPRED .MV    : SPONTANEOUS POTENTIAL FROM RESISTIVITY LOG SHIFTED
SPWS  .MV    : SPONTANEOUS POTENTIAL [BASELINE 0 MV, SPRED]
SRESWS.OHMM  : SHALLOW RESISTIVITY [LL8ED]
~Params ----------------------------------------------------
PD  .                     GL : PERMANENT DATUM
EPD .FT               3066.1 : ELEVATION PERMANENT DATUM
LMF .                     KB : LOG MEASURED FROM
DAPD.FT                 14.8 : FEET ABOVE PERMANENT DATUM
EKB .FT               3080.9 : KELLY BUSHING
EGL .FT               3066.1 : GROUND LEVEL
DATE.               12/27/74 : RUN DATE
RUN .                      1 : RUN NUMBER
DD  .FT                 9631 : DEPTH DRILLER
DL  .FT                 9629 : DEPTH LOGGER
BLI .FT                 9623 : BOTTOM LOG INTERVAL
TLI .FT                  968 : TOP LOG INTERVAL
CBD .FT                  966 : CASING BOTTOM DRILLER
CBL .FT                  968 : CASING BOTTOM LOGGER
BS  .IN                7.875 : BIT SIZE
BSD .FT                 9631 : BIT SIZE AT DEPTH
DFT .                    GEL : DRILLING FLUID TYPE
DFD .                    9.1 : DRILLING FLUID DENSITY
DFV .                     75 : DRILLING FLUID VISCOSITY
DFPH.                    9.6 : DRILLING FLUID PH
DFL .                      9 : DRILLING FLUID LOSS
MSS .               FLOWLINE : MUD SAMPLE SOURCE
RMS .OHMM                  2 : RESISTIVITY MUD SAMPLE
MST .DEGF                 62 : MUD SAMPLE TEMPERATURE
RMF .OHMM               1.86 : RESISTIVITY MUD FILTRATE SAMPLE
MFST.DEGF                 70 : MUD FILTRATE SAMPLE TEMPERATURE
MCST.DEGF                 67 : MUD CAKE SAMPLE TEMPERATURE
RMB .OHMM               2.21 : RESISTIVITY MUD AT BHT
TCS .HRS                 3.5 : TIME CIRCULATED STOPPED
LUN .                   7691 : LOGGING UNIT NUMBER
LUL .                    EDM : LOGGING UNIT LOCATION
ENGI.             LAVERDIERE : RECORDING ENGINEER
WITN.          WETTER SAYERS : WITNESSED BY
CLNT.                A2DTECH : CLIENT CODE
ORIG.            2" 5" PRINT : ORIGIN OF DATA
UWI .       100012906918W500 : UNIQUE WELL ID
DICO. A2D Technologies, Inc. : DIGITIZING COMPANY
~Other -----------------------------------------------------
DIL-BHC TOOLS RUN
ALL DIL-BHC TOOL CURVES FROM TOP TO 3490' FROM 2" SCALE SECTION
SP AFFECTED BY TELLURIC CURRENTS
LOG NOT TAPED
~ASCII -----------------------------------------------------
# ...
 3100.00000    8.56350    8.56350  192.75520  192.67820    5.19000  109.22810  109.22810  108.80950  108.80950    5.19000    -999.25   19.53000    -999.25  -39.68000  -11.01040   19.53000
 3150.00000    9.72460    9.72460  203.39790  189.75330    5.27000  112.29330  112.29330  110.07530  110.07530    5.27000    -999.25   10.90000    -999.25  -40.34000  -11.85800   10.90000
 3200.00000    8.60630    8.60630  176.77250  165.70010    6.03500  113.53990  113.53990  155.26440  155.26440    6.03500    -999.25    7.79500    -999.25  -39.49000  -11.19690    7.79500
 3250.00000    9.29910    9.29910  162.83310  151.97570    6.58000  103.92740  103.92740  102.93580  102.93580    6.58000    -999.25    7.61500    -999.25  -40.02000  -11.91450    7.61500
 3300.00000    9.50690    9.50690  193.99380  188.32390    5.31000  101.28020  101.28020   88.89460   88.89460    5.31000    -999.25   11.28000    -999.25  -42.30000  -14.38210   11.28000
 3350.00000    8.48030    8.48030  160.96150  151.51520    6.60000   88.27860   88.27860  102.20230  102.20230    6.60000    -999.25   10.06250    -999.25  -41.16000  -13.43100   10.06250
 3400.00000    8.93020    8.93020  295.87550  295.87550    3.37980  101.51670  101.51670  107.52030  107.52030    4.10500    -999.25    4.84000    -999.25  -39.52000  -11.97860    4.84000
 3450.00000    8.57840    8.57840  197.15650  173.53580    5.76250   95.46170   95.46170  100.89560  100.89560    5.76250    -999.25    7.50250    -999.25  -47.72000  -20.36750    7.50250
 3500.00000    9.51890    9.51890    -999.25  329.13140    3.03830  112.36440  112.36440   89.42970   89.42970    3.03830    2.92300    5.81070    2.92300  -33.12000   -5.95510    5.81070
 3550.00000    9.11450    9.11450    -999.25  257.14210    3.88890   94.87970   94.87970  100.80360  100.80360    3.88890    3.88530    8.64230    3.88530  -34.44000   -7.46270    8.64230
 3600.00000    8.69990    8.69990    -999.25  188.17860    5.31410   99.24450   99.24450   96.19270   96.19270    5.31410    4.92300    4.67130    4.92300  -34.41000   -7.62160    4.67130
 3650.00000    8.90210    8.90210    -999.25  247.83760    4.03490   98.23250   98.23250  115.10260  115.10260    4.03490    4.12890    7.11590    4.12890  -32.22000   -5.61920    7.11590
 3700.00000    9.11810    9.11810    -999.25  529.35260    1.88910  116.69070  116.69070  126.17380  126.17380    1.88910    1.91810    8.97830    1.91810  -28.39000   -1.97810    8.97830
 3750.00000   10.64950   10.64950    -999.25  420.50380    2.37810  112.28600  112.28600   96.63350   96.63350    2.37810    2.33250    5.11720    2.33250  -31.46000   -5.23570    5.11720
 3800.00000   10.36850   10.36850    -999.25  402.69000    2.48330  105.70590  105.70590  103.92150  103.92150    2.48330    2.45150    3.63940    2.45150  -31.28000   -5.24340    3.63940
 3850.00000   10.49090   10.49090    -999.25  322.96610    3.09630  101.08730  101.08730  103.30770  103.30770    3.09630    3.02160    4.57970    3.02160  -32.69000   -6.84220    4.57970
 3900.00000   10.49310   10.49310    -999.25  276.29650    3.61930  100.20780  100.20780  106.22200  106.22200    3.61930    3.51100    4.89590    3.51100  -30.90000   -5.23980    4.89590
 3950.00000    8.39680    8.39680    -999.25  198.66890    5.03350   91.45280   91.45280   96.62140   96.62140    5.03350    5.00620    6.67230    5.00620  -46.54000  -20.85340    6.67230
 4000.00000   10.51010   10.51010    -999.25  653.68020    1.52980  135.02210  135.02210   76.76130   76.76130    1.52980    1.51300    2.38690    1.51300  -26.14000   -0.32020    2.38690
 4050.00000    8.62050    8.62050    -999.25  201.63730    4.95940  100.02110  100.02110   96.01160   96.01160    4.95940    4.73620    5.21710    4.73620  -41.16000  -15.20690    5.21710
 4100.00000    8.26740    8.26740    -999.25  179.33360    5.57620  126.29670  126.29670   46.27040   46.27040    5.57620    7.60390   24.16450    7.60390  -34.71000   -8.62280   24.16450
 4150.00000    7.84050    7.84050    -999.25  201.45040    4.96400   76.71030   76.71030   62.43520   62.43520    4.96400    7.80960   19.15270    7.80960  -50.04000  -23.81960   19.15270
 4200.00000    7.60750    7.60750    -999.25  259.67280    3.85100   86.97490   86.97490   57.17980   57.17980    3.85100    4.36110    7.75680    4.36110  -56.24000  -29.88550    7.75680
 4250.00000    8.67140    8.67140    -999.25  252.67840    3.95760   94.22130   94.22130   91.70190   91.70190    3.95760    4.26410    4.95480    4.26410  -40.72000  -14.23220    4.95480
 4300.00000    8.84950    8.84950    -999.25  288.51700    3.46600   90.81500   90.81500   80.75140   80.75140    3.46600    3.36840    4.33540    3.36840  -30.60000   -3.97900    4.33540
 4350.00000    8.34060    8.34060    -999.25  319.40720    3.13080  113.25650  113.25650   64.90860   64.90860    3.13080    4.26460    8.50470    4.26460  -83.08000  -56.32490    8.50470
 4400.00000    8.85820    8.85820    -999.25  252.91480    3.95390   94.10870   94.10870   86.58170   86.58170    3.95390    3.84620    5.05630    3.84620  -33.68000   -6.79160    5.05630
 4450.00000    8.99910    8.99910    -999.25  188.84670    5.29530   90.63060   90.63060   59.47740   59.47740    5.29530    8.09270   14.59170    8.09270  -97.16000  -70.13750   14.59170
 4500.00000    7.97480    7.97480    -999.25  103.31650    9.67900   92.23500   92.23500   52.42250   52.42250    9.67900   15.25560   21.92960   15.25560 -115.56000  -88.40430   21.92960
 4550.00000    7.99130    7.99130    -999.25   68.95550   14.50210  109.80420  109.80420   48.06840   48.06840   14.50210   22.56470   33.16120   22.56470 -109.04000  -81.75110   33.16120
 4600.00000    8.56790    8.56790    -999.25  261.43110    3.82510   86.44430   86.44430   64.53250   64.53250    3.82510    5.44130   12.10250    5.44130  -98.19000  -70.76690   12.10250
 4650.00000   10.00150   10.00150    -999.25  226.44930    4.41600   81.16340   81.16340   81.04740   81.04740    4.41600    4.87790    5.68890    4.87790  -38.46000  -10.90370    5.68890
 4700.00000    9.19900    9.19900    -999.25  207.62400    4.81640   85.21560   85.21560   85.98940   85.98940    4.81640    6.17500    5.59550    6.17500  -50.17000  -22.47960    5.59550
 4750.00000    8.04040    8.04040    -999.25   89.81900   11.13350   79.00370   79.00370   53.82680   53.82680   11.13350   17.02280   28.96210   17.02280 -116.20000  -88.37640   28.96210
 4800.00000    8.91630    8.91630    -999.25  251.28790    3.97950   89.14110   89.14110   81.64880   81.64880    3.97950    3.69680    5.81070    3.69680  -43.90000  -15.94310    5.81070
 4850.00000    9.06590    9.06590    -999.25  177.64200    5.62930   84.22080   84.22080   78.09950   78.09950    5.62930    5.48180    6.64850    5.48180  -33.64000   -5.54900    6.64850
 4900.00000   10.56320   10.56320    -999.25  432.28290    2.31330  103.80560  103.80560   78.84630   78.84630    2.31330    2.34120    2.86170    2.34120  -26.70000    1.52420    2.86170
 4950.00000    9.25150    9.25150    -999.25  144.73460    6.90920   74.77160   74.77160   59.14500   59.14500    6.90920    8.58900   21.85080    8.58900  -48.48000  -20.12170   21.85080
 5000.00000    8.75630    8.75630    -999.25   56.25630   17.77580   75.89610   75.89610   57.27930   57.27930   17.77580   17.92380   25.90780   17.92380  -38.00000   -9.50840   25.90780
 5050.00000    8.48840    8.48840    -999.25   86.81010   11.51940   83.61820   83.61820   80.84570   80.84570   11.51940   11.84210   26.38940   11.84210  -33.66000   -6.68670   26.38940
 5100.00000    8.55690    8.55690    -999.25  132.02020    7.57460   86.77300   86.77300  103.72870  103.72870    7.57460    6.87140    8.46990    6.87140  -26.89000   -5.79870    8.46990
 5150.00000   10.55770   10.55770    -999.25  382.80440    2.61230  100.13990  100.13990   92.99150   92.99150    2.61230    2.56940    4.93660    2.56940  -58.50000  -43.25220    4.93660
 5200.00000    8.65950    8.65950    -999.25   35.82210   27.91570  106.64260  106.64260  143.88320  143.88320   27.91570   31.71280   77.46600   31.71280  -44.69000  -35.32420   77.46600
