~Version ---------------------------------------------------
VERS.      2.0 : CWLS log ASCII Standard -VERSION 2.0
WRAP.       NO : One line per depth step
CREA. 12/15/17 : LAS Creation Date
~Well ------------------------------------------------------
STRT.FT                                  850.0 : START DEPTH
STOP.FT                                 9450.0 : STOP DEPTH
STEP.FT                               50.00000 : STEP LENGTH
NULL.                                  -999.25 : NULL VALUE
COMP. THE BRITISH AMERICAN OIL COMPANY LIMITED : COMPANY
WELL.                 BA SNIPE LAKE 4-22-69-18 : WELL
FLD .                                          : FIELD
LOC .                                          : LOCATION
CTRY.                                   CANADA : COUNTRY
SRVC.                                  Unknown : SERVICE COMPANY
DATE.                              19-Nov-1961 : LOGDATE
PROV.                                  Alberta : PROVINCE
UWI .                         100042206918W500 : UNIQUE WELL ID
SLAT.WGS84                            54.98301 : SURFACE LATITUDE
SLON.WGS84                           -116.6662 : SURFACE LONGITUDE
~Curve Information -----------------------------------------
DEPT  .FT         : Depth Curve
CALWS .IN         : CALIPER [MCALED]
CILDED.MMHO       : CONDUCTIVITY FROM RESISTIVITY LOG
CONDWS.MMHO       : CONDUCTIVITY [1000/DRESWS]
DRESWS.OHMM       : DEEP RESISTIVITY [1000/CILDED, IF ILDED < 1, ILDED]
GRNED .UgRa-Eq/T  : GAMMA RAY FROM GRN LOG [ADJ. TO RESISTIVITY LOG]
GRWS  .GAPI       : GAMMA RAY [UgRa-Eq/T*16.5][GRNED]
ILDED .OHMM       : DEEP INDUCTION LOG RESISTIVITY FROM RESISTIVITY LOG
MCALED.IN         : MLT [MICROLOG][IN*25.4] CALIPER FROM MICROLOG
NEUTED.CPS        : NEUTRON FROM GRN LOG [ADJ. TO RESISTIVITY LOG]
NEUTWS.CPS        : NEUTRON [NEUTED]
SNED  .OHMM       : 16 INCH SHORT NORMAL RESISTIVITY FROM RESISTIVITY LOG
SPRED .MV         : SPONTANEOUS POTENTIAL FROM RESISTIVITY LOG [SPR IS DIVIDED BY 2 TO REDUCE READINGS]
SPWS  .MV         : SPONTANEOUS POTENTIAL [BASELINE TO 0 MV, SPRED]
SRESWS.OHMM       : SHALLOW RESISTIVITY [SNED]
~Params ----------------------------------------------------
PD  .                     GL : PERMANENT DATUM
EPD .FT               2982.5 : ELEVATION PERMANENT DATUM
LMF .                     KB : LOG MEASURED FROM
DAPD.FT                 13.5 : FEET ABOVE PERMANENT DATUM
EKB .FT                 2996 : KELLY BUSHING
EGL .FT               2982.5 : GROUND LEVEL
DATE.               11/19/61 : RUN DATE
RUN .                      2 : RUN NUMBER
DD  .FT                 9486 : DEPTH DRILLER
DL  .FT                 9484 : DEPTH LOGGER
BLI .FT                 9483 : BOTTOM LOG INTERVAL
TLI .FT                 6200 : TOP LOG INTERVAL
CBD .FT                  950 : CASING BOTTOM DRILLER
BS  .IN                    9 : BIT SIZE
BSD .FT                 9486 : BIT SIZE AT DEPTH
DFT .                    GEL : DRILLING FLUID TYPE
DFD .                   10.2 : DRILLING FLUID DENSITY
DFV .                    160 : DRILLING FLUID VISCOSITY
DFPH.                    8.5 : DRILLING FLUID PH
DFL .                    7.6 : DRILLING FLUID LOSS
RMS .OHMM                3.2 : RESISTIVITY MUD SAMPLE
MST .DEGF                 60 : MUD SAMPLE TEMPERATURE
RMF .OHMM                1.6 : RESISTIVITY MUD FILTRATE SAMPLE
MFST.DEGF                 71 : MUD FILTRATE SAMPLE TEMPERATURE
RMC .OHMM                3.0 : RESISTIVITY MUD CAKE
MCST.DEGF                 74 : MUD CAKE SAMPLE TEMPERATURE
RMB .OHMM                1.1 : RESISTIVITY MUD AT BHT
TCS .HRS                   3 : TIME CIRCULATED STOPPED
LUN .                   1534 : LOGGING UNIT NUMBER
LUL .                     WC : LOGGING UNIT LOCATION
ENGI.        MILLS HAUSEGGER : RECORDING ENGINEER
WITN.               ANDERSON : WITNESSED BY
CLNT.                A2DTECH : CLIENT CODE
ORIG.            2" 5" PRINT : ORIGIN OF DATA
UWI .       100042206918W500 : UNIQUE WELL ID
DICO. A2D Technologies, Inc. : DIGITIZING COMPANY
~Other -----------------------------------------------------
~ASCII -----------------------------------------------------
# ...
 8200.00000   13.60170  227.90910  242.72430    4.11990    4.50060   74.25990    4.11990   13.60170  201.19270  201.19270    5.32550  -43.11250  -17.05520    5.32550
 8250.00000   13.71090  256.98330  268.88950    3.71900    4.41670   72.87550    3.71900   13.71090  196.21030  196.21030    4.86390  -43.59770  -17.73720    4.86390
 8300.00000   13.76060  249.60070  265.30120    3.76930    4.48940   74.07430    3.76930   13.76060  189.00530  189.00530    4.93360  -37.73450  -12.07070    4.93360
 8350.00000   13.66310  267.93960  276.48750    3.61680    4.73380   78.10770    3.61680   13.66310  195.64280  195.64280    5.00340  -44.70100  -19.23520    5.00340
 8400.00000   12.07710  274.79900  278.14860    3.59520    4.96110   81.85810    3.59520   12.07710  203.95160  203.95160    5.16390  -42.04250  -16.77350    5.16390
 8450.00000    9.00080   97.40210  103.99770    9.61560    3.59800   59.36700    9.61560    9.00080  268.95170  268.95170   15.99800  -35.97290  -10.90180   15.99800
 8500.00000    8.84940   70.40020   72.36410   13.81900    3.25540   53.71410   13.81900    8.84940  274.90530  274.90530   21.15470  -38.26980  -13.39540   21.15470
 8550.00000    8.97000  115.46380  126.65920    7.89520    4.35380   71.83770    7.89520    8.97000  239.73290  239.73290   13.93060  -42.04550  -17.36800   13.93060
 8600.00000    9.11370  126.75960  139.00090    7.19420    4.55760   75.20040    7.19420    9.11370  228.77840  228.77840   12.19020  -37.98740  -13.50780   12.19020
 8650.00000    9.26980  113.15000  121.73600    8.21450    4.16080   68.65320    8.21450    9.26980  238.67380  238.67380   13.94680  -37.01340  -12.73060   13.94680
 8700.00000   10.22140  147.40620  158.19530    6.32130    4.64330   76.61450    6.32130   10.22140  234.42110  234.42110   10.84240  -40.09300  -16.00810   10.84240
 8750.00000   11.22720  163.55560  183.23410    5.45750    5.42270   89.47450    5.45750   11.22720  207.32330  207.32330    9.27340  -40.35430  -16.46630    9.27340
 8800.00000   11.14590  194.37430  209.13500    4.78160    6.44820  106.39530    4.78160   11.14590  212.94510  212.94510    7.67610  -41.49670  -17.80540    7.67610
 8850.00000   10.67040  202.79140  225.51470    4.43430    5.28800   87.25120    4.43430   10.67040  219.66460  219.66460    7.60720  -42.76350  -19.27020    7.60720
 8900.00000    8.79900   17.69890   20.01700   49.95750    7.19470  118.71260   49.95750    8.79900  261.38230  261.38230   92.35720  -25.22540   -1.92880   92.35720
 8950.00000    9.74320   83.71390   90.08930   11.10010    8.36900  138.08850   11.10010    9.74320  186.83300  186.83300   22.25770  -34.01670  -10.91810   22.25770
 9000.00000    8.89060   42.49110   42.24720   23.67020    6.70500  110.63250   23.67020    8.89060  205.77530  205.77530   43.94090  -24.86080   -1.94600   43.94090
 9050.00000    9.29460   41.70760   40.96720   24.40980    2.56290   42.28870   24.40980    9.29460  322.31790  322.31790   36.87110  -29.22180   -6.30700   36.87110
 9100.00000    9.05080   48.28260   48.28070   20.71220    2.73860   45.18690   20.71220    9.05080  297.26980  297.26980   32.75280  -31.56010   -8.64530   32.75280
 9150.00000    8.77410   22.55820   21.74810   45.98100    1.53180   25.27470   45.98100    8.77410  361.83850  361.83850   70.08070  -34.53450  -11.61970   70.08070
 9200.00000    7.28430  302.16260  320.78010    3.11740    1.16840   19.27860    3.11740    7.28430  296.05210  296.05210   29.55470 -120.09820  -97.18340   29.55470
 9250.00000    8.91450    9.95210    9.35980  106.84010    1.05680   17.43720  106.84010    8.91450  355.03140  355.03140  165.58530  -99.89880  -76.98400  165.58530
 9300.00000    8.92790    8.21540    7.72560  129.43980    1.03890   17.14180  129.43980    8.92790  385.92830  385.92830  226.89550  -75.46100  -52.54620  226.89550
 9350.00000    8.81520    6.91830    5.37870  185.92020    1.42310   23.48120  185.92020    8.81520  393.73260  393.73260  393.98720  -84.69340  -61.77860  393.98720
 9400.00000    6.30260    9.42090    8.13150  122.97780    1.80460   29.77590  122.97780    6.30260  472.34770  481.19280  338.10640  -50.46890  -27.55410  338.10640
 9450.00000    5.31420 1309.37380 1309.37380    0.76370   12.78340  210.92610    0.92280    5.31420  324.86170  354.26520   13.46680 -107.12650  -84.21170   13.46680
