~Version ---------------------------------------------------
VERS.      2.0 : CWLS log ASCII Standard -VERSION 2.0
WRAP.       NO : One line per depth step
CREA. 09/26/17 : LAS Creation Date
~Well ------------------------------------------------------
STRT.FT                        1200.0 : START DEPTH
STOP.FT                       11400.0 : STOP DEPTH
STEP.FT                      50.00000 : STEP LENGTH
NULL.                         -999.25 : NULL VALUE
COMP.   THE ATLANTIC REFINING COMPANY : COMPANY
WELL. ATLANTIC ANTE CREEK 10-30-64-23 : WELL
FLD .                                 : FIELD
LOC .                                 : LOCATION
CTRY.                          CANADA : COUNTRY
SRVC.                    Schlumberger : SERVICE COMPANY
DATE.                     27-Mar-1963 : LOGDATE
PROV.                         Alberta : PROVINCE
UWI .                100103006423W500 : UNIQUE WELL ID
SLAT.WGS84                   54.56828 : SURFACE LATITUDE
SLON.WGS84                  -117.4641 : SURFACE LONGITUDE
~Curve Information -----------------------------------------
DEPT  .FT    : Depth Curve
CALSED.IN    : CALIPER FROM SONIC LOG
CALWS .IN    : CALIPER [CALSED]
CILDED.MMHO  : CONDUCTIVITY FROM RESISTIVITY LOG
CONDWS.MMHO  : CONDUCTIVITY [1000/DRESWS]
DRESWS.OHMM  : DEEP RESISTIVITY [1000/CILDED IF ILDED <= 5, ILDED]
DTED  .US/F  : DELTA TIME FROM SONIC LOG
DTWS  .US/F  : COMPRESSIONAL SONIC [DTED]
GRSED .GAPI  : GAMMA RAY FROM SONIC LOG
GRWS  .GAPI  : GAMMA RAY [GRSED]
ILDED .OHMM  : DEEP INDUCTION RESISTIVITY FROM RESISTIVITY LOG
MCALED.IN    : CALIPER FROM MICROLOG
SNED  .OHMM  : 16 INCH SHORT NORMAL FROM EL LOG
SPRED .MV    : SPONTANEOUS POTENTIAL FROM RESISTIVITY LOG
SPWS  .MV    : SPONTANEOUS POTENTIAL [BASELINE 0 MV, SPRED]
SRESWS.OHMM  : SHALLOW RESISTIVITY [SNED]
~Params ----------------------------------------------------
PD  .                     GL : PERMANENT DATUM
EPD .FT                 2707 : ELEVATION PERMANENT DATUM
LMF .                     KB : LOG MEASURED FROM
DAPD.FT                 14.5 : FEET ABOVE PERMANENT DATUM
EKB .FT               2722.3 : KELLY BUSHING
EGL .FT               2707.8 : GROUND LEVEL
DATE.               03/27/63 : RUN DATE
RUN .                      1 : RUN NUMBER
DD  .FT                11449 : DEPTH DRILLER
DL  .FT                11449 : DEPTH LOGGER
BLI .FT                11448 : BOTTOM LOG INTERVAL
TLI .FT                 1197 : TOP LOG INTERVAL
CBD .FT                 1197 : CASING BOTTOM DRILLER
CBL .FT                 1197 : CASING BOTTOM LOGGER
BS  .IN                 8.75 : BIT SIZE
BSD .FT                11449 : BIT SIZE AT DEPTH
DFT .               GEL CHEM : DRILLING FLUID TYPE
DFD .                    9.5 : DRILLING FLUID DENSITY
DFV .                     60 : DRILLING FLUID VISCOSITY
DFPH.                   10.5 : DRILLING FLUID PH
DFL .                    5.6 : DRILLING FLUID LOSS
RMS .OHMM               2.09 : RESISTIVITY MUD SAMPLE
MST .DEGF                 58 : MUD SAMPLE TEMPERATURE
RMF .OHMM               1.46 : RESISTIVITY MUD FILTRATE SAMPLE
MFST.DEGF                 67 : MUD FILTRATE SAMPLE TEMPERATURE
RMC .OHMM               2.43 : RESISTIVITY MUD CAKE
MCST.DEGF                 67 : MUD CAKE SAMPLE TEMPERATURE
TCS .HRS                   4 : TIME CIRCULATED STOPPED
LUN .                OSU 8 9 : LOGGING UNIT NUMBER
LUL .                     DC : LOGGING UNIT LOCATION
ENGI.                  MILLS : RECORDING ENGINEER
WITN.            COWAN SCOTT : WITNESSED BY
CLNT.                A2DTECH : CLIENT CODE
ORIG.            2" 5" PRINT : ORIGIN OF DATA
UWI .       100103006423W500 : UNIQUE WELL ID
DICO. A2D Technologies, Inc. : DIGITIZING COMPANY
~Other -----------------------------------------------------
IEL-ML-BHC LOG RUN
DATA FROM 1" LOG
~ASCII -----------------------------------------------------
# ...
 3500.00000   11.58360   11.58360  105.70280  107.53840    9.29900   61.74970   61.74970   96.07810   96.07810    9.29900   14.99550   11.25420  -81.91780   -2.64270   11.25420
 3550.00000   10.90390   10.90390  113.91530  115.83460    8.63300   63.27630   63.27630   94.63770   94.63770    8.63300   15.11780    9.89460  -83.26780   -3.70120    9.89460
 3600.00000    9.94990    9.94990  155.44130  163.29900    6.12680   61.36170   61.36170   88.53170   88.53170    6.12680   15.57460    8.03470  -84.15160   -4.29160    8.03470
 3650.00000   10.33240   10.33240  135.09190  138.50030    7.22020   61.37630   61.37630   92.67590   92.67590    7.22020   15.59470    7.62520  -85.27210   -5.12060    7.62520
 3700.00000   10.80530   10.80530   93.83730   92.61990   10.79770   56.80630   56.80630   83.91780   83.91780   10.79770   15.86740   10.09800  -85.73270   -5.28780   10.09800
 3750.00000   11.31800   11.31800   91.26750   90.61910   11.03520   59.28270   59.28270   77.49050   77.49050   11.03520   15.43910   10.78110  -87.02120   -6.28480   10.78110
 3800.00000   10.61940   10.61940  129.28720  129.74380    7.70750   59.92770   59.92770   99.00260   99.00260    7.70750   14.52510    8.38180  -85.33420   -4.30630    8.38180
 3850.00000   10.95950   10.95950  128.46910  138.55170    7.21780   58.93930   58.93930   96.72300   96.72300    7.21780   15.28440    8.09340  -86.05160   -4.73030    8.09340
 3900.00000   10.25140   10.25140  149.39960  153.31780    6.52240   65.01710   65.01710   96.80100   96.80100    6.52240   12.17900    7.09460  -87.58390   -5.97110    7.09460
 3950.00000   10.59390   10.59390  134.81960  138.87580    7.20140   62.76300   62.76300   96.54000   96.54000    7.20140   12.19270    7.82030  -88.98360   -7.07740    7.82030
 4000.00000    9.64350    9.64350   72.41020   70.57360   14.16960   57.70910   57.70910   78.03550   78.03550   14.16960   11.39800   14.79990  -92.72130  -10.52360   14.79990
 4050.00000    9.57220    9.57220   86.24610   83.60710   11.96070   54.41520   54.41520   80.63420   80.63420   11.96070   14.11100   11.43250  -89.09100   -6.60180   11.43250
 4100.00000    9.52930    9.52930  104.94590  104.97470    9.52790   59.38170   59.38170   87.05960   87.05960    9.52790   16.83240    9.89040  -88.98000   -6.19740    9.89040
 4150.00000   10.01480   10.01480  102.81820  103.80660    9.63330   60.02540   60.02540   90.67090   90.67090    9.63330   17.96400    9.35870  -89.72510   -6.65100    9.35870
 4200.00000    9.84180    9.84180  105.68350  109.31290    9.14800   58.50180   58.50180   91.66120   91.66120    9.14800   16.98900    9.25770  -90.22060   -6.85310    9.25770
 4250.00000   10.75080   10.75080  121.53000  126.56150    7.90130   59.43560   59.43560  103.55600  103.55600    7.90130   14.57350    8.44900  -89.14990   -5.49090    8.44900
 4300.00000   11.19790   11.19790  134.08980  138.65010    7.21240   62.14840   62.14840  102.55180  102.55180    7.21240   13.06830    8.60530  -88.59740   -4.64690    8.60530
 4350.00000   11.93520   11.93520  140.10320  144.31310    6.92940   64.31150   64.31150   96.57130   96.57130    6.92940   11.72350    8.69580  -88.51440   -4.27050    8.69580
 4400.00000   11.15140   11.15140  118.56460  120.52690    8.29690   61.81560   61.81560  101.56970  101.56970    8.29690   11.21590   10.13490  -88.57680   -4.04140   10.13490
 4450.00000   11.79350   11.79350  119.94480  122.94950    8.13340   62.87120   62.87120   98.51850   98.51850    8.13340   13.31850    9.93800  -88.64590   -3.81710    9.93800
 4500.00000    9.71340    9.71340   77.11320   76.00340   13.15730   60.01320   60.01320  109.91910  109.91910   13.15730   11.23610   17.13860  -89.45600   -4.33570   17.13860
 4550.00000   11.24130   11.24130  117.77700  120.84300    8.27520   59.56540   59.56540   97.10750   97.10750    8.27520   11.78410   10.47870  -90.08410   -4.67230   10.47870
 4600.00000   10.63470   10.63470   79.65650   77.17470   12.97260   60.54000   60.54000  104.84140  104.84140   12.97260   11.29170   17.10530  -90.12330   -4.41810   17.10530
 4650.00000   10.30950   10.30950  100.42200  101.33350    9.86840   61.86800   61.86800  108.80410  108.80410    9.86840   11.73520   13.06960  -89.57530   -3.57860   13.06960
 4700.00000    9.43200    9.43200   97.86680   97.45180   10.26160   65.29070   65.29070  114.18180  114.18180   10.26160   10.35540   15.83610  -88.75050   -2.46030   15.83610
 4750.00000   10.05770   10.05770  104.42500  104.06590    9.60930   59.29130   59.29130   91.69800   91.69800    9.60930   12.20320   11.08570  -91.67050   -5.08890   11.08570
 4800.00000   10.47230   10.47230  114.00840  116.70930    8.56830   56.06960   56.06960   85.38140   85.38140    8.56830   11.55760    9.94590  -93.92970   -7.05660    9.94590
 4850.00000   11.28320   11.28320  147.29970  154.42210    6.47830   56.91910   56.91910   95.11900   95.11900    6.47830   11.20940    7.67700  -92.73070   -5.56420    7.67700
 4900.00000    8.19970    8.19970   52.81380   47.94300   20.85810   55.47090   55.47090   64.74360   64.74360   20.85810    8.69950   21.66150  -97.20060   -9.74260   21.66150
 4950.00000   10.34290   10.34290  127.84910  132.64560    7.53900   58.96600   58.96600   98.19920   98.19920    7.53900   11.66470    8.99020  -92.19890   -4.44740    8.99020
 5000.00000   10.77980   10.77980  197.20950  197.20950    5.07070   59.31020   59.31020   88.68890   88.68890    4.54960   11.60950    6.26270  -92.94370   -4.90080    6.26270
 5050.00000   10.13680   10.13680  108.70860  109.02990    9.17180   53.96890   53.96890   84.04920   84.04920    9.17180   11.21620    9.93200  -93.14720   -4.81280    9.93200
 5100.00000   10.66650   10.66650  163.19010  169.93000    5.88490   59.20700   59.20700   89.47010   89.47010    5.88490   11.94150    7.35490  -92.80850   -4.18060    7.35490
 5150.00000   10.79210   10.79210  163.00790  171.67680    5.82490   58.57140   58.57140   93.83270   93.83270    5.82490   12.48330    7.57220  -92.34020   -3.42090    7.57220
 5200.00000   11.39860   11.39860  302.37520  302.37520    3.30780   65.66520   65.66520  102.04380  102.04380    2.92950   11.96400    4.48370  -91.86800   -2.65520    4.48370
 5250.00000   12.11410   12.11410  321.16780  321.16780    3.11360   62.01370   62.01370   84.24370   84.24370    2.55740   13.35280    4.12740  -91.81710   -2.31290    4.12740
 5300.00000   10.18330   10.18330  350.95160  350.95160    2.84940   66.01170   66.01170   92.03500   92.03500    2.30310   12.61710    3.33350  -94.22370   -4.42800    3.33350
 5350.00000   11.23590   11.23590  206.03580  206.03580    4.85360   60.58660   60.58660   84.68720   84.68720    4.45160   13.03210    5.69300  -96.01170   -5.93410    5.69300
 5400.00000   12.41240   12.41240  223.10080  223.10080    4.48230   62.07460   62.07460   90.30030   90.30030    4.07610   13.65700    5.34610  -96.20970   -6.13210    5.34610
 5450.00000   11.03440   11.03440   82.97800   83.10340   12.03430   54.58400   54.58400   71.70670   71.70670   12.03430   11.56910   14.69240 -102.39480  -12.31710   14.69240
 5500.00000   10.32040   10.32040   82.23320   80.18800   12.47070   56.25240   56.25240   70.05960   70.05960   12.47070   11.80540   15.43940 -107.99840  -17.92070   15.43940
 5550.00000   12.04020   12.04020   94.08870   94.49300   10.58280   55.40560   55.40560   63.65120   63.65120   10.58280   16.20450   13.38020  -94.71480   -4.63710   13.38020
 5600.00000   11.02630   11.02630   97.09880   97.77590   10.22830   53.05810   53.05810   80.84530   80.84530   10.22830   12.28410   13.31950  -96.34040   -6.26270   13.31950
 5650.00000   12.78750   12.78750  126.94270  127.67800    7.83220   57.93530   57.93530   76.79560   76.79560    7.83220   13.33440    8.60800  -98.76270   -8.68500    8.60800
 5700.00000   13.32720   13.32720  144.18320  151.12940    6.61740   70.12690   70.12690   72.87170   72.87170    6.61740   13.77020    8.37990  -97.38490   -7.30720    8.37990
 5750.00000   11.48680   11.48680   62.92150   59.87950   16.70020   53.47820   53.47820   46.41420   46.41420   16.70020   12.68040   17.97850 -109.15050  -19.07280   17.97850
