~Version ---------------------------------------------------
VERS.      2.0 : CWLS log ASCII Standard -VERSION 2.0
WRAP.       NO : One line per depth step
CREA. 11/20/17 : LAS Creation Date
~Well ------------------------------------------------------
STRT.FT                    700.0 : START DEPTH
STOP.FT                   6900.0 : STOP DEPTH
STEP.FT                 50.00000 : STEP LENGTH
NULL.                    -999.25 : NULL VALUE
COMP.            SUN OIL COMPANY : COMPANY
WELL. SUN ET AL YEKAU 11-9-52-26 : WELL
FLD .                            : FIELD
LOC .                            : LOCATION
CTRY.                     CANADA : COUNTRY
SRVC.     Schlumberger of Canada : SERVICE COMPANY
DATE.                21-Nov-1972 : LOGDATE
PROV.                    Alberta : PROVINCE
UWI .           100110905226W400 : UNIQUE WELL ID
SLAT.WGS84              53.47802 : SURFACE LATITUDE
SLON.WGS84             -113.7795 : SURFACE LONGITUDE
~Curve Information -----------------------------------------
DEPT  .FT    : Depth Curve
CALSED.IN    : CALIPER FROM SONIC LOG [ADJ.TO RESISTIVITY LOG]
CALWS .IN    : CALIPER [CALSED]
CILDED.MMHO  : CONDUCTIVITY FROM RESISTIVITY LOG
CONDWS.MMHO  : CONDUCTIVITY [1000/DRESWS]
DRESWS.OHMM  : DEEP RESISTIVITY [1000/CILDED IF ILDED <=5, ILDED]
DTED  .US/F  : DELTA-T FROM SONIC LOG [ADJ.TO RESISTIVITY LOG]
DTWS  .US/F  : COMPRESSIONAL SONIC [DTED]
GRSED .GAPI  : GAMMA RAY FROM SONIC LOG
GRWS  .GAPI  : GAMMA RAY [GRSED]
ILDED .OHMM  : DEEP INDUCTION FROM RESISTIVITY LOG
SNED  .OHMM  : SHORT NORMAL 16" FROM RESISTIVITY LOG
SPRED .MV    : SPONTANEOUS POTENTIAL FROM RESISTIVITY LOG
SPWS  .MV    : SPONTANEOUS POTENTIAL [BASELINE 0 MV, SPRED]
SRESWS.OHMM  : SHALLOW RESISTIVITY [SNED]
~Params ----------------------------------------------------
PD  .                     GL : PERMANENT DATUM
EPD .FT                 2327 : ELEVATION PERMANENT DATUM
LMF .                     KB : LOG MEASURED FROM
DAPD.FT                   13 : FEET ABOVE PERMANENT DATUM
EKB .FT                 2340 : KELLY BUSHING
EGL .FT                 2327 : GROUND LEVEL
DATE.               11/21/72 : RUN DATE
RUN .                      1 : RUN NUMBER
DD  .FT                 6940 : DEPTH DRILLER
DL  .FT                 6942 : DEPTH LOGGER
BLI .FT                 6941 : BOTTOM LOG INTERVAL
TLI .FT                  748 : TOP LOG INTERVAL
CBD .FT                  748 : CASING BOTTOM DRILLER
CBL .FT                  748 : CASING BOTTOM LOGGER
BS  .IN                7.875 : BIT SIZE
BSD .FT                 6940 : BIT SIZE AT DEPTH
DFT .               GEL CHEM : DRILLING FLUID TYPE
DFD .                    9.5 : DRILLING FLUID DENSITY
DFV .                     72 : DRILLING FLUID VISCOSITY
DFPH.                    9.5 : DRILLING FLUID PH
DFL .                     10 : DRILLING FLUID LOSS
RMS .OHMM                1.3 : RESISTIVITY MUD SAMPLE
MST .DEGF                 75 : MUD SAMPLE TEMPERATURE
RMF .OHMM               1.06 : RESISTIVITY MUD FILTRATE SAMPLE
MFST.DEGF                 70 : MUD FILTRATE SAMPLE TEMPERATURE
RMB .OHMM               0.69 : RESISTIVITY MUD AT BHT
TCS .HRS                   2 : TIME CIRCULATED STOPPED
LUN .                   7636 : LOGGING UNIT NUMBER
LUL .                    EDM : LOGGING UNIT LOCATION
ENGI.                CUTRESS : RECORDING ENGINEER
WITN.                PATMORE : WITNESSED BY
CLNT.                A2DTECH : CLIENT CODE
ORIG.            2" 5" PRINT : ORIGIN OF DATA
UWI .       100110905226W400 : UNIQUE WELL ID
DICO. A2D Technologies, Inc. : DIGITIZING COMPANY
~Other -----------------------------------------------------
~ASCII -----------------------------------------------------
# ...
 5600.00000    8.16000    8.16000  170.88240  168.65110    5.92940   78.90960   78.90960  113.04970  113.04970    5.92940    8.34460  -46.06410   -2.20880    8.34460
 5650.00000    8.15650    8.15650  133.57790  135.79390    7.36410   75.08690   75.08690  107.35200  107.35200    7.36410   10.99200  -42.00260    1.66930   10.99200
 5700.00000    7.99430    7.99430   38.99940   45.40340   22.02480   64.23060   64.23060   97.40640   97.40640   22.02480   35.61870  -43.91560   -0.42820   35.61870
 5750.00000    7.99690    7.99690   35.60840   41.51740   24.08630   66.03540   66.03540   95.74100   95.74100   24.08630   40.94930  -73.22520  -29.92120   40.94930
 5800.00000    8.18610    8.18610  155.55090  154.99550    6.45180   61.36490   61.36490   47.17310   47.17310    6.45180   17.72160 -132.17340  -89.05280   17.72160
 5850.00000    8.05540    8.05540    9.61560   17.28020   57.86980   48.51920   48.51920   10.82970   10.82970   57.86980  149.01420 -140.19530  -97.25920  149.01420
 5900.00000    7.77040    7.77040   12.44100   13.85410   72.18080   49.97160   49.97160   11.13180   11.13180   72.18080  549.28320 -167.78610 -125.03340  549.28320
 5950.00000    7.81590    7.81590  268.31700  268.31700    3.72690   47.99970   47.99970   10.74170   10.74170    3.76250    9.36430  -86.38440  -43.81630    9.36430
 6000.00000    7.77140    7.77140   31.71540   36.54500   27.36350   50.43510   50.43510    9.68910    9.68910   27.36350  181.79810 -192.63820 -150.25340  181.79810
 6050.00000    7.75110    7.75110   66.08470   68.78620   14.53780   51.10450   51.10450   10.45550   10.45550   14.53780  117.10330 -187.58450 -145.38310  117.10330
 6100.00000    7.73510    7.73510   58.77940   64.59450   15.48120   52.28130   52.28130   12.93260   12.93260   15.48120  179.06480 -194.13210 -152.11530  179.06480
 6150.00000    7.73030    7.73030   50.52160   56.05630   17.83920   50.75350   50.75350   11.54870   11.54870   17.83920  172.04630 -192.23330 -150.39980  172.04630
 6200.00000    7.77730    7.77730   34.98390   41.50080   24.09590   49.25790   49.25790   14.44080   14.44080   24.09590  199.92960 -167.19110 -125.54220  199.92960
 6250.00000    7.79090    7.79090   55.20370   57.91230   17.26750   52.99320   52.99320   11.64920   11.64920   17.26750   87.67710 -187.58000 -146.11450   87.67710
 6300.00000    7.83120    7.83120   29.52040   36.33360   27.52270   49.95630   49.95630   15.16920   15.16920   27.52270  395.11380 -183.63530 -142.35310  395.11380
 6350.00000    8.03170    8.03170    3.65570    6.57410  152.11320   50.91900   50.91900   18.45710   18.45710  152.11320  550.63100 -130.80980  -89.71220  550.63100
 6400.00000    8.03180    8.03180    2.52560    5.02530  198.99490   49.01260   49.01260   17.42220   17.42220  198.99490  550.00000 -115.50610  -74.59190  550.00000
 6450.00000    8.03580    8.03580   12.62300   15.04060   66.48660   50.70180   50.70180   12.58530   12.58530   66.48660  147.74160 -144.27210 -103.54250  147.74160
 6500.00000    8.04540    8.04540    3.11230    5.08510  196.65210   49.52320   49.52320   19.37080   19.37080  196.65210  550.00000 -119.95600  -79.40970  550.00000
 6550.00000    8.10260    8.10260   13.33770   20.22010   49.45570   62.03070   62.03070   49.94800   49.94800   49.45570  111.42350  -51.26780  -10.90490  111.42350
 6600.00000    8.15620    8.15620   58.39410   61.06830   16.37510   60.28710   60.28710   66.17920   66.17920   16.37510   25.61770  -54.63870  -14.46040   25.61770
 6650.00000    7.98280    7.98280   11.33130   14.02140   71.31980   50.05910   50.05910   16.96740   16.96740   71.31980  168.44390 -140.14700 -100.15200  168.44390
 6700.00000    7.98330    7.98330   30.29150   35.72600   27.99080   58.52490   58.52490   61.89170   61.89170   27.99080   41.41230  -77.21890  -37.40850   41.41230
 6750.00000    7.94840    7.94840   25.81410   32.66780   30.61120   55.26980   55.26980   47.27030   47.27030   30.61120   50.52170  -88.95340  -49.32640   50.52170
 6800.00000    8.06260    8.06260  129.16660  132.44510    7.55030   78.55480   78.55480  126.84450  126.84450    7.55030   12.49490 -106.87680  -67.43310   12.49490
 6850.00000    7.82230    7.82230    2.67230    3.75470  266.32950   51.13840   51.13840   25.66860   25.66860  266.32950  550.60310  -47.87380   -8.61470  550.60310
 6900.00000    7.84030    7.84030  253.33630  253.33630    3.94730   61.49300   61.49300   84.79640   84.79640    3.64180    6.06320  -87.15180  -48.07610    6.06320
