~Version ---------------------------------------------------
VERS. 2.0 : CWLS log ASCII Standard -VERSION 2.0
WRAP.  NO : ONE LINE PER DEPTH STEP
~Well ------------------------------------------------------
STRT.F                     1500.0 : START DEPTH
STOP.F                     9800.0 : STOP DEPTH
STEP.F                   50.00000 : STEP LENGTH
NULL.                     -999.25 : NULL VALUE
COMP.  PHILLIPS PETROLEUM COMPANY : COMPANY
WELL. PHILLIPS KAYBOB 12-15-64-19 : WELL
FLD .                             : FIELD
LOC .                             : LOCATION
CTRY.                      CANADA : COUNTRY
SRVC.                       Welex : SERVICE COMPANY
DATE.                 11-Jan-1958 : LOGDATE
PROV.                     Alberta : PROVINCE
UWI .            100121506419W500 : UNIQUE WELL ID
SLAT.WGS84               54.53978 : SURFACE LATITUDE
SLON.WGS84              -116.7947 : SURFACE LONGITUDE
~Curve Information -----------------------------------------
DEPT.F    0   1   0  0 : 1 MEASURED DEPTH
GRN .CPS  35 310 30 00 : GAMMA RAY FROM GRN LOG
NEUT.CPS  35 330 30 00 : NEUTRON
MCAL.IN   15 280 00 00 : MLT (MICROLOG) CALIPER
LAT9.OHMM 01 070 09 00 : LATERAL 9'
LT16.OHMM 01 070 16 00 : LATERAL 16'
SN  .OHMM 01 040 18 00 : SHORT NORMAL RESISTIVITY
SPR .MV   01 010 01 00 : SPONTANEOUS POTENTIAL FROM RESISTIVITY LOG
~Params ----------------------------------------------------
PD  .                                        GL : PERMANENT DATUM
EPD .FT                                    2430 : ELEVATION PERMANENT DATUM
LMF .                                        KB : LOG MEASURED FROM
DMF .                                        KB : DRILLING MEASURED FROM
EKB .FT                                    2442 : KELLY BUSHING
EGL .FT                                    2430 : GROUND LEVEL
DATE.                                  01/11/58 : RUN DATE
RUN .                                         1 : RUN NUMBER
DD  .FT                                    9825 : DEPTH DRILLER
DL  .FT                                    9817 : DEPTH LOGGER
BLI .FT                                    9816 : BOTTOM LOG INTERVAL
TLI .FT                                    1514 : TOP LOG INTERVAL
CS  .IN                                  13.375 : CASING SIZE
CBD .FT                                 1513.95 : CASING BOTTOM DRILLER
CBL .FT                                    1514 : CASING BOTTOM LOGGER
BS  .IN                                       9 : BIT SIZE
BSD .FT                                    9825 : BIT SIZE AT DEPTH
DFT . OIL EMULSION CAUSTIC GEL DRISCOSE RAYFLOW : DRILLING FLUID TYPE
DFD .                                      10.9 : DRILLING FLUID DENSITY
DFV .                                        74 : DRILLING FLUID VISCOSITY
DFPH.                                         9 : DRILLING FLUID PH
MSS .                                CIRCULATED : MUD SAMPLE SOURCE
RMS .OHMM                                   3.3 : RESISTIVITY MUD SAMPLE
MST .DEGF                                    54 : MUD SAMPLE TEMPERATURE
RMF .OHMM                                  0.56 : RESISTIVITY MUD FILTRATE SAMPLE
MFST.DEGF                                   182 : MUD FILTRATE SAMPLE TEMPERATURE
RMC .OHMM                                  1.25 : RESISTIVITY MUD CAKE
MCST.DEGF                                   182 : MUD CAKE SAMPLE TEMPERATURE
RMB .OHMM                                  1.05 : RESISTIVITY MUD AT BHT
ENGI.                           EDWARDS CARBERT : RECORDING ENGINEER
WITN.                           TIBBETTS HUNTER : WITNESSED BY
CLNT.                                   A2DTECH : CLIENT CODE
ORIG.                               2" 5" PRINT : ORIGIN OF DATA
UWI .                          100121506419W500 : UNIQUE WELL ID
DICO.                    A2D Technologies, Inc. : DIGITIZING COMPANY
~Other -----------------------------------------------------
~ASCII -----------------------------------------------------
 1500.00000   45.07080  213.24520    -999.25    -999.25    -999.25    -999.25    -999.25
 1550.00000   56.98910  303.96990    -999.25    6.01460    6.91980    4.08210  -39.57590
 1600.00000   71.72620  266.62750    -999.25   21.73250   19.87470    9.95860  -53.54230
 1650.00000   71.64790  241.03780    -999.25    3.55120    3.84150    3.15850  -40.19530
 1700.00000   75.00810  239.47950    -999.25    7.82540    5.83950    3.58230  -39.86700
 1750.00000   42.37510  288.52870    -999.25    9.17530    6.69640   12.11260  -49.61020
 1800.00000   67.39500  251.56220    -999.25    5.68270    5.78400    5.04940  -39.31750
 1850.00000   64.80050  273.54020    -999.25    7.29810    5.76080    3.85520  -39.88120
 1900.00000   63.52370  248.01100    -999.25    4.94890    4.33990    3.61950  -39.94640
 1950.00000   63.52740  280.68360    -999.25   16.15380   12.68460    9.11310  -42.62150
 2000.00000   48.61110  308.62420    -999.25    6.24670    5.72050    6.50210  -40.49730
 2050.00000   73.82970  250.45800    -999.25    6.00600    6.07670    4.94930  -40.25820
 2100.00000   63.43380  259.54030    -999.25   23.09350   25.32840    9.85600  -48.70060
 2150.00000   63.85140  298.87370    -999.25   13.67110    6.92640    9.14970  -42.61220
 2200.00000   68.77360  261.87760    -999.25    5.73370    5.39540    3.85090  -40.60130
 2250.00000   70.22080  248.50610    -999.25    4.93570    4.71970    4.22960  -40.85680
 2300.00000   54.16060  325.51180    -999.25    8.18280    8.79970    7.32250  -46.72070
 2350.00000   68.57600  256.63230    -999.25    7.48570    6.77960    4.54030  -42.16850
 2400.00000   46.73800  305.36610    -999.25    4.04090    3.44710    4.98450  -44.91040
 2450.00000   66.92480  247.23370    -999.25    5.70850    4.57350    3.89970  -42.89700
 2500.00000   62.72740  250.40480    -999.25   14.42520   12.67130    6.36510  -43.87710
 2550.00000   64.10300  301.48970    -999.25   12.13850   11.86980   10.43050  -48.58180
 2600.00000   70.01240  241.68490    -999.25    6.17120    5.73450    4.31420  -44.19630
 2650.00000   78.73810  246.52050    -999.25    6.84510    8.06020    5.02730  -46.15080
 2700.00000   86.08620  232.86720    -999.25    7.07170    5.78600    6.31520  -47.57650
 2750.00000   89.25790  239.76190    -999.25   10.24190    9.10700    7.63830  -48.17880
 2800.00000   92.54770  240.02760    -999.25    9.98980    8.76470    6.29130  -48.14950
 2850.00000  134.52020  238.64600    -999.25    9.94490    8.20130    7.31580  -47.10190
 2900.00000   98.25180  255.14770    -999.25   14.42560   10.40820    9.37940  -48.28060
 2950.00000  107.06010  238.58400    -999.25   10.69810    9.08040    7.51640  -48.12680
 3000.00000   88.61470  230.51150   11.77220    9.50320    8.11200    6.34320  -48.91680
 3050.00000  103.11820  236.01670   12.68420    8.61270    8.04700    6.40890  -50.15050
 3100.00000   90.41840  248.28770   12.57030   11.63350   10.97640    7.12130  -51.14850
 3150.00000  101.45120  240.51230   11.70090   14.01990   13.57130    7.88520  -51.22410
 3200.00000   99.06450  240.39450   11.94390   10.80780    9.86460    7.43100  -50.12160
 3250.00000  110.47840  244.57290   12.23540    8.63790    7.37230    6.35030  -50.86510
 3300.00000   94.34950  241.47070   12.42480   10.23550    8.28610    6.82170  -50.04390
 3350.00000   99.20660  240.23360   12.47290    9.62270    9.06570    7.42020   -9.68280
 3400.00000   95.12170  249.30080   12.13670   13.26250   10.29970    8.91430   -9.73470
 3450.00000   98.13550  252.06920   12.19900   10.11400    9.59000    7.79170   -9.59660
 3500.00000  102.24850  259.10430   12.31660   10.43450   10.77070    7.56190   -9.17730
 3550.00000  120.76830  244.73180   12.55230   11.13860    9.59930    7.53400  -51.84550
 3600.00000  116.59260  241.70700   12.61050    9.28160    8.33750    6.91110  -51.57740
 3650.00000  109.53200  251.94930   12.95830   11.12120    9.04840    7.59360  -50.71220
 3700.00000  118.25530  228.89640   12.58140    8.86910    7.48890    7.09810  -49.88610
 3750.00000  122.82600  228.97990   11.55310   10.95800    9.06620    8.42440  -49.04340
 3800.00000  109.98600  241.72690   11.18490   12.14060    9.56510    9.39740  -49.28390
 3850.00000  118.30550  249.24020    9.87940   16.06170   14.72810   12.29770  -49.11090
 3900.00000  118.47400  254.58830    9.53670   15.79000   12.04080   13.00580  -49.02000
 3950.00000  142.04540  238.62430   11.27410    9.85020    9.23850    7.93300  -48.90590
 4000.00000   93.58300  256.98970   10.60350   11.70630   10.80040    6.22890  -50.72940
 4050.00000   93.20290  241.76690   11.17080    8.66330    8.15030    5.80900  -51.47780
 4100.00000   95.37220  258.44910   10.63450    8.29190    7.49810    6.57290  -51.63620
 4150.00000  102.42040  229.48680   11.55010    8.77020    7.76020    5.99560  -51.02960
 4200.00000   94.34780  262.87120   11.17470   10.77860    8.36370    8.58630  -53.12960
 4250.00000  101.97360  231.59280   11.80770    8.22550    7.13550    5.83320  -50.62810
 4300.00000   97.56680  232.59960   12.06870    6.45720    5.32630    5.82090  -49.98110
 4350.00000   96.17190  246.05720   12.78520    7.82720    6.20580    5.80490  -50.46480
 4400.00000  123.29480  235.33180   12.46610    5.10720    4.76570    3.66610  -48.87240
 4450.00000   94.26010  225.64700   12.69260    3.99740    2.30770    3.17800  -48.86460
 4500.00000   90.47080  235.44400   12.59730    4.26120    3.32780    4.34420  -48.78260
 4550.00000   92.36060  225.42770   12.25060    6.97900    5.17230    6.00050  -49.64380
 4600.00000   86.09640  236.16430   11.58220    7.27550    6.19390   10.60640  -52.47540
 4650.00000   78.65110  227.82640   11.94010    8.74040    5.44300    5.57380  -50.41810
 4700.00000   76.60040  238.32880   10.64300   12.74270    9.34140   19.54690  -69.54300
 4750.00000   64.54590  291.41530   12.01590   30.03660   48.96930   17.49480  -63.87160
 4800.00000   67.39640  291.64470   11.86410   21.05270   20.29080   14.92550  -57.23870
 4850.00000   54.32250  335.12760   11.91650   14.75090   11.96850   12.91230  -60.27970
 4900.00000   58.63850  320.35550   11.92060   17.80480    6.63640   12.72980  -69.77420
 4950.00000   92.14390  249.80020   12.49010   20.63540   21.82560   13.00960  -69.70040
 5000.00000   87.32330  236.21620   12.77250   53.55630   96.34860   20.25930  -53.76410
 5050.00000   56.96480  277.87980   12.48240   18.90610   17.03860   14.63370  -90.03290
 5100.00000   73.32420  251.11650   11.34770   19.52950   18.07940   15.84120  -52.06690
 5150.00000   63.27380  246.48950   11.41130    5.91190    6.30930    7.79930  -54.57340
 5200.00000   65.98520  291.42300   11.40190   11.74200    7.92090    9.63680  -78.56210
 5250.00000   82.15980  293.45830   12.85480   20.00970   21.28130   26.80150  -67.37950
 5300.00000   52.53510  273.88350   12.05910   31.69730   12.25870   17.18650 -105.11960
 5350.00000   91.82710  274.42210   10.32110   12.63520   10.03040   10.88940  -23.83080
 5400.00000   84.73500  287.07070   12.27270   10.98960    8.52930    3.95670   -9.69750
 5450.00000   73.65370  262.57080   11.15790   11.51980    9.68270    9.48550   -6.79380
 5500.00000   47.69900  344.56190    8.70400   30.73930   12.91990   25.40500  -81.34910
 5550.00000   96.57350  293.64180    9.68040   48.37190   30.98340   17.00320   -8.39570
 5600.00000   94.00200  251.14950   10.60930   29.78020   36.89160   15.69950  -14.82770
 5650.00000   91.73190  244.00880   10.96430   13.86190    9.74400   10.22040  -20.12840
 5700.00000   65.86360  243.73800   10.75370    3.53020    4.47320    3.01010  -24.76110
 5750.00000   81.96560  209.75700   13.33160    3.30270    2.72160    4.32040  -38.70470
 5800.00000  160.39370  239.12530    9.60080   28.28620   16.37760   22.39320  -69.03810
 5850.00000  195.22440  382.97660    9.32850   40.21190   33.06750   75.65070  -65.03080
 5900.00000   84.77300  334.42470    9.67820  859.37770 2349.59420   37.94310  -91.50170
 5950.00000   71.76050  431.22770    9.40100   17.48960   14.40190   21.97370  -75.93220
