~Version ---------------------------------------------------
VERS.      2.0 : CWLS log ASCII Standard -VERSION 2.0
WRAP.       NO : One line per depth step
CREA. 03/07/13 : LAS Creation Date
~Well ------------------------------------------------------
STRT.FT                       1100.0 : START DEPTH
STOP.FT                      10650.0 : STOP DEPTH
STEP.FT                     50.00000 : STEP LENGTH
NULL.                        -999.25 : NULL VALUE
COMP.           PETROFINA CANADA LTD : COMPANY
WELL. FINA AMOCO HB PASSCK 10-6-61-1 : WELL
FLD .                             WC : FIELD
LOC .                                : LOCATION
CTRY.                         CANADA : COUNTRY
SRVC.                   Schlumberger : SERVICE COMPANY
DATE.                    16-Nov-1976 : LOGDATE
PROV.                        Alberta : PROVINCE
UWI .               100100606117W500 : UNIQUE WELL ID
SLAT.WGS84                  54.24964 : SURFACE LATITUDE
SLON.WGS84                 -116.5333 : SURFACE LONGITUDE
~Curve Information -----------------------------------------
DEPT   .FT    : DEPTH FEET
CALD   .IN    : CALIPER FROM DENSITY LOG
CALS   .IN    : CALIPER FROM SONIC LOG
CILD   .MMHO  : CONDUCTIVITY FROM RESISTIVITY LOG
DCOR   .G/C3  : DENSITY CORRECTION FROM DENSITY LOG
DPHI_LS.DEC   : DENSITY POROSITY LIME [M=2.71, F=1.0] FROM DENSITY LOG
DPHI_SS.DEC   : DENSITY POROSITY SAND [M=2.65, F=1.0] FROM DENSITY LOG
DT     .US/F  : DELTA TIME FROM SONIC LOG
GRD    .GAPI  : GAMMA RAY FROM DENSITY LOG
GRS    .GAPI  : GAMMA RAY FROM SONIC LOG
ILD    .OHMM  : DEEP INDUCTION RESISTIVITY FROM RESISTIVITY LOG
ILM    .OHMM  : MEDIUM INDUCTION RESISTIVITY FROM RESISTIVITY LOG
LL8    .OHMM  : 8 INCH LATEROLOG RESISTIVITY FROM RESISTIVITY LOG
NPHI_LS.DEC   : NEUTRON POROSITY LIME FROM DENSITY LOG
NPHI_SS.DEC   : NEUTRON POROSITY SAND FROM DENSITY LOG
RHOB   .G/C3  : BULK DENSITY FROM DENSITY LOG
SPR    .MV    : SPONTANEOUS POTENTIAL FROM RESISTIVITY LOG
~Params ----------------------------------------------------
PD  .                     GL : PERMANENT DATUM
EPD .FT                 3080 : ELEVATION PERMANENT DATUM
LMF .                     KB : LOG MEASURED FROM
DAPD.FT                   16 : FEET ABOVE PERMANENT DATUM
EKB .FT                 3096 : KELLY BUSHING
EGL .FT                 3080 : GROUND LEVEL
DATE.               11/16/76 : RUN DATE
RUN .                      2 : RUN NUMBER
DD  .FT                10680 : DEPTH DRILLER
DL  .FT                10679 : DEPTH LOGGER
BLI .FT                10673 : BOTTOM LOG INTERVAL
TLI .FT                 7468 : TOP LOG INTERVAL
CBD .FT                 1102 : CASING BOTTOM DRILLER
CBL .FT                 1102 : CASING BOTTOM LOGGER
BS  .IN                 8.75 : BIT SIZE
BSD .FT                10680 : BIT SIZE AT DEPTH
DFT .                    GEL : DRILLING FLUID TYPE
DFD .                    9.2 : DRILLING FLUID DENSITY
DFV .                     94 : DRILLING FLUID VISCOSITY
DFPH.                     10 : DRILLING FLUID PH
DFL .                    8.2 : DRILLING FLUID LOSS
MSS .               FLOWLINE : MUD SAMPLE SOURCE
RMS .OHMM               1.57 : RESISTIVITY MUD SAMPLE
MST .DEGF                 65 : MUD SAMPLE TEMPERATURE
RMF .OHMM               1.76 : RESISTIVITY MUD FILTRATE SAMPLE
MFST.DEGF                 68 : MUD FILTRATE SAMPLE TEMPERATURE
TCS .HRS                 2.5 : TIME CIRCULATED STOPPED
LUN .                   7800 : LOGGING UNIT NUMBER
LUL .                    EDM : LOGGING UNIT LOCATION
ENGI.     ROBELLI LEDUG BIGG : RECORDING ENGINEER
WITN.                CHARLES : WITNESSED BY
CLNT.                A2DTECH : CLIENT CODE
ORIG.            2" 5" PRINT : ORIGIN OF DATA
UWI .       100100606117W500 : UNIQUE WELL ID
DICO. A2D Technologies, Inc. : DIGITIZING COMPANY
~Other -----------------------------------------------------
~ASCII -----------------------------------------------------
 1100.00000    -999.25    -999.25    -999.25    -999.25    -999.25    -999.25    -999.25    -999.25   47.22800    -999.25    -999.25    -999.25    -999.25    -999.25    -999.25    -999.25
 1150.00000    -999.25    9.86100  414.37970    -999.25    -999.25    -999.25  139.42830    -999.25  101.77910    2.56830    -999.25    2.26210    -999.25    -999.25    -999.25  -21.89980
 1200.00000    -999.25    9.33010  168.74580    -999.25    -999.25    -999.25  121.53690    -999.25   79.23730    6.27500    -999.25    5.53310    -999.25    -999.25    -999.25  -19.75710
 1250.00000    -999.25    9.42370  168.76830    -999.25    -999.25    -999.25  106.52810    -999.25   92.25680    6.04400    -999.25    5.37290    -999.25    -999.25    -999.25  -15.34490
 1300.00000    -999.25    9.16640   94.67730    -999.25    -999.25    -999.25  122.94370    -999.25   65.73510   10.73730    -999.25   20.04130    -999.25    -999.25    -999.25  -14.74710
 1350.00000    -999.25    9.34730  156.55200    -999.25    -999.25    -999.25   99.10050    -999.25   90.11220    6.52110    -999.25    5.74500    -999.25    -999.25    -999.25  -19.99940
 1400.00000    -999.25    9.23840  160.89000    -999.25    -999.25    -999.25  100.02650    -999.25   81.06080    6.34130    -999.25    7.43800    -999.25    -999.25    -999.25  -14.81220
 1450.00000    -999.25    9.13700  142.54960    -999.25    -999.25    -999.25   92.75520    -999.25   83.88430    7.03170    -999.25    6.06870    -999.25    -999.25    -999.25  -14.65450
 1500.00000    -999.25    9.41390  220.40690    -999.25    -999.25    -999.25  112.87140    -999.25   87.53530    4.56680    -999.25    3.78500    -999.25    -999.25    -999.25  -17.88440
 1550.00000    -999.25    9.15600  100.49730    -999.25    -999.25    -999.25   94.03340    -999.25   71.81840   10.01780    -999.25    8.64250    -999.25    -999.25    -999.25  -13.35440
 1600.00000    -999.25    9.56460  191.22290    -999.25    -999.25    -999.25  101.94740    -999.25   99.91990    5.19080    -999.25    4.58050    -999.25    -999.25    -999.25  -16.89490
 1650.00000    -999.25    9.66570  173.68450    -999.25    -999.25    -999.25  107.93940    -999.25   89.79560    5.84980    -999.25    5.12310    -999.25    -999.25    -999.25  -25.71470
 1700.00000    -999.25    9.63500  112.40390    -999.25    -999.25    -999.25   79.35780    -999.25   66.57150    8.62800    -999.25    8.06050    -999.25    -999.25    -999.25  -21.75200
 1750.00000    -999.25    9.64920  152.40930    -999.25    -999.25    -999.25   96.20690    -999.25   81.16950    6.62310    -999.25    5.73360    -999.25    -999.25    -999.25  -17.90820
 1800.00000    -999.25    9.65180  195.59340    -999.25    -999.25    -999.25  103.36930    -999.25   95.57010    5.14950    -999.25    4.67220    -999.25    -999.25    -999.25  -17.02150
 1850.00000    -999.25    9.64710  286.44420    -999.25    -999.25    -999.25  104.76600    -999.25  116.25950    3.66660    -999.25    3.25750    -999.25    -999.25    -999.25  -18.58140
 1900.00000    -999.25    9.16080  140.59710    -999.25    -999.25    -999.25   88.41620    -999.25   71.12710    6.83510    -999.25    6.37940    -999.25    -999.25    -999.25  -20.60630
 1950.00000    -999.25    9.44980  130.73670    -999.25    -999.25    -999.25   86.52910    -999.25   78.71310    7.72410    -999.25    6.81300    -999.25    -999.25    -999.25  -16.68040
 2000.00000    -999.25    9.82290  188.33110    -999.25    -999.25    -999.25  103.95570    -999.25   85.06160    5.46440    -999.25    4.49910    -999.25    -999.25    -999.25  -14.54830
 2050.00000    -999.25    9.66170  264.77650    -999.25    -999.25    -999.25  108.01730    -999.25   83.30890    4.01360    -999.25    3.76220    -999.25    -999.25    -999.25  -15.34180
 2100.00000    -999.25    9.45900  210.27540    -999.25    -999.25    -999.25  102.24980    -999.25   93.44010    4.98950    -999.25    4.59540    -999.25    -999.25    -999.25  -19.83140
 2150.00000    -999.25    9.51130  153.75770    -999.25    -999.25    -999.25   97.05590    -999.25  104.76950    6.61290    -999.25    5.94000    -999.25    -999.25    -999.25  -19.55510
 2200.00000    -999.25    9.66380  172.73370    -999.25    -999.25    -999.25   91.58630    -999.25   77.97270    5.83910    -999.25    5.24080    -999.25    -999.25    -999.25  -19.71590
 2250.00000    -999.25    9.14240   82.79410    -999.25    -999.25    -999.25   87.18530    -999.25   60.70400   11.08340   12.21100   13.96410    -999.25    -999.25    -999.25  -44.42390
 2300.00000   10.45700    9.66050    -999.25    0.15900    -999.25    0.29440  106.59880   98.84860  104.12650    3.76420    3.56200    3.90830    -999.25    0.38430    2.13280  -42.96870
 2350.00000    9.68490    9.34880    -999.25    0.08630    -999.25    0.24830  100.65340   62.75930   57.10010   14.26810   13.25590   13.69920    -999.25    0.33730    2.14870  -43.71390
 2400.00000   10.42930    9.68750    -999.25    0.21890    -999.25    0.32820  103.09880   88.71670  100.96520    3.51470    3.09770    3.66480    -999.25    0.41860    2.05420  -42.08410
 2450.00000   14.19400   10.37730    -999.25    0.15890    -999.25    0.56500  123.88150   87.30260   89.13810    4.51960    4.18470    3.88500    -999.25    0.50060    1.75850  -38.36530
 2500.00000    9.69140    9.27210    -999.25    0.17960    -999.25    0.17350   87.60630   79.89810   84.66580   10.92910   13.16930   17.04950    -999.25    0.26370    2.32450  -41.31320
 2550.00000   12.44130    9.47550    -999.25    0.20740    -999.25    0.33480   99.88540   71.00760   97.15070    4.30790    3.73790    4.02960    -999.25    0.38970    2.11070  -42.72800
 2600.00000   10.52650    9.49110    -999.25    0.17740    -999.25    0.36690   97.14390   86.18060   83.97520    4.74420    4.15870    4.53000    -999.25    0.38150    2.08790  -41.39070
 2650.00000    9.61180    9.75230    -999.25    0.19530    -999.25    0.24660   93.38190   65.63390   71.91740    6.34030    7.16580    6.72610    -999.25    0.36350    2.26180  -39.25840
 2700.00000    9.68370    9.56540    -999.25    0.07250    -999.25    0.20110   90.40280   46.51190   57.89400   12.96580   12.51700   11.25760    -999.25    0.32010    2.29290  -45.53560
 2750.00000   11.57820    9.91830    -999.25    0.13450    -999.25    0.28600   86.86380   83.02550   83.07790    4.33740    4.66580    5.88930    -999.25    0.39760    1.97100  -39.87450
 2800.00000   12.00850   10.07190    -999.25    0.19610    -999.25    0.27900   95.44390   75.82710   83.02890    5.42620    5.02310    5.60130    -999.25    0.33170    2.22930  -40.97080
 2850.00000   11.88040    9.72060    -999.25    0.22020    -999.25    0.23750   99.16140   92.15360   99.53240    3.12400    3.27370    3.69890    -999.25    0.37930    2.26760  -41.98150
 2900.00000   14.44450   10.59270    -999.25    0.17650    -999.25    0.40930   88.28450   68.49700   63.92220    5.02530    5.95610    5.48570    -999.25    0.40490    1.86890  -37.61180
 2950.00000   10.14650   10.23810    -999.25    0.09370    -999.25    0.27260  102.05770   58.13910   60.69420    6.85260    4.63760    4.34120    -999.25    0.40360    2.24910  -37.07590
 3000.00000   10.77870   10.04760    -999.25    0.18490    -999.25    0.19360   83.69180   60.65240   64.18000    7.21200    6.86130    6.03940    -999.25    0.41350    2.29780  -37.55060
 3050.00000   11.15910   10.01400    -999.25    0.12790    -999.25    0.28310   86.65080   59.25200   72.82090    5.79440    5.05080    6.49030    -999.25    0.40810    2.00550  -35.38610
 3100.00000   10.85640   10.05690    -999.25    0.23410    -999.25    0.16050   90.22820   61.18310   66.24660    6.59960    7.26350    7.63050    -999.25    0.35690    2.28350  -37.01360
 3150.00000   12.65880   10.22650    -999.25    0.19140    -999.25    0.22830   90.24760   63.28440   65.14230    5.43340    4.91070    5.29150    -999.25    0.36210    2.12120  -37.38000
 3200.00000   12.34180   10.97870    -999.25    0.22930    -999.25    0.26870   97.96460   64.06300   73.23040    5.49580    5.20050    5.07430    -999.25    0.39230    2.30680  -36.08930
