~Version ---------------------------------------------------
VERS.      2.0 : CWLS log ASCII Standard -VERSION 2.0
WRAP.       NO : One line per depth step
CREA. 08/24/13 : LAS Creation Date
~Well ------------------------------------------------------
STRT.M                           300.0 : START DEPTH
STOP.M                          3950.0 : STOP DEPTH
STEP.M                        50.00000 : STEP LENGTH
NULL.                          -999.25 : NULL VALUE
COMP. CHEVRON CANADA RESOURCES LIMITED : COMPANY
WELL.   CHEVRON SHELL SIMONETTE 1-23-6 : WELL
FLD .                                  : FIELD
LOC .                                  : LOCATION
CTRY.                           CANADA : COUNTRY
SRVC.                          Unknown : SERVICE COMPANY
DATE.                      19-Apr-1995 : LOGDATE
PROV.                          Alberta : PROVINCE
UWI .                 100012306427W500 : UNIQUE WELL ID
SLAT.WGS84                     54.5475 : SURFACE LATITUDE
SLON.WGS84                   -117.9618 : SURFACE LONGITUDE
~Curve Information -----------------------------------------
DEPT    .M      : DEPTH METER
AT10ED  .OHMM   : 10 INCH RESISTIVITY TWO FOOT RESOLUTION FROM AIT LOG
AT20ED  .OHMM   : 20 INCH RESISTIVITY TWO FOOT RESOLUTION FROM AIT LOG
AT30ED  .OHMM   : 30 INCH RESISTIVITY TWO FOOT RESOLUTION FROM AIT LOG
AT60ED  .OHMM   : 60 INCH RESISTIVITY TWO FOOT RESOLUTION FROM AIT LOG
AT90ED  .OHMM   : 90 INCH RESISTIVITY TWO FOOT RESOLUTION FROM AIT LOG
CALDED  .MM     : CALIPER FROM DENSITY LOG [ADJ. TO RESISTIVITY LOG]
CALSRED .MM     : CALIPER FROM RESISTIVITY LOG
CALWS   .MM     : CALIPER [CALDED]
CONDWS  .MMHO   : CONDUCTIVITY [1000/DRESWS]
DCORWS  .KG/M3  : DENSITY CORRECTION [DRHOED]
DENWS   .KG/M3  : FORMATION BULK DENSITY [CALC FROM,DPOLSWS,M=2710,F=1000]
DPHILSED.V/V    : DENSITY POROSITY LIMESTONE [M=2710,F=1000] FROM DENSITY LOG  [ADJ. TO RESISTIVITY LOG]
DPHISSED.V/V    : DENSITY POROSITY SANDSTONE [DPHISSED SPL. TO DPHISS1ED @ 2443M] [M=2650,F=1000] FROM DENSITY LOG  [ADJ. TO RESISTIVITY LOG]
DPOLSWS .V/V    : DENSITY POROSITY LIMESTONE [DPHISSED CONVERTED TO LIMESTONE MATRIX,M=2710,F=1000,SPL. TO DPHILSED @2501M]
DRESWS  .OHMM   : DEEP RESISTIVITY [AT90ED SPL. TO IDPHED @2499M]
DRHOED  .KG/M3  : BULK DENSITY CORRECTION FROM DENSITY LOG [ADJ. TO RESISTIVITY LOG]
DTED    .US/M   : DELTA-T FROM SONIC LOG  [ADJ. TO RESISTIVITY LOG]
DTWS    .US/M   : COMPRESSIONAL SONIC [DTED]
GRDED   .GAPI   : GAMMA RAY FROM DENSITY LOG  [ADJ. TO RESISTIVITY LOG]
GRRED   .GAPI   : GAMMA RAY FROM RESISTIVITY LOG
GRSED   .GAPI   : GAMM RAY FROM SONIC LOG [ADJ. TO RESISTIVITY LOG]
GRWS    .GAPI   : GAMMA RAY [GRSED SPL. TO GRDED @428M-476M & SPL. TO GRR1ED @1681M-TD]
HDSED   .MM     : HOLE DIAMETER FROM SONIC LOG [ADJ. TO RESISTIVITY LOG]
IDPHED  .OHMM   : DEEP INDUCTION PHASOR RESISTIVITY FROM PI-SFL LOG
IMPHED  .OHMM   : MEDIUM INDUCTION PHASOR RESISTIVITY FROM PI-SFL LOG
LAED    .MM     : CALIPER FROM SONIC LOG [ADJ. TO RESISTIVITY LOG]
LLDED   .OHMM   : DEEP RESISTIVITY FROM LATEROLOG
LLSED   .OHMM   : SHALLOW RESISTIVITY FROM LATEROLOG
MRESWS  .OHMM   : MEDIUM RESISTIVITY [AT30ED SPL. TO IMPHED @ 2496M]
MSFLED  .OHMM   : MICRO SPHERICALLY FOCUSED RESISTIVITY FROM LATEROLOG
NPOLSWS .V/V    : NEUTRON POROSITY LIMESTONE [NPORSSED CONVERTED TO LIMESTONE MATRIX,SPL. TO NPORLSED @2500M]
NPORLSED.V/V    : NEUTRON POROSITY LIMESTONE FROM DENSITY LOG  [ADJ. TO RESISTIVITY LOG]
NPORSSED.V/V    : NEUTRON POROSITY SANDSTONE [NPORSSED SPL. TO NPORSS1ED @2450M] FROM DENSITY LOG [ADJ. TO RESISTIVITY LOG]
PEFED   .B/E    : PHOTOELECTRIC FACTOR FROM DENSITY LOG  [ADJ. TO RESISTIVITY LOG]
PEFWS   .B/E    : PHOTOELECTRIC FACTOR [PEFED]
RHOBED  .KG/M3  : BULK DENSITY FROM DENSITY LOG  [ADJ. TO RESISTIVITY LOG]
SFLUED  .OHMM   : SHALLOW FOCUSED RESISTIVITY FROM PI-SFL LOG
SPRED   .MV     : SPONTANEOUS POTENTIAL [SPRED SPL. TO SPR1ED @ 2491M] FROM RESISTIVITY LOG
SPWS    .MV     : SPONTANEOUS POTENTIAL [BASELINE 0 MV,SPRED]
SRESWS  .OHMM   : SHALLOW RESISTIVITY [AT10ED SPL. TO SFLUED @2497M]
TENDED  .N      : TENSION FROM DENSITY LOG  [ADJ. TO RESISTIVITY LOG]
TENRED  .N      : TENSION FROM RESISTIVITY LOG
TENSED  .N      : TENSION FROM SONIC LOG [ADJ. TO RESISTIVITY LOG]
~Params ----------------------------------------------------
PD  .                         GL : PERMANENT DATUM
EPD .M                     952.4 : ELEVATION PERMANENT DATUM
LMF .                         KB : LOG MEASURED FROM
DAPD.M                       7.8 : FEET ABOVE PERMANENT DATUM
DMF .                         KB : DRILLING MEASURED FROM
EKB .M                     960.2 : KELLY BUSHING
EGL .M                     952.4 : GROUND LEVEL
DATE.                   04/19/95 : RUN DATE
RUN .                          2 : RUN NUMBER
DD  .M                      4000 : DEPTH DRILLER
DL  .M                      3994 : DEPTH LOGGER
BLI .M                    3992.2 : BOTTOM LOG INTERVAL
TLI .M                      1700 : TOP LOG INTERVAL
CS  .MM                    244.5 : CASING SIZE
CBD .M                    448.42 : CASING BOTTOM DRILLER
CBL .M                     448.5 : CASING BOTTOM LOGGER
BS  .MM                      222 : BIT SIZE
BSD .M                      4000 : BIT SIZE AT DEPTH
DFT .                   GEL CHEM : DRILLING FLUID TYPE
DFD .                       1105 : DRILLING FLUID DENSITY
DFV .                         58 : DRILLING FLUID VISCOSITY
DFPH.                       10.5 : DRILLING FLUID PH
DFL .                        7.4 : DRILLING FLUID LOSS
MSS .                   FLOWLINE : MUD SAMPLE SOURCE
RMS .OHMM                   1.32 : RESISTIVITY MUD SAMPLE
MST .DEGC                     21 : MUD SAMPLE TEMPERATURE
RMF .OHMM                   1.08 : RESISTIVITY MUD FILTRATE SAMPLE
MFST.DEGC                     22 : MUD FILTRATE SAMPLE TEMPERATURE
RMC .OHMM                   0.86 : RESISTIVITY MUD CAKE
MCST.DEGC                     18 : MUD CAKE SAMPLE TEMPERATURE
MFSS.                   MEASURED : MUD FILTRATE SAMPLE SOURCE
MCSS.                   MEASURED : MUD CAKE SAMPLE SOURCE
RMB .OHMM                  0.503 : RESISTIVITY MUD AT BHT
TCS .HRS                     800 : TIME CIRCULATED STOPPED
TLAB.HRS                    1620 : TIME LOGGER AT BOTTOM
LUN .                       2025 : LOGGING UNIT NUMBER
LUL .             GRANDE PRAIRIE : LOGGING UNIT LOCATION
ENGI.                      CORTI : RECORDING ENGINEER
WITN.                    TIMMINS : WITNESSED BY
CLNT.                    A2DTECH : CLIENT CODE
ORIG. 6.5"/100M 16.5"/100M PRINT : ORIGIN OF DATA
UWI .           100012306427W500 : UNIQUE WELL ID
DICO.     A2D Technologies, Inc. : DIGITIZING COMPANY
~Other -----------------------------------------------------
DLL-MSFL/AIT/PI-SFL/ML/CNL-LDT/BCS LOG RAN
RHOBED FROM SMALL SECTION
~ASCII -----------------------------------------------------
# ...
 2850.00000    -999.25    -999.25    -999.25    -999.25    -999.25  395.50950    -999.25  395.50950    9.49700  159.58350 1972.30600    0.43140    -999.25    0.43140  105.29670  159.58350  179.62230  179.62230   18.15310   18.11190   18.22260   18.11190    -999.25  105.29670 1955.90380  367.72230    -999.25    -999.25 1955.90380    -999.25    0.03720    0.03720    -999.25    2.21490    2.21490 1969.64430  184.92000 -146.98100 -197.71980  184.92000 20528.17580 18541.39840 18345.52150
 2900.00000    -999.25    -999.25    -999.25    -999.25    -999.25  221.65620    -999.25  221.65620    6.63340    9.15820 2648.44000    0.03600    -999.25    0.03600  150.75270    9.15820  177.04790  177.04790   11.67180   12.49030   12.54340   12.49030    -999.25  150.75270  110.44470  319.94450    -999.25    -999.25  110.44470    -999.25    0.02360    0.02360    -999.25    3.82050    3.82050 2645.63310 1043.73550 -121.55640 -172.57610 1043.73550 20701.21480 18940.24800 18813.42970
 2950.00000    -999.25    -999.25    -999.25    -999.25    -999.25  265.21510    -999.25  265.21510   15.11490   34.19380 2445.12100    0.15490    -999.25    0.15490   66.16000   34.19380  180.37720  180.37720   40.62530   34.59570   36.29860   34.59570    -999.25   66.16000   45.92060  234.50100    -999.25    -999.25   45.92060    -999.25    0.05960    0.05960    -999.25    3.29710    3.29710 2486.09280  123.58220  -19.42350  -70.72400  123.58220 20785.76170 18694.66020 18429.76560
 3000.00000    -999.25    -999.25    -999.25    -999.25    -999.25  235.79850    -999.25  235.79850    6.54900   47.87760 2571.31900    0.08110    -999.25    0.08110  152.69620   47.87760  169.21500  169.21500   10.57300   11.05840   11.01310   11.05840    -999.25  152.69620   65.45180  364.11730    -999.25    -999.25   65.45180    -999.25    0.02330    0.02330    -999.25    3.32890    3.32890 2576.13550  243.52750 -162.92390 -214.50520  243.52750 20983.85550 19319.29490 19283.38870
 3050.00000    -999.25    -999.25    -999.25    -999.25    -999.25  238.50730    -999.25  238.50730    7.57450   -6.81860 2698.71400    0.00660    -999.25    0.00660  132.02270   -6.81860  173.34760  173.34760   34.93880   32.86220   32.84670   32.86220    -999.25  132.02270   99.77240  250.31050    -999.25    -999.25   99.77240    -999.25    0.03420    0.03420    -999.25    4.45530    4.45530 2699.57570  152.45090  -19.01920  -70.88140  152.45090 20972.70900 19570.26950 19544.90620
 3100.00000    -999.25    -999.25    -999.25    -999.25    -999.25  238.34780    -999.25  238.34780   48.62630    0.29040 2675.80000    0.02000    -999.25    0.02000   20.56500    0.29040  196.69940  196.69940   40.58440   37.55570   37.70870   37.55570    -999.25   20.56500   19.93480  240.79630    -999.25    -999.25   19.93480    -999.25    0.07260    0.07260    -999.25    3.93240    3.93240 2674.62010   29.06190   23.51610  -28.62690   29.06190 21468.40620 19858.42190 19680.23240
 3150.00000    -999.25    -999.25    -999.25    -999.25    -999.25  240.60590    -999.25  240.60590   26.07860    1.12900 2703.50200    0.00380    -999.25    0.00380   38.34560    1.12900  182.80210  182.80210   41.60480   41.64070   41.82260   41.64070    -999.25   38.34560   40.52800  226.52440    -999.25    -999.25   40.52800    -999.25    0.05510    0.05510    -999.25    4.34300    4.34300 2703.79860   51.90080   22.89720  -29.52660   51.90080 21390.64060 19982.13480 19874.99410
 3200.00000    -999.25    -999.25    -999.25    -999.25    -999.25  244.21780    -999.25  244.21780    3.02650   12.34810 2569.60900    0.08210    -999.25    0.08210  330.41200   12.34810  195.78580  195.78580   38.92280   39.94780   40.00010   39.94780    -999.25  330.41200  210.23880  251.69310    -999.25    -999.25  210.23880    -999.25    0.04600    0.04600    -999.25    3.17120    3.17120 2603.69730  290.42700   -9.73510  -64.04510  290.42700 21704.09960 20207.05860 19989.75780
 3250.00000    -999.25    -999.25    -999.25    -999.25    -999.25  223.89090    -999.25  223.89090    0.50000   -7.96790 2702.98900    0.00410    -999.25    0.00410 2000.00000   -7.96790  161.81680  161.81680   14.14220   12.19210   12.12680   12.19210    -999.25 2000.00000  194.13950  291.70460    -999.25    -999.25  194.13950    -999.25   -0.00000   -0.00000    -999.25    4.86630    4.86630 2708.59280 1969.28000 -239.32120 -296.67980 1969.28000 22100.07420 20516.80470 20313.19730
 3300.00000    -999.25    -999.25    -999.25    -999.25    -999.25  220.68160    -999.25  220.68160    1.99200   -0.42010 2730.86200   -0.01220    -999.25   -0.01220  502.00680   -0.42010  159.53600  159.53600   10.73100   11.05640   11.23200   11.05640    -999.25  502.00680  283.08100  328.16260    -999.25    -999.25  283.08100    -999.25    0.01060    0.01060    -999.25    4.23480    4.23480 2730.82030 2000.00000 -202.15300 -262.56020 2000.00000 22491.32810 20751.62890 20665.97070
 3350.00000    -999.25    -999.25    -999.25    -999.25    -999.25  218.83410    -999.25  218.83410    3.11250    3.93230 2720.43100   -0.00610    -999.25   -0.00610  321.28030    3.93230  161.25570  161.25570   11.25400   12.67110   12.86270   12.67110    -999.25  321.28030  134.16200  347.52050    -999.25    -999.25  134.16200    -999.25    0.00900    0.00900    -999.25    4.71580    4.71580 2721.72340 2000.00000 -285.57000 -349.02590 2000.00000 22699.36330 20931.04690 20832.41210
 3400.00000    -999.25    -999.25    -999.25    -999.25    -999.25  217.94630    -999.25  217.94630    0.85860    0.10710 2699.05600    0.00640    -999.25    0.00640 1164.70640    0.10710  166.05460  166.05460   13.53980   14.05330   13.77550   14.05330    -999.25 1164.70640 1273.12500  368.26850    -999.25    -999.25 1273.12500    -999.25    0.02550    0.02550    -999.25    4.03770    4.03770 2697.71880  986.78410 -302.24140 -368.74590  986.78410 22633.51170 20902.04490 20868.54880
 3450.00000    -999.25    -999.25    -999.25    -999.25    -999.25  232.08720    -999.25  232.08720    3.69500    4.95300 2567.21500    0.08350    -999.25    0.08350  270.63300    4.95300  179.19670  179.19670   17.05350   18.84060   18.89560   18.84060    -999.25  270.63300  118.28330  237.34730    -999.25    -999.25  118.28330    -999.25    0.06570    0.06570    -999.25    4.44040    4.44040 2565.21850  277.71840 -156.09600 -225.64910  277.71840 23025.32230 20732.66210 21056.96680
 3500.00000    -999.25    -999.25    -999.25    -999.25    -999.25  231.18430    -999.25  231.18430   22.90820   12.82640 2723.33800   -0.00780    -999.25   -0.00780   43.65240   12.82640  167.45330  167.45330   15.08330   13.49050   13.61910   13.49050    -999.25   43.65240   40.26370  224.84230    -999.25    -999.25   40.26370    -999.25    0.07800    0.07800    -999.25    2.95990    2.95990 2718.31930   64.45260 -142.27790 -214.87960   64.45260 22681.05860 21210.18160 21169.83790
 3550.00000    -999.25    -999.25    -999.25    -999.25    -999.25  229.40080    -999.25  229.40080    2.98900    0.34950 2714.61700   -0.00270    -999.25   -0.00270  334.56560    0.34950  167.76330  167.76330   17.98850   17.66900   17.60080   17.66900    -999.25  334.56560  131.43610  249.86660    -999.25    -999.25  131.43610    -999.25    0.02560    0.02560    -999.25    4.08620    4.08620 2713.40800  576.07560 -105.65140 -181.30180  576.07560 23151.64450 21626.85160 21553.54300
 3600.00000    -999.25    -999.25    -999.25    -999.25    -999.25  244.20590    -999.25  244.20590   45.09990   -1.22270 2712.22300   -0.00130    -999.25   -0.00130   22.17300   -1.22270  179.98940  179.98940   30.04540   27.61620   27.68580   27.61620    -999.25   22.17300   21.68920  244.40140    -999.25    -999.25   21.68920    -999.25    0.05650    0.05650    -999.25    4.52190    4.52190 2709.62040   32.04860  -18.10360  -96.80260   32.04860 23502.05660 21886.94730 21816.86130
 3650.00000    -999.25    -999.25    -999.25    -999.25    -999.25  238.78040    -999.25  238.78040   33.14170   -8.15480 2654.93800    0.03220    -999.25    0.03220   30.17350   -8.15480  197.94130  197.94130   38.42480   36.93020   37.14910   36.93020    -999.25   30.17350   29.46690  234.31680    -999.25    -999.25   29.46690    -999.25    0.08360    0.08360    -999.25    4.60110    4.60110 2654.90010   39.99800   13.29940  -68.44820   39.99800 23468.09180 22324.33400 22209.32420
