~Version ---------------------------------------------------
VERS.      2.0 : CWLS log ASCII Standard -VERSION 2.0
WRAP.       NO : One line per depth step
CREA. 11/13/17 : LAS Creation Date
~Well ------------------------------------------------------
STRT.FT                                  800.0 : START DEPTH
STOP.FT                                11750.0 : STOP DEPTH
STEP.FT                               50.00000 : STEP LENGTH
NULL.                                  -999.25 : NULL VALUE
COMP.               THE CALIFORNIA STANDARD CO : COMPANY
WELL. CALSTAN PAN AM WASKAHIGAN 12-1-64-24 #12 : WELL
FLD .                                          : FIELD
LOC .                                          : LOCATION
CTRY.                                   CANADA : COUNTRY
SRVC.                             Schlumberger : SERVICE COMPANY
DATE.                              23-Oct-1961 : LOGDATE
PROV.                                  Alberta : PROVINCE
UWI .                         100120106424W500 : UNIQUE WELL ID
SLAT.WGS84                            54.51049 : SURFACE LATITUDE
SLON.WGS84                            -117.501 : SURFACE LONGITUDE
~Curve Information -----------------------------------------
DEPT  .FT         : Depth Curve
CALWS .IN         : CALIPER [MCALED]
CILDED.MMHO       : CONDUCTIVITY FROM RESISTIVITY LOG
CONDWS.MMHO       : CONDUCTIVITY [1000/DRESWS]
DRESWS.OHMM       : DEEP RESISTIVITY [1000/CONDWS, IF ILDED<1, ILDED]
DT1ED .US/F       : DELTA TIME (1' SPACING) FROM SONIC LOG [ADJ. TO GRSED]
DTED  .US/F       : COMPRESSIONAL SONIC (3' SPACING) FROM SONIC LOG
DTWS  .US/F       : COMPRESSIONAL SONIC [DTED]
GRS1ED.UgRa-Eq/T  : GAMMA RAY FROM SONIC LOG [ADJ. TO GRSED]
GRSED .UgRa-Eq/T  : GAMMA RAY FROM SONIC LOG
GRWS  .GAPI       : GAMMA RAY [GRSED] [GRWS*16.50]
ILDED .OHMM       : DEEP INDUCTION RESISTIVITY FROM RESISTIVITY LOG
MCALED.IN         : CALIPER FROM RESISTIVITYLOG
SNED  .OHMM       : SHORT NORMAL RESISTIVITY FROMRESISTIVITY LOG
SPRED .MV         : SPONTANEOUS POTENTIAL FROM RESISTIVITY LOG
SPWS  .MV         : SPONTANEOUS POTENTIAL [BASE LINE 0 MV, SPRED]
SRESWS.OHMM       : SHALLOW RESISTIVITY [SNED]
~Params ----------------------------------------------------
PD  .                     GL : PERMANENT DATUM
EPD .FT                 2810 : ELEVATION PERMANENT DATUM
LMF .                     KB : LOG MEASURED FROM
DAPD.FT                   14 : FEET ABOVE PERMANENT DATUM
EKB .FT                 2824 : KELLY BUSHING
EGL .FT                 2810 : GROUND LEVEL
DATE.               10/23/61 : RUN DATE
RUN .                      2 : RUN NUMBER
DD  .FT                11793 : DEPTH DRILLER
DL  .FT                11795 : DEPTH LOGGER
BLI .FT                11794 : BOTTOM LOG INTERVAL
TLI .FT                 7600 : TOP LOG INTERVAL
BS  .IN                    9 : BIT SIZE
BSD .FT                11793 : BIT SIZE AT DEPTH
DFT .                    GEL : DRILLING FLUID TYPE
DFD .                   10.3 : DRILLING FLUID DENSITY
DFV .                    250 : DRILLING FLUID VISCOSITY
DFPH.                     10 : DRILLING FLUID PH
DFL .                    8.1 : DRILLING FLUID LOSS
RMS .OHMM               2.66 : RESISTIVITY MUD SAMPLE
MST .DEGF                 64 : MUD SAMPLE TEMPERATURE
RMF .OHMM               1.59 : RESISTIVITY MUD FILTRATE SAMPLE
MFST.DEGF                 80 : MUD FILTRATE SAMPLE TEMPERATURE
RMC .OHMM               1.89 : RESISTIVITY MUD CAKE
MCST.DEGF                 78 : MUD CAKE SAMPLE TEMPERATURE
TCS .HRS                   3 : TIME CIRCULATED STOPPED
LUN .                   1534 : LOGGING UNIT NUMBER
LUL .                     WC : LOGGING UNIT LOCATION
ENGI.                   GRAY : RECORDING ENGINEER
WITN.                BORWICK : WITNESSED BY
CLNT.                A2DTECH : CLIENT CODE
ORIG.            2" 5" PRINT : ORIGIN OF DATA
UWI .       100120106424W500 : UNIQUE WELL ID
DICO. A2D Technologies, Inc. : DIGITIZING COMPANY
~Other -----------------------------------------------------
~ASCII -----------------------------------------------------
# ...
 5100.00000   11.14440   34.36770   34.17540   29.26080    -999.25   77.56200   77.56200    -999.25    4.24890   70.10680   29.26080   11.14440   11.15540  -72.67320   -5.02090   11.15540
 5150.00000   11.79510   90.14260   87.68470   11.40450    -999.25   82.89350   82.89350    -999.25    4.40510   72.68420   11.40450   11.79510    8.69490  -71.94290   -4.81320    8.69490
 5200.00000   10.63470   91.20190   89.57460   11.16390    -999.25   74.22640   74.22640    5.65170    4.49770   74.21290   11.16390   10.63470   12.17180  -72.32020   -5.71570   12.17180
 5250.00000   11.11700   97.77100  100.26270    9.97380    -999.25   81.78080   81.78080    6.37230    4.85240   80.06460    9.97380   11.11700   11.79300  -71.24360   -5.16870   11.79300
 5300.00000   11.84470  109.67770  112.81840    8.86380    -999.25   80.70800   80.70800    -999.25    5.02490   82.91080    8.86380   11.84470    9.32520  -68.34980   -2.81060    9.32520
 5350.00000   11.28770  110.12550  111.25330    8.98850    -999.25   75.90850   75.90850    -999.25    4.08700   67.43550    8.98850   11.28770    9.95350  -69.77290   -4.76950    9.95350
 5400.00000   12.25100   92.38830   94.74990   10.55410    -999.25   79.25100   79.25100    -999.25    4.59870   75.87860   10.55410   12.25100    8.66340  -66.93560   -2.46800    8.66340
 5450.00000   12.30720  100.23370  104.10720    9.60650    -999.25   82.80860   82.80860    -999.25    4.58140   75.59230    9.60650   12.30720    8.87640  -65.91100   -1.98180    8.87640
 5500.00000   13.80860  107.39730  107.92960    9.26530    -999.25   85.58000   85.58000    -999.25    4.58450   75.64430    9.26530   13.80860    7.85510  -66.51540   -3.11930    7.85510
 5550.00000   13.52880  210.47280  200.84350    4.97900    -999.25   96.88150   96.88150    -999.25    5.21620   86.06730    4.97900   13.52880    4.82280  -66.63090   -3.77050    4.82280
 5600.00000   10.67100  122.80280  123.81910    8.07630    -999.25  103.24250  103.24250    -999.25   10.97850  181.14530    8.07630   10.67100    9.70620  -67.33900   -5.01440    9.70620
 5650.00000   13.31110  209.69900  210.73040    4.74540    -999.25   96.70750   96.70750    -999.25    4.79570   79.12910    4.74540   13.31110    4.62310  -65.60750   -3.81860    4.62310
 5700.00000   13.12070  131.18890  125.89960    7.94580    -999.25   88.32880   88.32880    -999.25    4.13900   68.29270    7.94580   13.12070    6.62590  -65.53560   -4.28510    6.62590
 5750.00000   13.16500  147.59950  145.79380    6.85900    -999.25   86.95450   86.95450    -999.25    4.32580   71.37570    6.85900   13.16500    7.87570  -64.95150   -4.23410    7.87570
 5800.00000   12.07210   77.76610   79.91180   12.51380    -999.25   77.28350   77.28350    -999.25    4.73350   78.10280   12.51380   12.07210   14.61610  -65.75950   -5.57790   14.61610
 5850.00000   10.82200   57.46840   57.83390   17.29090    -999.25   72.44100   72.44100    -999.25    3.13280   51.69120   17.29090   10.82200   23.63790  -79.79770  -20.15180   23.63790
 5900.00000   12.81790   39.92970   39.51320   25.30800    -999.25   74.59150   74.59150    -999.25    3.26880   53.93520   25.30800   12.81790   23.57220  -68.17570   -9.06560   23.57220
 5950.00000   10.56610  100.14710  101.21130    9.88470    -999.25   74.48830   74.48830    -999.25    3.53690   58.35800    9.88470   10.56610   13.57200  -66.95840   -8.38670   13.57200
 6000.00000   10.22920   57.22730   54.20880   18.44720    -999.25   66.77250   66.77250    -999.25    3.08290   50.86780   18.44720   10.22920   21.37730  -70.09580  -12.85370   21.37730
 6050.00000   12.12120   76.18120   75.72370   13.20590    -999.25   74.67630   74.67630    -999.25    3.94470   65.08760   13.20590   12.12120   14.29840  -64.27490  -10.31540   14.29840
 6100.00000   13.07910   63.95530   65.40010   15.29050    -999.25   73.40780   73.40780    -999.25    2.64540   43.64910   15.29050   13.07910   20.13740  -90.21110  -39.53420   20.13740
 6150.00000   11.55340   82.31080   82.67200   12.09600    -999.25   81.87350   81.87350    -999.25    3.87590   63.95240   12.09600   11.55340   21.43060  -51.61940   -4.19020   21.43060
 6200.00000   13.42210   65.95490   63.11860   15.87720    -999.25   82.88390   82.88390    -999.25    4.09900   67.63430   15.87720   13.42210   25.53640  -55.20220  -10.37280   25.53640
 6250.00000   10.11410   60.42620   60.25260   16.59680    -999.25   68.84700   68.84700    -999.25    2.80480   46.27920   16.59680   10.11410   19.01520  -49.16420   -6.90870   19.01520
 6300.00000   11.67490   61.07270   61.38890   16.28960    -999.25   71.94680   71.94680    -999.25    4.25530   70.21250   16.28960   11.67490   19.65380  -47.75340   -8.08470   19.65380
 6350.00000   14.94170   66.12850   67.66450   14.77880    -999.25  117.84700  117.84700    -999.25    2.91770   48.14200   14.77880   14.94170   23.58210  -54.46950  -17.38770   23.58210
 6400.00000   11.53790   53.18190   53.44220   18.71180    -999.25   70.81700   70.81700    -999.25    3.37050   55.61320   18.71180   11.53790   22.00760  -47.13890  -12.64390   22.00760
 6450.00000   12.92430   52.26760   49.36800   20.41040    -999.25  107.63940  107.63940    -999.25    2.47390   40.82020   20.41040   12.92430   26.18150  -41.78320   -9.88800   26.18150
 6500.00000   13.03730   94.88410   96.66410   10.34510    -999.25   73.20950   73.20950    -999.25    3.07800   50.78700   10.34510   13.03730   12.88770  -56.22490  -26.90360   12.88770
 6550.00000   12.94830   82.85390   84.39030   11.84970    -999.25   73.08450   73.08450    -999.25    3.15770   52.10210   11.84970   12.94830   14.74180  -48.76900  -22.03450   14.74180
 6600.00000   10.31810   53.48330   53.45850   18.70610    -999.25   70.06020   70.06020    -999.25    3.26960   53.94840   18.70610   10.31810   19.63150  -35.72860  -11.58100   19.63150
 6650.00000   11.40090   65.28860   67.17450   14.88660    -999.25   72.31770   72.31770    -999.25    4.19690   69.24890   14.88660   11.40090   17.28140  -24.38110   -2.82030   17.28140
 6700.00000   12.01290   68.88180   70.20110   14.24630    -999.25   69.96120   69.96120    -999.25    2.74620   45.31230   14.24630   12.01290   16.45690  -29.84660   -7.04720   16.45690
 6750.00000   11.67030   46.80450   45.50090   21.97760    -999.25   68.03180   68.03180    -999.25    3.06940   50.64510   21.97760   11.67030   22.55030  -40.97670  -16.95110   22.55030
 6800.00000   10.95460   35.07140   31.26930   31.98020    -999.25   67.67230   67.67230    -999.25    3.86790   63.82040   31.98020   10.95460   33.64580  -41.07670  -15.81880   33.64580
 6850.00000   12.54220   26.92890   25.26710   39.57710    -999.25   67.98480   67.98480    -999.25    1.99900   32.98350   39.57710   12.54220   37.94170  -54.56550  -28.07520   37.94170
 6900.00000   12.03990   40.57160   37.01650   27.01500    -999.25   67.16520   67.16520    -999.25    3.29680   54.39720   27.01500   12.03990   29.61510  -40.02620  -12.30350   29.61510
 6950.00000   11.24240   49.27600   46.73230   21.39990    -999.25   66.34970   66.34970    -999.25    4.75440   78.44760   21.39990   11.24240   28.12040  -40.18670  -11.22550   28.12040
 7000.00000   11.41350   57.69840   56.62550   17.65990    -999.25   64.33830   64.33830    -999.25    3.83360   63.25440   17.65990   11.41350   18.31960  -41.04640  -10.85900   18.31960
 7050.00000    8.26940  140.18230  136.58780    7.32130    -999.25   71.93080   71.93080    -999.25    1.60850   26.54030    7.32130    8.26940   29.42360 -109.30190  -77.88210   29.42360
 7100.00000   10.11660   38.40170   38.00550   26.31200    -999.25   65.37900   65.37900    -999.25    3.00880   49.64520   26.31200   10.11660   27.95820  -39.69430   -8.44600   27.95820
 7150.00000    9.59610  100.06000  102.62090    9.74460    -999.25   71.31250   71.31250    -999.25    1.81390   29.92930    9.74460    9.59610   27.52880 -103.97340  -75.28710   27.52880
 7200.00000    8.27240  193.88050  192.49360    5.19610    -999.25   75.28990   75.28990    -999.25    1.61590   26.66150    5.19610    8.27240   26.14690 -121.52670  -95.41520   26.14690
