~Version ---------------------------------------------------
VERS.      2.0 : CWLS log ASCII Standard -VERSION 2.0
WRAP.       NO : One line per depth step
CREA. 10/26/17 : LAS Creation Date
~Well ------------------------------------------------------
STRT.FT                        1500.0 : START DEPTH
STOP.FT                       15000.0 : STOP DEPTH
STEP.FT                      50.00000 : STEP LENGTH
NULL.                         -999.25 : NULL VALUE
COMP.         UNO-TEX PETROLEUM CORP. : COMPANY
WELL. UNO-TEX NUMAC ANCONA 7-25-40-12 : WELL
FLD .                                 : FIELD
LOC .                                 : LOCATION
CTRY.                          CANADA : COUNTRY
SRVC.                         Unknown : SERVICE COMPANY
DATE.                     31-Dec-1970 : LOGDATE
PROV.                         Alberta : PROVINCE
UWI .                100072504012W500 : UNIQUE WELL ID
SLAT.WGS84                   52.47006 : SURFACE LATITUDE
SLON.WGS84                  -115.5904 : SURFACE LONGITUDE
~Curve Information -----------------------------------------
DEPT    .FT    : Depth Curve
CALDED  .IN    : CALIPER FROM DENSITY LOG [ADJ. TO RESISTIVITY LOG]
CALSED  .IN    : CALIPER FROM SONIC LOG [ADJ. TO RESISTIVITY LOG]
CALWS   .IN    : CALIPER [CALSED]
CILDED  .MMHO  : CONDUCTIVITY FROM RESISTIVITY LOG
DCORED  .G/C3  : DENSITY CORRECTION  FROM DENSITY LOG [ADJ. TO RESISTIVITY LOG]
DCORWS  .G/C3  : DENSITY CORRECTION [DCORED]
DENWS   .G/C3  : FORMATION BULK DENSITY [RHOBED]
DPHILSED.V/V   : DENSITY POROSITY LIMESTONE [M=2.71, F=1.00] FROM DENSITY LOG [ADJ. TO RESISTIVITY LOG]
DPOLSWS .V/V   : DENSITY POROSITY LIMESTONE [CALC. FROM DENWS,M=2.71, F=1.00]
DRESWS  .OHMM  : DEEP RESISTIVITY [1000/CILDED IF ILDED <=1, ILDED, SPL. TO ILDED @ 10781']
DTED    .US/F  : DELTA TIME FROM SONIC LOG [ADJ. TO RESISTIVITY LOG]
DTWS    .US/F  : COMPRESSIONAL SONIC [DTED]
GRDED   .GAPI  : GAMMA RAY FROM DENSITY LOG [ADJ. TO RESISTIVITY LOG]
GRSED   .GAPI  : GAMMA RAY FROM SONIC LOG [ADJ. TO RESISTIVITY LOG]
GRWS    .GAPI  : GAMMA RAY [GRDED]
ILDED   .OHMM  : DEEP INDUCTION RESISTIVITY FROM RESISTIVITY LOG
ILMED   .OHMM  : MEDIUM INDUCTION RESISTIVITY FROM RESISTIVITY LOG
LL8ED   .OHMM  : LATEROLOG-8 RESISTIVITY FROM RESISTIVITY LOG
MRESWS  .OHMM  : MEDIUM RESISTIVITY [ILMED]
RHOBED  .G/C3  : BULK DENSITY FROM DENSITY LOG [ADJ. TO RESISTIVITY LOG]
SNED    .OHMM  : SHORT NORMAL 16" FROM RESISTIVITY LOG
SPRED   .MV    : SPONTANEOUS POTENTIAL FROM RESISTIVITY LOG
SPWS    .MV    : SPONTANEOUS POTENTIAL [BASELINE 0 MV, SPRED]
SRESWS  .OHMM  : SHALLOW RESISTIVITY [LL8ED]
~Params ----------------------------------------------------
PD  .                     GL : PERMANENT DATUM
EPD .FT                 3930 : ELEVATION PERMANENT DATUM
LMF .                     KB : LOG MEASURED FROM
DAPD.FT                   19 : FEET ABOVE PERMANENT DATUM
EKB .FT                 3949 : KELLY BUSHING
EGL .FT                 3930 : GROUND LEVEL
DATE.               12/31/70 : RUN DATE
RUN .                      2 : RUN NUMBER
DD  .FT                15010 : DEPTH DRILLER
DL  .FT                15009 : DEPTH LOGGER
BLI .FT                15003 : BOTTOM LOG INTERVAL
TLI .FT                13473 : TOP LOG INTERVAL
CBD .FT                13473 : CASING BOTTOM DRILLER
CBL .FT                13473 : CASING BOTTOM LOGGER
BS  .IN                5.968 : BIT SIZE
BSD .FT                15010 : BIT SIZE AT DEPTH
DFT .                    GEL : DRILLING FLUID TYPE
DFD .                   11.3 : DRILLING FLUID DENSITY
DFV .                     55 : DRILLING FLUID VISCOSITY
DFPH.                   10.5 : DRILLING FLUID PH
DFL .                   11.5 : DRILLING FLUID LOSS
MSS .               FLOWLINE : MUD SAMPLE SOURCE
RMS .OHMM               0.84 : RESISTIVITY MUD SAMPLE
MST .DEGF                 68 : MUD SAMPLE TEMPERATURE
RMF .OHMM               0.47 : RESISTIVITY MUD FILTRATE SAMPLE
MFST.DEGF                 70 : MUD FILTRATE SAMPLE TEMPERATURE
RMC .OHMM               0.13 : RESISTIVITY MUD CAKE
MCST.DEGF                259 : MUD CAKE SAMPLE TEMPERATURE
TCS .HRS                   3 : TIME CIRCULATED STOPPED
LUN .                7002 RD : LOGGING UNIT NUMBER
ENGI.                 TALBOT : RECORDING ENGINEER
WITN.        BINNIE LEVEILLE : WITNESSED BY
CLNT.                A2DTECH : CLIENT CODE
ORIG.            2" 5" PRINT : ORIGIN OF DATA
UWI .       100072504012W500 : UNIQUE WELL ID
DICO. A2D Technologies, Inc. : DIGITIZING COMPANY
~Other -----------------------------------------------------
DIL-FDC-BHC TOO RUN
SP NOT RECORDED DUE TO SERIOUS DRIFTING HENCE BOTTOM PORTION DELETED
SP BASELINE QUESTIONABLE
SOME RESISTIVITY, SONIC CURVES ARE IN SMALL SCALE AND SOME ARE AT LARGE SCALE AT DIFFERENT DEPTHS
AND DCORED TOP TO BOTTOM FROM SMALL SECTION
~ASCII -----------------------------------------------------
# ...
 11650.00000    8.84430    9.04010    9.04010    -999.25   -0.01800   -0.01800    2.79470   -0.06960   -0.04950  100.16330   52.79240   52.79240   50.83790   44.05730   50.83790  100.16330  296.70250 1211.32400  296.70250    2.79470    -999.25    -999.25    -999.25 1211.32400
 11700.00000    9.67980    9.12580    9.12580    -999.25   -0.21030   -0.21030    2.53580    0.09850    0.10190  106.56820   56.07470   56.07470   49.91150   49.16180   49.91150  106.56820   64.86980  168.15140   64.86980    2.53580    -999.25    -999.25    -999.25  168.15140
 11750.00000    8.26150    8.99010    8.99010    -999.25   -0.03080   -0.03080    2.65230    0.02940    0.03380  187.47440   49.18240   49.18240    6.02010    5.26650    6.02010  187.47440  128.19870  261.90250  128.19870    2.65230    -999.25    -999.25    -999.25  261.90250
 11800.00000    8.43710    8.82950    8.82950    -999.25   -0.09210   -0.09210    2.66680    0.01710    0.02530   69.26590   50.19130   50.19130    7.61840    5.36790    7.61840   69.26590   62.95480  165.30200   62.95480    2.66680    -999.25    -999.25    -999.25  165.30200
 11850.00000    9.42580    8.97580    8.97580    -999.25   -0.13750   -0.13750    2.68790    0.00730    0.01290  375.06000   49.29480   49.29480    8.06030    6.21660    8.06030  375.06000 1079.69800  900.49810 1079.69800    2.68790    -999.25    -999.25    -999.25  900.49810
 11900.00000   12.07870    9.75650    9.75650    -999.25   -0.10300   -0.10300    2.08310    0.30040    0.36660   12.15330   53.86440   53.86440   39.90920   31.66830   39.90920   12.15330   16.08390   15.82150   16.08390    2.08310    -999.25    -999.25    -999.25   15.82150
 11950.00000    8.53790    9.04090    9.04090    -999.25   -0.04200   -0.04200    2.77190   -0.04490   -0.03620  162.76260   51.50910   51.50910   41.28140   36.19180   41.28140  162.76260  137.75130  150.30250  137.75130    2.77190    -999.25    -999.25    -999.25  150.30250
 12000.00000    8.75250    8.87220    8.87220    -999.25   -0.07040   -0.07040    2.69650    0.00010    0.00790 1447.90120   51.36890   51.36890   10.06480    9.60500   10.06480 1447.90120  425.07390  439.85600  425.07390    2.69650    -999.25    -999.25    -999.25  439.85600
 12050.00000    8.96540    8.87970    8.87970    -999.25   -0.22280   -0.22280    2.70670   -0.01020    0.00190  485.94280   51.36180   51.36180   23.51170   20.55000   23.51170  485.94280  377.58990 1136.64100  377.58990    2.70670    -999.25    -999.25    -999.25 1136.64100
 12100.00000    9.76820    9.32060    9.32060    -999.25   -0.19200   -0.19200    2.42590    0.16610    0.16610  216.35000   50.43530   50.43530   28.69690   25.13060   28.69690  216.35000  817.63330  953.52630  817.63330    2.42590    -999.25    -999.25    -999.25  953.52630
 12150.00000    8.29440    8.72180    8.72180    -999.25    0.00220    0.00220    2.74210   -0.03420   -0.01880  166.43250   52.73510   52.73510   24.67450   25.22040   24.67450  166.43250  301.54140  243.32870  301.54140    2.74210    -999.25    -999.25    -999.25  243.32870
 12200.00000    8.28960    8.62210    8.62210    -999.25   -0.01370   -0.01370    2.75010   -0.03480   -0.02350  150.30130   53.00280   53.00280   30.17590   30.06690   30.17590  150.30130  181.40680  211.73400  181.40680    2.75010    -999.25    -999.25    -999.25  211.73400
 12250.00000    8.22520    8.66570    8.66570    -999.25   -0.03650   -0.03650    2.73540   -0.02450   -0.01490 1105.37650   51.45230   51.45230   23.01440   18.84240   23.01440 1105.37650 1612.78600  916.14330 1612.78600    2.73540    -999.25    -999.25    -999.25  916.14330
 12300.00000    8.30040    8.65010    8.65010    -999.25   -0.02450   -0.02450    2.69170   -0.00050    0.01070 1349.73730   52.67980   52.67980   24.08870   23.63730   24.08870 1349.73730 1508.57760  554.29080 1508.57760    2.69170    -999.25    -999.25    -999.25  554.29080
 12350.00000    8.37400    8.70750    8.70750    -999.25   -0.01110   -0.01110    2.73080   -0.02040   -0.01220  266.71540   54.60890   54.60890   34.70610   32.94590   34.70610  266.71540  157.51910  195.51090  157.51910    2.73080    -999.25    -999.25    -999.25  195.51090
 12400.00000    8.34730    8.68300    8.68300    -999.25   -0.01670   -0.01670    2.70340   -0.00360    0.00390   39.64110   56.90760   56.90760   60.58410   58.09630   60.58410   39.64110   34.24240   35.50880   34.24240    2.70340    -999.25    -999.25    -999.25   35.50880
 12450.00000   10.26470    8.69960    8.69960    -999.25   -0.10720   -0.10720    2.54810    0.09180    0.09470 1548.45970   48.99600   48.99600   13.89280   13.79050   13.89280 1548.45970 1680.68580 1466.40540 1680.68580    2.54810    -999.25    -999.25    -999.25 1466.40540
 12500.00000   10.47490    9.55820    9.55820    -999.25   -0.08440   -0.08440    2.37370    0.20060    0.19670   50.16900   50.16530   50.16530    9.16190    8.35740    9.16190   50.16900 1824.40810  682.49470 1824.40810    2.37370    -999.25    -999.25    -999.25  682.49470
 12550.00000    9.84750    8.90590    8.90590    -999.25   -0.16070   -0.16070    2.43730    0.15950    0.15950  490.58700   51.22620   51.22620    8.63810    9.55200    8.63810  490.58700 1770.76270  570.65720 1770.76270    2.43730    -999.25    -999.25    -999.25  570.65720
 12600.00000    8.83760    8.76240    8.76240    -999.25   -0.18600   -0.18600    2.78620   -0.04460   -0.04460 1095.44980   48.48130   48.48130   12.06530    8.69930   12.06530 1095.44980 1653.34970 1418.98800 1653.34970    2.78620    -999.25    -999.25    -999.25 1418.98800
 12650.00000    9.99950    8.80610    8.80610    -999.25   -0.01490   -0.01490    2.49280    0.12290    0.12700  151.34190   49.36310   49.36310   12.06580   11.36890   12.06580  151.34190  405.91420  481.33420  405.91420    2.49280    -999.25    -999.25    -999.25  481.33420
 12700.00000   11.37650    9.37100    9.37100    -999.25   -0.12450   -0.12450    2.13000    0.29230    0.33920   49.52200   51.82550   51.82550   12.03510    9.94460   12.03510   49.52200  413.42040  946.72160  413.42040    2.13000    -999.25    -999.25    -999.25  946.72160
 12750.00000    8.14170    8.83180    8.83180    -999.25   -0.14700   -0.14700    2.59610    0.06580    0.06660  302.79600   52.34620   52.34620   11.64750   11.50110   11.64750  302.79600 1727.17610  287.48110 1727.17610    2.59610    -999.25    -999.25    -999.25  287.48110
 12800.00000    7.29800    7.27960    7.27960    -999.25   -0.11570   -0.11570    2.55900    0.08520    0.08830  109.16970   49.57470   49.57470    9.35990    6.45140    9.35990  109.16970   61.47810  198.54800   61.47810    2.55900    -999.25    -999.25    -999.25  198.54800
 12850.00000    7.62600    7.80330    7.80330    -999.25   -0.08660   -0.08660    2.34920    0.21110    0.21100  120.58060   47.74590   47.74590   13.02320   10.66390   13.02320  120.58060 1164.18540 1254.61780 1164.18540    2.34920    -999.25    -999.25    -999.25 1254.61780
 12900.00000   10.76060   10.91240   10.91240    -999.25   -0.10500   -0.10500    2.24130    0.28160    0.27410   35.99150   55.06280   55.06280   13.68180   13.59060   13.68180   35.99150  259.53520  167.89470  259.53520    2.24130    -999.25    -999.25    -999.25  167.89470
 12950.00000   10.80150    9.13130    9.13130    -999.25   -0.16290   -0.16290    2.47480    0.13140    0.13750  533.97710   48.54820   48.54820   11.53650   10.47470   11.53650  533.97710 1680.05930 1478.35210 1680.05930    2.47480    -999.25    -999.25    -999.25 1478.35210
 13000.00000    8.43350    8.53450    8.53450    -999.25   -0.12300   -0.12300    2.58180    0.06510    0.07500   63.29720   57.69760   57.69760    9.54200    7.54950    9.54200   63.29720   80.69640  134.88520   80.69640    2.58180    -999.25    -999.25    -999.25  134.88520
 13050.00000   10.74800    9.31520    9.31520    -999.25   -0.13020   -0.13020    2.55280    0.09190    0.09190 1785.43590   49.62050   49.62050   12.06070    9.92690   12.06070 1785.43590 1640.99120 1237.74340 1640.99120    2.55280    -999.25    -999.25    -999.25 1237.74340
