~Version ---------------------------------------------------
VERS.      2.0 : CWLS log ASCII Standard -VERSION 2.0
WRAP.       NO : One line per depth step
CREA. 09/25/17 : LAS Creation Date
~Well ------------------------------------------------------
STRT.FT                      300.0 : START DEPTH
STOP.FT                    10650.0 : STOP DEPTH
STEP.FT                   50.00000 : STEP LENGTH
NULL.                      -999.25 : NULL VALUE
COMP.     CHEVRON STANDARD LIMITED : COMPANY
WELL. CHEVRON BA KAYBOBS 6-6-62-19 : WELL
FLD .                              : FIELD
LOC .                              : LOCATION
CTRY.                       CANADA : COUNTRY
SRVC.                     P.G.A.C. : SERVICE COMPANY
DATE.                  16-Mar-1967 : LOGDATE
PROV.                      Alberta : PROVINCE
UWI .             100060606219W500 : UNIQUE WELL ID
SLAT.WGS84                54.33243 : SURFACE LATITUDE
SLON.WGS84               -116.8409 : SURFACE LONGITUDE
~Curve Information -----------------------------------------
DEPT  .FT    : Depth Curve
CALWS .IN    : CALIPER [MCALED]
CILDED.MMHO  : CONDUCTIVITY FROM RESISTIVITY LOG
CONDWS.MMHO  : CONDUCTIVITY [1000/DRESWS]
DRESWS.OHMM  : DEEP RESISTIVITY [1000/CILDED IF ILDED<1, ILDED]
DT1ED .US/F  : DELTA TIME (DUAL RECIEVER R1R2=1') FROM SONIC LOG [ADJ. TO RESISTIVITY LOG]
DT22ED.US/F  : DELTA TIME (DUAL RECIEVER R1R2=1') FROM SONIC LOG [ADJ. TO RESISTIVITY LOG]
DTED  .US/F  : DELTA TIME (DUAL RECIEVER R1R2=3') FROM SONIC LOG [ADJ. TO RESISTIVITY LOG]
DTWS  .US/F  : COMPRESSIONAL SONIC [DTED SPL. TO DT2ED @2148.11M]
GRED  .GAPI  : GAMMA RAY FROM CBL LOG [ADJ. TO RESISTIVITY LOG]
GRSED .GAPI  : GAMMA RAY FROM SONIC LOG [ADJ. TO RESISTIVITY LOG]
GRWS  .GAPI  : GAMMA RAY [GRED SPL. TO GRSED @ (118' and 1099')
ILDED .OHMM  : DEEP INDUCTION RESISTIVITY FROM RESISTIVITY LOG
MCALED.IN    : CALIPER FROM MICROLOG [ADJ. TO RESISTIVITY LOG]
SNED  .OHMM  : 16 INCH SHORT NORMAL RESISTIVITY FROM RESISTIVITY LOG
SPRED .MV    : SPONTANEOUS POTENTIAL FROM RESISTIVITY LOG
SPWS  .MV    : SPONTANEOUS POTENTIAL [BASELINE 0 MV, SPRED]
SRESWS.OHMM  : SHALLOW RESISTIVITY [SNED]
~Params ----------------------------------------------------
PD  .                     GL : PERMANENT DATUM
EPD .FT               1839.3 : ELEVATION PERMANENT DATUM
LMF .                    KDB : LOG MEASURED FROM
DAPD.FT                 16.7 : FEET ABOVE PERMANENT DATUM
DMF .                    KDB : DRILLING MEASURED FROM
EKB .FT                 2856 : KELLY BUSHING
EGL .FT               2839.3 : GROUND LEVEL
DATE.               03/16/67 : RUN DATE
RUN .                      1 : RUN NUMBER
DD  .FT                10641 : DEPTH DRILLER
DL  .FT                10655 : DEPTH LOGGER
BLI .FT                10649 : BOTTOM LOG INTERVAL
TLI .FT                 1121 : TOP LOG INTERVAL
CS  .IN                10.75 : CASING SIZE
CBD .FT                 1120 : CASING BOTTOM DRILLER
CBL .FT                 1121 : CASING BOTTOM LOGGER
BS  .IN                    9 : BIT SIZE
BSD .FT                10641 : BIT SIZE AT DEPTH
DFT .     SUPER COL CHEM MUD : DRILLING FLUID TYPE
DFD .                   10.1 : DRILLING FLUID DENSITY
DFV .                     72 : DRILLING FLUID VISCOSITY
DFPH.                     10 : DRILLING FLUID PH
DFL .                    9.9 : DRILLING FLUID LOSS
MSS .             CIRCULATED : MUD SAMPLE SOURCE
RMS .OHMM               1.53 : RESISTIVITY MUD SAMPLE
MST .DEGF                 40 : MUD SAMPLE TEMPERATURE
RMF .OHMM                1.4 : RESISTIVITY MUD FILTRATE SAMPLE
MFST.DEGF                 40 : MUD FILTRATE SAMPLE TEMPERATURE
RMC .OHMM                2.3 : RESISTIVITY MUD CAKE
MCST.DEGF                 40 : MUD CAKE SAMPLE TEMPERATURE
MFSS.                      M : MUD FILTRATE SAMPLE SOURCE
MCSS.                      M : MUD CAKE SAMPLE SOURCE
RMB .OHMM                1.2 : RESISTIVITY MUD AT BHT
TCS .HRS                   4 : TIME CIRCULATED STOPPED
LUN .                 ES 131 : LOGGING UNIT NUMBER
LUL .                     RD : LOGGING UNIT LOCATION
ENGI.                  MANLY : RECORDING ENGINEER
WITN.        MCMILLAN KLCIAK : WITNESSED BY
CLNT.                A2DTECH : CLIENT CODE
ORIG.            2" 5" PRINT : ORIGIN OF DATA
UWI .       100060606219W500 : UNIQUE WELL ID
DICO. A2D Technologies, Inc. : DIGITIZING COMPANY
~Other -----------------------------------------------------
~ASCII -----------------------------------------------------
# ...
 4400.00000   13.37440  127.60630  127.66010    7.83330    -999.25    -999.25   90.00740   90.00740   78.14630   98.82090   98.82090    7.83330   13.37440    9.28480  -64.14260   -4.82030    9.28480
 4450.00000   13.30180  118.27290  118.37120    8.44800    -999.25    -999.25   87.42360   87.42360   72.40730   98.60260   98.60260    8.44800   13.30180   10.04010  -64.02480   -4.84400   10.04010
 4500.00000   14.78450  128.04240  128.01310    7.81170    -999.25    -999.25   87.77330   87.77330   74.42010   93.99490   93.99490    7.81170   14.78450    8.72980  -63.59990   -4.55970    8.72980
 4550.00000   13.94900  127.25380  127.26690    7.85750    -999.25    -999.25   81.65760   81.65760   75.10640   94.09560   94.09560    7.85750   13.94900    9.45870  -64.21580   -5.31620    9.45870
 4600.00000   13.77500  156.38130  156.44800    6.39190    -999.25    -999.25   94.06480   94.06480   78.58380   97.58680   97.58680    6.39190   13.77500    7.93050  -63.05640   -4.29830    7.93050
 4650.00000   13.14500  155.03620  145.98970    6.84980    -999.25    -999.25   96.83000   96.83000   75.77610  103.07830  103.07830    6.84980   13.14500    8.48310  -62.59120   -3.97370    8.48310
 4700.00000   12.24730  138.23300  138.25330    7.23310    -999.25    -999.25   97.33180   97.33180  101.44670  108.08180  108.08180    7.23310   12.24730    9.57860  -62.37360   -3.89760    9.57860
 4750.00000   12.42590  126.42260  126.39190    7.91190    -999.25    -999.25   94.66910   94.66910   78.14130  107.27450  107.27450    7.91190   12.42590   10.61690  -62.48010   -4.14470   10.61690
 4800.00000   11.30170  121.42050  121.42850    8.23530    -999.25    -999.25   93.35730   93.35730   74.96050  108.55920  108.55920    8.23530   11.30170   11.26530  -63.61290   -5.41810   11.26530
 4850.00000   10.32190   90.96660   90.97690   10.99180    -999.25    -999.25   99.48420   99.48420   86.33820  111.91630  111.91630   10.99180   10.32190   16.20150  -62.29100   -4.23770   16.20150
 4900.00000   10.86410  104.57290  104.61020    9.55930    -999.25    -999.25   97.11170   97.11170   96.05890  115.07260  115.07260    9.55930   10.86410   13.76610  -61.48180   -3.56910   13.76610
 4950.00000   13.70440  132.58270  132.49070    7.54770    -999.25    -999.25   98.57400   98.57400   71.46370  106.62390  106.62390    7.54770   13.70440   10.38610  -60.86920   -3.09800   10.38610
 5000.00000   11.99850   71.52590   68.87430   14.51920    -999.25    -999.25  104.85290  104.85290   94.46010  121.14730  121.14730   14.51920   11.99850   24.70210  -62.41100   -4.78040   24.70210
 5050.00000   11.93930  186.96650  186.83560    5.35230    -999.25    -999.25   94.37320   94.37320   60.79180   95.03750   95.03750    5.35230   11.93930    6.50710  -63.09500   -5.60500    6.50710
 5100.00000   13.08280  192.90670  175.41400    5.70080    -999.25    -999.25  100.46290  100.46290   59.77220   96.32920   96.32920    5.70080   13.08280    6.60610  -62.04150   -4.69300    6.60610
 5150.00000   13.20010  169.25710  159.85420    6.25570    -999.25    -999.25   92.59380   92.59380   66.62690   96.73280   96.73280    6.25570   13.20010    6.95460  -63.03800   -5.83010    6.95460
 5200.00000   13.26950  177.84080  177.86000    5.62240    -999.25    -999.25   97.11210   97.11210   61.54780   97.62330   97.62330    5.62240   13.26950    7.05170  -61.65450   -4.58810    7.05170
 5250.00000   13.17330  180.43140  180.38170    5.54380    -999.25    -999.25   91.19210   91.19210   59.01190   89.66240   89.66240    5.54380   13.17330    6.69690  -62.54390   -5.61810    6.69690
 5300.00000   15.00000  246.88160  246.84650    4.05110    -999.25    -999.25  129.00990  129.00990   55.94150   86.29780   86.29780    4.05110   15.00000    4.54580  -61.60390   -4.81870    4.54580
 5350.00000   14.38290  194.41100  194.40500    5.14390    -999.25    -999.25   90.48710   90.48710   72.02480   97.32830   97.32830    5.14390   14.38290    6.19910  -63.00140   -6.35770    6.19910
 5400.00000   14.27670  232.79680  232.92650    4.29320    -999.25    -999.25  100.71840  100.71840   72.27070  108.16040  108.16040    4.29320   14.27670    5.82770  -61.76500   -5.26190    5.82770
 5450.00000   15.00000  430.25630  429.84870    2.32640    -999.25    -999.25  120.66540  120.66540   46.41540   69.85260   69.85260    2.32640   15.00000    3.76370  -58.64380   -2.28220    3.76370
 5500.00000   15.00000  357.49740  356.67150    2.80370    -999.25    -999.25  115.49140  115.49140   48.99280   76.70190   76.70190    2.80370   15.00000    3.60500  -60.59240   -4.97080    3.60500
 5550.00000   15.01090  242.83150  242.80100    4.11860    -999.25    -999.25  104.50670  104.50670   53.57990   74.04000   74.04000    4.11860   15.01090    5.02270  -61.53250   -6.81710    5.02270
 5600.00000   15.01530  187.66590  187.94870    5.32060    -999.25    -999.25  100.56000  100.56000   55.71410   96.35270   96.35270    5.32060   15.01530    6.40180  -60.24130   -6.43810    6.40180
 5650.00000   12.50660   93.86440   87.06710   11.48540    -999.25    -999.25   76.14190   76.14190   40.24340   69.73170   69.73170   11.48540   12.50660   15.53810  -65.10190  -12.20490   15.53810
 5700.00000   10.87470  110.62460  110.62930    9.03920    -999.25    -999.25   57.15180   57.15180   47.15540   75.89240   75.89240    9.03920   10.87470   13.26780  -61.28410   -9.29920   13.26780
 5750.00000   11.65780   88.06720   88.07240   11.35430    -999.25    -999.25   73.90050   73.90050   52.51720   77.04340   77.04340   11.35430   11.65780   16.89580  -68.87070  -17.79200   16.89580
 5800.00000   11.39910  126.58000  126.45580    7.90790    -999.25    -999.25   91.98100   91.98100   59.54970   89.56520   89.56520    7.90790   11.39910    9.96270  -57.67590   -7.50340    9.96270
 5850.00000   13.84680   73.56760   73.17640   13.66560    -999.25    -999.25   92.90520   92.90520   57.54210   83.18080   83.18080   13.66560   13.84680   16.66840  -63.97040  -14.71010   16.66840
 5900.00000   12.88800  118.42760  115.68180    8.64440    -999.25    -999.25   82.07640   82.07640   65.70390  101.19010  101.19010    8.64440   12.88800   14.06090  -57.50820   -9.15410   14.06090
 5950.00000   11.72060  109.05300  105.87050    9.44550    -999.25    -999.25  152.77970  152.77970   39.96420   64.57040   64.57040    9.44550   11.72060   18.74570  -61.43250  -13.99050   18.74570
 6000.00000   11.17460   99.83500   97.83490   10.22130    -999.25    -999.25   79.22160   79.22160   56.58100   86.70110   86.70110   10.22130   11.17460   13.90730  -56.21570   -9.67990   13.90730
 6050.00000   10.88410   74.89210   74.88060   13.35460    -999.25    -999.25   70.48840   70.48840   43.16580   67.37040   67.37040   13.35460   10.88410   20.87530  -69.75380  -24.12420   20.87530
 6100.00000   11.73970  116.59520  116.62760    8.57430    -999.25    -999.25   76.41320   76.41320   40.22740   60.06700   60.06700    8.57430   11.73970   14.51510  -76.94270  -32.22530   14.51510
 6150.00000   11.52150   96.50040   94.24090   10.61110    -999.25    -999.25   82.12540   82.12540   58.23680   82.50470   82.50470   10.61110   11.52150   14.19630  -51.62020   -7.80900   14.19630
 6200.00000   12.24480   91.33340   91.29670   10.95330    -999.25    -999.25   82.00480   82.00480   48.77610   75.57360   75.57360   10.95330   12.24480   16.24070  -60.12230  -17.22320   16.24070
 6250.00000   10.83680   80.21080   80.18990   12.47040    -999.25    -999.25   84.36650   84.36650   30.97140   49.64050   49.64050   12.47040   10.83680   17.13740  -84.29040  -42.29750   17.13740
 6300.00000   11.04830   70.80500   71.84630   13.91860    -999.25    -999.25   75.03800   75.03800   32.67460   57.70260   57.70260   13.91860   11.04830   17.52110  -58.22920  -17.14250   17.52110
 6350.00000   10.65340   97.20590   95.68650   10.45080    -999.25    -999.25   75.56590   75.56590   49.71950   81.52600   81.52600   10.45080   10.65340   13.88300  -46.35190   -6.17740   13.88300
 6400.00000   10.32360   92.27560   89.65230   11.15420    -999.25    -999.25   73.78410   73.78410   62.03320   97.00370   97.00370   11.15420   10.32360   15.60070  -45.96470   -6.41600   15.60070
