~Version ---------------------------------------------------
VERS.      2.0 : CWLS log ASCII Standard -VERSION 2.0
WRAP.       NO : One line per depth step
CREA. 08/28/13 : LAS Creation Date
~Well ------------------------------------------------------
STRT.M                            300.0 : START DEPTH
STOP.M                           3900.0 : STOP DEPTH
STEP.M                         50.00000 : STEP LENGTH
NULL.                           -999.25 : NULL VALUE
COMP.  CHEVRON CANADA RESOURCES LIMITED : COMPANY
WELL. CHEVRON SHELL SIMONETTE 2-3-64-26 : WELL
FLD .                                   : FIELD
LOC .                                   : LOCATION
CTRY.                            CANADA : COUNTRY
SRVC.                      Schlumberger : SERVICE COMPANY
DATE.                       03-Oct-1995 : LOGDATE
PROV.                           Alberta : PROVINCE
UWI .                  100163406326W500 : UNIQUE WELL ID
SLAT.WGS84                     54.49935 : SURFACE LATITUDE
SLON.WGS84                    -117.8368 : SURFACE LONGITUDE
~Curve Information -----------------------------------------
DEPT   .M      : DEPTH METER
CAL2   .MM     : CALIPER 2 FROM DENSITY LOG
CALD   .MM     : CALIPER FROM DENSITY LOG
DPHI_LS.DEC    : DENSITY POROSITY LIMESTONE [M=2710,F=1000] FROM DENSITY LOG
DPHI_SS.DEC    : DENSITY POROSITY SANDSTONE [M=2650,F=1000] FROM DENSITY LOG
DRHO   .KG/M3  : DENSITY CORRECTION FROM DENSITY LOG
DT     .US/M   : DELTA TIME FROM SONIC LOG
GRD    .GAPI   : GAMMA RAY FROM DENSITY LOG
GRS    .GAPI   : GAMMA RAY FROM SONIC LOG
HD     .MM     : HOLE DIAMETER FROM SONIC LOG
IDPH   .OHMM   : DEEP INDUCTION PHASE RESISTIVITY FROM RESISTIVITY LOG
IMPH   .OHMM   : MEDIUM INDUCTION PHASE RESISTIVITY FROM RESISTIVITY LOG
NPOR_LS.DEC    : NEUTRON POROSITY LIMESTONE FROM DENSITY LOG
NPOR_SS.DEC    : NEUTRON POROSITY SANDSTONE FROM DENSITY LOG
PEF    .B/E    : PHOTOELECTRIC FACTOR FROM DENSITY LOG
RHOB   .KG/M3  : BULK DENSITY FROM DENSITY LOG
SFLU   .OHMM   : SPHERICALLY FOCUSED RESISTIVITY FROM RESISTIVITY LOG
SPR    .MV     : SPONTANEOUS POTENTIAL FROM RESISTIVITY LOG
TEND   .N      : TENSION FROM DENSITY LOG
TENR   .N      : TENSION FROM RESISTIVITY LOG
~Params ----------------------------------------------------
PD  .                         GL : PERMANENT DATUM
EPD .M                    814.11 : ELEVATION PERMANENT DATUM
LMF .                         KB : LOG MEASURED FROM
DAPD.M                       6.9 : FEET ABOVE PERMANENT DATUM
DMF .                         KB : DRILLING MEASURED FROM
EKB .M                    920.96 : KELLY BUSHING
EDF .M                    920.66 : DRILLING FLOOR
EGL .M                    914.11 : GROUND LEVEL
DATE.                   10/03/95 : RUN DATE
RUN .                          1 : RUN NUMBER
DD  .M                      3912 : DEPTH DRILLER
DL  .M                      3914 : DEPTH LOGGER
BLI .M                    3912.1 : BOTTOM LOG INTERVAL
TLI .M                     457.5 : TOP LOG INTERVAL
CS  .MM                    244.5 : CASING SIZE
CBD .M                     457.5 : CASING BOTTOM DRILLER
CBL .M                     457.5 : CASING BOTTOM LOGGER
BS  .MM                      222 : BIT SIZE
BSD .M                      3912 : BIT SIZE AT DEPTH
DFT .                GEL POLYMER : DRILLING FLUID TYPE
DFD .                       1190 : DRILLING FLUID DENSITY
DFV .                         73 : DRILLING FLUID VISCOSITY
DFPH.                       10.5 : DRILLING FLUID PH
DFL .                          6 : DRILLING FLUID LOSS
MSS .                   FLOWLINE : MUD SAMPLE SOURCE
RMS .OHMM                   1.54 : RESISTIVITY MUD SAMPLE
MST .DEGC                     13 : MUD SAMPLE TEMPERATURE
RMF .OHMM                   1.83 : RESISTIVITY MUD FILTRATE SAMPLE
MFST.DEGC                     16 : MUD FILTRATE SAMPLE TEMPERATURE
RMC .OHMM                   2.08 : RESISTIVITY MUD CAKE
MCST.DEGC                     16 : MUD CAKE SAMPLE TEMPERATURE
MFSS.                   MEASURED : MUD FILTRATE SAMPLE SOURCE
MCSS.                   MEASURED : MUD CAKE SAMPLE SOURCE
RMB .OHMM                  0.487 : RESISTIVITY MUD AT BHT
TLAB.HRS                    1200 : TIME LOGGER AT BOTTOM
LUN .                       8381 : LOGGING UNIT NUMBER
LUL .              GRANDE PRAIRE : LOGGING UNIT LOCATION
ENGI.                     FENSKY : RECORDING ENGINEER
WITN.                       LANG : WITNESSED BY
CLNT.                    A2DTECH : CLIENT CODE
ORIG. 6.5"/100M 16.5"/100M PRINT : ORIGIN OF DATA
UWI .           100163406326W500 : UNIQUE WELL ID
DICO.     A2D Technologies, Inc. : DIGITIZING COMPANY
~Other -----------------------------------------------------
~ASCII -----------------------------------------------------
# ...
 2150.00000  280.10020  322.89720    -999.25    0.12790  142.20000  243.89690   85.21670   73.50280  302.27870   17.79860   15.63060    -999.25    0.22620    2.58480 2438.84420   16.28460    5.90520 16427.82620 14047.34770
 2200.00000  286.88590  313.30810    -999.25    0.02350  -11.10000  223.71530   69.03060   63.28170  303.23240   13.58520   13.84780    -999.25    0.19850    3.10090 2610.75710   13.32200   14.03360 16428.25200 14545.33500
 2250.00000  273.75680  308.19690    -999.25    0.07880  245.60000  239.28710   86.94880   75.50450  288.43820   14.17830   13.95500    -999.25    0.27390    2.94790 2523.81100   14.45170  -42.65140 16909.82230 14627.63870
 2300.00000  264.78650  289.35130    -999.25    0.41510   -3.50000  250.79140  109.00470  101.79140  276.87030   26.73160   28.08490    -999.25    0.46450    1.86380 2130.49540   32.59320   -3.26170 16880.53130 14903.46000
 2350.00000  249.00190  288.15360    -999.25    0.04070  123.90000  208.62410   86.40240   80.56750  261.23550   36.17120  114.41400    -999.25    0.27130    3.04460 2597.00100   65.12150   -1.45930 17056.16600 14956.50680
 2400.00000  227.20750  229.00220    0.11800    -999.25   10.70000  209.95710   25.39100   22.77340  218.85720   14.42130   25.76260    0.08060    -999.25    2.15880 2505.46120   54.18380  -46.44370 17225.23830 15019.92480
 2450.00000  242.10960  241.31270    0.19450    -999.25    1.30000  294.59380  116.91970  130.49820  252.42870    8.76340   13.93170    0.29770    -999.25    3.20330 2361.73290   26.21150  -38.07920 16973.75980 15168.02640
 2500.00000  266.49500  259.22880    0.05420    -999.25  -12.70000  211.43460   74.04770   77.63370  263.81530   38.46130   40.27180    0.10910    -999.25    2.75670 2618.80400   43.25230  -51.17990 16589.32810 15530.35160
 2550.00000  249.70060  244.15450    0.05000    -999.25  -21.00000  198.52830   61.67240   68.37730  247.77500   25.23010   26.46020    0.07360    -999.25    2.63770 2624.06860   27.42240  -20.93860 16655.87890 15250.25200
 2600.00000  269.89120  288.43700    0.01580    -999.25  -16.00000  187.91150   66.68700   68.43950  288.59040   89.87480  105.42360    0.06880    -999.25    3.17410 2683.61110  122.17770  -54.53260 17495.48440 16705.87700
 2650.00000  232.77110  269.54930    0.01050    -999.25   59.60000  166.40170   37.70700   29.36290  244.75600   37.26500   48.55660    0.06170    -999.25    2.89220 2653.68260   41.93130  -63.47150 18163.40430 16244.15330
 2700.00000  227.53070  252.67380    0.02810    -999.25  134.10000  159.45630   48.46920   47.88370  251.76610 1979.98360  353.32130    0.06590    -999.25    3.13610 2651.93970  998.95690 -142.02670 18785.20310 17284.98630
 2750.00000  224.46740  225.85310   -0.07160    -999.25  -11.80000  157.12320   12.17700   13.18590  224.69320  799.80510 1954.59220   -0.00360    -999.25    3.26260 2840.67900 1979.96520 -170.52020 18974.45510 17221.43360
 2800.00000  218.16610  325.74210    0.11770    -999.25  145.30000  165.92040   22.54530   23.62380  247.14520 1982.23500  231.08040    0.02660    -999.25    3.92300 2520.49150 1990.57400  -51.71870 18985.06050 17072.40430
 2850.00000  239.05560  236.65750    0.00240    -999.25  -11.20000  165.69450   15.59040   15.76350  244.50300   42.81940   60.09880    0.02360    -999.25    4.92880 2703.67090  129.49480  -84.20340 18982.03520 16718.46480
 2900.00000  229.54380  252.00410   -0.12790    -999.25  -19.70000  161.28960   20.17720   11.27470  240.82960  416.94800  349.99980    0.00050    -999.25    4.95520 2914.52510 2010.74670  -77.99520 18950.60350 17809.41600
 2950.00000  242.02160  252.66010    0.01130    -999.25   -3.30000  196.00840   69.18990   64.51890  253.30380    4.85900    5.19540    0.12510    -999.25    3.24620 2691.24220    8.39080  -44.22900 19981.41410 18316.14260
 3000.00000  250.54280  278.33000   -0.00750    -999.25  -11.70000  189.12100   38.02930   39.89770  280.31990   19.39490   19.30090    0.06920    -999.25    3.56770 2725.75200   24.63150  -56.08410 19606.50980 17352.98440
 3050.00000  235.11580  242.78030   -0.00350    -999.25  -11.40000  178.05270   35.72350   31.67650  228.89730   53.70910   59.19680    0.04210    -999.25    3.74020 2712.55640   78.46570  -56.38390 19279.57030 17819.24800
 3100.00000  239.37950  243.42120   -0.00110    -999.25  -19.10000  178.95880   39.89020   31.29840  243.45810   64.65350   67.44450    0.05100    -999.25    4.40510 2705.48560   81.62540  -78.75530 19531.34180 17846.21480
 3150.00000  366.96730  343.47130    0.18490    -999.25  201.00000  168.72690   15.75160   17.32840  259.15420 1993.53440 1059.72850   -0.00310    -999.25    3.84280 2430.28690    -999.25  -58.90760 20851.02540 19347.49220
 3200.00000  391.39310  217.17140   -0.01070    -999.25  -17.80000  163.26500   11.99720   12.43760  248.95520 1915.43040  154.78580    0.02110    -999.25    4.57390 2729.87790 1788.95030 -180.83730 21328.65040 19655.33790
 3250.00000  316.04500  218.74650   -0.00770    -999.25  -15.30000  168.63900   11.15080    9.47740  245.00640  561.48220 1991.70970    0.01030    -999.25    2.50120 2722.65530  288.59130 -141.52340 21020.32620 19418.10940
 3300.00000  316.40720  221.46770   -0.05950    -999.25  -11.00000  155.22160   16.48330   16.11130  248.04180    -999.25    -999.25    0.01680    -999.25    1.73760 2813.73050    -999.25 -174.14210 21433.76760 19994.60160
 3350.00000  221.38730  215.57180   -0.00370    -999.25    3.60000  163.86110   15.64180   16.47510  222.37590   41.79480   56.93880    0.09130    -999.25    1.62730 2717.41360   54.92950 -107.72000 21165.59380 19526.69920
 3400.00000  251.67170  229.51110   -0.07230    -999.25   41.80000  155.46700   17.61340   19.33740  243.38870  275.92760  613.36740    0.05240    -999.25    1.62680 2830.66240  308.35810 -107.28670 21595.89450 19917.08200
 3450.00000  231.44540  229.69650   -0.02500    -999.25  -11.60000  174.71260   37.01660   35.40680  248.55690   50.58620   56.26570    0.04830    -999.25    1.89740 2751.66090   61.62240    8.76970 21306.80660 20119.27540
 3500.00000  218.30290  300.58770    0.17290    -999.25  210.60000  166.58240   25.58460   27.87630  255.11080  492.98330  561.03080    0.03020    -999.25    2.76960 2408.34200  385.97470  -84.62510 21703.43750 20103.57620
 3550.00000  234.97770  235.89430   -0.00550    -999.25   12.30000  181.10550   32.61740   33.06870  241.86390   79.27350  106.35540    0.05300    -999.25    1.61410 2711.95240   86.11610    0.38830 21197.27930 20114.29300
 3600.00000  235.07470  321.28360    0.16020    -999.25  154.30000  223.81950   63.65480   60.71490  269.24220    6.10610    6.97190    0.14520    -999.25    2.88020 2429.47900    7.79760   64.46190 21544.19730 20409.33790
 3650.00000  255.32270  241.91090   -0.01010    -999.25  -21.70000  208.96180   67.66040   63.96170  253.31060    8.15660    8.61040    0.14200    -999.25    2.56240 2724.47190    9.92490   74.52410 21561.72850 20178.61330
 3700.00000  253.30070  266.40020    0.08090    -999.25   68.40000  227.71490   78.63290   76.90110  254.55430    7.23180    7.30000   -0.02710    -999.25    3.91910 2568.19480    8.28830   37.00780 22269.58590 20732.10940
 3750.00000  239.10920  229.92720    0.10000    -999.25  -16.70000  255.59100  145.40590  144.20590  243.10650   40.58000   38.24650    0.14840    -999.25    3.10340 2538.82150   76.77590  -15.52620 24148.78130 21090.84570
 3800.00000  221.82780  366.75200    0.10610    -999.25  157.70000  158.83780   14.85480   16.58540  243.80980 1941.95010  221.29370    0.01510    -999.25    3.85140 2532.05830    -999.25 -195.43810 22357.78520 21298.89450
 3850.00000  219.54370  225.38880   -0.02040    -999.25   62.00000  155.83070    9.85250   10.95690  231.23580  211.67520  150.90360    0.05240    -999.25    3.60070 2751.71800  294.01430 -118.71900 22216.29690 21467.04690
 3900.00000  231.22480  312.87770    0.18140    -999.25  132.60000  233.09540    -999.25    -999.25  257.58560   21.36430   16.38870    0.15190    -999.25    2.94900 2382.45630   22.59960   -0.87410 23672.07230 22117.11720
