~Version ---------------------------------------------------
VERS.      2.0 : CWLS log ASCII Standard -VERSION 2.0
WRAP.       NO : One line per depth step
CREA. 11/14/17 : LAS Creation Date
~Well ------------------------------------------------------
STRT.FT                                 1000.0 : START DEPTH
STOP.FT                                10050.0 : STOP DEPTH
STEP.FT                               50.00000 : STEP LENGTH
NULL.                                  -999.25 : NULL VALUE
COMP. THE BRITISH AMERICAN OIL COMPANY LIMITED : COMPANY
WELL.    B.A. FRONTIER LITTLE SMOKY 10-2-67-21 : WELL
FLD .                                          : FIELD
LOC .                                          : LOCATION
CTRY.                                   CANADA : COUNTRY
SRVC.                             Schlumberger : SERVICE COMPANY
DATE.                              21-Mar-1966 : LOGDATE
PROV.                                  Alberta : PROVINCE
UWI .                         100100206721W500 : UNIQUE WELL ID
SLAT.WGS84                            54.77228 : SURFACE LATITUDE
SLON.WGS84                           -117.0858 : SURFACE LONGITUDE
~Curve Information -----------------------------------------
DEPT  .FT    : Depth Curve
CALSED.IN    : CALIPER FROM SONIC LOG
CALWS .IN    : CALIPER [CALSED]
CILDED.MMHO  : CONDUCTIVITY FROM RESISTIVITY LOG
CONDWS.MMHO  : CONDUCTIVITY [1000/DRESWS]
DRESWS.OHMM  : DEEP RESISTIVITY [1000/CILDED, IF ILDED<1, ILDED]
DTED  .US/F  : DELTA-T FROM SONIC LOG
DTWS  .US/F  : COMPRESSISONAL SONIC [DTED]
GRSED .GAPI  : GAMMA RAY FROM SONIC LOG
GRWS  .GAPI  : GAMMA RAY [GRSED]
ILDED .OHMM  : DEEP INDUCTION FROM RESISTIVITY LOG
MCALED.IN    : MLT MICROLOG CALIPER FROM ML-C LOG
SNED  .OHMM  : SHORT NORMAL FROM RESISTIVITY LOG
SPRED .MV    : SPONTANEOUS POTENTIAL FROM RESISTIVITY LOG
SPWS  .MV    : SPONTANEOUS POTENTIAL [BASELINE 0 MV, SPRED]
SRESWS.OHMM  : SHALLOW RESISTIVITY [SNED]
~Params ----------------------------------------------------
PD  .                     GL : PERMANENT DATUM
EPD .FT                 2440 : ELEVATION PERMANENT DATUM
LMF .                     KB : LOG MEASURED FROM
DAPD.FT                   13 : FEET ABOVE PERMANENT DATUM
EKB .FT                 2453 : KELLY BUSHING
EGL .FT                 2440 : GROUND LEVEL
DATE.               03/21/66 : RUN DATE
RUN .                      1 : RUN NUMBER
DD  .FT                10080 : DEPTH DRILLER
DL  .FT                10081 : DEPTH LOGGER
BLI .FT                10080 : BOTTOM LOG INTERVAL
TLI .FT                 1022 : TOP LOG INTERVAL
CBD .FT                 1020 : CASING BOTTOM DRILLER
CBL .FT                 1022 : CASING BOTTOM LOGGER
BS  .IN                 8.75 : BIT SIZE
BSD .FT                10080 : BIT SIZE AT DEPTH
DFT .            CAUSTIC GEL : DRILLING FLUID TYPE
DFD .                    9.7 : DRILLING FLUID DENSITY
DFV .                     85 : DRILLING FLUID VISCOSITY
DFPH.                     10 : DRILLING FLUID PH
DFL .                      8 : DRILLING FLUID LOSS
RMS .OHMM               2.06 : RESISTIVITY MUD SAMPLE
MST .DEGF                 67 : MUD SAMPLE TEMPERATURE
RMF .OHMM               1.74 : RESISTIVITY MUD FILTRATE SAMPLE
MFST.DEGF                 67 : MUD FILTRATE SAMPLE TEMPERATURE
RMC .OHMM                2.3 : RESISTIVITY MUD CAKE
MCST.DEGF                 67 : MUD CAKE SAMPLE TEMPERATURE
RMB .OHMM               0.68 : RESISTIVITY MUD AT BHT
TCS .HRS                 4.5 : TIME CIRCULATED STOPPED
LUN .                   3534 : LOGGING UNIT NUMBER
LUL .                    WCT : LOGGING UNIT LOCATION
ENGI.               THOMPSON : RECORDING ENGINEER
WITN.              SCHOMAKER : WITNESSED BY
CLNT.                A2DTECH : CLIENT CODE
ORIG.            2" 5" PRINT : ORIGIN OF DATA
UWI .       100100206721W500 : UNIQUE WELL ID
DICO. A2D Technologies, Inc. : DIGITIZING COMPANY
~Other -----------------------------------------------------
~ASCII -----------------------------------------------------
# ...
 5600.00000    9.20420    9.20420   26.43200   24.99620   40.00610  121.51910  121.51910  134.56520  134.56520   40.00610    -999.25   87.45960  -83.03170   -6.14740   87.45960
 5650.00000    7.92460    7.92460   97.44070   95.32160   10.49080   64.78550   64.78550  102.64040  102.64040   10.49080    -999.25   51.45030 -185.94770 -109.96340   51.45030
 5700.00000   10.14160   10.14160  128.69590  128.70180    7.76990   71.88190   71.88190   90.15680   90.15680    7.76990    -999.25   10.08680  -83.97970   -8.90120   10.08680
 5750.00000    9.99430    9.99430  136.34080  136.33820    7.33470   68.24310   68.24310   84.56640   84.56640    7.33470    -999.25   12.73840 -110.22750  -36.04900   12.73840
 5800.00000    9.59450    9.59450  150.58820  149.96780    6.66810   67.58240   67.58240   57.35670   57.35670    6.66810    -999.25   16.69000 -118.98850  -45.70990   16.69000
 5850.00000    9.72350    9.72350  111.52800  106.24170    9.41250   67.87430   67.87430   64.93110   64.93110    9.41250    -999.25   13.58700 -104.09680  -31.72410   13.58700
 5900.00000    9.77980    9.77980  122.11030  124.13260    8.05590   70.41940   70.41940   75.61280   75.61280    8.05590    -999.25   13.35680  -94.08700  -22.61420   13.35680
 5950.00000    8.44500    8.44500   63.98210   62.00130   16.12870   57.97400   57.97400   34.84470   34.84470   16.12870    -999.25   50.06430 -143.42050  -72.85360   50.06430
 6000.00000    9.17950    9.17950  107.55960  101.58370    9.84410   58.73060   58.73060   28.82600   28.82600    9.84410    -999.25   20.30810 -132.92560  -63.25860   20.30810
 6050.00000    8.88090    8.88090   25.92450   22.02840   45.39590   51.88580   51.88580   27.34930   27.34930   45.39590    -999.25   88.67910 -168.88190 -100.11480   88.67910
 6100.00000    9.20440    9.20440   26.07120   21.71970   46.04120   49.95290   49.95290   27.82700   27.82700   46.04120    -999.25   77.62560 -135.67040  -67.80920   77.62560
 6150.00000    9.03160    9.03160   19.21230   17.71270   56.45660   50.41450   50.41450   25.06730   25.06730   56.45660    -999.25  132.00290 -131.55070  -64.58950  132.00290
 6200.00000    9.35870    9.35870   34.95960   24.86440   40.21810   54.43290   54.43290   33.02060   33.02060   40.21810    -999.25   48.30190 -148.36470  -82.30930   48.30190
 6250.00000    8.76310    8.76310  153.58820  159.77250    6.25890   55.18040   55.18040   28.91340   28.91340    6.25890    -999.25   41.94320 -172.87320 -107.71780   41.94320
 6300.00000    9.57390    9.57390  100.64480   97.07230   10.30160   69.00370   69.00370   96.77310   96.77310   10.30160    -999.25   13.85350  -80.64290  -16.38740   13.85350
 6350.00000    9.64810    9.64810   26.96060   26.16280   38.22220   55.97620   55.97620   39.21200   39.21200   38.22220    -999.25   44.14270  -71.80210   -8.45250   44.14270
 6400.00000    8.99940    8.99940   14.94750   10.30710   97.02070   53.41450   53.41450   20.08460   20.08460   97.02070    -999.25   99.94620 -118.49650  -55.36420   99.94620
 6450.00000    8.32070    8.32070  463.37990  463.54240    2.15730   67.19350   67.19350   36.66290   36.66290    2.15730    -999.25   12.43650 -160.67590  -97.58640   12.43650
 6500.00000    9.48680    9.48680  248.33680  257.93140    3.87700   66.83920   66.83920   44.17220   44.17220    3.87700    -999.25   13.45920 -128.88080  -65.83380   13.45920
 6550.00000    9.73200    9.73200  116.63790  103.70110    9.64310   56.65660   56.65660   47.41470   47.41470    9.64310    -999.25   15.86250 -103.36890  -40.36440   15.86250
 6600.00000    8.99930    8.99930   13.75460   10.55140   94.77440   54.68500   54.68500   26.06450   26.06450   94.77440    -999.25  116.09570 -145.97300  -83.01120  116.09570
 6650.00000    9.20290    9.20290   46.12540   42.80840   23.35990   53.12750   53.12750   15.79150   15.79150   23.35990    -999.25   75.53860 -186.95020 -124.03090   75.53860
 6700.00000    9.24320    9.24320   17.28720   13.18120   75.86570   53.81170   53.81170   20.30110   20.30110   75.86570    -999.25   88.68290 -178.96130 -116.08480   88.68290
 6750.00000    9.37490    9.37490   22.34560   17.01630   58.76710   54.40260   54.40260   15.78890   15.78890   58.76710    -999.25   95.09830 -165.36510 -102.53110   95.09830
 6800.00000   10.00500   10.00500  351.13610  351.30860    2.84650   68.95740   68.95740   59.26340   59.26340    2.84650    -999.25    4.30370 -129.53720  -66.74570    4.30370
 6850.00000    9.62410    9.62410  183.79670  183.76270    5.44180   63.21250   63.21250   58.84180   58.84180    5.44180    -999.25   12.95060 -114.16940  -51.42060   12.95060
 6900.00000    9.88850    9.88850  103.80910  103.81520    9.63250   75.81720   75.81720   46.34770   46.34770    9.63250    -999.25   14.83140  -86.77190  -24.06560   14.83140
 6950.00000    9.80210    9.80210   64.10770   64.11040   15.59810   74.05960   74.05960   41.20760   41.20760   15.59810    -999.25   23.03640  -89.79830  -27.13480   23.03640
 7000.00000    8.99030    8.99030   20.27510   14.50760   68.92950   54.90060   54.90060   35.84210   35.84210   68.92950    -999.25   74.38640  -91.47290  -28.85190   74.38640
 7050.00000    8.96920    8.96920    9.78730    6.35300  157.40610   54.96560   54.96560   25.26760   25.26760  157.40610    -999.25  132.35010  -98.58090  -36.00230  132.35010
 7100.00000    8.99570    8.99570   18.09350   16.07660   62.20240   58.65820   58.65820   38.81830   38.81830   62.20240    -999.25   67.65010  -79.82840  -17.29260   67.65010
 7150.00000    9.01060    9.01060   23.94460   21.66240   46.16300   59.63560   59.63560   52.84960   52.84960   46.16300    -999.25   49.30790  -79.21030  -16.71700   49.30790
 7200.00000    8.73900    8.73900   21.99890   19.99530   50.01180   58.50780   58.50780   46.60460   46.60460   50.01180    -999.25   58.41160  -77.51940  -15.06890   58.41160
 7250.00000    8.76480    8.76480   24.97940   22.74530   43.96520   56.56470   56.56470   46.28320   46.28320   43.96520    -999.25   61.15210  -81.25400  -18.84600   61.15210
 7300.00000    8.77570    8.77570   31.51050   29.14990   34.30540   57.04650   57.04650   48.60630   48.60630   34.30540    -999.25   46.83710  -91.79360  -29.42800   46.83710
 7350.00000    8.96800    8.96800   27.49190   25.04880   39.92210   59.08150   59.08150   41.39200   41.39200   39.92210    -999.25   48.21690  -91.32590  -29.00310   48.21690
 7400.00000    9.00710    9.00710   13.99330   10.09990   99.01110   52.85650   52.85650   24.99040   24.99040   99.01110    -999.25  121.16190  -99.19910  -36.91880  121.16190
 7450.00000    8.96440    8.96440    8.76740    6.80790  146.88880   88.25160   88.25160  239.80290  239.80290  146.88880    -999.25  131.99320  -86.08740  -23.84990  131.99320
 7500.00000    8.87810    8.87810   10.80440    6.65520  150.25790   53.11010   53.11010   16.76470   16.76470  150.25790    -999.25  155.62550 -132.95210  -70.75700  155.62550
 7550.00000    8.88990    8.88990    9.58730    5.58440  179.07100   51.87090   51.87090   18.05160   18.05160  179.07100    -999.25  195.74710 -116.31830  -54.16570  195.74710
 7600.00000    8.74900    8.74900    9.40530    5.96660  167.59940   51.88210   51.88210   18.64510   18.64510  167.59940    -999.25  171.79510 -131.64320  -69.53340  171.79510
 7650.00000    9.04070    9.04070    9.09740    5.40020  185.17880   51.04940   51.04940   12.98310   12.98310  185.17880    -999.25  155.32190 -135.39300  -73.32570  155.32190
 7700.00000    8.81950    8.81950    6.33800    4.31900  231.53560   51.31690   51.31690   19.47450   19.47450  231.53560    -999.25  192.44380 -142.70680  -80.68230  192.44380
 7750.00000    8.70290    8.70290   13.99190    9.37340  106.68440   50.12550   50.12550   13.97680   13.97680  106.68440    -999.25  112.60410 -165.17410 -103.19200  112.60410
 7800.00000    8.91440    8.91440   17.99570   14.87570   67.22370   52.98820   52.98820   16.27180   16.27180   67.22370    -999.25   94.87610 -160.64740  -98.70780   94.87610
 7850.00000    8.94650    8.94650    8.29870    3.99050  250.59580   51.24740   51.24740   15.91550   15.91550  250.59580    -999.25  217.74180 -150.11110  -88.21430  217.74180
