~Version ---------------------------------------------------
VERS.      2.0 : CWLS log ASCII Standard -VERSION 2.0
WRAP.       NO : One line per depth step
CREA. 08/31/17 : LAS Creation Date
~Well ------------------------------------------------------
STRT.FT                             1100.0 : START DEPTH
STOP.FT                            11500.0 : STOP DEPTH
STEP.FT                           50.00000 : STEP LENGTH
NULL.                              -999.25 : NULL VALUE
COMP.              MURPHY OIL COMPANY LTD. : COMPANY
WELL. MURPHY ASHLAND WOLF CREEK 11-5-53-15 : WELL
FLD .                                      : FIELD
LOC .                                      : LOCATION
CTRY.                               CANADA : COUNTRY
SRVC.               Schlumberger of Canada : SERVICE COMPANY
DATE.                          08-Dec-1976 : LOGDATE
PROV.                              Alberta : PROVINCE
UWI .                     100110505315W500 : UNIQUE WELL ID
SLAT.WGS84                        53.55101 : SURFACE LATITUDE
SLON.WGS84                        -116.179 : SURFACE LONGITUDE
~Curve Information -----------------------------------------
DEPT    .FT    : Depth Curve
CALDED  .IN    : CALIPER FROM CNL-FDC LOG [ADJ. TO GRSED]
CALSED  .IN    : CALIPER FROM SONIC LOG
CALWS   .IN    : CALIPER [CALDED]
CILDED  .MMHO  : DEEP INDUCTION CONDUCTIVITY FROM RESISTIVITY LOG
CONDWS  .MMHO  : CONDUCTIVITY [1000/DRESWS]
DCORWS  .G/C3  : DENSITY CORRECTION [DRHOED]
DENWS   .G/C3  : FORMATION BULK DENSITY [RHOBED]
DPHILSED.V/V   : DENSITY POROSITY LIME [M=2.71, F=1.00] FROM CNL-FDC LOG [ADJ. TO GRSED]
DPHISSED.V/V   : DENSITY POROSITY SAND [M=2.65, F=1.00] FROM CNL-FDC LOG [ADJ. TO GRSED]
DPOLSWS .V/V   : DENSITY POROSITY LIME [CALCULATED FROM DENWS, M=2.71, F=1.00]
DRESWS  .OHMM  : DEEP RESISTIVITY [ILDED]
DRHOED  .G/C3  : BULK DENSITY CORRECTION FROM DENSITY LOG [ADJ. TO DPHISSED/DPHILSED/GRSED]
DTED    .US/F  : DELTA-T (INTERVAL TRANSIT TIME) FROM SONIC LOG
DTWS    .US/F  : COMPRESSIONAL SONIC [DTED]
GRDED   .GAPI  : GAMMA RAY FROM DENSITY LOG [ADJ. TO GRSED]
GRSED   .GAPI  : GAMMA RAY FROM SONIC LOG
GRWS    .GAPI  : GAMMA RAY [GRSED]
ILDED   .OHMM  : DEEP INDUCTION FROM RESISTIVITY LOG
ILMED   .OHMM  : MEDIUM INDUCTION FROM RESISTIVITY LOG
LL8ED   .OHMM  : LATEROLOG 8 FROM RESISTIVITY LOG
MRESWS  .OHMM  : MEDIUM RESISTIVITY [ILMED]
NPHILSED.V/V   : NEUTRON POROSITY LIME FROM CNL-FDC LOG [ADJ. TO GRSED]
NPHISSED.V/V   : NEUTRON POROSITY SAND FROM CNL-FDC LOG [ADJ. TO GRSED]
NPOLSWS .V/V   : NEUTRON POROSITY LIME [NPHISSED MATRIX CONVERTED TO LIMESTONE & SPL. TO NPHILSED @ 8000']
RHOBED  .G/C3  : BULK DENSITY FROM DENSITY LOG [ADJ. TO DPHISSED/DPHILSED/GRSED]
SPRED   .MV    : SPONTANEOUS POTENTIAL FROM RESISTIVITY LOG
SPWS    .MV    : SPONTANEOUS POTENTIAL [BASELINE 0 MV, SPRED]
SRESWS  .OHMM  : SHALLOW RESISTIVITY [LL8ED]
~Params ----------------------------------------------------
PD  .                     GL : PERMANENT DATUM
EPD .FT               2966.3 : ELEVATION PERMANENT DATUM
LMF .                     KB : LOG MEASURED FROM
DAPD.FT                 15.4 : FEET ABOVE PERMANENT DATUM
EKB .FT               2981.7 : KELLY BUSHING
EGL .FT               2966.3 : GROUND LEVEL
DATE.               12/08/76 : RUN DATE
RUN .                      1 : RUN NUMBER
DD  .FT                11560 : DEPTH DRILLER
DL  .FT                11554 : DEPTH LOGGER
BLI .FT                11548 : BOTTOM LOG INTERVAL
TLI .FT                 1160 : TOP LOG INTERVAL
CBD .FT                 1160 : CASING BOTTOM DRILLER
CBL .FT                 1160 : CASING BOTTOM LOGGER
BS  .IN                 8.75 : BIT SIZE
BSD .FT                11560 : BIT SIZE AT DEPTH
DFT .               GEL CHEM : DRILLING FLUID TYPE
DFD .                    9.1 : DRILLING FLUID DENSITY
DFV .                    290 : DRILLING FLUID VISCOSITY
DFPH.                     11 : DRILLING FLUID PH
DFL .                    5.8 : DRILLING FLUID LOSS
MSS .               FLOWLINE : MUD SAMPLE SOURCE
RMS .OHMM               1.67 : RESISTIVITY MUD SAMPLE
MST .DEGF                 37 : MUD SAMPLE TEMPERATURE
RMF .OHMM                1.3 : RESISTIVITY MUD FILTRATE SAMPLE
MFST.DEGF                 55 : MUD FILTRATE SAMPLE TEMPERATURE
TCS .HRS                 2.5 : TIME CIRCULATED STOPPED
LUN .                   7730 : LOGGING UNIT NUMBER
LUL .                    EDM : LOGGING UNIT LOCATION
ENGI.        MCDONALD KARAKI : RECORDING ENGINEER
WITN.            ABEL WORKUM : WITNESSED BY
CLNT.                A2DTECH : CLIENT CODE
ORIG.            2" 5" PRINT : ORIGIN OF DATA
UWI .       100110505315W500 : UNIQUE WELL ID
DICO. A2D Technologies, Inc. : DIGITIZING COMPANY
~Other -----------------------------------------------------
~ASCII -----------------------------------------------------
# ...
 3600.00000   14.02030    9.61230   14.02030  167.33910  164.76640    0.10530    1.62260    -999.25    -999.25    0.63590    6.06920    0.10530   84.12900   84.12900   80.46700   89.58220   89.58220    6.06920    -999.25    5.84770    -999.25    -999.25    -999.25    -999.25    1.62260   15.17860   -5.07200    5.84770
 3650.00000    9.85190    9.34340    9.85190  105.09730  106.43150    0.25190    2.26120    -999.25    -999.25    0.26240    9.40200    0.25190   80.16170   80.16170   62.33970   68.58960   68.58960    9.40200    -999.25    9.29020    -999.25    -999.25    -999.25    -999.25    2.26120   12.75080   -4.23980    9.29020
 3700.00000   10.94220    8.99690   10.94220  146.14490  146.17960    0.14200    1.97580    -999.25    -999.25    0.42940    6.84090    0.14200   85.00280   85.00280   75.53900   85.79820   85.79820    6.84090    -999.25    6.36660    -999.25    -999.25    -999.25    -999.25    1.97580   10.78200  -13.21040    6.36660
 3750.00000   11.37480    9.04900   11.37480  114.74860  114.78160    0.22740    2.15020    -999.25    -999.25    0.32740    8.71220    0.22740   80.28050   80.28050   77.73700   86.61010   86.61010    8.71220    -999.25    8.02170    -999.25    -999.25    -999.25    -999.25    2.15020   24.21740   -8.77350    8.02170
 3800.00000   15.02560    9.83790   15.02560  456.84070  456.90580    0.08160    1.51800    -999.25    -999.25    0.69720    2.18940    0.08160  118.87860  118.87860  108.49040  114.67310  114.67310    2.18940    -999.25    2.72160    -999.25    -999.25    -999.25    -999.25    1.51800   21.45670   -4.78980    2.72160
 3850.00000   12.99620    9.59470   12.99620  206.13960  205.57520    0.16610    2.07820    -999.25    -999.25    0.36950    4.86440    0.16610  102.68990  102.68990   66.85120   80.02170   80.02170    4.86440    -999.25    5.28900    -999.25    -999.25    -999.25    -999.25    2.07820   14.58840   -3.78220    5.28900
 3900.00000    9.13830    8.94240    9.13830   36.83190   35.00610    0.02710    2.49920    -999.25    -999.25    0.12330   28.60090    0.02710   75.55790   75.55790   42.02370   41.73770   41.73770   28.60090    -999.25   26.33680    -999.25    -999.25    -999.25    -999.25    2.49920   -2.38310  -14.32320   26.33680
 3950.00000   11.48560    9.35720   11.48560  161.90760  161.75990    0.15040    1.87100    -999.25    -999.25    0.49060    6.18200    0.15040   86.18100   86.18100   84.79690   89.71840   89.71840    6.18200    -999.25    5.84800    -999.25    -999.25    -999.25    -999.25    1.87100    4.41660   -6.69370    5.84800
 4000.00000    9.55050    8.97970    9.55050   60.65850   50.30860    0.08390    2.53620    -999.25    -999.25    0.10160   19.87730    0.08390   73.87490   73.87490   57.37700   63.37370   63.37370   19.87730    -999.25   23.60940    -999.25    -999.25    -999.25    -999.25    2.53620    2.78480   -7.49970   23.60940
 4050.00000   11.61600    9.50730   11.61600  160.66430  160.56430    0.18040    1.97640    -999.25    -999.25    0.42900    6.23990    0.18040   83.78220   83.78220   75.97630   83.66910   83.66910    6.23990    -999.25    6.36840    -999.25    -999.25    -999.25    -999.25    1.97640    3.60100   -5.89460    6.36840
 4100.00000   14.68000    9.59500   14.68000  157.25640  157.26980    0.16550    1.67050    -999.25    -999.25    0.60790    6.35850    0.16550   85.83390   85.83390   73.11120   81.29150   81.29150    6.35850    -999.25    6.66680    -999.25    -999.25    -999.25    -999.25    1.67050    3.96340   -4.79500    6.66680
 4150.00000    9.27640    8.93370    9.27640   42.37150   42.37310    0.10340    2.48480    -999.25    -999.25    0.13170   23.60030    0.10340   70.24180   70.24180   53.37420   51.80700   51.80700   23.60030    -999.25   24.17430    -999.25    -999.25    -999.25    -999.25    2.48480    3.08230   -4.94630   24.17430
 4200.00000   12.12040    9.10780   12.12040  142.40140  142.38930    0.04620    2.06070    -999.25    -999.25    0.37970    7.02300    0.04620   84.78190   84.78190   77.32530   76.36950   76.36950    7.02300    -999.25    6.57550    -999.25    -999.25    -999.25    -999.25    2.06070    7.41130   -1.81860    6.57550
 4250.00000   11.54330    9.33470   11.54330  114.99960  114.94120    0.09780    2.47730    -999.25    -999.25    0.13610    8.70010    0.09780   85.62640   85.62640   70.04790   74.28200   74.28200    8.70010    -999.25    8.47380    -999.25    -999.25    -999.25    -999.25    2.47730    9.95490   -0.71970    8.47380
 4300.00000   12.10970    9.29290   12.10970  128.03840  127.89720    0.02990    2.47330    -999.25    -999.25    0.13840    7.85460    0.02990   82.28850   82.28850   73.83270   77.16640   77.16640    7.85460    -999.25    7.32330    -999.25    -999.25    -999.25    -999.25    2.47330    7.39900   -3.35010    7.32330
 4350.00000   13.41700    9.73150   13.41700  158.80810  158.95720    0.18010    1.92030    -999.25    -999.25    0.46180    6.29100    0.18010   94.85440   94.85440   74.28730   65.81810   65.81810    6.29100    -999.25    7.10040    -999.25    -999.25    -999.25    -999.25    1.92030    6.34290   -4.06770    7.10040
 4400.00000   13.08050    9.18530   13.08050  126.10090  126.07980    0.11070    1.64370    -999.25    -999.25    0.62360    7.93220    0.11070   85.88440   85.88440   61.59670   67.02490   67.02490    7.93220    -999.25    7.77040    -999.25    -999.25    -999.25    -999.25    1.64370    4.49740   -5.57800    7.77040
 4450.00000   11.88560    9.49400   11.88560  129.17900  129.03730    0.11690    1.86390    -999.25    -999.25    0.49480    7.74970    0.11690   85.94250   85.94250   67.43730   78.63900   78.63900    7.74970    -999.25    7.12150    -999.25    -999.25    -999.25    -999.25    1.86390    5.37830   -4.35850    7.12150
 4500.00000    9.46820    9.26300    9.46820   60.55390   60.30670    0.09730    2.46040    -999.25    -999.25    0.14600   16.58190    0.09730   75.63800   75.63800   47.94510   50.06640   50.06640   16.58190    -999.25   17.25280    -999.25    -999.25    -999.25    -999.25    2.46040   -0.23590   -9.63580   17.25280
 4550.00000   11.00010    9.58830   11.00010   98.92310  102.76250    0.13350    1.71800    -999.25    -999.25    0.58020    9.74070    0.13350   83.48340   83.48340   78.54430   90.46650   90.46650    9.74070    -999.25   10.14700    -999.25    -999.25    -999.25    -999.25    1.71800    3.83890   -4.77520   10.14700
 4600.00000   11.65020    9.20340   11.65020  114.24860  114.25700    0.17080    1.93500    -999.25    -999.25    0.45320    8.75220    0.17080   89.09150   89.09150   78.07380   78.49500   78.49500    8.75220    -999.25   10.33630    -999.25    -999.25    -999.25    -999.25    1.93500  -10.74960  -15.21810   10.33630
 4650.00000    8.94190    8.96100    8.94190   47.36020   47.78140    0.03770    2.51630    -999.25    -999.25    0.11330   20.92880    0.03770   70.97210   70.97210   43.05920   47.33980   47.33980   20.92880    -999.25   25.87740    -999.25    -999.25    -999.25    -999.25    2.51630  -31.34290  -30.29500   25.87740
 4700.00000   10.48150    9.13400   10.48150   94.77310   94.97040    0.21490    2.10220    -999.25    -999.25    0.35540   10.52960    0.21490   79.01190   79.01190   74.88440   81.28960   81.28960   10.52960    -999.25   11.23600    -999.25    -999.25    -999.25    -999.25    2.10220  -10.16630   -3.85020   11.23600
 4750.00000   11.43130    9.21870   11.43130   88.72140   88.73270    0.22310    2.04880    -999.25    -999.25    0.38660   11.26980    0.22310   79.48230   79.48230   82.08300   85.32590   85.32590   11.26980    -999.25   12.73070    -999.25    -999.25    -999.25    -999.25    2.04880   -9.41620   -1.09040   12.73070
 4800.00000   10.82110    9.38720   10.82110   85.71770   85.69630    0.03080    2.54800    -999.25    -999.25    0.09470   11.66950    0.03080   77.76140   77.76140  100.66500  112.27580  112.27580   11.66950    -999.25   12.55250    -999.25    -999.25    -999.25    -999.25    2.54800  -10.83970   -2.59450   12.55250
