~Version ---------------------------------------------------
VERS. 2.0 : CWLS log ASCII Standard -VERSION 2.0
WRAP.  NO : ONE LINE PER DEPTH STEP
~Well ------------------------------------------------------
STRT.F                                   347.3 : START DEPTH
STOP.F                                  9458.8 : STOP DEPTH
STEP.F                                 0.50000 : STEP LENGTH
NULL.                                  -999.25 : NULL VALUE
COMP. THE BRITISH AMERICAN OIL COMPANY LIMITED : COMPANY
WELL.              B.A. GOOSE RIVER 4-32-66-18 : WELL
FLD .                                          : FIELD
LOC .                                          : LOCATION
CTRY.                                   CANADA : COUNTRY
SRVC.                             Schlumberger : SERVICE COMPANY
DATE.                              02-Dec-1964 : LOGDATE
PROV.                                  Alberta : PROVINCE
UWI .                         100043206618W500 : UNIQUE WELL ID
SLAT.WGS84                            54.75185 : SURFACE LATITUDE
SLON.WGS84                           -116.6939 : SURFACE LONGITUDE
~Curve Information -----------------------------------------
DEPT.F    0   1   0  0 : 1 MEASURED DEPTH
GRN .GAPI 35 310 01 00 : GAMMA RAY FROM GRN LOG
NEUT.NAPI 35 330 01 00 : NEUTRON
GR  .GAPI 30 310 00 00 : GAMMA RAY
CILD.MMHO 05 110 46 00 : INDUCTION DEEP CONDUCTIVITY
ILD .OHMM 05 120 46 00 : INDUCTION DEEP RESISTIVITY
SN  .OHMM 05 040 16 00 : SHORT NORMAL RESISTIVITY
SPR .MV   05 010 01 00 : SPONTANEOUS POTENTIAL FROM RESISTIVITY LOG
GRS .GAPI 60 310 01 00 : GAMMA RAY FROM SONIC LOG
DT  .US/F 60 500 00 00 : DELTA-T (INTERVAL TRANSIT TIME)
CALS.IN   60 280 50 00 : CALIPER FROM SONIC LOG
DT_1.US/F 60 500 31 00 : DELTA-T (INTERVAL TRANSIT TIME)
~Params ----------------------------------------------------
PD  .                     GL : PERMANENT DATUM
EPD .FT                 2485 : ELEVATION PERMANENT DATUM
LMF .                     KB : LOG MEASURED FROM
DAPD.FT                   15 : FEET ABOVE PERMANENT DATUM
EKB .FT                 2500 : KELLY BUSHING
EGL .FT                 2485 : GROUND LEVEL
DATE.               12/02/64 : RUN DATE
RUN .                      1 : RUN NUMBER
DD  .FT                 9461 : DEPTH DRILLER
DL  .FT                 9460 : DEPTH LOGGER
BLI .FT                 9459 : BOTTOM LOG INTERVAL
TLI .FT                  781 : TOP LOG INTERVAL
CBD .FT                  784 : CASING BOTTOM DRILLER
CBL .FT                  781 : CASING BOTTOM LOGGER
BS  .IN                7.625 : BIT SIZE
BSD .FT                 9461 : BIT SIZE AT DEPTH
DFT .               GEL CHEM : DRILLING FLUID TYPE
DFD .                    9.8 : DRILLING FLUID DENSITY
DFV .                     95 : DRILLING FLUID VISCOSITY
DFPH.                    9.5 : DRILLING FLUID PH
DFL .                    7.4 : DRILLING FLUID LOSS
RMS .OHMM               2.38 : RESISTIVITY MUD SAMPLE
MST .DEGF                 64 : MUD SAMPLE TEMPERATURE
RMF .OHMM                2.1 : RESISTIVITY MUD FILTRATE SAMPLE
MFST.DEGF                 66 : MUD FILTRATE SAMPLE TEMPERATURE
RMC .OHMM               2.32 : RESISTIVITY MUD CAKE
MCST.DEGF                 66 : MUD CAKE SAMPLE TEMPERATURE
RMB .OHMM               0.84 : RESISTIVITY MUD AT BHT
TCS .HRS                   6 : TIME CIRCULATED STOPPED
LUN .                   3534 : LOGGING UNIT NUMBER
LUL .                    V V : LOGGING UNIT LOCATION
ENGI.               CHENOSKY : RECORDING ENGINEER
WITN.                  WEISS : WITNESSED BY
CLNT.                A2DTECH : CLIENT CODE
ORIG.            2" 5" PRINT : ORIGIN OF DATA
UWI .       100043206618W500 : UNIQUE WELL ID
DICO. A2D Technologies, Inc. : DIGITIZING COMPANY
~Other -----------------------------------------------------
~ASCII -----------------------------------------------------
# ...
 8277.30000    -999.25    -999.25    -999.25  206.22190    4.48900    4.99760  -49.55550   88.07790   81.82040    7.90360    -999.25
 8277.80000    -999.25    -999.25    -999.25  207.87260    4.46530    4.97330  -49.54730   90.87800   81.89050    8.04060    -999.25
 8278.30000    -999.25    -999.25    -999.25  209.17260    4.44170    4.94900  -49.29770   89.72920   81.60450    8.13220    -999.25
 8278.80000    -999.25    -999.25    -999.25  210.98710    4.41810    4.92470  -49.47170   85.60270   79.45710    8.10070    -999.25
 8279.30000    -999.25    -999.25    -999.25  212.83410    4.39440    4.90040  -49.72810   84.50760   80.42540    8.00800    -999.25
 8279.80000    -999.25    -999.25    -999.25  213.87290    4.37080    4.87610  -49.90420   87.64550   79.71460    7.97110    -999.25
 8280.30000    -999.25    -999.25    -999.25  217.41770    4.34710    4.85180  -49.80690   85.51800   80.21910    8.08220    -999.25
 8280.80000    -999.25    -999.25    -999.25  219.50690    4.32350    4.82750  -49.44950   80.47370   81.95960    8.30430    -999.25
 8281.30000    -999.25    -999.25    -999.25  220.55160    4.29980    4.80310  -49.39450   78.53660   81.29750    8.45430    -999.25
 8281.80000    -999.25    -999.25    -999.25  221.17460    4.27620    4.77920  -49.41700   80.86130   81.89240    8.10780    -999.25
 8282.30000    -999.25    -999.25    -999.25  221.27860    4.25840    4.78700  -49.20690   84.69640   83.10050    7.97620    -999.25
 8282.80000    -999.25    -999.25    -999.25  220.62970    4.24570    4.79470  -49.21220   82.48720   84.48890    8.04710    -999.25
 8283.30000    -999.25    -999.25    -999.25  219.27770    4.23310    4.80250  -49.21760   84.34210   83.58880    8.09000    -999.25
 8283.80000    -999.25    -999.25    -999.25  218.25990    4.22040    4.81020  -49.21070   87.17030   80.95080    8.09370    -999.25
 8284.30000    -999.25    -999.25    -999.25  219.21640    4.20770    4.81800  -49.21070   85.35660   79.97990    8.02810    -999.25
 8284.80000    -999.25    -999.25    -999.25  221.04460    4.19510    4.82570  -48.99510   85.41600   81.85710    7.87970    -999.25
 8285.30000    -999.25    -999.25    -999.25  223.86040    4.16820    4.83350  -48.81550   82.49300   83.14680    7.79040    -999.25
 8285.80000    -999.25    -999.25    -999.25  225.33830    4.08570    4.84120  -48.56300   79.95660   84.39200    7.79040    -999.25
 8286.30000    -999.25    -999.25    -999.25  226.03570    4.08670    4.84900  -48.34200   83.55150   83.69970    7.85000    -999.25
 8286.80000    -999.25    -999.25    -999.25  225.62080    4.08840    4.85390  -48.10100   91.40230   82.71550    8.00100    -999.25
 8287.30000    -999.25    -999.25    -999.25  224.35730    4.11850    4.85390  -47.91440   90.29310   81.52750    8.15890    -999.25
 8287.80000    -999.25    -999.25    -999.25  221.85400    4.16830    4.85390  -47.71780   88.39870   85.35460    8.25420    -999.25
 8288.30000    -999.25    -999.25    -999.25  219.62070    4.21820    4.85390  -47.63710   87.59040   82.03050    8.14350    -999.25
 8288.80000    -999.25    -999.25    -999.25  217.45060    4.26800    4.85390  -47.48760   86.02500   79.10530    8.05060    -999.25
 8289.30000    -999.25    -999.25    -999.25  216.50460    4.31790    4.86680  -47.30010   86.66940   81.44500    8.08150    -999.25
 8289.80000    -999.25    -999.25    -999.25  217.23960    4.26100    4.89700  -47.55050   88.86760   84.20180    8.15230    -999.25
 8290.30000    -999.25    -999.25    -999.25  221.79730    4.11900    4.92720  -48.08790   87.00990   84.90830    8.20220    -999.25
 8290.80000    -999.25    -999.25    -999.25  228.29240    3.97840    4.87440  -48.67850   90.38570   84.60360    8.16680    -999.25
 8291.30000    -999.25    -999.25    -999.25  236.34900    3.83870    4.78910  -49.25790   89.22720   83.87570    8.08080    -999.25
 8291.80000    -999.25    -999.25    -999.25  245.73270    3.69900    4.70380  -49.58350   87.35860   81.80610    8.02180    -999.25
 8292.30000    -999.25    -999.25    -999.25  252.31150    3.55930    4.61850  -49.59390   91.73460   81.26470    8.06940    -999.25
 8292.80000    -999.25    -999.25    -999.25  260.08210    3.41960    4.53330  -49.28740   93.29890   81.88490    8.28900    -999.25
 8293.30000    -999.25    -999.25    -999.25  266.44960    3.27980    4.44800  -48.92640   97.85770   83.11940    8.59270    -999.25
 8293.80000    -999.25    -999.25    -999.25  271.54720    3.26010    4.36270  -48.43580  100.78180   85.42440    8.27530    -999.25
 8294.30000    -999.25    -999.25    -999.25  271.92790    3.25230    4.35130  -47.78960   98.27170   88.73990    8.00660    -999.25
 8294.80000    -999.25    -999.25    -999.25  269.85670    3.30180    4.38530  -47.45440   99.99860   89.66470    8.04180    -999.25
 8295.30000    -999.25    -999.25    -999.25  264.50320    3.41570    4.41940  -47.21650   95.02530   90.66170    8.14030    -999.25
 8295.80000    -999.25    -999.25    -999.25  257.89040    3.52960    4.45340  -46.94050   91.45220   90.53110    8.10510    -999.25
 8296.30000    -999.25    -999.25    -999.25  250.37660    3.64340    4.49200  -46.46380   95.60000   89.61700    8.31260    -999.25
 8296.80000    -999.25    -999.25    -999.25  243.86440    3.75730    4.54630  -46.09830   97.20220   87.80520    8.29150    -999.25
 8297.30000    -999.25    -999.25    -999.25  238.30220    3.87110    4.60050  -45.78560   95.75700   86.74240    8.14700    -999.25
 8297.80000    -999.25    -999.25    -999.25  233.30390    3.97000    4.65470  -45.55910   94.30380   84.49640    8.00250    -999.25
 8298.30000    -999.25    -999.25    -999.25  229.96350    3.99480    4.70900  -45.25880   95.47520   83.59360    7.96810    -999.25
 8298.80000    -999.25    -999.25    -999.25  227.98700    4.01950    4.76320  -44.78550   93.70770   81.62670    8.05930    -999.25
 8299.30000    -999.25    -999.25    -999.25  226.57030    4.04430    4.81750  -44.28170   91.13920   80.91260    8.11000    -999.25
 8299.80000    -999.25    -999.25    -999.25  224.89520    4.06900    4.87170  -44.14420   89.11550   82.41730    8.06720    -999.25
 8300.30000    -999.25    -999.25    -999.25  223.11750    4.09380    4.92600  -44.22090   87.77780   81.54800    8.03530    -999.25
 8300.80000    -999.25    -999.25    -999.25  220.97620    4.11860    4.98020  -44.13230   87.77010   80.54670    8.14300    -999.25
 8301.30000    -999.25    -999.25    -999.25  220.12310    4.14330    5.03450  -43.85490   89.75890   82.16080    8.27750    -999.25
 8301.80000    -999.25    -999.25    -999.25  219.72450    4.16810    5.08270  -43.78500   86.89100   82.72290    8.31520    -999.25
 8302.30000    -999.25    -999.25    -999.25  219.75150    4.19280    5.10510  -43.80830   85.30360   81.75550    8.28610    -999.25
 8302.80000    -999.25    -999.25    -999.25  220.10760    4.20930    5.12760  -43.80880   84.62360   81.33270    8.31280    -999.25
 8303.30000    -999.25    -999.25    -999.25  220.23490    4.15870    5.15010  -43.80720   82.68470   81.34540    8.32930    -999.25
 8303.80000    -999.25    -999.25    -999.25  219.17860    4.15860    5.17260  -43.75540   81.45830   82.04190    8.30430    -999.25
 8304.30000    -999.25    -999.25    -999.25  218.02760    4.17550    5.19500  -43.73710   83.24250   79.39230    8.27400    -999.25
 8304.80000    -999.25    -999.25    -999.25  216.40450    4.27470    5.21750  -43.36970   79.33660   80.13910    8.27570    -999.25
 8305.30000    -999.25    -999.25    -999.25  214.77300    4.28590    5.23710  -42.96290   76.74960   81.54370    8.25410    -999.25
 8305.80000    -999.25    -999.25    -999.25  213.18950    4.32690    5.25410  -42.58060   82.45750   80.47100    8.25550    -999.25
 8306.30000    -999.25    -999.25    -999.25  211.34870    4.36550    5.27110  -42.23160   83.57940   80.91280    8.26470    -999.25
 8306.80000    -999.25    -999.25    -999.25  210.63900    4.40410    5.28810  -42.19430   87.18320   83.30930    8.29220    -999.25
 8307.30000    -999.25    -999.25    -999.25  209.78360    4.44280    5.30510  -42.49290   85.86260   84.07370    8.31980    -999.25
