~Version ---------------------------------------------------
VERS.      2.0 : CWLS log ASCII Standard -VERSION 2.0
WRAP.       NO : One line per depth step
CREA. 12/12/17 : LAS Creation Date
~Well ------------------------------------------------------
STRT.FT                        1050.0 : START DEPTH
STOP.FT                       10050.0 : STOP DEPTH
STEP.FT                      50.00000 : STEP LENGTH
NULL.                         -999.25 : NULL VALUE
COMP.        SKELLY OIL OF CANADA LTD : COMPANY
WELL. SKELLY A3 TWO CREEK 10-17-62-16 : WELL
FLD .                                 : FIELD
LOC .                                 : LOCATION
CTRY.                          CANADA : COUNTRY
SRVC.                         Unknown : SERVICE COMPANY
DATE.                     26-Aug-1976 : LOGDATE
PROV.                         Alberta : PROVINCE
UWI .                100101706216W500 : UNIQUE WELL ID
SLAT.WGS84                   54.36596 : SURFACE LATITUDE
SLON.WGS84                   -116.357 : SURFACE LONGITUDE
~Curve Information -----------------------------------------
DEPT    .FT    : Depth Curve
CALDED  .IN    : CALIPER FROM DENSITY LOG [ADJ. TO RESISTIVITY LOG]
CALSED  .IN    : CALIPER FROM SONIC LOG [ADJ. TO RESISTIVITY LOG]
CALWS   .IN    : CALIPER [CALSED SPL. TO CALDED @ 10018']
CILDED  .MMHO  : CONDUCTIVITY FROM RESISTIVITY LOG
CONDWS  .MMHO  : CONDUCTIVITY [1000/DRESWS]
DCORWS  .G/C3  : DENSITY CORRECTION [DRHOED]
DENWS   .G/C3  : FORMATION BULK DENSITY [RHOBED]
DPHILSED.V/V   : DENSITY POROSITY LIMESTONE [MATRIX ASSUMED, M=2.71, F=1.00] FROM DENSITY  [ADJ. TO RESISTIVITY LOG]
DPHISSED.V/V   : DENSITY POROSITY SANDSTONE [MATRIX ASSUMED, M=2.65, F=1.00] FROM DENSITY LOG [ADJ. TO RESISTIVITY LOG]
DPOLSWS .V/V   : DENSITY POROSITY LIMESTONE [CALC. FROM DENWS, M=2.71, F=1.00]
DRESWS  .OHMM  : DEEP RESUISTIVITY [1000/CILDED IF ILDED < 1, ILDED & SPL. TO ILDED @ 3970']
DRHOED  .G/C3  : DENSITY CORRECTION  FROM DENSITY LOG [ADJ. TO RESISTIVITY LOG]
DTED    .US/F  : DELTA-TIME FROM SONIC LOG [ADJ. TO RESISTIVITY LOG]
DTWS    .US/F  : COMPRESSIONAL SONIC [DTED]
GRDED   .GAPI  : GAMMA RAY FROM DENSITY LOG [ADJ. TO RESISTIVITY LOG]
GRSED   .GAPI  : GAMMA RAY FROM SONIC LOG [ADJ. TO RESISTIVITY LOG]
GRWS    .GAPI  : GAMMA RAY [GRSED SPL. TO GRDED @ 10023']
ILDED   .OHMM  : DEEP INDUCTION RESISTIVITY FROM RESISTIVITY LOG
ILMED   .OHMM  : MEDIUM INDUCTION RESISTIVITY FROM RESISTIVITY LOG
LL8ED   .OHMM  : LATEROLOG 8 RESISTIVITY FROM RESISTIVITY LOG
MRESWS  .OHMM  : MEDIUM RESISTIVITY [ILMED]
NPHILSED.V/V   : NEUTRON POROSITY LIMESTONE FROM DENSITY LOG [ADJ. TO RESISTIVITY LOG]
NPHISSED.V/V   : NEUTRON POROSITY SANDSTONE FROM DENSITY LOG [ADJ. TO RESISTIVITY LOG]
NPOLSWS .V/V   : NEUTRON POROSITY LIMESTONE [NPHISSED MATRIX CONVERSION FOR LIMESTONE, SPL. TO NPHILSED @ 6448']
RHOBED  .G/C3  : BULK DENSITY FROM DENSITY LOG [ADJ. TO RESISTIVITY LOG]
SPRED   .MV    : SPONTANEOUS POTENTIAL FROM RESISTIVITY LOG
SPWS    .MV    : SPONTANEOUS POTENTIAL [BASELINE 0 MV, SPRED]
SRESWS  .OHMM  : SHALLOW RESISTIVITY [LL8ED]
~Params ----------------------------------------------------
PD  .                     GL : PERMANENT DATUM
EPD .FT               3020.5 : ELEVATION PERMANENT DATUM
LMF .                     KB : LOG MEASURED FROM
DAPD.FT                 14.9 : FEET ABOVE PERMANENT DATUM
EKB .FT               3035.4 : KELLY BUSHING
EGL .FT               3020.5 : GROUND LEVEL
DATE.               08/26/76 : RUN DATE
RUN .                      1 : RUN NUMBER
DD  .FT                10065 : DEPTH DRILLER
DL  .FT                10059 : DEPTH LOGGER
BLI .FT                10053 : BOTTOM LOG INTERVAL
TLI .FT                 1048 : TOP LOG INTERVAL
CBD .FT                 1047 : CASING BOTTOM DRILLER
CBL .FT                 1048 : CASING BOTTOM LOGGER
BS  .IN                7.875 : BIT SIZE
BSD .FT                10065 : BIT SIZE AT DEPTH
DFT .               GEL CHEM : DRILLING FLUID TYPE
DFD .                    9.9 : DRILLING FLUID DENSITY
DFV .                    2.2 : DRILLING FLUID VISCOSITY
DFPH.                      9 : DRILLING FLUID PH
DFL .                    6.2 : DRILLING FLUID LOSS
MSS .             CIRCULATED : MUD SAMPLE SOURCE
RMS .OHMM               2.55 : RESISTIVITY MUD SAMPLE
MST .DEGF                 57 : MUD SAMPLE TEMPERATURE
RMF .OHMM               2.27 : RESISTIVITY MUD FILTRATE SAMPLE
MFST.DEGF                 60 : MUD FILTRATE SAMPLE TEMPERATURE
RMC .OHMM               2.87 : RESISTIVITY MUD CAKE
MCST.DEGF                 55 : MUD CAKE SAMPLE TEMPERATURE
RMB .OHMM               0.77 : RESISTIVITY MUD AT BHT
TCS .HRS                   3 : TIME CIRCULATED STOPPED
LUN .                   7691 : LOGGING UNIT NUMBER
LUL .                    WCT : LOGGING UNIT LOCATION
ENGI.              CROCKFORD : RECORDING ENGINEER
WITN.                   BALL : WITNESSED BY
CLNT.                A2DTECH : CLIENT CODE
ORIG.        2" 5" 10" PRINT : ORIGIN OF DATA
UWI .       100101706216W500 : UNIQUE WELL ID
DICO. A2D Technologies, Inc. : DIGITIZING COMPANY
~Other -----------------------------------------------------
DIL-LL-CNL-FDC-BCS LOG RUN
~ASCII -----------------------------------------------------
# ...
 3550.00000    -999.25    8.99850    8.99850  157.21630  162.84790    -999.25    -999.25    -999.25    -999.25    -999.25    6.14070    -999.25  106.13920  106.13920    -999.25  169.51110  169.51110    6.14070    -999.25    7.79180    -999.25    -999.25    -999.25    -999.25    -999.25 -127.77080   -4.83360    7.79180
 3600.00000    -999.25    9.24250    9.24250   98.23580   97.83400    -999.25    -999.25    -999.25    -999.25    -999.25   10.22140    -999.25   84.01170   84.01170    -999.25  104.78740  104.78740   10.22140    -999.25   12.10330    -999.25    -999.25    -999.25    -999.25    -999.25 -127.72810   -5.21310   12.10330
 3650.00000    -999.25   10.38280   10.38280  141.82430  147.16270    -999.25    -999.25    -999.25    -999.25    -999.25    6.79520    -999.25   92.63820   92.63820    -999.25  109.53260  109.53260    6.79520    -999.25    7.18730    -999.25    -999.25    -999.25    -999.25    -999.25 -128.26880   -6.17330    7.18730
 3700.00000    -999.25    8.95670    8.95670  138.68480  144.60270    -999.25    -999.25    -999.25    -999.25    -999.25    6.91550    -999.25   87.75960   87.75960    -999.25   99.33980   99.33980    6.91550    -999.25    7.63030    -999.25    -999.25    -999.25    -999.25    -999.25 -128.12310   -6.44980    7.63030
 3750.00000    -999.25    9.37540    9.37540  141.24940  138.86000    -999.25    -999.25    -999.25    -999.25    -999.25    7.20150    -999.25   89.39610   89.39610    -999.25  100.86910  100.86910    7.20150    -999.25    6.92050    -999.25    -999.25    -999.25    -999.25    -999.25 -131.89010  -10.63630    6.92050
 3800.00000    -999.25    9.35790    9.35790  142.65360  138.96610    -999.25    -999.25    -999.25    -999.25    -999.25    7.19600    -999.25   90.13360   90.13360    -999.25  105.38290  105.38290    7.19600    -999.25    6.63350    -999.25    -999.25    -999.25    -999.25    -999.25 -129.60680   -8.77250    6.63350
 3850.00000    -999.25   11.10690   11.10690  125.65920  123.86510    -999.25    -999.25    -999.25    -999.25    -999.25    8.07330    -999.25   81.67540   81.67540    -999.25   95.89300   95.89300    8.07330    -999.25    7.60510    -999.25    -999.25    -999.25    -999.25    -999.25 -129.64540   -9.23330    7.60510
 3900.00000    -999.25   11.37070   11.37070  157.40940  148.19860    -999.25    -999.25    -999.25    -999.25    -999.25    6.74770    -999.25   96.76430   96.76430    -999.25   98.09300   98.09300    6.74770    -999.25    5.95060    -999.25    -999.25    -999.25    -999.25    -999.25 -127.44080   -7.44820    5.95060
 3950.00000    -999.25   13.29040   13.29040  151.49830  156.52430    -999.25    -999.25    -999.25    -999.25    -999.25    6.38910    -999.25   87.33310   87.33310    -999.25   93.09320   93.09320    6.38910    -999.25    6.04950    -999.25    -999.25    -999.25    -999.25    -999.25 -129.07560   -9.50530    6.04950
 4000.00000    -999.25   12.56740   12.56740    -999.25  118.08330    -999.25    -999.25    -999.25    -999.25    -999.25    8.46860    -999.25   90.39330   90.39330    -999.25   90.42450   90.42450    8.46860    7.07900    7.48660    7.07900    -999.25    -999.25    -999.25    -999.25 -130.29790  -11.14700    7.48660
 4050.00000    -999.25   10.04380   10.04380    -999.25  120.45440    -999.25    -999.25    -999.25    -999.25    -999.25    8.30190    -999.25   85.77380   85.77380    -999.25   98.19770   98.19770    8.30190    7.23330    7.83440    7.23330    -999.25    -999.25    -999.25    -999.25 -130.48320  -11.75180    7.83440
 4100.00000    -999.25   11.93640   11.93640    -999.25  108.21570    -999.25    -999.25    -999.25    -999.25    -999.25    9.24080    -999.25   83.17250   83.17250    -999.25   92.15170   92.15170    9.24080    8.11590    8.89470    8.11590    -999.25    -999.25    -999.25    -999.25 -127.88570   -9.57660    8.89470
 4150.00000    -999.25   10.18540   10.18540    -999.25  117.61520    -999.25    -999.25    -999.25    -999.25    -999.25    8.50230    -999.25   88.12290   88.12290    -999.25   96.72210   96.72210    8.50230    7.83290    8.42680    7.83290    -999.25    -999.25    -999.25    -999.25 -127.92880  -10.03910    8.42680
 4200.00000    -999.25   10.32730   10.32730    -999.25  119.62580    -999.25    -999.25    -999.25    -999.25    -999.25    8.36060    -999.25   86.00290   86.00290    -999.25   96.98920   96.98920    8.36060    7.24130    7.95380    7.24130    -999.25    -999.25    -999.25    -999.25 -127.69610  -10.22870    7.95380
 4250.00000    -999.25   10.17820   10.17820    -999.25  120.72770    -999.25    -999.25    -999.25    -999.25    -999.25    8.28310    -999.25   85.61730   85.61730    -999.25   93.66910   93.66910    8.28310    7.32880    8.37300    7.32880    -999.25    -999.25    -999.25    -999.25 -127.58910  -10.54120    8.37300
 4300.00000    -999.25   10.61740   10.61740    -999.25  148.12620    -999.25    -999.25    -999.25    -999.25    -999.25    6.75100    -999.25   92.92490   92.92490    -999.25   98.93260   98.93260    6.75100    5.92320    7.17960    5.92320    -999.25    -999.25    -999.25    -999.25 -125.35100   -8.72250    7.17960
 4350.00000    -999.25   11.72880   11.72880    -999.25  160.66580    -999.25    -999.25    -999.25    -999.25    -999.25    6.22410    -999.25   95.36190   95.36190    -999.25  104.14210  104.14210    6.22410    5.71290    6.55040    5.71290    -999.25    -999.25    -999.25    -999.25 -123.76390   -7.55770    6.55040
 4400.00000    -999.25   10.41610   10.41610    -999.25  115.90710    -999.25    -999.25    -999.25    -999.25    -999.25    8.62760    -999.25   91.02100   91.02100    -999.25  111.22710  111.22710    8.62760    7.89400   10.01880    7.89400    -999.25    -999.25    -999.25    -999.25 -121.66640   -5.87970   10.01880
 4450.00000    -999.25    9.88430    9.88430    -999.25  123.61410    -999.25    -999.25    -999.25    -999.25    -999.25    8.09070    -999.25   93.34680   93.34680    -999.25  111.38010  111.38010    8.09070    7.25510    9.63660    7.25510    -999.25    -999.25    -999.25    -999.25 -122.05040   -6.68590    9.63660
 4500.00000    -999.25    9.04270    9.04270    -999.25  106.48720    -999.25    -999.25    -999.25    -999.25    -999.25    9.39080    -999.25   95.90590   95.90590    -999.25  128.96990  128.96990    9.39080    8.43140   11.38360    8.43140    -999.25    -999.25    -999.25    -999.25 -117.96570   -3.02070   11.38360
 4550.00000    -999.25    8.78600    8.78600    -999.25   65.57120    -999.25    -999.25    -999.25    -999.25    -999.25   15.25060    -999.25   73.24970   73.24970    -999.25   92.96660   92.96660   15.25060   16.33050   25.87100   16.33050    -999.25    -999.25    -999.25    -999.25 -117.94180   -3.42360   25.87100
 4600.00000    -999.25   10.83900   10.83900    -999.25  155.84820    -999.25    -999.25    -999.25    -999.25    -999.25    6.41650    -999.25   98.84310   98.84310    -999.25  108.72210  108.72210    6.41650    5.89060    7.67950    5.89060    -999.25    -999.25    -999.25    -999.25 -118.62930   -4.55240    7.67950
 4650.00000    -999.25    9.72020    9.72020    -999.25  148.70550    -999.25    -999.25    -999.25    -999.25    -999.25    6.72470    -999.25   87.52480   87.52480    -999.25   94.42310   94.42310    6.72470    6.10290    6.91640    6.10290    -999.25    -999.25    -999.25    -999.25 -121.54230   -7.90390    6.91640
 4700.00000    -999.25    9.86520    9.86520    -999.25  165.01470    -999.25    -999.25    -999.25    -999.25    -999.25    6.06400    -999.25   88.37450   88.37450    -999.25   98.67780   98.67780    6.06400    5.53860    6.17880    5.53860    -999.25    -999.25    -999.25    -999.25 -117.85980   -4.66270    6.17880
 4750.00000    -999.25    8.70890    8.70890    -999.25  127.60310    -999.25    -999.25    -999.25    -999.25    -999.25    7.83680    -999.25   80.74190   80.74190    -999.25  105.21540  105.21540    7.83680    7.41740    7.93040    7.41740    -999.25    -999.25    -999.25    -999.25 -117.66870   -4.91000    7.93040
