~Version ---------------------------------------------------
VERS. 2.0 : CWLS log ASCII Standard -VERSION 2.0
WRAP. YES : MULTIPLE LINES PER DEPTH STEP
~Well ------------------------------------------------------
STRT.FT                      2000.0 : START DEPTH
STOP.FT                     17600.0 : STOP DEPTH
STEP.FT                    50.00000 : STEP LENGTH
NULL.                      -99925.0 : NULL VALUE
COMP.        SEAFORT PETROLEUM LTD. : COMPANY
WELL. SEAFORT ET AL KAKWA 2-20-61-7 : WELL
FLD .                               : FIELD
LOC .                               : LOCATION
CTRY.                        CANADA : COUNTRY
SRVC.        Schlumberger of Canada : SERVICE COMPANY
DATE.                   12-Aug-1975 : LOGDATE
PROV.                       Alberta : PROVINCE
UWI .              100022006107W600 : UNIQUE WELL ID
SLAT.WGS84                 54.28609 : SURFACE LATITUDE
SLON.WGS84                -119.0081 : SURFACE LONGITUDE
~Curve Information -----------------------------------------
DEPT    .FT    : DEPTH FEET
CALDED  .IN    : CALIPER FROM DENSITY LOG [ADJ TO GRRED]
CALSED  .IN    : CALIPER FROM SONIC LOG
CALWS   .IN    : CALIPER [CALSED]
CONDWS  .MMHO  : CONDUCTIVITY [1000/DRESWS]
DCORED  .G/C3  : DENSITY CORRECTION FROM DENSITY LOG [ADJ TO GRRED]
DCORWS  .G/C3  : DENSITY CORRECTION [DCORED]
DENWS   .G/C3  : BULK DENSITY [M=2.65 F=1.0] <14590> [M=2.71 F=1.0] [RHOBED]
DPHILSED.V/V   : DENSITY POROSITY [M=2.71 F=1.0] FROM DENSITY LOG [ADJ TO GRRED]
DPHISSED.V/V   : DENSITY POROSITY [M=2.65 F=1.0] FROM DENSITY LOG [ADJ TO GRRED]
DPOWS   .V/V   : DENSITY POROSITY [M=2.71 F=1.0] [CALCULATED FROM DENWS]
DRESWS  .OHMM  : DEEP RESISTIVITY [SPL ILDED <14590> LLDED]
DTED    .US/F  : DELTA TIME FROM SONIC LOG
DTWS    .US/F  : DELTA TIME [DTED]
GRDED   .GAPI  : GAMMA RAY FROM DENSITY LOG [ADJ TO GRRED]
GRRED   .GAPI  : GAMMA RAY FROM RESISTIVITY LOG
GRSED   .GAPI  : GAMMA RAY FROM SONIC LOG
GRWS    .GAPI  : GAMMA RAY [GRSED, CSG ABOVE 2005F]
ILDED   .OHMM  : INDUCTION LOG DEEP RESISTIVITY
ILMED   .OHMM  : INDUCTION LOG MEDIUM RESISTIVITY
LL8ED   .OHMM  : 8 INCH LATEROLOG RESISTIVITY
LLDED   .OHMM  : LATEROLOG DEEP RESISTIVITY
LLSED   .OHMM  : LATEROLOG SHALLOW RESISTIVITY
MRESWS  .OHMM  : MEDIUM RESISTIVITY [ILMED]
NPHILSED.V/V   : NEUTRON POROSITY LIMESTONE FROM DENSITY LOG [ADJ TO GRRED]
NPHISSED.V/V   : NEUTRON POROSITY SANDSTONE FROM DENSITY LOG [ADJ TO GRRED]
NPOWS   .V/V   : NEUTRON POROSITY LIMESTONE [CONVERTED NPHISSED TO LIMESTONE SPL WITH NPHILSED @14516F]
RHOBED  .G/C3  : BULK DENSITY FROM DENSITY LOG [ADJ TO GRRED]
SPRED   .MV    : SPONTANEOUS POTENTIAL FROM RESISTIVITY LOG
SPWS    .MV    : SPONTANEOUS POTENTIAL [BASELINE 0 MV] [SPRED]
SRESWS  .OHMM  : SHALLOW RESISTIVITY [SPL LL8ED <14590> LLSED]
~Params ----------------------------------------------------
PD  .                     GL : PERMANENT DATUM
EPD .FT                 3465 : ELEVATION PERMANENT DATUM
LMF .                     KB : LOG MEASURED FROM
DAPD.FT                   21 : FEET ABOVE PERMANENT DATUM
EKB .FT                 3486 : KELLY BUSHING
EGL .FT                 3465 : GROUND LEVEL
DATE.               10/06/75 : RUN DATE
RUN .                      2 : RUN NUMBER
DD  .FT                17618 : DEPTH DRILLER
DL  .FT                17600 : DEPTH LOGGER
BLI .FT                17600 : BOTTOM LOG INTERVAL
TLI .FT                14577 : TOP LOG INTERVAL
CBD .FT                14590 : CASING BOTTOM DRILLER
CBL .FT                14577 : CASING BOTTOM LOGGER
BS  .IN                  9.5 : BIT SIZE
BSD .FT                17618 : BIT SIZE AT DEPTH
DFT .                    GEL : DRILLING FLUID TYPE
DFD .                   13.8 : DRILLING FLUID DENSITY
DFV .                    115 : DRILLING FLUID VISCOSITY
DFPH.                     11 : DRILLING FLUID PH
DFL .                      7 : DRILLING FLUID LOSS
RMS .OHMM              0.809 : RESISTIVITY MUD SAMPLE
MST .DEGF                 75 : MUD SAMPLE TEMPERATURE
WITN.                  BROWN : WITNESSED BY
CLNT.                A2DTECH : CLIENT CODE
ORIG.               5" PRINT : ORIGIN OF DATA
UWI .       100022006107W600 : UNIQUE WELL ID
DICO. A2D Technologies, Inc. : DIGITIZING COMPANY
~Other -----------------------------------------------------
~ASCII -----------------------------------------------------
# ...
 15200.00000    9.46030    8.84510    8.84510    0.07270    0.10340    0.10340    2.74600   -0.02110   -99925.0   -0.02110 13758.86820   48.47940   48.47940   12.23740    9.38860   10.21370   10.21370   -99925.0   -99925.0   -99925.0 13758.86820 2174.82960   -99925.0    0.00910   -99925.0    0.00910    2.74600   -99925.0   -99925.0 2174.82960
 15250.00000    9.11250    8.81730    8.81730    0.26030    0.00610    0.00610    2.73410   -0.01550   -99925.0   -0.01410 3842.36430   48.86420   48.86420   12.60980    9.94940   13.57570   13.57570   -99925.0   -99925.0   -99925.0 3842.36430 2193.14720   -99925.0    0.00820   -99925.0    0.00820    2.73410   -99925.0   -99925.0 2193.14720
 15300.00000    8.73760    8.79580    8.79580    0.06380   -0.00350   -0.00350    2.70920    0.00460   -99925.0    0.00050 15679.89060   48.69830   48.69830   13.10970   11.14280   12.19200   12.19200   -99925.0   -99925.0   -99925.0 15679.89060 2196.65970   -99925.0    0.00880   -99925.0    0.00880    2.70920   -99925.0   -99925.0 2196.65970
 15350.00000    8.96300    8.81720    8.81720    1.25900    0.00620    0.00620    2.74440   -0.01790   -99925.0   -0.02010  794.26120   49.86560   49.86560   15.40390    9.48100   10.95610   10.95610   -99925.0   -99925.0   -99925.0  794.26120  642.25900   -99925.0    0.01120   -99925.0    0.01120    2.74440   -99925.0   -99925.0  642.25900
 15400.00000    9.42840    8.97520    8.97520    0.02920    0.02560    0.02560    2.75850   -0.02710   -99925.0   -0.02840 34236.78520   49.45910   49.45910   14.20700    9.42250   11.70620   11.70620   -99925.0   -99925.0   -99925.0 34236.78520 1850.93210   -99925.0    0.01150   -99925.0    0.01150    2.75850   -99925.0   -99925.0 1850.93210
 15450.00000    9.32120    8.86480    8.86480    0.35460    0.00300    0.00300    2.74430   -0.01960   -99925.0   -0.02010 2820.33180   48.53490   48.53490   11.67810    8.91670   12.45350   12.45350   -99925.0   -99925.0   -99925.0 2820.33180 1078.76660   -99925.0    0.01520   -99925.0    0.01520    2.74430   -99925.0   -99925.0 1078.76660
 15500.00000    9.52210    8.85090    8.85090    0.16860    0.05160    0.05160    2.78230   -0.04370   -99925.0   -0.04230 5929.78080   49.77240   49.77240   13.32000   12.18790   14.61830   14.61830   -99925.0   -99925.0   -99925.0 5929.78080 1227.54570   -99925.0    0.01150   -99925.0    0.01150    2.78230   -99925.0   -99925.0 1227.54570
 15550.00000    9.66900    8.88360    8.88360    0.03990    0.01710    0.01710    2.74040   -0.01750   -99925.0   -0.01780 25050.26370   49.20870   49.20870   12.64580    9.59320   13.42980   13.42980   -99925.0   -99925.0   -99925.0 25050.26370 1461.27910   -99925.0    0.01070   -99925.0    0.01070    2.74040   -99925.0   -99925.0 1461.27910
 15600.00000    9.97000    8.93960    8.93960    0.33710    0.00370    0.00370    2.75620   -0.02410   -99925.0   -0.02700 2966.53660   49.99350   49.99350   16.04040   10.12670   13.83840   13.83840   -99925.0   -99925.0   -99925.0 2966.53660  591.24910   -99925.0    0.01550   -99925.0    0.01550    2.75620   -99925.0   -99925.0  591.24910
 15650.00000    9.90360    8.52150    8.52150    1.61900    0.00550    0.00550    2.73580   -0.01230   -99925.0   -0.01510  617.67060   50.28990   50.28990   16.65510    9.73130   14.07440   14.07440   -99925.0   -99925.0   -99925.0  617.67060  409.71500   -99925.0    0.01660   -99925.0    0.01660    2.73580   -99925.0   -99925.0  409.71500
 15700.00000    9.93010    8.58860    8.58860    0.12680    0.00080    0.00080    2.73730   -0.01470   -99925.0   -0.01600 7884.23000   48.73600   48.73600   15.85020    8.98680   12.24630   12.24630   -99925.0   -99925.0   -99925.0 7884.23000 2216.74270   -99925.0    0.01040   -99925.0    0.01040    2.73730   -99925.0   -99925.0 2216.74270
 15750.00000   10.26410    8.84980    8.84980    0.29890    0.02520    0.02520    2.74110   -0.01540   -99925.0   -0.01820 3345.46680   49.12600   49.12600   14.51810   10.24310   12.05930   12.05930   -99925.0   -99925.0   -99925.0 3345.46680 2070.31740   -99925.0    0.00990   -99925.0    0.00990    2.74110   -99925.0   -99925.0 2070.31740
 15800.00000    9.69700    8.82120    8.82120    0.03440    0.00730    0.00730    2.72280   -0.00430   -99925.0   -0.00750 29053.22660   48.16210   48.16210   13.87380    9.62350   11.08360   11.08360   -99925.0   -99925.0   -99925.0 29053.22660 1730.97680   -99925.0    0.00920   -99925.0    0.00920    2.72280   -99925.0   -99925.0 1730.97680
 15850.00000    9.89940    8.86790    8.86790    0.68870    0.01440    0.01440    2.74330   -0.01740   -99925.0   -0.01950 1452.05410   48.95560   48.95560   17.55060   13.70570   18.26510   18.26510   -99925.0   -99925.0   -99925.0 1452.05410  626.46760   -99925.0    0.00840   -99925.0    0.00840    2.74330   -99925.0   -99925.0  626.46760
 15900.00000   10.31110    8.91950    8.91950    0.87730    0.01370    0.01370    2.74230   -0.02020   -99925.0   -0.01890 1139.90840   49.32430   49.32430   20.14790   14.71110   20.91050   20.91050   -99925.0   -99925.0   -99925.0 1139.90840  384.52570   -99925.0    0.00950   -99925.0    0.00950    2.74230   -99925.0   -99925.0  384.52570
 15950.00000   10.46230    9.09900    9.09900    0.02930    0.01210    0.01210    2.73550   -0.01930   -99925.0   -0.01490 34083.87110   48.99900   48.99900   10.02080    8.76750    9.10590    9.10590   -99925.0   -99925.0   -99925.0 34083.87110  513.41410   -99925.0    0.00680   -99925.0    0.00680    2.73550   -99925.0   -99925.0  513.41410
 16000.00000    9.97910    8.87260    8.87260    1.78390    0.03280    0.03280    2.76240   -0.02430   -99925.0   -0.03060  560.56990   49.79200   49.79200   25.55290   19.41520   26.93080   26.93080   -99925.0   -99925.0   -99925.0  560.56990  384.01120   -99925.0    0.00990   -99925.0    0.00990    2.76240   -99925.0   -99925.0  384.01120
 16050.00000    9.98250    9.14650    9.14650    0.12580    0.00230    0.00230    2.71960   -0.00110   -99925.0   -0.00560 7946.10600   49.02410   49.02410   25.71220   15.42340   24.67630   24.67630   -99925.0   -99925.0   -99925.0 7946.10600  601.97990   -99925.0    0.00740   -99925.0    0.00740    2.71960   -99925.0   -99925.0  601.97990
 16100.00000    9.59950    9.15200    9.15200    1.22800    0.02250    0.02250    2.75140   -0.02810   -99925.0   -0.02420  814.31400   49.42960   49.42960   28.74780   19.63080   25.99570   25.99570   -99925.0   -99925.0   -99925.0  814.31400  349.89480   -99925.0    0.01100   -99925.0    0.01100    2.75140   -99925.0   -99925.0  349.89480
 16150.00000    9.95640    8.95990    8.95990   12.08640    0.05240    0.05240    2.75770   -0.02460   -99925.0   -0.02790   82.73790   52.33280   52.33280   28.90190   18.16400   26.22380   26.22380   -99925.0   -99925.0   -99925.0   82.73790  103.76560   -99925.0    0.01760   -99925.0    0.01760    2.75770   -99925.0   -99925.0  103.76560
 16200.00000   11.84630    9.79370    9.79370  202.19580    0.01520    0.01520    2.63420    0.04510   -99925.0    0.04430    4.94570   70.07970   70.07970   79.36760   58.11770   85.52290   85.52290   -99925.0   -99925.0   -99925.0    4.94570    4.72190   -99925.0    0.26840   -99925.0    0.26840    2.63420   -99925.0   -99925.0    4.72190
 16250.00000   10.55200    9.27970    9.27970    1.94780    0.01420    0.01420    2.74300   -0.01820   -99925.0   -0.01930  513.41080   53.62760   53.62760   18.90590   12.87260   25.03580   25.03580   -99925.0   -99925.0   -99925.0  513.41080  649.41190   -99925.0    0.01190   -99925.0    0.01190    2.74300   -99925.0   -99925.0  649.41190
 16300.00000   14.47260   10.99280   10.99280  181.12990    0.04750    0.04750    2.62670    0.06400   -99925.0    0.04870    5.52090   81.04130   81.04130   73.58830   55.70930   68.61650   68.61650   -99925.0   -99925.0   -99925.0    5.52090    4.99370   -99925.0    0.31420   -99925.0    0.31420    2.62670   -99925.0   -99925.0    4.99370
 16350.00000   -99925.0   11.95400   11.95400  203.08280    0.03980    0.03980    2.62210    0.05880   -99925.0    0.05140    4.92410   77.39400   77.39400   70.49320   62.03520   71.58150   71.58150   -99925.0   -99925.0   -99925.0    4.92410    4.39040   -99925.0    0.33350   -99925.0    0.33350    2.62210   -99925.0   -99925.0    4.39040
