~Version ---------------------------------------------------
VERS.      2.0 : CWLS log ASCII Standard -VERSION 2.0
WRAP.       NO : One line per depth step
CREA. 01/02/18 : LAS Creation Date
~Well ------------------------------------------------------
STRT.FT                          1500.0 : START DEPTH
STOP.FT                         13000.0 : STOP DEPTH
STEP.FT                        50.00000 : STEP LENGTH
NULL.                           -999.25 : NULL VALUE
COMP.  AMOCO CANADA PETROLEUM CO., LTD. : COMPANY
WELL. AMOCO ET AL BERLAND D-1 6-7-60-22 : WELL
FLD .                                   : FIELD
LOC .                                   : LOCATION
CTRY.                            CANADA : COUNTRY
SRVC.                      Schlumberger : SERVICE COMPANY
DATE.                       10-Dec-1976 : LOGDATE
PROV.                           Alberta : PROVINCE
UWI .                  100060706022W500 : UNIQUE WELL ID
SLAT.WGS84                     54.17117 : SURFACE LATITUDE
SLON.WGS84                    -117.2921 : SURFACE LONGITUDE
~Curve Information -----------------------------------------
DEPT    .FT    : Depth Curve
CALDED  .IN    : CALIPER FROM DENSITY LOG
CALSED  .IN    : CALIPER FROM SONIC LOG
CALWS   .IN    : CALIPER [CALDED]
CONDWS  .MMHO  : CONDUCTIVITY [1000/DRESWS]
DCORED  .G/C3  : DENSITY CORRECTION FROM DENSITY LOG
DCORWS  .G/C3  : DENSITY CORRECTION [DCORED]
DENWS   .G/C3  : BULK DENSITY [M=2.71 F=1.00] [TOP RHOBED 2287.5 M CALC. DPHISSED 7505' DPHILSED]
DPHILSED.V/V   : DENSITY POROSITY [M=2.71 F=1.00] FROM DENSITY LOG
DPHISSED.V/V   : DENSITY POROSITY [M=2.65 F=1.00] FROM DENSITY LOG
DPOLSWS .V/V   : DENSITY POROSITY [M=2.71 F=1.00] [CALC. FROM DENWS]
DRESWS  .OHMM  : DEEP RESISTIVITY [ILDED]
DTED    .US/F  : DELTA TIME FROM SONIC LOG [DEPTH ADJ TO LL8]
DTWS    .US/F  : DELTA TIME [DTED]
GRDED   .GAPI  : GAMMA RAY FROM DENSITY LOG
GRSED   .GAPI  : GAMMA RAY FROM SONIC LOG
GRWS    .GAPI  : GAMMA RAY [GRSED]
ILDED   .OHMM  : INDUCTION LOG DEEP RESISTIVITY
ILMED   .OHMM  : INDUCTION LOG MEDIUM RESISTIVITY
LL8ED   .OHMM  : 8 INCH LATEROLOG RESISTIVITY
MRESWS  .OHMM  : MEDIUM RESISTIVITY [ILMED]
NPHILSED.V/V   : NEUTRON POROSITY LIMESTONE FROM DENSITY LOG
NPHISSED.V/V   : NEUTRON POROSITY SANDSTONE FROM DENSITY LOG
NPOLSWS .V/V   : NEUTRON POROSITY LIMESTONE [TOP NPHISSED CONVERTED TO LIME FROM POWER LOG, 8750' NPHILSED]
RHOBED  .G/C3  : BULK DENSITY FROM DENSITY LOG [DEPTH ADJ TO LL8]
SPRED   .MV    : SPONTANEOUS POTENTIAL FROM RESISTIVITY LOG
SPWS    .MV    : SPONTANEOUS POTENTIAL [BASELINE 0 MV] [SPRED]
SRESWS  .OHMM  : SHALLOW RESISTIVITY [LL8ED]
~Params ----------------------------------------------------
PD  .                     GL : PERMANENT DATUM
EPD .M                  3639 : ELEVATION PERMANENT DATUM
LMF .                     KB : LOG MEASURED FROM
DAPD.M                    16 : FEET ABOVE PERMANENT DATUM
EKB .M                  3655 : KELLY BUSHING
EGL .M                  3639 : GROUND LEVEL
DATE.             12/10/1976 : RUN DATE
RUN .                      2 : RUN NUMBER
DD  .M                 12990 : DEPTH DRILLER
DL  .M                 13000 : DEPTH LOGGER
BLI .M                 12994 : BOTTOM LOG INTERVAL
TLI .M                  7504 : TOP LOG INTERVAL
CBD .M                  7499 : CASING BOTTOM DRILLER
CBL .M                  7504 : CASING BOTTOM LOGGER
BS  .MM                  8.5 : BIT SIZE
BSD .M                 13000 : BIT SIZE AT DEPTH
DFT .             GEL BARITE : DRILLING FLUID TYPE
DFD .                    9.1 : DRILLING FLUID DENSITY
DFV .                     73 : DRILLING FLUID VISCOSITY
DFPH.                    9.5 : DRILLING FLUID PH
DFL .                    8.9 : DRILLING FLUID LOSS
MSS .               FLOWLINE : MUD SAMPLE SOURCE
RMS .OHMM               1.44 : RESISTIVITY MUD SAMPLE
MST .DEGC                 60 : MUD SAMPLE TEMPERATURE
RMF .OHMM               1.12 : RESISTIVITY MUD FILTRATE SAMPLE
MFST.DEGC                 55 : MUD FILTRATE SAMPLE TEMPERATURE
RMB .OHMM               0.26 : RESISTIVITY MUD AT BHT
TCS .HRS                 6.5 : TIME CIRCULATED STOPPED
LUN .                   7635 : LOGGING UNIT NUMBER
LUL .                    EDM : LOGGING UNIT LOCATION
ENGI.                 MACKAY : RECORDING ENGINEER
WITN.                SHIRLEY : WITNESSED BY
CLNT.                A2DTECH : CLIENT CODE
ORIG.            2" 5" PRINT : ORIGIN OF DATA
UWI .       100060706022W500 : UNIQUE WELL ID
DICO. A2D Technologies, Inc. : DIGITIZING COMPANY
~Other -----------------------------------------------------
SPRED INTERFERENCE CAUSING RANDOM DRIFTING OF THE BASE LINE ABOVE 7218'
~ASCII -----------------------------------------------------
 1500.00000    -999.25    -999.25    -999.25    -999.25    -999.25    -999.25    -999.25    -999.25    -999.25    -999.25    -999.25    -999.25    -999.25    -999.25   36.00930   36.00930    -999.25    -999.25    -999.25    -999.25    -999.25    -999.25    -999.25    -999.25    -999.25    -999.25    -999.25
 1550.00000   13.15620    -999.25   13.15620   63.82920    0.15270    0.15270    2.39600    -999.25    0.14790    0.18360   15.66680   94.58140   94.58140   58.27820   53.48880   53.48880   15.66680   13.58090   11.90810   13.58090    -999.25    0.34550    0.29640    2.39600  -81.76460  -28.16710   11.90810
 1600.00000   14.29910    -999.25   14.29910   72.79080    0.01970    0.01970    2.39040    -999.25    0.16840    0.18690   13.73800   82.60860   82.60860   84.98740   77.42760   77.42760   13.73800   12.73130   15.14430   12.73130    -999.25    0.35350    0.30490    2.39040  -72.47160  -18.87410   15.14430
 1650.00000   15.00000    -999.25   15.00000   24.43910    0.07190    0.07190    2.54480    -999.25    0.06970    0.09660   40.91810   79.65380   79.65380   83.04820   69.21050   69.21050   40.91810   30.95910   24.70710   30.95910    -999.25    0.22300    0.17100    2.54480  -67.89020  -14.29270   24.70710
 1700.00000   15.00000    -999.25   15.00000   75.33240    0.07360    0.07360    2.01790    -999.25    0.38440    0.40470   13.27450  117.31580  117.31580   97.81180   85.02430   85.02430   13.27450   11.54410   22.23700   11.54410    -999.25    0.56000    0.53230    2.01790  -66.24360  -12.64610   22.23700
 1750.00000   15.00000    -999.25   15.00000   76.60080    0.04070    0.04070    1.79710    -999.25    0.49780    0.53390   13.05470  123.91870  123.91870   75.32790   59.59740   59.59740   13.05470    8.19010   15.34130    8.19010    -999.25    0.59970    0.57610    1.79710  -62.73780   -9.14030   15.34130
 1800.00000   15.00000    -999.25   15.00000  155.41220    0.06920    0.06920    2.31490    -999.25    0.21840    0.23110    6.43450  141.25900  141.25900   79.95030   71.41280   71.41280    6.43450    6.99890   10.63540    6.99890    -999.25    0.46290    0.42450    2.31490  -58.59430   -4.99680   10.63540
 1850.00000   15.00000    -999.25   15.00000  139.63950    0.11300    0.11300    1.89930    -999.25    0.47490    0.47410    7.16130  126.72390  126.72390   72.10870   58.93450   58.93450    7.16130    6.59510    7.20050    6.59510    -999.25    0.52240    0.49070    1.89930  -57.06030   -4.41030    7.20050
 1900.00000   15.00000    -999.25   15.00000  262.59130    0.10980    0.10980    2.04480    -999.25    0.34670    0.38900    3.80820   99.04470   99.04470   92.18270   77.63610   77.63610    3.80820    3.60150    4.16140    3.60150    -999.25    0.42640    0.38390    2.04480  -53.97950   -2.85780    4.16140
 1950.00000   15.00000    -999.25   15.00000  157.75110    0.20380    0.20380    2.07470    -999.25    0.34880    0.37150    6.33910   99.15170   99.15170   87.86180   84.43550   84.43550    6.33910    5.70360    6.09250    5.70360    -999.25    0.41630    0.37280    2.07470  -54.49110   -4.89770    6.09250
 2000.00000   15.00000    -999.25   15.00000  367.44440    0.09740    0.09740    1.60260    -999.25    0.60030    0.64760    2.72150  115.89710  115.89710  102.22180   99.44400   99.44400    2.72150    2.92550    3.46410    2.92550    -999.25    0.57590    0.54990    1.60260  -56.90570   -8.84060    3.46410
 2050.00000   15.00000    -999.25   15.00000  267.04410    0.23460    0.23460    2.03690    -999.25    0.36070    0.39360    3.74470   93.45550   93.45550   85.79530   76.41900   76.41900    3.74470    3.53870    4.44720    3.53870    -999.25    0.37070    0.32330    2.03690  -59.18960  -12.65270    4.44720
 2100.00000   15.00000    -999.25   15.00000  216.45020    0.17800    0.17800    2.16820    -999.25    0.30520    0.31680    4.62000  100.01040  100.01040   90.09660   73.98430   73.98430    4.62000    4.07010    4.53440    4.07010    -999.25    0.39880    0.35370    2.16820  -58.78310  -13.77450    4.53440
 2150.00000   15.00000    -999.25   15.00000  171.06300    0.17390    0.17390    2.43790    -999.25    0.13030    0.15910    5.84580   90.23530   90.23530   82.81010   75.99400   75.99400    5.84580    5.33060    6.11440    5.33060    -999.25    0.31930    0.26870    2.43790  -81.47800  -37.99770    6.11440
 2200.00000   15.00000    -999.25   15.00000   64.04020    0.13490    0.13490    2.32340    -999.25    0.19920    0.22610   15.61520   90.39350   90.39350   61.74090   48.79960   48.79960   15.61520   15.27650   13.78840   15.27650    -999.25    0.30190    0.25060    2.32340  -87.70850  -45.75650   13.78840
 2250.00000   15.00000    -999.25   15.00000  150.25840    0.14270    0.14270    2.13100    -999.25    0.30800    0.33860    6.65520  106.91150  106.91150   90.95050   86.52670   86.52670    6.65520    6.09890   10.11950    6.09890    -999.25    0.42300    0.38010    2.13100  -71.98830  -31.56450   10.11950
 2300.00000   15.00000    -999.25   15.00000   97.02140    0.13010    0.13010    2.40440    -999.25    0.14710    0.17870   10.30700   76.83900   76.83900   88.07310   73.94670   73.94670   10.30700    8.58800    7.90280    8.58800    -999.25    0.23590    0.18350    2.40440  -67.31190  -28.41640    7.90280
 2350.00000   15.00000    -999.25   15.00000   78.23930    0.11900    0.11900    2.45480    -999.25    0.12060    0.14920   12.78130   82.41800   82.41800   63.77560   58.10800   58.10800   12.78130   11.44910    9.66750   11.44910    -999.25    0.26530    0.21270    2.45480  -63.22730  -25.86010    9.66750
 2400.00000   13.61520    -999.25   13.61520   47.99040    0.11920    0.11920    2.42940    -999.25    0.14360    0.16410   20.83750   84.31400   84.31400   56.53000   52.15930   52.15930   20.83750   17.51280   16.51430   17.51280    -999.25    0.30830    0.25720    2.42940  -62.47800  -26.63910   16.51430
 2450.00000   13.54130    -999.25   13.54130   83.42020    0.14010    0.14010    2.43010    -999.25    0.13350    0.16370   11.98750   83.55670   83.55670   67.66690   59.91580   59.91580   11.98750   10.97660    9.78710   10.97660    -999.25    0.31550    0.26470    2.43010  -55.10910  -20.79840    9.78710
 2500.00000   15.00000    -999.25   15.00000  162.73130    0.22050    0.22050    1.86520    -999.25    0.45140    0.49400    6.14510   92.64950   92.64950   99.04550   92.79000   92.79000    6.14510    5.91930    5.57200    5.91930    -999.25    0.40610    0.36160    1.86520  -50.34310  -17.56070    5.57200
 2550.00000   13.67070    -999.25   13.67070   86.69120    0.04250    0.04250    2.43260    -999.25    0.13260    0.16220   11.53520   83.83070   83.83070   72.38860   66.36280   66.36280   11.53520   10.27070    9.27530   10.27070    -999.25    0.30490    0.25370    2.43260  -47.06690  -15.81280    9.27530
 2600.00000   12.72190    -999.25   12.72190   52.62580    0.10950    0.10950    2.33750    -999.25    0.18810    0.21780   19.00210   87.77100   87.77100   70.32960   62.02210   62.02210   19.00210   17.02560   15.62480   17.02560    -999.25    0.32370    0.27330    2.33750  -57.80070  -28.07490   15.62480
 2650.00000   15.00000    -999.25   15.00000  294.51610    0.21480    0.21480    1.91340    -999.25    0.43650    0.46580    3.39540   97.29750   97.29750  103.14160   95.97160   95.97160    3.39540    3.46300    4.17800    3.46300    -999.25    0.43630    0.39490    1.91340  -38.39750  -10.19990    4.17800
 2700.00000   15.00840    -999.25   15.00840  151.65760    0.20000    0.20000    1.94660    -999.25    0.43320    0.44640    6.59380  105.64800  105.64800   91.51440   81.70460   81.70460    6.59380    6.21330    6.32280    6.21330    -999.25    0.45720    0.41820    1.94660  -37.16180  -10.49250    6.32280
 2750.00000   15.00000    -999.25   15.00000  179.39150    0.20820    0.20820    1.88150    -999.25    0.45970    0.48450    5.57440   90.75170   90.75170   80.03570   75.89650   75.89650    5.57440    5.24170    5.80040    5.24170    -999.25    0.39630    0.35090    1.88150  -33.39360   -8.25260    5.80040
