~Version ---------------------------------------------------
VERS.      2.0 : CWLS log ASCII Standard -VERSION 2.0
WRAP.       NO : One line per depth step
CREA. 11/15/17 : LAS Creation Date
~Well ------------------------------------------------------
STRT.FT                        600.0 : START DEPTH
STOP.FT                      10800.0 : STOP DEPTH
STEP.FT                     50.00000 : STEP LENGTH
NULL.                        -999.25 : NULL VALUE
COMP.           PETROFINA CANADA LTD : COMPANY
WELL. FINA AMOCO HB FOXCK 6-35-60-18 : WELL
FLD .                                : FIELD
LOC .                                : LOCATION
CTRY.                         CANADA : COUNTRY
SRVC.         Schlumberger of Canada : SERVICE COMPANY
DATE.                    29-Aug-1976 : LOGDATE
PROV.                        Alberta : PROVINCE
UWI .               100063506018W500 : UNIQUE WELL ID
SLAT.WGS84                  54.22952 : SURFACE LATITUDE
SLON.WGS84                 -116.5928 : SURFACE LONGITUDE
~Curve Information -----------------------------------------
DEPT    .FT    : Depth Curve
CALDED  .IN    : CALIPER FROM DENSITY LOG, DEPTH ADJUSTED WITH [SPRED]
CALSED  .IN    : CALIPER FROM SONIC LOG, DEPTH ADJUSTED WITH [SPRED]
CALWS   .IN    : CALIPER [CALSED]
CONDWS  .MMHO  : CONDUCTIVITY [1000/DRESWS]
DCORED  .G/C3  : DENSITY CORRECTION FROM DENSITY LOG, DEPTH ADJUSTED WITH [SPRED]
DCORWS  .G/C3  : DENSITY CORRECTION [DCORED]
DENWS   .G/C3  : BULK DENSITY [RHOBED]
DPOLSWS .V/V   : DENSITY POROSITY LIMESTONE [CALCULATED FROM DENWS]
DPORLSED.V/V   : DENSITY POROSITY LIMESTONE FROM DENSITY LOG, DEPTH ADJUSTED WITH [SPRED]
DPORSSED.V/V   : DENSITY POROSITY SANDSTONE FROM DENSITY LOG, DEPTH ADJUSTED WITH [SPRED]
DRESWS  .OHMM  : DEEP RESISTIVITY [ILDED]
DTED    .US/F  : DELTA TIME FROM SONIC LOG, DEPTH ADJUSTED WITH [SPRED]
DTWS    .US/F  : DELTA TIME [DTED]
GRDED   .GAPI  : GAMMA RAY FROM DENSITY LOG, DEPTH ADJUSTED WITH [SPRED]
GRED    .GAPI  : GAMMA RAY FROM CEMENT LOG, DEPTH ADJUSTED WITH [SPRED]
GRSED   .GAPI  : GAMMA RAY FROM SONIC LOG, DEPTH ADJUSTED WITH [SPRED]
GRWS    .GAPI  : GAMMA RAY [GRSED], SPLICED WITH [GRED] FROM TOP TO 1095'
ILDED   .OHMM  : INDUCTION LOG DEEP RESISTIVITY
ILMED   .OHMM  : INDUCTION LOG MEDIUM RESISTIVITY
LL8ED   .OHMM  : 8 INCH LATEROLOG RESISTIVITY
MRESWS  .OHMM  : MEDIUM RESISTIVITY [ILMED]
NPOLSWS .V/V   : NEUTRON POROSITY LIMESTONE [NPORLSED], MATRIX CONVERTED FROM [NPORSSED] TO LIMESTONE FROM TOP TO 6954'
NPORLSED.V/V   : NEUTRON POROSITY LIMESTONE FROM DENSITY LOG, DEPTH ADJUSTED WITH [SPRED]
NPORSSED.V/V   : NEUTRON POROSITY SANDSTONE FROM DENSITY LOG, DEPTH ADJUSTED WITH [SPRED]
RHOBED  .G/C3  : BULK DENSITY FROM DENSITY LOG, DEPTH ADJUSTED WITH [SPRED]
SPRED   .MV    : SPONTANEOUS POTENTIAL FROM RESISTIVITY LOG
SPWS    .MV    : SPONTANEOUS POTENTIAL [BASELINE 0 MV] [SPRED]
SRESWS  .OHMM  : SHALLOW RESISTIVITY [LL8ED]
~Params ----------------------------------------------------
PD  .                     GL : PERMANENT DATUM
EPD .FT                 3085 : ELEVATION PERMANENT DATUM
LMF .                     KB : LOG MEASURED FROM
DAPD.FT                 15.7 : FEET ABOVE PERMANENT DATUM
EKB .FT               3100.9 : KELLY BUSHING
EDF .FT               3085.2 : DRILLING FLOOR
EGL .FT               3085.5 : GROUND LEVEL
DATE.               08/29/76 : RUN DATE
RUN .                      1 : RUN NUMBER
DD  .FT                10843 : DEPTH DRILLER
DL  .FT                10840 : DEPTH LOGGER
BLI .FT                10834 : BOTTOM LOG INTERVAL
TLI .FT                 1119 : TOP LOG INTERVAL
CBD .FT                 1119 : CASING BOTTOM DRILLER
CBL .FT                 1119 : CASING BOTTOM LOGGER
BS  .IN                 8.75 : BIT SIZE
BSD .FT                10843 : BIT SIZE AT DEPTH
DFT .               GEL CHEM : DRILLING FLUID TYPE
DFD .                    9.3 : DRILLING FLUID DENSITY
DFV .                    150 : DRILLING FLUID VISCOSITY
DFPH.                   10.5 : DRILLING FLUID PH
DFL .                    7.0 : DRILLING FLUID LOSS
MSS .            CIRCULATION : MUD SAMPLE SOURCE
RMS .OHMM               2.43 : RESISTIVITY MUD SAMPLE
MST .DEGF                 76 : MUD SAMPLE TEMPERATURE
RMF .OHMM               2.33 : RESISTIVITY MUD FILTRATE SAMPLE
MFST.DEGF                 73 : MUD FILTRATE SAMPLE TEMPERATURE
RMC .OHMM               2.22 : RESISTIVITY MUD CAKE
MCST.DEGF                 67 : MUD CAKE SAMPLE TEMPERATURE
RMB .OHMM               0.86 : RESISTIVITY MUD AT BHT
TCS .HRS                   3 : TIME CIRCULATED STOPPED
LUN .                   7691 : LOGGING UNIT NUMBER
LUL .                    WCT : LOGGING UNIT LOCATION
ENGI.              CROCKFORD : RECORDING ENGINEER
WITN.                 HALKOW : WITNESSED BY
CLNT.                A2DTECH : CLIENT CODE
ORIG.            2" 5" PRINT : ORIGIN OF DATA
UWI .       100063506018W500 : UNIQUE WELL ID
DICO. A2D Technologies, Inc. : DIGITIZING COMPANY
~Other -----------------------------------------------------
~ASCII -----------------------------------------------------
# ...
 9350.00000    8.91950    8.83090    8.83090    6.64480    0.02300    0.02300    2.71130   -0.00080   -0.00200    -999.25  150.49250   52.85440   52.85440   27.99270    -999.25   28.04630   28.04630  150.49250  154.04120  200.25710  154.04120    0.00940    0.00940    -999.25    2.71130  -17.92540  -23.53440  200.25710
 9400.00000    8.94030    8.93000    8.93000   15.35600    0.01560    0.01560    2.72930   -0.01130   -0.00500    -999.25   65.12100   54.10360   54.10360   31.11640    -999.25   30.75830   30.75830   65.12100   71.98350   87.18800   71.98350    0.01920    0.01920    -999.25    2.72930   -6.24590  -12.13050   87.18800
 9450.00000    9.08350    9.04320    9.04320   59.28100    0.01820    0.01820    2.73550   -0.01490   -0.01240    -999.25   16.86880   59.67510   59.67510   47.66860    -999.25   48.68860   48.68860   16.86880   17.70240   22.00690   17.70240    0.06860    0.06860    -999.25    2.73550   -0.44300   -6.60320   22.00690
 9500.00000    9.27540    9.13190    9.13190  129.76400    0.04350    0.04350    2.71830   -0.00490   -0.00810    -999.25    7.70630   68.85000   68.85000   75.27180    -999.25   72.09160   72.09160    7.70630    7.97670   10.72310    7.97670    0.12130    0.12130    -999.25    2.71830   -8.33790  -14.77370   10.72310
 9550.00000    9.16940    9.02360    9.02360   74.86620    0.01240    0.01240    2.67880    0.01830    0.02260    -999.25   13.36030   64.38690   64.38690   60.71050    -999.25   57.54250   57.54250   13.36030   13.96360   18.51730   13.96360    0.10480    0.10480    -999.25    2.67880   -2.09710   -8.80710   18.51730
 9600.00000    9.11210    9.04160    9.04160   88.32990    0.00950    0.00950    2.69240    0.01030    0.00740    -999.25   11.32120   69.62780   69.62780   86.15780    -999.25   83.19960   83.19960   11.32120   11.79310   15.25770   11.79310    0.13680    0.13680    -999.25    2.69240    1.33620   -5.65080   15.25770
 9650.00000   11.08530    9.68320    9.68320  114.77370    0.19130    0.19130    2.17010    0.31570    0.33020    -999.25    8.71280   79.40210   79.40210   93.65450    -999.25   93.27560   93.27560    8.71280    9.26090   12.71150    9.26090    0.26370    0.26370    -999.25    2.17010   -7.81490  -15.07760   12.71150
 9700.00000    9.06180    9.06320    9.06320   38.51230    0.05070    0.05070    2.63250    0.04530    0.04640    -999.25   25.96570   64.58850   64.58850   73.21830    -999.25   67.31450   67.31450   25.96570   28.39450   51.54210   28.39450    0.16540    0.16540    -999.25    2.63250   -8.87610  -16.41440   51.54210
 9750.00000   10.25320    9.59650    9.59650  106.11430    0.20880    0.20880    2.21880    0.28730    0.27790    -999.25    9.42380   71.44300   71.44300   80.06580    -999.25   79.10160   79.10160    9.42380    9.80870   12.47150    9.80870    0.19100    0.19100    -999.25    2.21880  -19.22050  -27.03440   12.47150
 9800.00000    9.07310    8.86990    8.86990   43.35600    0.10100    0.10100    2.63010    0.04670    0.04850    -999.25   23.06580   64.47500   64.47500   76.27040    -999.25   76.43130   76.43130   23.06580   25.17950   48.95810   25.17950    0.12450    0.12450    -999.25    2.63010   -7.07750  -15.16560   48.95810
 9850.00000    9.18260    9.06270    9.06270   64.04880    0.04190    0.04190    2.61070    0.05810    0.06050    -999.25   15.61310   63.65940   63.65940   67.66460    -999.25   68.37260   68.37260   15.61310   15.24410   16.85880   15.24410    0.15890    0.15890    -999.25    2.61070  -10.94180  -19.30690   16.85880
 9900.00000    9.00320    9.14770    9.14770   64.98020    0.03110    0.03110    2.62790    0.04800    0.05240    -999.25   15.38930   68.24010   68.24010   85.42060    -999.25   89.60510   89.60510   15.38930   13.99610   19.84530   13.99610    0.19660    0.19660    -999.25    2.62790  -14.03570  -22.67640   19.84530
 9950.00000    9.05060    9.08190    9.08190   51.00710    0.04020    0.04020    2.58270    0.07440    0.07840    -999.25   19.60510   69.00290   69.00290   83.95370    -999.25   88.17610   88.17610   19.60510   18.62020   21.58130   18.62020    0.19120    0.19120    -999.25    2.58270   -9.94260  -18.85890   21.58130
 10000.00000    9.09680    8.98450    8.98450   59.21050    0.06680    0.06680    2.63670    0.04290    0.03980    -999.25   16.88890   68.86950   68.86950   92.73900    -999.25   94.08160   94.08160   16.88890   16.16360   22.76060   16.16360    0.19160    0.19160    -999.25    2.63670   -3.05330  -12.24520   22.76060
 10050.00000    9.28940    9.01550    9.01550   78.03540    0.17170    0.17170    2.44270    0.15630    0.15750    -999.25   12.81530   71.42190   71.42190   91.09160    -999.25   90.02330   90.02330   12.81530   11.65850   16.94170   11.65850    0.20950    0.20950    -999.25    2.44270   -6.97340  -16.43950   16.94170
 10100.00000    9.10810    8.84720    8.84720  126.54540    0.05410    0.05410    2.63810    0.04200    0.04560    -999.25    7.90230   70.95220   70.95220   96.39810    -999.25   94.54870   94.54870    7.90230    7.63210   11.53860    7.63210    0.17620    0.17620    -999.25    2.63810   -8.34930  -18.09240   11.53860
 10150.00000    8.92020    8.90490    8.90490   11.60360    0.00510    0.00510    2.63810    0.04200    0.04290    -999.25   86.17980   71.71470   71.71470  119.44740    -999.25  112.52800  112.52800   86.17980  106.25550  683.99280  106.25550    0.15520    0.15520    -999.25    2.63810   -3.41650  -13.43520  683.99280
 10200.00000    8.86180    8.90510    8.90510    3.65980    0.00860    0.00860    2.49430    0.12610    0.13020    -999.25  273.24120   76.18570   76.18570  204.60150    -999.25  198.02750  198.02750  273.24120  572.37350  638.19420  572.37350    0.15720    0.15720    -999.25    2.49430  -37.79230  -48.08660  638.19420
 10250.00000    8.93430    8.93450    8.93450    3.54000    0.01730    0.01730    2.61110    0.05780    0.07210    -999.25  282.48550   64.61070   64.61070   99.04750    -999.25   93.84410   93.84410  282.48550  469.05910  563.87790  469.05910    0.13950    0.13950    -999.25    2.61110  -32.33790  -42.90790  563.87790
 10300.00000    8.99910    8.93430    8.93430    6.29500    0.00390    0.00390    2.51980    0.11120    0.11580    -999.25  158.90690   79.49020   79.49020  135.00610    -999.25  123.05300  123.05300  158.90690  405.04850  828.09790  405.04850    0.20980    0.20980    -999.25    2.51980    4.18980   -6.74490  828.09790
 10350.00000    9.01260    8.89730    8.89730    6.53210    0.04340    0.04340    2.68480    0.01470    0.01300    -999.25  153.08960   57.32940   57.32940   43.71070    -999.25   45.46950   45.46950  153.08960  140.37740  169.13700  140.37740    0.05070    0.05070    -999.25    2.68480  -25.05690  -36.62570  169.13700
 10400.00000   10.65710    9.08100    9.08100    0.71660    0.22310    0.22310    2.58530    0.07290    0.07300    -999.25 1395.46790   52.08510   52.08510    9.16730    -999.25   11.32250   11.32250 1395.46790 1435.78590 1482.55460 1435.78590   -0.00300   -0.00300    -999.25    2.58530 -105.76770 -117.96750 1482.55460
 10450.00000    9.92420    8.87800    8.87800    0.72570    0.22410    0.22410    2.69890    0.00650    0.01380    -999.25 1377.90200   48.05620   48.05620   14.83960    -999.25   13.39630   13.39630 1377.90200 1404.29220 1498.50180 1404.29220   -0.00020   -0.00020    -999.25    2.69890  -64.11810  -76.94880 1498.50180
 10500.00000    8.75570    8.59000    8.59000    3.54280    0.02100    0.02100    2.68780    0.01300    0.01440    -999.25  282.25950   48.52320   48.52320    9.99750    -999.25   10.25460   10.25460  282.25950  300.19900  340.24470  300.19900    0.00570    0.00570    -999.25    2.68780 -117.16930 -130.63090  340.24470
 10550.00000    8.64530    8.52920    8.52920   11.03880    0.15840    0.15840    2.58720    0.07180    0.07020    -999.25   90.60180   48.38050   48.38050   17.43040    -999.25   19.54500   19.54500   90.60180  148.33220  262.61970  148.33220    0.15000    0.15000    -999.25    2.58720 -136.61880 -150.70820  262.61970
