~Version ---------------------------------------------------
VERS.      2.0 : CWLS log ASCII Standard -VERSION 2.0
WRAP.       NO : ONE LINE PER DEPTH STEP
CREA. 03/19/14 : LAS CREATION DATE
~Well ------------------------------------------------------
STRT.M                          450.0 : START DEPTH
STOP.M                         3150.0 : STOP DEPTH
STEP.M                       50.00000 : STEP LENGTH
NULL.                         -999.25 : NULL VALUE
COMP.          DOME PETROLEUM LIMITED : COMPANY
WELL. DOME UNION FOX CREEK 5-36-61-18 : WELL
FLD .                                 : FIELD
LOC .                                 : LOCATION
CTRY.                          CANADA : COUNTRY
SRVC.                    Schlumberger : SERVICE COMPANY
DATE.                     02-Mar-1983 : LOGDATE
PROV.                         Alberta : PROVINCE
UWI .                100053606118W500 : UNIQUE WELL ID
SLAT.WGS84                    54.3159 : SURFACE LATITUDE
SLON.WGS84                  -116.5694 : SURFACE LONGITUDE
~Curve Information -----------------------------------------
DEPT  .M     : DEPTH CURVE
CALD  .MM    : CALIPER FROM DENSITY LOG
CALS  .MM    : CALIPER FROM SONIC LOG
DPHILS.V/V   : DENSITY POROSITY LIMESTONE FROM DENSITY LOG
DPHISS.V/V   : DENSITY POROSITY SANDSTONE FROM DENSITY LOG
DRHO  .K/M3  : BULK DENSITY CORRECTION FROM DENSITY LOG
DT    .US/M  : DELTA-T (INTERVAL TRANSIT TIME) FROM SONIC LOG
GRD   .GAPI  : GAMMA RAY FROM DENSITY LOG
GRS   .GAPI  : GAMMA RAY FROM SONIC LOG
ILD   .OHMM  : INDUCTION DEEP RESISTIVITY
ILM   .OHMM  : INDUCTION MEDIUM RESISTIVITY
NPHILS.V/V   : NEUTRON POROSITY LIMESTONE FROM DENSITY LOG
NPHISS.V/V   : NEUTRON POROSITY SANDSTONE FROM DENSITY LOG
RHOB  .K/M3  : BULK DENSITY FROM DENSITY LOG
SFLU  .OHMM  : SHALLOW FOCUSED RESISTIVITY (UNAVERAGED)
SPR   .MV    : SPONTANEOUS POTENTIAL FROM RESISTIVITY LOG
TEND  .KG    : TENSION FROM DENSITY LOG
TENR  .LBF   : TENSION FROM RESISTIVITY LOG
~Params ----------------------------------------------------
PD  .                         GL : PERMANENT DATUM
EPD .M                     862.2 : ELEVATION PERMANENT DATUM
LMF .                         KB : LOG MEASURED FROM
DAPD.M                       6.8 : FEET ABOVE PERMANENT DATUM
DMF .                         KB : DRILLING MEASURED FROM
EKB .M                       869 : KELLY BUSHING
EGL .M                     862.2 : GROUND LEVEL
DATE.                   03/02/83 : RUN DATE
RUN .                          1 : RUN NUMBER
DD  .M                      3170 : DEPTH DRILLER
DL  .M                    3169.5 : DEPTH LOGGER
BLI .M                    3168.6 : BOTTOM LOG INTERVAL
TLI .M                       436 : TOP LOG INTERVAL
CS  .MM                    244.5 : CASING SIZE
CBD .M                       436 : CASING BOTTOM DRILLER
CBL .M                       436 : CASING BOTTOM LOGGER
BS  .MM                    222.2 : BIT SIZE
BSD .M                      3170 : BIT SIZE AT DEPTH
DFT .                   GEL CHEM : DRILLING FLUID TYPE
DFD .                       1120 : DRILLING FLUID DENSITY
DFV .                         70 : DRILLING FLUID VISCOSITY
DFPH.                         10 : DRILLING FLUID PH
DFL .                         11 : DRILLING FLUID LOSS
MSS .                   FLOWLINE : MUD SAMPLE SOURCE
RMS .OHMM                   1.77 : RESISTIVITY MUD SAMPLE
MST .DEGC                   8.33 : MUD SAMPLE TEMPERATURE
RMF .OHMM                   1.45 : RESISTIVITY MUD FILTRATE SAMPLE
MFST.DEGC                   12.7 : MUD FILTRATE SAMPLE TEMPERATURE
RMC .OHMM                   0.43 : RESISTIVITY MUD CAKE
MCST.DEGC                   94.4 : MUD CAKE SAMPLE TEMPERATURE
MFSS.                      PRESS : MUD FILTRATE SAMPLE SOURCE
RMB .OHMM                  0.457 : RESISTIVITY MUD AT BHT
TCS .HRS                    1100 : TIME CIRCULATED STOPPED
TLAB.HRS                     200 : TIME LOGGER AT BOTTOM
LUN .                       8211 : LOGGING UNIT NUMBER
LUL .                        EDM : LOGGING UNIT LOCATION
ENGI.                    GAGGINO : RECORDING ENGINEER
WITN.                     FRASER : WITNESSED BY
CLNT.                    A2DTECH : CLIENT CODE
ORIG. 6.5"/100M 16.5"/100M PRINT : ORIGIN OF DATA
UWI .           100053606118W500 : UNIQUE WELL ID
DICO.     A2D Technologies, Inc. : DIGITIZING COMPANY
LSRV.                     DILSFL : LOG MNEMONIC
~Other -----------------------------------------------------
~ASCII -----------------------------------------------------
  450.00000  288.37630  245.47190    -999.25    0.29960  155.35750  340.75280   77.34150   70.55480    9.32740    8.63710    -999.25    0.37990 2222.05880    9.71710  -38.83830  536.61360 1456.14250
  500.00000  435.35110  361.07870    -999.25    0.59770  102.84420  427.13190   64.96230   75.16720    5.34920    3.58420    -999.25    0.52410 1646.60940    3.30680  -34.98990  575.39130 1713.27860
  550.00000  318.78490  288.41990    -999.25    0.49240  114.12320  356.48920   74.04170   65.88770    4.37450    3.63970    -999.25    0.47210 1866.98460    4.09860  -34.48020  602.64980 1139.54810
  600.00000  237.21800  227.83760    -999.25    0.18910   10.79860  311.86660   68.16110   63.10480   10.77650   10.53700    -999.25    0.33850 2341.84840   10.07200  -37.33020  622.85960 1731.47400
  650.00000  224.09540  222.15930    -999.25    0.17130   72.85480  297.05060   86.10480   94.36890    9.72250    8.35990    -999.25    0.31230 2373.42290    6.35720  -39.19280  644.43570 1625.59630
  700.00000  265.06260  241.28480    -999.25    0.32200  146.04760  304.66810   67.45000   67.04930    4.92050    4.84730    -999.25    0.31700 2171.58910    4.94520  -32.22470  673.43540 1728.05140
  750.00000  266.27880  230.48960    -999.25    0.34120  246.25750  309.74810   67.78610   66.79360    6.33790    5.37250    -999.25    0.36190 2065.22610    6.12290  -32.45240  679.22320 2631.90770
  800.00000  225.36140  228.79930    -999.25    0.15110    8.74300  293.14610   62.43800   60.71590   11.22610    9.29820    -999.25    0.37680 2371.58890   10.06090  -33.30300  723.61980 1709.14480
  850.00000  274.11850  240.99510    -999.25    0.18180   28.56190  292.79130   49.58620   49.16610    7.27240    7.30020    -999.25    0.33960 2318.42110    6.10560  -33.25630  734.06870 1796.60420
  900.00000  306.76370  243.50800    -999.25    0.23080  117.61900  317.24060   73.07350   60.77260    5.19400    4.94380    -999.25    0.45770 2269.46440    3.59350  -32.15150  761.98830 1715.21390
  950.00000  356.25160  246.22920    -999.25    0.54000  114.00830  289.52640   57.73970   51.37280    7.42190    5.78450    -999.25    0.45700 1795.47880    6.51040  -34.02560  791.02800 2051.48630
 1000.00000  343.89400  253.14820    -999.25    0.43530  185.73230  311.14530   62.51690   61.32930    5.40280    5.22980    -999.25    0.40300 1978.36690    5.00350  -32.24660  848.40840 2601.45730
 1050.00000  266.77900  281.35210    -999.25    0.17870  114.94600  290.56480   85.66370   80.09890    7.67650    6.96740    -999.25    0.37070 2376.86500    6.69680  -34.30750  825.77520 2099.99460
 1100.00000  340.63670  367.31030    -999.25    0.14220   28.60800  320.72330   97.19700   81.54620    7.19360    6.25810    -999.25    0.41260 2392.62650    6.61940  -32.91140  841.75730 2104.06030
 1150.00000  331.25160  286.87990    -999.25    0.35540  192.62630  261.49550   86.67400   78.26240    9.96370    9.59090    -999.25    0.30840 2078.84060   11.73700  -34.59250  869.42510 2189.94850
 1200.00000  343.31730  335.33850    -999.25    0.41380  142.03910  265.99450   87.82910   79.37340    8.64220    8.25250    -999.25    0.42870 2013.05400    7.54740  -29.80580  904.28620 2182.59010
 1250.00000  446.71670  349.78330    -999.25    0.41900  161.51580  287.75120   82.39880   82.34250    8.40820    7.13810    -999.25    0.44820 1995.11040    7.52580  -27.44780  924.18910 2231.91330
 1300.00000  318.99400  278.70810    -999.25    0.37010   92.63390  286.17860   96.08830   96.75580    8.35350    7.99400    -999.25    0.34370 2010.56320    8.58620  -21.45560  942.47490 2319.34690
 1350.00000  336.72380  304.41020    -999.25    0.19990   50.26280  290.60350  108.95620   94.61320    6.98970    6.81270    -999.25    0.36150 2306.80470    7.19670  -17.59980  953.97760 2366.59840
 1400.00000  298.74830  256.58850    -999.25    0.11510   32.77330  293.07360  104.06130   98.17810    8.93320    8.52410    -999.25    0.33320 2467.55660   10.05480  -18.04850 1005.55960 2444.44580
 1450.00000  338.17690  291.71340    -999.25    0.33260  159.38080  308.52910  101.36890   95.55590    6.52050    6.73210    -999.25    0.44150 2068.05220    8.03300  -14.40870 1011.46900 2499.76810
 1500.00000  253.92720  247.87020    -999.25    0.05290  112.46210  274.65690  105.17770  100.75380    7.83070    8.04720    -999.25    0.33760 2560.27290    8.24030  -15.40210 1041.06380 2511.49730
 1550.00000  318.47270  327.75320    -999.25    0.40920  148.53040  268.25440   97.33890   90.62510    5.96990    5.39420    -999.25    0.34180 1955.81570    6.41820  -15.15940 1079.18370 2638.78300
 1600.00000  288.97900  284.29290    -999.25    0.33640  167.69180  299.55050   92.70360   77.25490    2.91040    2.56710    -999.25    0.43480 2063.49270    3.39560  -11.45500 1068.08030 2566.91040
 1650.00000  242.26360  259.76040    -999.25    0.08090  106.48690  232.80020   59.32010   47.88870   10.63810   12.46920    -999.25    0.14290 2475.76270   13.99620  -15.72680 1378.87080 2708.91720
 1700.00000  250.28140  249.59850    -999.25    0.06900   -3.42200  239.31630   70.55990   68.10090   13.72500   14.31200    -999.25    0.24980 2537.20120   15.67460  -22.52870 1127.44190 2718.81080
 1750.00000  277.26630  277.57720    -999.25    0.07580    6.20870  236.12510   51.36850   47.57670   11.50490   10.91740    -999.25    0.18870 2522.69040   11.62460   32.34010 1156.93710 2829.69650
 1800.00000  269.75700  239.18160    -999.25    0.11490   14.70460  243.93680   59.03780   55.91720    8.89710    9.99460    -999.25    0.21400 2461.22630   12.68820    9.54140 1165.81910 2876.32540
 1850.00000  265.14110  261.89000    -999.25    0.00400   32.96120  252.00920   83.92370   75.63490    9.42790   10.95630    -999.25    0.24580 2632.96220   12.81650  119.75130 1194.62020 2919.06880
 1900.00000  276.86850  267.26140    -999.25    0.08360   24.61180  235.52510   75.68400   62.01550   10.44650   11.32390    -999.25    0.19440 2509.30180   15.51510   69.47590 1214.49820 2938.46360
 1950.00000  294.83830  287.45850    -999.25    0.18450  230.26020  289.14250   95.22280   89.42440    3.72810    3.57450    -999.25    0.43560 2348.23170    4.41430    5.31700 1226.97160 2977.38160
 2000.00000  241.78710  246.99070    -999.25    0.16260    2.53940  243.51150  239.19980  222.20650  319.35250 1808.07410    -999.25    0.24810 2385.54520 1832.52270   21.88200 1258.04190 3061.29170
 2050.00000  240.70460  243.84080   -0.00620   -0.07630   33.81010  177.40320   31.80570   22.74440   12.26700   13.89990    0.09130    0.13130 2720.71190   22.58000   70.49670 1275.39010 3097.41160
 2100.00000  246.36210  265.08510   -0.00030    -999.25   41.88640  188.43720   49.91790   45.62210    4.83850    5.81060    0.10600    -999.25 2710.45560   13.96330   77.81650 1290.54990 3149.67210
 2150.00000  256.36960  253.32000    0.01550    -999.25   70.61810  176.69940   15.27270   15.74660   33.84430   45.13590    0.02080    -999.25 2680.43240  144.02970   -3.00070 1317.95340 3162.07320
 2200.00000  291.57130  291.81740    0.00340    -999.25   43.79580  201.91850   35.89730   32.26200    3.02750    3.39860    0.06940    -999.25 2695.38550    9.89290 -276.48710 1351.39140 3273.82860
 2250.00000  235.76340  239.81700   -0.00440    -999.25    4.18780  180.45280   36.93980   34.04140   31.51700   33.86080    0.03500    -999.25 2713.50660   47.27300 -202.39950 1365.18950 3301.46780
 2300.00000  229.43300  237.49350    0.00500    -999.25   11.71220  174.60700   31.41360   23.94140  109.82160  128.72980    0.01190    -999.25 2700.61840  180.99590 -226.35840 1399.20580 3324.63310
 2350.00000  240.52500  247.48370    0.10330    -999.25    1.79040  173.68840  162.93470  103.65070  230.97230  599.20340    0.12570    -999.25 2531.98750  746.10490 -201.42910 1412.09720 3409.52120
 2400.00000  304.65900  242.46970    0.02900    -999.25  249.36720  164.05580   13.17690   13.27920 1097.58740  628.12370    0.00920    -999.25 2663.29300  727.80330 -272.87010 1442.22070 3463.09350
 2450.00000  203.88850  222.18940    0.06930    -999.25  136.55670  175.28400    9.48050   11.21040   35.94150   49.05160    0.05860    -999.25 2585.92310  108.40630 -277.46340 1447.07920 3525.80740
