~Version ---------------------------------------------------
VERS.      2.0 : CWLS log ASCII Standard -VERSION 2.0
WRAP.       NO : One line per depth step
CREA. 09/16/14 : LAS Creation Date
~Well ------------------------------------------------------
STRT.FT                      1000.0 : START DEPTH
STOP.FT                      9200.0 : STOP DEPTH
STEP.FT                    50.00000 : STEP LENGTH
NULL.                       -999.25 : NULL VALUE
COMP. AMOCO CANADA PETROLEUM CO LTD : COMPANY
WELL.    AMOCO HB SAKWA 11-26-62-14 : WELL
FLD .                               : FIELD
LOC .                               : LOCATION
CTRY.                        CANADA : COUNTRY
SRVC.                       Unknown : SERVICE COMPANY
DATE.                   15-Jan-1977 : LOGDATE
PROV.                       Alberta : PROVINCE
UWI .              100112606214W500 : UNIQUE WELL ID
SLAT.WGS84                 54.39502 : SURFACE LATITUDE
SLON.WGS84                 -115.993 : SURFACE LONGITUDE
~Curve Information -----------------------------------------
DEPT   .FT    : Depth Curve
CALD   .IN    : CALIPER FROM DENSITY LOG
CALS   .IN    : CALIPER FROM SONIC LOG
DPHI_LS.DEC   : DENSITY POROSITY LIMESTONE [M=2.71,F=1.0] FROM DENSITY LOG
DPHI_SS.DEC   : DENSITY POROSITY SANDSTONE [M=2.65,F=1.0] FROM DENSITY LOG
DRHO   .G/C3  : DENSITY CORRECTION FROM DENSITY LOG
DT     .US/F  : DELTA-T FROM SONIC LOG
GRD    .GAPI  : GAMMA RAY FROM DENSITY LOG
GRS    .GAPI  : GAMMA RAY FROM SONIC LOG
ILD    .OHMM  : DEEP INDUCTION RESISTIVITY FROM RESISTIVITY LOG
ILM    .OHMM  : MEDIUM INDUCTION RESISTIVITY FROM RESISTIVITY LOG
LL8    .OHMM  : LATEROLOG 8 FROM RESISTIVITY LOG
NPHI_LS.DEC   : NEUTRON POROSITY LIMESTONE FROM DENSITY LOG
NPHI_SS.DEC   : NEUTRON POROSITY SANDSTONE FROM DENSITY LOG
RHOB   .G/C3  : BULK DENSITY FROM DENSITY LOG
SPR    .MV    : SPONTANEOUS POTENTIAL FROM RESISTIVITY LOG
~Params ----------------------------------------------------
PD  .                     GL : PERMANENT DATUM
EPD .FT                 2835 : ELEVATION PERMANENT DATUM
LMF .                     KB : LOG MEASURED FROM
DAPD.FT                 14.6 : FEET ABOVE PERMANENT DATUM
EKB .FT               2849.6 : KELLY BUSHING
EGL .FT               2835.0 : GROUND LEVEL
DATE.               01/15/77 : RUN DATE
RUN .                      1 : RUN NUMBER
DD  .FT                 9200 : DEPTH DRILLER
DL  .FT                 9205 : DEPTH LOGGER
BLI .FT                 9204 : BOTTOM LOG INTERVAL
TLI .FT                 1012 : TOP LOG INTERVAL
CBD .FT                 1015 : CASING BOTTOM DRILLER
CBL .FT                 1012 : CASING BOTTOM LOGGER
BS  .IN                 8.25 : BIT SIZE
BSD .FT                 9200 : BIT SIZE AT DEPTH
DFT .                    GEL : DRILLING FLUID TYPE
DFD .                    9.1 : DRILLING FLUID DENSITY
DFV .                    105 : DRILLING FLUID VISCOSITY
DFPH.                    9.5 : DRILLING FLUID PH
RMS .OHMM               3.85 : RESISTIVITY MUD SAMPLE
MST .DEGF                 48 : MUD SAMPLE TEMPERATURE
RMF .OHMM               3.25 : RESISTIVITY MUD FILTRATE SAMPLE
MFST.DEGF                 62 : MUD FILTRATE SAMPLE TEMPERATURE
TCS .HRS                   8 : TIME CIRCULATED STOPPED
LUN .                   7802 : LOGGING UNIT NUMBER
LUL .                    EDM : LOGGING UNIT LOCATION
ENGI.                   PIHM : RECORDING ENGINEER
WITN.            PHILLIPCHUK : WITNESSED BY
CLNT.                A2DTECH : CLIENT CODE
ORIG.            2" 5" PRINT : ORIGIN OF DATA
UWI .       100112606214W500 : UNIQUE WELL ID
DICO. A2D Technologies, Inc. : DIGITIZING COMPANY
~Other -----------------------------------------------------
~ASCII -----------------------------------------------------
 1000.00000    -999.25    -999.25    -999.25    -999.25    -999.25    -999.25    -999.25   67.30760    -999.25    -999.25    -999.25    -999.25    -999.25    -999.25    -999.25
 1050.00000   11.17490   10.07050    -999.25    0.42330    0.23170  127.55110   74.77480   97.53290    4.65850    3.76810    3.91040    -999.25    0.45820    1.93560  -86.55200
 1100.00000   11.19120    9.14230    -999.25    0.41220    0.17310  142.97690   69.97500  108.65800    3.80690    3.22580    3.57480    -999.25    0.48050    2.00310  -88.37830
 1150.00000   11.06230    9.42380    -999.25    0.25230    0.10660  117.87360   78.86070   90.41230    5.01530    4.61850    5.05370    -999.25    0.40600    2.25510  -91.95230
 1200.00000    9.12590    9.33660    -999.25    0.40280    0.14140  112.17130   84.18650  103.68670    2.78400    2.50190    3.18630    -999.25    0.53430    2.02250  -94.07980
 1250.00000    9.05580    9.46510    -999.25    0.34620    0.17030  110.69300   85.57920   99.42190    5.04460    4.41250    4.56230    -999.25    0.44760    2.14290  -94.21380
 1300.00000    9.30320    9.50900    -999.25    0.24400    0.07150  136.76160  102.46290   96.07000    7.10080    6.61140    7.95860    -999.25    0.39850    2.24540  -94.51210
 1350.00000    9.68790    9.77850    -999.25    0.46970    0.13520  121.24240   84.53200  106.47990    3.18680    2.81110    3.18520    -999.25    0.52490    1.76650  -92.74520
 1400.00000    9.71270    9.99400    -999.25    0.40220    0.15540  109.21910   80.69880   92.02610    3.19090    2.77970    3.19950    -999.25    0.46290    2.01810  -90.86970
 1450.00000   11.12960    9.80710    -999.25    0.39370    0.14750  158.11700   90.13510  118.23140    4.05820    3.28430    4.17190    -999.25    0.46780    2.02270  -89.91000
 1500.00000    9.72490    9.67170    -999.25    0.33420    0.14110  110.94100   87.70420  107.66330    4.05370    3.60510    3.63930    -999.25    0.44270    2.14630  -89.71120
 1550.00000    9.20160    9.80100    -999.25    0.33070    0.13090  106.25280   82.04430  103.03760    3.07630    2.60870    3.07460    -999.25    0.55810    2.17000  -87.91900
 1600.00000   10.62300    9.62290    -999.25    0.43860    0.16770  113.22880  102.59940  112.05250    3.50100    3.29490    3.89300    -999.25    0.48520    2.01250  -86.77620
 1650.00000    9.95370    9.69550    -999.25    0.32130    0.22740  119.61090   79.00760  100.98190    4.00890    3.54060    3.68530    -999.25    0.39240    2.14630  -86.85890
 1700.00000   10.47490    9.15190    -999.25    0.33850    0.21110  102.97940   90.00550   94.69340    3.09110    2.87380    3.40260    -999.25    0.43230    2.10570  -86.87580
 1750.00000   12.99590   12.23370    -999.25    0.33320    0.05550  114.40290   86.88200   91.83120    2.69170    2.42670    2.83060    -999.25    0.43230    2.09940  -85.88580
 1800.00000    8.39540    9.03030    -999.25    0.27910    0.07270  104.45630   52.57830   64.85250   17.91110   14.36870   12.68560    -999.25    0.37040    2.25390  -99.98060
 1850.00000   11.45160    9.70770    -999.25    0.21900    0.07710   89.50650   72.74610   93.39860    4.54770    3.95950    3.92220    -999.25    0.37440    2.29640  -86.11910
 1900.00000   11.33150    9.67440    -999.25    0.26820    0.08470  103.31440   80.95200   90.27970    4.50340    4.00860    4.57790    -999.25    0.38440    2.18520  -83.40390
 1950.00000    8.88980    9.43710    -999.25    0.27680    0.17040  130.48330   53.87370   78.58080    7.20150    6.23070    7.43400    -999.25    0.38140    2.18320  -92.65150
 2000.00000   10.18710    9.51600    -999.25    0.22890    0.12720  117.90210   82.12870  129.07920    4.55500    3.87890    4.04980    -999.25    0.44580    2.26790  -82.14260
 2050.00000    9.22020    9.58660    -999.25    0.12720    0.03060  107.00610   55.40190   81.80210   13.21310   12.85830   20.98200    -999.25    0.25270    2.38880  -85.08890
 2100.00000   10.17500    9.59790    -999.25    0.18590    0.06720  138.08000   79.71940   91.49650    3.83130    3.42180    3.92230    -999.25    0.43740    2.38050  -82.14110
 2150.00000   10.59690    9.99300    -999.25    0.23120    0.06300  107.09430   73.71190   87.98800    4.08030    3.67980    4.06170    -999.25    0.40570    2.31330  -82.73340
 2200.00000   10.50190    9.70660    -999.25    0.20240    0.05220   99.14130   64.32280   73.50220    4.65200    4.15200    4.39830    -999.25    0.37240    2.33640  -83.11870
 2250.00000    9.38170    9.59680    -999.25    0.23900    0.06530  110.75230   69.03340   98.99910    5.71360    5.33780    6.60930    -999.25    0.34690    2.26670  -87.68140
 2300.00000    9.75720    9.43900    -999.25    0.20440    0.06030   95.40910   67.01320   77.75510    4.44760    3.97920    4.30160    -999.25    0.39450    2.30860  -90.99850
 2350.00000    8.77370    9.13220    -999.25    0.26490    0.11710  103.77710   71.43960  104.31510    3.46380    3.12730    3.36600    -999.25    0.40350    2.22100  -96.19670
 2400.00000    8.24770    9.06390    -999.25    0.22500    0.09890  125.37610   53.20300   71.93540   10.72680   10.38330    9.89830    -999.25    0.39730    2.30040  -81.71880
 2450.00000    8.90510    9.15680    -999.25    0.30240    0.09110  109.58630   49.53070   74.21520    5.67680    5.61850    8.86980    -999.25    0.60960    2.22590  -74.46120
 2500.00000    7.83960    9.59860    -999.25    0.25020    0.09470   97.24950   49.21900   62.71460   25.95020   27.61160   47.78090    -999.25    0.37230    2.31220  -82.68740
 2550.00000    9.77370    9.11250    -999.25    0.29690    0.20860  105.41360   66.46110   83.09240    4.89450    4.43220    4.69620    -999.25    0.48110    2.22450  -71.50030
 2600.00000    8.63990    9.17240    -999.25    0.21600    0.06730   88.05180   56.65040   57.67830    7.54730    6.77730    7.11280    -999.25    0.39690    2.33630  -75.08650
 2650.00000    9.63990    9.39190    -999.25    0.26820    0.08190  108.49490   73.99730   86.11530    3.94420    3.56410    4.03340    -999.25    0.43370    2.22190  -70.51880
 2700.00000    8.97050    9.15030    -999.25    0.18720    0.03710   99.55230   56.91590   57.20250    5.72510    5.08620    5.83750    -999.25    0.38760    2.34810  -72.92940
 2750.00000    9.64900    9.50130    -999.25    0.16370    0.10130   97.24940   66.81500   74.16900    4.52870    4.00530    4.52700    -999.25    0.38430    2.39220  -69.39160
 2800.00000    9.69890    9.30450    -999.25    0.14470    0.06210   92.28500   58.34200   60.44140    4.32960    4.15320    5.14730    -999.25    0.40810    2.45430  -69.53430
 2850.00000    9.63900    9.61830    -999.25    0.12770    0.05150   97.90880   68.43610   70.78060    5.03650    4.71960    5.07700    -999.25    0.36430    2.46580  -67.29340
 2900.00000    9.88110    9.58370    -999.25    0.14210    0.04860   97.12490   71.24820   83.24760    4.57090    4.41550    4.54640    -999.25    0.40290    2.44200  -66.77400
 2950.00000    9.69150    9.59130    -999.25    0.22230    0.12850   92.59630   99.58930  123.34180    6.42510    5.65460    6.10390    -999.25    0.39950    2.30130  -70.54250
 3000.00000   10.90770    9.61780    -999.25    0.12170    0.10420   99.90200  102.59610  130.01260    7.38420    6.52410    7.00030    -999.25    0.33930    2.47190  -70.14980
 3050.00000   11.86390    9.56160    -999.25    0.14330    0.11140  101.61990  108.05090  135.11240    6.08290    5.50550    6.47310    -999.25    0.38470    2.38470  -69.49760
 3100.00000   10.89690   10.17500    -999.25    0.11730    0.05050   91.43520  152.99660  171.76280    8.02620    7.48280    9.06270    -999.25    0.38700    2.48680  -65.57890
 3150.00000   10.95520    9.79420    -999.25    0.14350    0.08110   98.24660  111.70600  132.43360    8.01260    6.94860    7.57780    -999.25    0.35430    2.42910  -65.49570
 3200.00000   11.86650    9.80180    -999.25    0.18850    0.11810   90.17150  100.87210  118.92300    8.32630    7.52130    7.91350    -999.25    0.32870    2.38210  -66.52160
 3250.00000   12.53330    9.63420    -999.25    0.18850    0.06850   88.39500   94.34110  105.18730    7.02790    6.47200    6.75070    -999.25    0.32100    2.33330  -66.52860
