~Version ---------------------------------------------------
VERS.      2.0 : CWLS log ASCII Standard -VERSION 2.0
WRAP.       NO : One line per depth step
CREA. 12/19/17 : LAS Creation Date
~Well ------------------------------------------------------
STRT.FT                   1500.0 : START DEPTH
STOP.FT                  10100.0 : STOP DEPTH
STEP.FT                 50.00000 : STEP LENGTH
NULL.                    -999.25 : NULL VALUE
COMP. PHILLIPS PETROLEUM COMPANY : COMPANY
WELL. PHILLIPS KAYBOB 2-18-63-18 : WELL
FLD .                     KAYBOB : FIELD
LOC .                            : LOCATION
CTRY.                     CANADA : COUNTRY
SRVC.                      Welex : SERVICE COMPANY
DATE.                15-Dec-1959 : LOGDATE
PROV.                    Alberta : PROVINCE
UWI .           100021806318W500 : UNIQUE WELL ID
SLAT.WGS84              54.44531 : SURFACE LATITUDE
SLON.WGS84             -116.7064 : SURFACE LONGITUDE
~Curve Information -----------------------------------------
DEPT  .FT    : Depth Curve
CALWS .IN    : CALIPER [MCALED]
CONDWS.MMHO  : CONDUCTIVITY [1000/DRESWS]
DRESWS.OHMM  : DEEP RESISTIVITY [LAT9ED]
GRNED .GAPI  : GAMMA RAY FROM GRN LOG [ADJ. TO RESISTIVITY LOG]
GRWS  .GAPI  : GAMMA RAY [GRNED]
LAT9ED.OHMM  : LATEROLOG 9' FROM RESISTIVITY LOG
LT16ED.OHMM  : LATERLOG 16' FROM RESISTIVITY LOG
MCALED.IN    : CALIPER FROM MICRO LOG
NEUTED.NAPI  : NEUTRON FROM GRN LOG [ADJ. TO RESISTIVITY LOG]
NEUTWS.NAPI  : NEUTRON [NEUTED]
SNED  .OHMM  : SHORT NORMAL FROM RESISTIVITY LOG
SPRED .MV    : SPONTANEOUS POTENTIAL FROM RESISTIVITY LOG
SPWS  .MV    : SPONTANEOUS POTENTIAL [BASELINE 0 MV, SPRED]
SRESWS.OHMM  : SHALLOW RESISTIVITY [SNED]
~Params ----------------------------------------------------
PD  .                         RKB : PERMANENT DATUM
LMF .                          KB : LOG MEASURED FROM
DMF .                          KB : DRILLING MEASURED FROM
EKB .FT                      2620 : KELLY BUSHING
EDF .FT                      2618 : DRILLING FLOOR
EGL .FT                      2605 : GROUND LEVEL
DATE.                    12/15/59 : RUN DATE
RUN .                           2 : RUN NUMBER
DD  .FT                     10140 : DEPTH DRILLER
DL  .FT                     10144 : DEPTH LOGGER
BLI .FT                     10143 : BOTTOM LOG INTERVAL
TLI .FT                      1510 : TOP LOG INTERVAL
CS  .IN                     9.625 : CASING SIZE
CBD .FT                    1510.5 : CASING BOTTOM DRILLER
CBL .FT                      1510 : CASING BOTTOM LOGGER
BS  .IN                     7.875 : BIT SIZE
BSD .FT                     10140 : BIT SIZE AT DEPTH
DFT . OIL EMULSION GEL QX CAUSTIC : DRILLING FLUID TYPE
DFD .                        10.4 : DRILLING FLUID DENSITY
DFV .                          95 : DRILLING FLUID VISCOSITY
DFPH.                         9.5 : DRILLING FLUID PH
DFL .                         6.4 : DRILLING FLUID LOSS
MSS .                  CIRCULATED : MUD SAMPLE SOURCE
RMS .OHMM                     1.8 : RESISTIVITY MUD SAMPLE
MST .DEGF                      60 : MUD SAMPLE TEMPERATURE
RMF .OHMM                     1.5 : RESISTIVITY MUD FILTRATE SAMPLE
MFST.DEGF                      60 : MUD FILTRATE SAMPLE TEMPERATURE
RMC .OHMM                     2.2 : RESISTIVITY MUD CAKE
MCST.DEGF                      60 : MUD CAKE SAMPLE TEMPERATURE
RMB .OHMM                     0.6 : RESISTIVITY MUD AT BHT
MRT .DEGF                     194 : MAXIMUM RECORDED TEMPERATURE
LUN .                        6101 : LOGGING UNIT NUMBER
ENGI.                      FOWLER : RECORDING ENGINEER
WITN.            TIBBITS FISHBUCK : WITNESSED BY
CLNT.                     A2DTECH : CLIENT CODE
ORIG.                 2" 5" PRINT : ORIGIN OF DATA
UWI .            100021806318W500 : UNIQUE WELL ID
DICO.      A2D Technologies, Inc. : DIGITIZING COMPANY
~Other -----------------------------------------------------
IEL-GRN-ML LOG RAN
DATA FROM SMALL SCALE
~ASCII -----------------------------------------------------
# ...
 3950.00000   10.38280  111.96580    8.93130  126.95860  126.95860    8.93130    8.96080   10.38280  345.25610  345.25610    9.13390  -33.30830   -4.21390    9.13390
 4000.00000   10.67350  141.27490    7.07840  144.25430  144.25430    7.07840    7.94010   10.67350  327.59340  327.59340    7.79300  -40.98350   -9.93140    7.79300
 4050.00000   10.21670  144.27310    6.93130  129.23620  129.23620    6.93130    8.07560   10.21670  335.15190  335.15190    7.72900  -37.29600   -4.22940    7.72900
 4100.00000    9.91930  127.90670    7.81820  143.50160  143.50160    7.81820    8.60620    9.91930  325.06190  325.06190   10.57000  -40.41390   -8.92010   10.57000
 4150.00000   10.12030  120.32970    8.31050  142.51490  142.51490    8.31050    8.78900   10.12030  329.25540  329.25540   10.37540  -35.34710   -5.49930   10.37540
 4200.00000    9.08720  102.05960    9.79820  156.96950  156.96950    9.79820   10.73770    9.08720  331.45830  331.45830   16.38020  -38.64380   -6.74620   16.38020
 4250.00000   11.27210  100.93060    9.90780  137.03100  137.03100    9.90780    5.37540   11.27210  327.65710  327.65710   11.30830  -43.16020   -5.80120   11.30830
 4300.00000   10.02180   54.16470   18.46220  187.02590  187.02590   18.46220    9.31510   10.02180  347.76460  347.76460   20.48420  -41.58470   -4.42010   20.48420
 4350.00000    9.53840  115.49080    8.65870  125.56410  125.56410    8.65870   10.44210    9.53840  347.10900  347.10900   17.76650  -38.08030   -2.14930   17.76650
 4400.00000    9.99930  192.73390    5.18850  118.94440  118.94440    5.18850    7.29160    9.99930  328.21790  328.21790    6.66440  -44.51610   -7.96210    6.66440
 4450.00000    9.52880  176.03150    5.68080  116.68120  116.68120    5.68080    7.35890    9.52880  323.15720  323.15720    7.05630  -43.95100   -6.77410    7.05630
 4500.00000    9.14540  145.45030    6.87520  125.89180  125.89180    6.87520    6.79910    9.14540  324.91400  324.91400    7.40700  -43.96460   -6.16470    7.40700
 4550.00000    9.81950  188.66500    5.30040  133.86910  133.86910    5.30040    6.05790    9.81950  339.87980  339.87980    6.30670  -46.08060   -7.65770    6.30670
 4600.00000    9.94490  111.42680    8.97450  131.33430  131.33430    8.97450    7.72770    9.94490  485.69120  485.69120    8.13520  -45.29670   -6.25090    8.13520
 4650.00000   10.25480  176.24250    5.67400  140.91220  140.91220    5.67400    6.92890   10.25480  465.43800  465.43800    6.12210  -47.37420   -7.70540    6.12210
 4700.00000   10.36800  269.46910    3.71100  129.82420  129.82420    3.71100    4.25120   10.36800  384.77840  384.77840    5.86720  -48.14020   -4.03280    5.86720
 4750.00000   10.64480  198.67680    5.03330  142.99500  142.99500    5.03330    5.65910   10.64480  396.59810  396.59810    6.70160  -59.62390  -11.52060    6.70160
 4800.00000   10.40360  455.14540    2.19710  114.32520  114.32520    2.19710    1.62990   10.40360  411.33550  411.33550    2.88770  -61.24530   -8.82600    2.88770
 4850.00000   10.48320  336.17970    2.97460  134.06810  134.06810    2.97460    3.42850   10.48320  462.48040  462.48040    4.13940  -61.98540   -5.25000    4.13940
 4900.00000   10.21490  256.14750    3.90400  130.17700  130.17700    3.90400    4.48370   10.21490  442.14070  442.14070    5.53470  -70.21920   -9.45740    5.53470
 4950.00000   10.51000  159.92580    6.25290  107.71650  107.71650    6.25290    6.45820   10.51000  494.17180  494.17180   10.24180  -74.67630  -10.91510   10.24180
 5000.00000    9.38830   63.85610   15.66020  102.28010  102.28010   15.66020    8.34460    9.38830  533.66730  533.66730   19.09430  -72.12210   -5.36150   19.09430
 5050.00000    8.90240  550.29720    1.81720   61.36090   61.36090    1.81720    2.40480    8.90240  583.29660  583.29660   25.71190 -104.37180  -34.61080   25.71190
 5100.00000    9.96780  101.49500    9.85270  109.67330  109.67330    9.85270    1.17240    9.96780  488.78480  488.78480   21.50270  -82.69370   -9.91990   21.50270
 5150.00000   10.72570   36.76230   27.20180  113.49680  113.49680   27.20180   21.04120   10.72570  509.75070  509.75070   31.97590  -95.11710  -19.33050   31.97590
 5200.00000   10.77200   27.96520   35.75870   87.69930   87.69930   35.75870   73.31140   10.77200  477.11950  477.11950   26.02940  -87.60990  -12.56420   26.02940
 5250.00000   10.74000   32.10430   31.14850  102.24290  102.24290   31.14850   61.71840   10.74000  488.88030  488.88030   13.08810  -82.82140   -9.28550   13.08810
 5300.00000   10.77110   14.27780   70.03860  112.44160  112.44160   70.03860   21.51370   10.77110  448.36080  448.36080   20.79390  -82.51930  -10.49320   20.79390
 5350.00000   12.07410   34.37040   29.09480  108.26050  108.26050   29.09480   17.79230   12.07410  542.17180  542.17180   25.11000  -85.66010  -15.14370   25.11000
 5400.00000   10.62260   71.40410   14.00480   81.67190   81.67190   14.00480    5.10100   10.62260  646.35850  646.35850   22.60140 -119.27270  -50.12090   22.60140
 5450.00000   10.58630   92.27990   10.83660  110.88450  110.88450   10.83660    9.34050   10.58630  661.75290  661.75290   13.70090  -87.37730  -19.33190   13.70090
 5500.00000   10.77740   80.51340   12.42030   87.74880   87.74880   12.42030    1.19150   10.77740  541.58010  541.58010   15.34400  -91.32150  -24.38240   15.34400
 5550.00000   10.41410   74.46630   13.42890  108.22320  108.22320   13.42890    4.44930   10.41410  524.98180  524.98180   19.31030  -74.59700   -8.76430   19.31030
 5600.00000    9.24540   97.99790   10.20430   68.41870   68.41870   10.20430    8.36580    9.24540  585.97300  585.97300   21.58910 -100.32820  -25.19860   21.58910
 5650.00000   10.22220   79.34300   12.60350  104.07660  104.07660   12.60350   10.71780   10.22220  505.83610  505.83610   15.84870  -92.85330   -6.24170   15.84870
 5700.00000   10.33830   67.48870   14.81730  111.42610  111.42610   14.81730   14.49140   10.33830  516.86440  516.86440   20.41180  -86.02390   -3.14430   20.41180
 5750.00000    9.84920  139.46220    7.17040  116.78370  116.78370    7.17040    8.04060    9.84920  471.30220  471.30220   14.14510  -83.48100   -4.33340   14.14510
 5800.00000   10.29220  103.50150    9.66170  114.46280  114.46280    9.66170    9.52190   10.29220  469.31730  469.31730   18.87390  -91.34990  -12.35160   18.87390
 5850.00000   10.10460   28.69220   34.85270  113.04790  113.04790   34.85270   18.66820   10.10460  555.22330  555.22330   31.74590  -89.65510  -10.65680   31.74590
 5900.00000   10.80320   26.68500   37.47430   79.39570   79.39570   37.47430   27.48610   10.80320  600.82010  600.82010   29.01940  -98.00590  -19.00760   29.01940
 5950.00000   10.80690   87.29960   11.45480  124.34330  124.34330   11.45480   11.81170   10.80690  500.86570  500.86570   20.40700  -83.70660   -4.70830   20.40700
 6000.00000    9.57170  168.79920    5.92420   53.90690   53.90690    5.92420    7.06380    9.57170  600.44760  600.44760   24.01260 -170.16410  -91.16580   24.01260
 6050.00000   11.93470  460.27800    2.17260  111.16780  111.16780    2.17260    1.65580   11.93470  412.65960  412.65960    1.93190  -73.92190  -11.36600    1.93190
 6100.00000   10.00900   35.41090   28.23990  146.94410  146.94410   28.23990   16.23540   10.00900  567.26020  567.26020   30.61110  -76.42970   -5.75870   30.61110
 6150.00000    9.98950   72.06530   13.87630  118.23240  118.23240   13.87630   10.52190    9.98950  448.98570  448.98570   23.51150  -76.67890   -5.77910   23.51150
 6200.00000    9.16220    1.44550  691.79870  135.21190  135.21190  691.79870 1578.08330    9.16220  728.99050  728.99050  348.66090  -88.60480   -8.87210  348.66090
 6250.00000   10.33200   56.27180   17.77090   90.85270   90.85270   17.77090   13.97180   10.33200  616.75580  616.75580   17.19630  -98.76020   -9.10290   17.19630
 6300.00000    9.32000   72.83160   13.73030   90.12900   90.12900   13.73030    7.23640    9.32000  702.00380  702.00380   20.10320 -115.64200  -30.86980   20.10320
 6350.00000    7.96040   33.15620   30.16030   42.04290   42.04290   30.16030   13.78630    7.96040  673.35470  673.35470   68.20550 -141.27640  -61.81380   68.20550
