~Version ---------------------------------------------------
VERS.      2.0 : CWLS log ASCII Standard -VERSION 2.0
WRAP.       NO : One line per depth step
CREA. 09/08/14 : LAS Creation Date
~Well ------------------------------------------------------
STRT.FT                         1550.0 : START DEPTH
STOP.FT                        12000.0 : STOP DEPTH
STEP.FT                       50.00000 : STEP LENGTH
NULL.                          -999.25 : NULL VALUE
COMP. AMOCO CANADA PETROLEUM CO., LTD. : COMPANY
WELL.  AMOCO C-2 WASKAHIGAN 7-22-63-24 : WELL
FLD .                       WASKAHIGAN : FIELD
LOC .                                  : LOCATION
CTRY.                           CANADA : COUNTRY
SRVC.                          Unknown : SERVICE COMPANY
DATE.                      14-Dec-1976 : LOGDATE
PROV.                          Alberta : PROVINCE
UWI .                 100072206324W500 : UNIQUE WELL ID
SLAT.WGS84                    54.46349 : SURFACE LATITUDE
SLON.WGS84                   -117.5411 : SURFACE LONGITUDE
~Curve Information -----------------------------------------
DEPT   .FT    : DEPTH FEET
CALD   .IN    : CALIPER FROM DENSITY LOG
CALS   .IN    : CALIPER FROM SONIC LOG
DCOR   .G/C3  : DENSITY CORRECTION FROM DENSITY LOG
DPHI_LS.V/V   : DENSITY POROSITY LIMESTONE [M=2.71 F=1.0 ASSUMED] FROM DENSITY LOG
DPHI_SS.V/V   : DENSITY POROSITY SANDSTONE [M=2.65 F=1.0 ASSUMED] FROM DENSITY LOG
DT     .US/F  : DELTA TIME FROM SONIC LOG
GRD    .GAPI  : GAMMA RAY FROM DENSITY LOG
GRS    .GAPI  : GAMMA RAY FROM SONIC LOG
GRS_R  .GAPI  : GAMMA RAY (REPEAT SECTION) FROM SONIC LOG
ILD    .OHMM  : DEEP INDUCTION LOG RESISTIVITY FROM RESISTIVITY LOG
ILM    .OHMM  : MEDIUM INDUCTION LOG RESISTIVITY FROM RESISTIVITY LOG
LL8    .OHMM  : 8 INCH LATEROLOG RESISTIVITY FROM RESISTIVITY LOG
NPHI_LS.V/V   : NEUTRON POROSITY LIMESTONE FROM DENSITY LOG
NPHI_SS.V/V   : NEUTRON POROSITY SANDSTONE FROM DENSITY LOG
RHOB   .G/C3  : BULK DENSITY FROM DENSITY LOG
SPR    .MV    : SPONTANEOUS POTENTIAL FROM RESISTIVITY LOG
~Params ----------------------------------------------------
PD  .                     GL : PERMANENT DATUM
EPD .FT               2789.5 : ELEVATION PERMANENT DATUM
LMF .                     KB : LOG MEASURED FROM
DAPD.FT                 20.5 : FEET ABOVE PERMANENT DATUM
EKB .FT               2810.0 : KELLY BUSHING
EGL .FT               2789.5 : GROUND LEVEL
DATE.               12/14/76 : RUN DATE
RUN .                      1 : RUN NUMBER
DD  .FT                12005 : DEPTH DRILLER
DL  .FT                12008 : DEPTH LOGGER
BLI .FT                12002 : BOTTOM LOG INTERVAL
TLI .FT                 1519 : TOP LOG INTERVAL
CBD .FT                 1519 : CASING BOTTOM DRILLER
CBL .FT                 1519 : CASING BOTTOM LOGGER
BS  .IN                  8.5 : BIT SIZE
BSD .FT                12005 : BIT SIZE AT DEPTH
DFT .                    GEL : DRILLING FLUID TYPE
DFD .                    9.0 : DRILLING FLUID DENSITY
DFV .                     75 : DRILLING FLUID VISCOSITY
DFPH.                    9.5 : DRILLING FLUID PH
DFL .                   12.2 : DRILLING FLUID LOSS
MSS .               FLOWLINE : MUD SAMPLE SOURCE
RMS .OHMM               2.89 : RESISTIVITY MUD SAMPLE
MST .DEGF                 44 : MUD SAMPLE TEMPERATURE
RMF .OHMM               2.32 : RESISTIVITY MUD FILTRATE SAMPLE
MFST.DEGF                 62 : MUD FILTRATE SAMPLE TEMPERATURE
TCS .HRS                   4 : TIME CIRCULATED STOPPED
LUN .                   7635 : LOGGING UNIT NUMBER
LUL .                    EDM : LOGGING UNIT LOCATION
ENGI.                 PAQUIN : RECORDING ENGINEER
WITN.       MACDONALD FARLEY : WITNESSED BY
CLNT.                A2DTECH : CLIENT CODE
ORIG.            2" 5" PRINT : ORIGIN OF DATA
UWI .       100072206324W500 : UNIQUE WELL ID
DICO. A2D Technologies, Inc. : DIGITIZING COMPANY
~Other -----------------------------------------------------
~ASCII -----------------------------------------------------
# ...
 10150.00000   10.21590    9.22290    0.22860   -0.00850    -999.25   48.19910   17.34650   16.25490    -999.25 1649.57730 1398.57700 1552.46700    0.00300    -999.25    2.68390  -28.85680
 10200.00000    8.98320    8.75730   -0.01800    0.03370    -999.25   48.45770   15.70770   19.72140    -999.25  212.64610  226.48450  273.45750    0.00980    -999.25    2.66490  -83.29690
 10250.00000    8.77200    8.75730    0.03720   -0.06640    -999.25   50.06190   34.57890   37.36650    -999.25   20.46820   23.60160   34.91290    0.10150    -999.25    2.83270  -48.56980
 10300.00000    8.32090    8.02600    0.16960    0.01130    -999.25   48.01990   19.35610   22.69710    -999.25  181.38980  165.26800  309.53880    0.11570    -999.25    2.65930 -112.52000
 10350.00000    8.60710    8.51430    0.19450    0.03180    -999.25   52.54930   21.81160   23.01830    -999.25   19.56120   12.41460  147.90100    0.14590    -999.25    2.67550 -135.44770
 10400.00000   12.43910    9.59530    0.21930    0.15780    -999.25   47.38890   19.90530   19.90880    -999.25  183.07960  493.98520  439.36680    0.15040    -999.25    2.44920  -84.84300
 10450.00000   10.50480    9.44310    0.24440    0.14480    -999.25   53.05440   32.14870   38.58470    -999.25   84.24360   72.50350  137.44060    0.07650    -999.25    2.48800  -98.41010
 10500.00000    8.68710    8.90040   -0.00380   -0.00090    -999.25   49.58010   25.17660   28.04720    -999.25 1673.25920 1378.17210 1541.21970    0.03280    -999.25    2.69120  -88.63960
 10550.00000    8.91610    8.79530   -0.00650   -0.00100    -999.25   55.50830   64.17020   69.70040    -999.25   46.52540   48.78510   60.74680    0.08280    -999.25    2.69060  -85.08250
 10600.00000    8.99950    8.75310   -0.00180   -0.00810    -999.25   53.15610   49.36890   50.34360    -999.25  115.02470   94.07370  139.06220    0.06560    -999.25    2.71690  -83.97580
 10650.00000   13.18570    9.60040    0.21470    0.31070    -999.25   49.70310   26.82680   27.68520    -999.25 1625.69410  935.36710 1528.83540    0.02970    -999.25    2.21700  -90.06010
 10700.00000    9.01980    8.86790   -0.02570    0.01770    -999.25   52.76440   43.23990   44.44820    -999.25  183.71360  155.49370  212.40380    0.08020    -999.25    2.62970  -65.67870
 10750.00000    9.42700    9.13700    0.00940    0.00360    -999.25   53.03080   41.96130   45.55890    -999.25  227.22040  261.65770  268.35030    0.07330    -999.25    2.67960  -78.67940
 10800.00000    9.02910    8.98530   -0.00010    0.04580    -999.25   52.81170   52.01360   50.75880    -999.25  347.98760  455.69950  617.21980    0.06680    -999.25    2.66640  -97.57660
 10850.00000    9.22520    9.11350   -0.00820    0.01970    -999.25   54.05250   47.96560   45.56710    -999.25  130.25360  139.03740  164.11970    0.05580    -999.25    2.65860  -55.09330
 10900.00000    9.30390    8.97230   -0.00060    0.01470    -999.25   52.98450   33.12990   40.51120    -999.25  139.70020  146.45280  236.13950    0.07120    -999.25    2.68770  -91.95090
 10950.00000    9.98980    9.66170   -0.00480    0.06740    -999.25   69.98400  106.80900  120.15740    -999.25   38.09350   44.03210   73.98100    0.29160    -999.25    2.56870  -58.47270
 11000.00000   13.26520   11.17240    0.11810    0.36990    -999.25   76.22410   95.63490  105.49380    -999.25    6.14080    6.45210    7.21710    0.36230    -999.25    2.09770 -106.06350
 11050.00000   13.38540   11.17580    0.23810    0.25750    -999.25   70.23930   93.89720   98.09710    -999.25    6.28800    6.62020    9.48010    0.28200    -999.25    2.29820  -91.24560
 11100.00000   13.92360   12.29500    0.10720    0.23100    -999.25   80.98860  134.28330  135.02010    -999.25    5.52460    5.67070    7.75260    0.41260    -999.25    2.32840  -89.12590
 11150.00000    9.12740    9.10550    0.00900    0.01890    -999.25   56.39030   64.02470   71.35700    -999.25   22.21720   26.17000   45.85260    0.10720    -999.25    2.69070  -82.54500
 11200.00000    9.09070    9.03160   -0.01070    0.01870    -999.25   64.29460  117.40150  123.99720    -999.25   11.88690   12.93220   17.05930    0.19820    -999.25    2.69740  -51.16070
 11250.00000    9.12870    9.03090   -0.00820    0.02470    -999.25   66.73170  115.53470  122.79450    -999.25   11.28700   11.94200   15.58070    0.21120    -999.25    2.64250  -70.94880
 11300.00000    9.24670    9.19950    0.13440    0.03360    -999.25   65.78010   99.97350  106.74270    -999.25   11.08770   11.66760   15.69660    0.18530    -999.25    2.66460  -65.54690
 11350.00000    9.92050    9.22870    0.09340    0.06330    -999.25   74.95400  134.71390  141.53890    -999.25    6.19750    6.45120    8.47090    0.28830    -999.25    2.60370  -82.59530
 11400.00000    9.37320    8.96480    0.07760    0.04060    -999.25   73.06460  161.98380  173.45900    -999.25    9.17610    9.68130   13.57230    0.28470    -999.25    2.65890  -73.88040
 11450.00000    9.31980    9.00860    0.06760    0.08050    -999.25   76.14080  159.77410  164.10410    -999.25    9.13700    9.62380   13.01580    0.30320    -999.25    2.60130  -83.40670
 11500.00000    8.48790    8.48970    0.02260    0.10320    -999.25   73.80990  188.02770  186.81130    -999.25  114.25690  129.11040  282.88310    0.22100    -999.25    2.53440  -45.14820
 11550.00000    8.60290    8.47400    0.00260    0.11730    -999.25   75.80060  291.56150  292.66820    -999.25  686.59740  616.42240  910.02540    0.24500    -999.25    2.50820  -34.14800
 11600.00000    9.11430    8.64360    0.18870    0.16190    -999.25   70.78850  145.40120  166.46420    -999.25   36.83710   30.25750   59.35310    0.29250    -999.25    2.47370  -90.56600
 11650.00000   11.75530    9.35850    0.16830    0.14710    -999.25   49.19470   16.12060   20.02020    -999.25 1745.93760 1458.19950 1567.18960    0.01230    -999.25    2.44450  -27.73940
 11700.00000   10.25870    9.26830    0.19110    0.11020    -999.25   49.25800   14.67230   16.88470    -999.25 1708.29470 1419.44460 1567.44080    0.00870    -999.25    2.54150  -40.14520
 11750.00000    9.40440    8.66890    0.16870    0.07590    -999.25   48.62500   32.23750   34.29260    -999.25 1740.61840 1523.29190 1582.67540    0.01310    -999.25    2.59070  -55.32000
 11800.00000   10.12060    9.05180    0.16140    0.07960    -999.25   47.64270   12.01650   13.16060    -999.25 1732.86330 1477.39310 1573.06990    0.00420    -999.25    2.57800  -10.49920
 11850.00000   10.05970    9.30040    0.20150    0.12500    -999.25   50.03760   16.04100   17.55270    -999.25 1745.35110 1467.44580 1573.59070    0.00700    -999.25    2.50710  -31.73050
 11900.00000    8.52030    9.21170   -0.00000    0.05600    -999.25   49.82810   29.66050   28.62010    -999.25 1690.70700 1407.83410 1561.33970    0.02750    -999.25    2.62500  -59.30270
 11950.00000    8.58450    8.59360    0.00320    0.10100    -999.25   60.25850  211.75270  201.70240    -999.25   13.53470   15.13410   22.49310    0.06280    -999.25    2.51900 -136.07900
 12000.00000    8.56440    8.61670   -0.01040   -0.02720    -999.25   50.98950    -999.25    5.45010  135.66050  402.20490  765.94940 1003.26900    0.04070    -999.25    2.75810  -48.99570
