~Version ---------------------------------------------------
VERS.      2.0 : CWLS log ASCII Standard -VERSION 2.0
WRAP.       NO : One line per depth step
CREA. 08/31/17 : LAS Creation Date
~Well ------------------------------------------------------
STRT.FT                       1300.0 : START DEPTH
STOP.FT                      12650.0 : STOP DEPTH
STEP.FT                     50.00000 : STEP LENGTH
NULL.                        -999.25 : NULL VALUE
COMP.           PETROFINA CANADA LTD : COMPANY
WELL. FINA AMOCO HB MAYBERNE 10-11-5 : WELL
FLD .                                : FIELD
LOC .                                : LOCATION
CTRY.                         CANADA : COUNTRY
SRVC.                   Schlumberger : SERVICE COMPANY
DATE.                    03-Apr-1977 : LOGDATE
PROV.                        Alberta : PROVINCE
UWI .               100101105718W500 : UNIQUE WELL ID
SLAT.WGS84                  53.91479 : SURFACE LATITUDE
SLON.WGS84                 -116.5629 : SURFACE LONGITUDE
~Curve Information -----------------------------------------
DEPT    .FT    : Depth Curve
CALDED  .IN    : DIFFERENTIAL CALIPER FROM DENSITY LOG
CALSED  .IN    : CALIPER FROM SONIC LOG [ADJ. TO GRED]
CALWS   .IN    : CALIPER [CALSED]
CONDWS  .MMHO  : CONDCUTIVITY [1000/DRESWS]
DCORED  .G/C3  : DENSITY CORRECTION FROM DENSITY LOG
DCORWS  .G/C3  : DENSITY CORRECTION [DRHOED]
DENWS   .G/C3  : FORMATION BULK DENSITY [RHOBED]
DPHILSED.V/V   : DENSITY POROSITY LIME [M=2.71, F=1.0] FROM DENSITY LOG [ADJ. TO RHOBED]
DPHISSED.V/V   : DENSITY POROSITY SAND [M=2.65, F=1.0] FROM DENSITY LOG [ADJ, TO RHOBED]
DPOLSWS .V/V   : DENSITY POROSITY LIME [CALC FROM DENWS, M=2.71, F=1.0]
DRESWS  .OHMM  : DEEP RESISTIVITY [ILDED]
DTED    .US/F  : DELTA-T FROM SONIC LOG [ADJ. TO GRDED]
DTWS    .US/F  : COMPRESSIONAL SONIC [DTED]
GRDED   .GAPI  : GAMMA RAY FROM DENSITY LOG
GRSED   .GAPI  : GAMMA RAY FROM SONIC LOG
GRWS    .GAPI  : GAMMA RAY [GRSED]
ILDED   .OHMM  : DEEP INDUCTION RESISTIVITY FROM RESISTIVITY LOG
ILMED   .OHMM  : MEDIUM INDUCTION RESISTIVITY FROM RESISTIVITY LOG
LL8ED   .OHMM  : LATEROLOG-8 RESISTIVITY FROM RESISTIVITY LOG
MRESWS  .OHMM  : MEDIUM RESISTIVITY [ILMED]
NPHILSED.V/V   : NEUTRON POROSITY LIME FROM DENSITY LOG [ADJ. TO RHOBED]
NPOLSWS .V/V   : NEUTRON POROSITY LIME [SS CONVERTS TO LS. SPL. TO LS @ 8849']
NPORSSED.V/V   : NEUTRON POROSITY SAND FROM DENSITY LOG [ADJ. TO RHOBED]
RHOBED  .G/C3  : DENSITY FORMATION DENSITY FROM DENSITY LOG
SPHIED  .V/V   : SONIC POROSITY [DTM=189, DTF=55.6] FROM SONIC LOG [ADJ. TO GRDED]
SPRED   .MV    : SPONTANEOUS POTENTIAL FROM RESISTIVITY LOG
SPWS    .MV    : SPONTANEOUS POTENTIAL [BASELINE 0 MV, SPRED]
SRESWS  .OHMM  : SHALLOW RESISTIVITY [LL8ED]
~Params ----------------------------------------------------
PD  .                     GL : PERMANENT DATUM
EPD .FT                 4315 : ELEVATION PERMANENT DATUM
LMF .                     KB : LOG MEASURED FROM
DAPD.FT                   17 : FEET ABOVE PERMANENT DATUM
EKB .FT                 4322 : KELLY BUSHING
EGL .FT                 4315 : GROUND LEVEL
DATE.               04/03/77 : RUN DATE
RUN .                      1 : RUN NUMBER
DD  .FT                12670 : DEPTH DRILLER
DL  .FT                12672 : DEPTH LOGGER
BLI .FT                12669 : BOTTOM LOG INTERVAL
TLI .FT                 1324 : TOP LOG INTERVAL
CBD .FT                 1327 : CASING BOTTOM DRILLER
CBL .FT                 1324 : CASING BOTTOM LOGGER
BS  .IN                 8.75 : BIT SIZE
BSD .FT                12670 : BIT SIZE AT DEPTH
DFT .               GEL CHEM : DRILLING FLUID TYPE
DFD .                      9 : DRILLING FLUID DENSITY
DFV .                    130 : DRILLING FLUID VISCOSITY
DFPH.                     10 : DRILLING FLUID PH
MSS .               FLOWLINE : MUD SAMPLE SOURCE
RMS .OHMM                3.2 : RESISTIVITY MUD SAMPLE
MST .DEGF                 56 : MUD SAMPLE TEMPERATURE
RMF .OHMM               2.94 : RESISTIVITY MUD FILTRATE SAMPLE
MFST.DEGF                 62 : MUD FILTRATE SAMPLE TEMPERATURE
RMB .OHMM               0.88 : RESISTIVITY MUD AT BHT
TCS .HRS                   4 : TIME CIRCULATED STOPPED
LUN .                   7667 : LOGGING UNIT NUMBER
LUL .                    EDM : LOGGING UNIT LOCATION
ENGI.          CAMPBELL BIGG : RECORDING ENGINEER
WITN.         SANDERS DAVIES : WITNESSED BY
CLNT.                A2DTECH : CLIENT CODE
ORIG.            2" 5" PRINT : ORIGIN OF DATA
UWI .       100101105718W500 : UNIQUE WELL ID
DICO. A2D Technologies, Inc. : DIGITIZING COMPANY
~Other -----------------------------------------------------
~ASCII -----------------------------------------------------
# ...
 7550.00000   10.78250   10.90860   10.90860  156.74320    0.15410    0.15410    2.38200    -999.25    0.16760    0.19180    6.37990   81.50180   81.50180  109.97700  111.00920  111.00920    6.37990    8.21630    8.83700    8.21630    -999.25    0.32820    0.37150    2.38200    0.20250  -22.94320    0.00000    8.83700
 7600.00000   12.27310   10.75900   10.75900  207.71430    0.18010    0.18010    2.10520    -999.25    0.31360    0.35360    4.81440   93.91270   93.91270  127.26450  140.38210  140.38210    4.81440    5.75720    6.21860    5.75720    -999.25    0.39110    0.43320    2.10520    0.26630  -24.75530   -1.39160    6.21860
 7650.00000   15.11150   14.31390   14.31390  302.47050    0.06920    0.06920    1.46680    -999.25    0.45020    0.72700    3.30640   85.19390   85.19390   74.28690   79.58160   79.58160    3.30640    3.51630    4.17730    3.51630    -999.25    0.47940    0.52110    1.46680    0.20050  -25.48690   -2.52440    4.17730
 7700.00000   14.95370   12.81810   12.81810  214.34870    0.08030    0.08030    1.48190    -999.25    0.45140    0.71820    4.66540   89.19210   89.19210   94.91320   97.38660   97.38660    4.66540    5.51160    6.04560    5.51160    -999.25    0.47310    0.51480    1.48190    0.23410  -22.96690   -0.40760    6.04560
 7750.00000    9.57880    8.70610    8.70610   69.72990    0.10880    0.10880    2.39970    -999.25    0.13560    0.18150   14.44330   64.22970   64.22970   64.28120   68.35170   68.35170   14.44330   19.17710   23.19230   19.17710    -999.25    0.08200    0.12430    2.39970    0.07960  -31.86420   -8.78730   23.19230
 7800.00000    9.79320    9.37930    9.37930   45.22230    0.26310    0.26310    2.54660    -999.25    0.06310    0.09560   22.11310   68.02730   68.02730   83.35660   84.02010   84.02010   22.11310   27.05630   29.84480   27.05630    -999.25    0.11290    0.15560    2.54660    0.09390  -31.26070   -7.35550   29.84480
 7850.00000   10.70270    9.56890    9.56890   86.76910    0.22630    0.22630    2.28740    -999.25    0.21880    0.24710   11.52550   72.54590   72.54590   89.62640   95.61260   95.61260   11.52550   14.97230   14.05570   14.97230    -999.25    0.15940    0.20290    2.28740    0.12090  -28.67060   -3.92860   14.05570
 7900.00000   11.61920   10.37710   10.37710  123.69130    0.18740    0.18740    2.12440    -999.25    0.32420    0.34240    8.08550   79.93930   79.93930   94.97520  102.62590  102.62590    8.08550    9.92990    9.22400    9.92990    -999.25    0.36190    0.40460    2.12440    0.19850  -31.72310   -6.14860    9.22400
 7950.00000    9.04900    9.31980    9.31980   38.60670   -0.01500   -0.01500    2.64310    -999.25    0.00980    0.03910   25.94070   56.38010   56.38010   34.86910   36.99740   36.99740   25.94070   50.27650  113.94440   50.27650    -999.25    0.11270    0.15540    2.64310    0.00610  -36.11310   -9.70180  113.94440
 8000.00000    9.63470    9.62600    9.62600   91.98190    0.00360    0.00360    2.58070    -999.25    0.04250    0.07560   10.87410   69.46460   69.46460   79.72480   84.82710   84.82710   10.87410   14.68090   16.22030   14.68090    -999.25    0.19290    0.23670    2.58070    0.10440  -31.71840   -4.47870   16.22030
 8050.00000   11.57730   11.00970   11.00970  145.94560    0.20010    0.20010    2.02260    -999.25    0.37360    0.40200    6.85550   80.72280   80.72280   96.83930   94.73860   94.73860    6.85550    8.33280    8.73320    8.33280    -999.25    0.31920    0.36270    2.02260    0.18570  -31.20650   -3.13840    8.73320
 8100.00000    9.46090    9.32900    9.32900   86.70820    0.02500    0.02500    2.53170    -999.25    0.07290    0.10430   11.53580   73.50940   73.50940  106.98750  104.41520  104.41520   11.53580   15.28010   14.73590   15.28010    -999.25    0.21140    0.25530    2.53170    0.13190  -37.71890   -8.81400   14.73590
 8150.00000    9.60680    9.45250    9.45250   79.30840    0.00980    0.00980    2.40590    -999.25    0.14820    0.17780   12.62650   78.23400   78.23400   63.55380   70.75440   70.75440   12.62650   15.85320   15.22510   15.85320    -999.25    0.26670    0.31060    2.40590    0.15280  -43.01070  -13.27330   15.22510
 8200.00000    9.25680    9.19140    9.19140   66.66900   -0.00610   -0.00610    2.62410    -999.25    0.01380    0.05030   15.01370   64.11650   64.11650   61.90800   65.86490   65.86490   15.01370   20.67840   17.69080   20.67840    -999.25    0.12840    0.17140    2.62410    0.07170  -38.90320   -9.01940   17.69080
 8250.00000    9.27740    9.26240    9.26240   98.96830   -0.00250   -0.00250    2.54110    -999.25    0.06730    0.09880   10.10440   69.57650   69.57650   57.20830   57.69100   57.69100   10.10440   13.22940   15.12180   13.22940    -999.25    0.15130    0.19460    2.54110    0.10080  -51.31710  -22.83470   15.12180
 8300.00000   10.67580   10.00930   10.00930  124.93980    0.18570    0.18570    2.18400    -999.25    0.27940    0.30760    8.00400   81.05070   81.05070   98.72410   97.07190   97.07190    8.00400   11.07210   12.92450   11.07210    -999.25    0.36210    0.40490    2.18400    0.20590  -34.90380   -4.01840   12.92450
 8350.00000    8.81460    8.00770    8.00770  104.88630    0.04420    0.04420    2.46530    -999.25    0.11360    0.14310    9.54000   72.19370   72.19370   40.78410   43.72490   43.72490    9.54000   17.66700   22.74280   17.66700    -999.25    0.19720    0.24100    2.46530    0.11930  -97.96430  -64.31070   22.74280
 8400.00000    9.66980    9.51630    9.51630   57.59570    0.09780    0.09780    2.58000    -999.25    0.04760    0.07610   17.38240   69.67550   69.67550   58.03750   58.19340   58.19340   17.38240   22.64990   23.24620   22.64990    -999.25    0.13030    0.17330    2.58000    0.10120  -47.16750  -14.60790   23.24620
 8450.00000   10.52190    9.66270    9.66270   58.31470    0.18720    0.18720    2.52760    -999.25    0.06950    0.10660   17.15080   69.43760   69.43760   92.56740   87.10490   87.10490   17.15080   22.40120   22.11620   22.40120    -999.25    0.16090    0.20440    2.52760    0.10170  -34.65020   -3.18990   22.11620
 8500.00000   10.19210    9.59390    9.59390   76.49180    0.06670    0.06670    2.59050    -999.25    0.03570    0.06990   13.08400   68.26710   68.26710  107.22860  112.71850  112.71850   13.08400   18.20830   21.13950   18.20830    -999.25    0.16000    0.20350    2.59050    0.08790  -34.20240   -3.83060   21.13950
 8550.00000   10.92280    9.59890    9.59890   64.71180    0.21280    0.21280    2.28730    -999.25    0.21520    0.24720   15.47660   75.40120   75.40120  113.18630  107.22940  107.22940   15.47660   17.27490   21.23730   17.27490    -999.25    0.25450    0.29840    2.28730    0.17680  -31.29200   -2.00850   21.23730
 8600.00000    8.84660    8.89210    8.89210   49.41350    0.01430    0.01430    2.49600    -999.25    0.09290    0.12520   20.23850   64.68580   64.68580   57.20530   54.00610   54.00610   20.23850   29.14160   26.01700   29.14160    -999.25    0.10850    0.15110    2.49600    0.06390  -51.19440  -21.88220   26.01700
 8650.00000   10.41550    9.62350    9.62350   29.69420    0.24930    0.24930    2.07960    -999.25    0.32980    0.36870   33.69130   74.07930   74.07930   43.54690   44.11470   44.11470   33.69130   39.07230   48.23470   39.07230    -999.25    0.11680    0.15960    2.07960    0.13240  -55.37190  -25.65540   48.23470
 8700.00000   10.78040    9.58680    9.58680   43.04600    0.21610    0.21610    2.07370    -999.25    0.34110    0.37210   23.23160   72.42970   72.42970   85.63620   90.31920   90.31920   23.23160   29.03890   31.86470   29.03890    -999.25    0.18460    0.22840    2.07370    0.11880  -36.45460   -6.33180   31.86470
 8750.00000   11.32890    9.77180    9.77180   75.96950    0.22640    0.22640    2.20110    -999.25    0.26540    0.29760   13.16430   73.29890   73.29890  112.64980  101.53050  101.53050   13.16430   17.28370   15.75620   17.28370    -999.25    0.25020    0.29410    2.20110    0.10920  -31.64100   -1.41280   15.75620
