~Version ---------------------------------------------------
VERS. 2.0 : CWLS log ASCII Standard -VERSION 2.0
WRAP.  NO : ONE LINE PER DEPTH STEP
~Well ------------------------------------------------------
STRT.F                 1200.0 : START DEPTH
STOP.F                10800.0 : STOP DEPTH
STEP.F               50.00000 : STEP LENGTH
NULL.                 -999.25 : NULL VALUE
COMP. SUN OIL COMPANY LIMITED : COMPANY
WELL. BEC ROSEVEAR 6-34-54-15 : WELL
FLD .                         : FIELD
LOC .                         : LOCATION
CTRY.                  CANADA : COUNTRY
SRVC.  Schlumberger of Canada : SERVICE COMPANY
DATE.             25-Mar-1971 : LOGDATE
PROV.                 Alberta : PROVINCE
UWI .        100063405415W500 : UNIQUE WELL ID
SLAT.WGS84           53.70553 : SURFACE LATITUDE
SLON.WGS84          -116.1304 : SURFACE LONGITUDE
~Curve Information -----------------------------------------
DEPT  .F    0   1   0  0 : 1 MEASURED DEPTH
NEUT  .NAPI 35 330 01 00 : NEUTRON
GRN   .GAPI 35 310 01 00 : GAMMA RAY FROM GRN LOG
GRS   .GAPI 60 310 01 00 : GAMMA RAY FROM SONIC LOG
DT    .US/F 60 500 00 00 : DELTA-T (INTERVAL TRANSIT TIME)
CALS  .IN   60 280 50 00 : CALIPER FROM SONIC LOG
ILD   .OHMM 07 120 46 00 : INDUCTION DEEP RESISTIVITY
ILM   .OHMM 07 120 44 00 : INDUCTION MEDIUM RESISTIVITY
LL8   .OHMM 07 220 08 00 : LATEROLOG 8
SPR   .MV   07 010 01 00 : SPONTANEOUS POTENTIAL FROM RESISTIVITY LOG
CALI  .IN   41 280 60 00 : CALIPER
GR    .GAPI 41 310 01 00 : GAMMA RAY
SNP_LS.DEC  41 890 01 00 : SIDEWALL NEUTRON POROSITY [LIMESTONE]
CILD  .MMHO 07 110 46 00 : INDUCTION DEEP CONDUCTIVITY
SN    .OHMM 07 040 16 00 : SHORT NORMAL RESISTIVITY
~Params ----------------------------------------------------
PD  .                     GL : PERMANENT DATUM
EPD .FT               2803.5 : ELEVATION PERMANENT DATUM
LMF .                     KB : LOG MEASURED FROM
DAPD.FT                 15.5 : FEET ABOVE PERMANENT DATUM
EKB .FT                 2819 : KELLY BUSHING
EGL .FT               2803.5 : GROUND LEVEL
DATE.               03/25/71 : RUN DATE
RUN .                      1 : RUN NUMBER
DD  .FT                10590 : DEPTH DRILLER
DL  .FT                10587 : DEPTH LOGGER
BLI .FT                10581 : BOTTOM LOG INTERVAL
TLI .FT                 1243 : TOP LOG INTERVAL
CBD .FT                 1243 : CASING BOTTOM DRILLER
CBL .FT                 1243 : CASING BOTTOM LOGGER
BS  .IN                 8.75 : BIT SIZE
BSD .FT                10590 : BIT SIZE AT DEPTH
DFT .                    GEL : DRILLING FLUID TYPE
DFD .                   11.1 : DRILLING FLUID DENSITY
DFV .                    127 : DRILLING FLUID VISCOSITY
DFPH.                     10 : DRILLING FLUID PH
DFL .                      6 : DRILLING FLUID LOSS
MSS .                   CIRC : MUD SAMPLE SOURCE
RMS .OHMM               1.34 : RESISTIVITY MUD SAMPLE
MST .DEGF                 68 : MUD SAMPLE TEMPERATURE
RMF .OHMM               0.95 : RESISTIVITY MUD FILTRATE SAMPLE
MFST.DEGF                 50 : MUD FILTRATE SAMPLE TEMPERATURE
RMC .OHMM               1.98 : RESISTIVITY MUD CAKE
MCST.DEGF                 52 : MUD CAKE SAMPLE TEMPERATURE
RMB .OHMM               0.32 : RESISTIVITY MUD AT BHT
TCS .HRS                   4 : TIME CIRCULATED STOPPED
LUN .                   5628 : LOGGING UNIT NUMBER
ENGI.               PUOURSON : RECORDING ENGINEER
WITN.                 BAANUT : WITNESSED BY
CLNT.                A2DTECH : CLIENT CODE
ORIG.            2" 5" PRINT : ORIGIN OF DATA
UWI .       100063405415W500 : UNIQUE WELL ID
DICO. A2D Technologies, Inc. : DIGITIZING COMPANY
~Other -----------------------------------------------------
~ASCII -----------------------------------------------------
# ...
 6100.00000    -999.25    -999.25  267.39470   85.18210   10.23370    9.51020   11.31050   13.58220  -30.35700   14.52900  169.62630    0.34900    -999.25    -999.25
 6150.00000    -999.25    -999.25   93.09750   88.75250   11.77250    3.84570    3.71440    4.63840  -32.78170   15.43480   47.72610    0.50450    -999.25    -999.25
 6200.00000    -999.25    -999.25   67.78130   83.33140   10.68820    8.73460    7.13270    8.73240  -32.97680   15.54490   44.87510    0.50130    -999.25    -999.25
 6250.00000    -999.25    -999.25   43.06970   64.26770    9.43740   30.37860   35.26150   56.81530  -42.34190   10.92040   30.85750    0.09370    -999.25    -999.25
 6300.00000    -999.25    -999.25   60.35390   75.43450   11.42880    9.54570   10.72440   11.01280  -34.87810   11.06700   37.24720    0.30890    -999.25    -999.25
 6350.00000    -999.25    -999.25   35.79270   70.69640    9.93490   15.20630   24.40060   29.80820  -64.84870   11.73080   22.39890    0.21000    -999.25    -999.25
 6400.00000    -999.25    -999.25   65.02990   71.82760   10.31960   13.28100   14.01280   16.93240  -40.67400   11.31150   41.39040    0.14860    -999.25    -999.25
 6450.00000    -999.25    -999.25   57.18760   97.78930   12.90590   10.50590   17.92190   41.18190  -37.64340   14.12130   36.28050    0.49920    -999.25    -999.25
 6500.00000    -999.25    -999.25   59.17800   66.46360   10.11620   19.98420   21.21230   22.76980  -47.02120   11.07510   40.00430    0.13080    -999.25    -999.25
 6550.00000    -999.25    -999.25   82.87150   72.89620   10.39200   17.75370   20.21410   26.91710  -32.89770   11.19860   50.63720    0.19300    -999.25    -999.25
 6600.00000    -999.25    -999.25   65.49310   77.12760   10.97690   12.20330   11.98090   15.53160  -32.79560   11.56970   46.09290    0.31300    -999.25    -999.25
 6650.00000    -999.25    -999.25   41.12640   59.88730    9.77760   24.19700   33.97050   41.16090  -37.02300   10.92110   29.66970    0.07590    -999.25    -999.25
 6700.00000    -999.25    -999.25   45.96750   66.21240   10.38030   11.91660   13.38770   13.48510  -36.33390   11.01210   28.46460    0.11090    -999.25    -999.25
 6750.00000    -999.25    -999.25   48.97000   71.20910   10.19710   14.42570   16.21120   24.99170  -47.81770   11.07450   31.72330    0.12090    -999.25    -999.25
 6800.00000    -999.25    -999.25   84.60130   81.65350   10.13030   16.21700   18.97950   21.12960  -28.60540   11.35140   54.46600    0.18480    -999.25    -999.25
 6850.00000    -999.25    -999.25   77.82930   73.73090   10.58730   11.66540   12.51010   14.44100  -29.51600   12.01360   44.39240    0.18440    -999.25    -999.25
 6900.00000    -999.25    -999.25   79.22530   71.08500   10.46670   13.67830   15.66770   17.10090  -30.29360   12.06540   47.47830    0.17950    -999.25    -999.25
 6950.00000    -999.25    -999.25   77.45330   77.98050   10.78690   13.75280   15.36380   21.63700  -25.85960   13.74030   47.91520    0.35440    -999.25    -999.25
 7000.00000    -999.25    -999.25   29.06470   71.58270    9.46290   17.97120   21.30180   25.80860  -72.12910   10.43080   20.08540    0.13300    -999.25    -999.25
 7050.00000    -999.25    -999.25   75.85010   68.67430   10.22930   40.91430   40.83800   53.80710  -28.26880   14.14920   43.17200    0.21510    -999.25    -999.25
 7100.00000    -999.25    -999.25   83.77500   70.17050    9.94060   15.74770   17.96130   20.27690  -25.49570   12.11500   58.52050    0.24460    -999.25    -999.25
 7150.00000    -999.25    -999.25   87.96970   73.61690   10.51470   11.29190   13.05610   15.06950  -26.83010   12.49170   55.68720    0.21880    -999.25    -999.25
 7200.00000    -999.25    -999.25   77.24190   81.57170   11.41320    6.97730    7.41640   10.06030  -25.84020   11.56720   48.73080    0.30700    -999.25    -999.25
 7250.00000    -999.25    -999.25   35.80550   62.69730    9.49270   25.65760   36.65520   45.99250  -98.95540   10.06690   22.02200    0.12130    -999.25    -999.25
 7300.00000    -999.25    -999.25   22.21360   53.89410    9.18770  823.79600 1370.07090 1664.96110  -53.96640   10.29420   13.20140    0.03690    -999.25    -999.25
 7350.00000    -999.25    -999.25   23.06770   55.44630    9.19240  119.60140  145.18360  167.30770  -42.08870   10.32660   17.93120    0.06800    -999.25    -999.25
 7400.00000    -999.25    -999.25   43.65490   52.92050    9.35390   59.53490   66.73990   75.64180  -62.77340   11.09480   29.04310    0.17160    -999.25    -999.25
 7450.00000    -999.25    -999.25   36.79330   55.75510    9.85220   50.74180   43.24420   82.58030  -50.21420   11.61670   24.41810    0.10990    -999.25    -999.25
 7500.00000    -999.25    -999.25    9.52300   50.25460   10.10800 1545.04460 1386.01060 1669.72170  -71.27650   11.55520    6.73200   -0.00650    -999.25    -999.25
 7550.00000    -999.25    -999.25   20.42170   48.08350    9.75980  343.10490  783.37550 1666.73710  -86.04040   10.82690   10.73500    0.01100    -999.25    -999.25
 7600.00000    -999.25    -999.25   16.38290   49.72940   10.02480  131.43120  119.12800  550.59540 -115.74230   12.11520    8.29870    0.08400    -999.25    -999.25
 7650.00000    -999.25    -999.25   81.44650   63.11240    9.40410   12.35560   14.15870   15.86890  -27.02440   10.35740   51.18330    0.08890    -999.25    -999.25
 7700.00000    -999.25    -999.25   59.63390   53.78240    9.37850   33.96310   41.32890   48.67900  -36.27080   10.39660   41.99970    0.03520    -999.25    -999.25
 7750.00000    -999.25    -999.25   52.86470   59.17220    9.39940   25.04360   27.90710   33.34020  -65.05280   10.39980   30.72360    0.04510    -999.25    -999.25
 7800.00000    -999.25    -999.25   78.10920   64.98250   10.42580   12.87330   14.96600   15.67430  -35.84460   13.06030   47.51110    0.20780    -999.25    -999.25
 7850.00000    -999.25    -999.25   16.60670   52.63890    9.78710   47.94190   53.72050   59.98810  -46.78360   10.91640   10.75340    0.04770    -999.25    -999.25
 7900.00000    -999.25    -999.25   17.15960   52.53820    9.35760   66.76100   76.78850  108.63990  -62.92810   10.42150   11.32270    0.05560    -999.25    -999.25
 7950.00000    -999.25    -999.25   30.67490   54.78850    9.72020   55.95790   74.01130  118.52640  -41.20560   10.34660   19.60760    0.05890    -999.25    -999.25
 8000.00000    -999.25    -999.25   46.79300   56.77450    9.37620   34.17630   41.86040   46.46940  -33.45270   10.32170   29.09200    0.04090    -999.25    -999.25
 8050.00000    -999.25    -999.25   41.74380   56.93870    9.36970   33.37930   39.44630   47.56940  -37.08050   10.29070   27.23230    0.04240    -999.25    -999.25
 8100.00000    -999.25    -999.25   44.52980   55.00510    9.30350   97.79010  134.68670  129.76010  -34.05460   10.28080   27.83610    0.02740    -999.25    -999.25
 8150.00000    -999.25    -999.25   49.55790   58.72640    9.30540  111.62790  132.27250  135.36620  -59.78020   10.25950   27.91230    0.04690    -999.25    -999.25
 8200.00000    -999.25    -999.25   16.47680   49.51510    9.94760 1544.77150 1133.57750 1667.97460  -71.11490   11.47530    9.64750    0.04070    -999.25    -999.25
 8250.00000    -999.25    -999.25   17.23230   49.47500    9.99360 1522.92150 1083.62960  772.73660  -86.53270   11.52430   11.17130    0.04820    -999.25    -999.25
 8300.00000    -999.25    -999.25   16.00370   49.34840    9.96430 1581.35690 1397.56310 1488.17960 -101.30890   12.59490    8.28520    0.09530    -999.25    -999.25
 8350.00000    -999.25    -999.25   15.03190   50.33540   10.26250 1459.61550  281.86940  477.96770 -108.39670   12.53400    8.55250    0.07190    -999.25    -999.25
 8400.00000    -999.25    -999.25   14.09400   49.52640    9.58070 1489.59850  296.75350  491.29120 -115.89720   12.16610    6.77250    0.09200    -999.25    -999.25
 8450.00000    -999.25    -999.25   16.97100   50.11230   10.23430 1585.28850  152.67370  415.95830 -101.22810   14.66240   10.89770    0.16970    -999.25    -999.25
 8500.00000    -999.25    -999.25   12.45840   51.15520    9.85220 1129.63590  169.07050  273.34990 -113.28580   12.32200    8.24640    0.08310    -999.25    -999.25
