~Version ---------------------------------------------------
VERS.      2.0 : CWLS log ASCII Standard -VERSION 2.0
WRAP.       NO : One line per depth step
CREA. 11/16/17 : LAS Creation Date
~Well ------------------------------------------------------
STRT.FT                        300.0 : START DEPTH
STOP.FT                      11100.0 : STOP DEPTH
STEP.FT                     50.00000 : STEP LENGTH
NULL.                        -999.25 : NULL VALUE
COMP.         PACIFIC PETROLEUMS LTD : COMPANY
WELL. PACIFIC ET AL TONY 10-18-63-21 : WELL
FLD .                     TONY TOWER : FIELD
LOC .                                : LOCATION
CTRY.                         CANADA : COUNTRY
SRVC.                   Schlumberger : SERVICE COMPANY
DATE.                    24-Sep-1975 : LOGDATE
PROV.                        Alberta : PROVINCE
UWI .               100101806321W500 : UNIQUE WELL ID
SLAT.WGS84                  54.45338 : SURFACE LATITUDE
SLON.WGS84                 -117.1585 : SURFACE LONGITUDE
~Curve Information -----------------------------------------
DEPT    .FT    : Depth Curve
CALDED  .IN    : CALIPER FROM DENSITY LOG
CALWS   .IN    : CALIPER [CALDED]
CONDWS  .MMHO  : CONDUCTIVITY [1000/DRESWS]
DCORED  .G/C3  : DENSITY CORRECTION FROM DENSITY LOG [ADJ. TO DPHILSED/DPHILSED]
DCORWS  .G/C3  : DENSITY CORRECTION [DCORED]
DENWS   .G/C3  : FORMATION BULK DENSITY [CALC. FROM DPOLSWS,M=2710,F=1000]
DPHILSED.V/V   : DENSITY POROSITY LIMESTONE [M=2.71,F=1.0] FROM DENSITY LOG
DPHISSED.V/V   : DENSITY POROSITY SANDSTONE [M=2.65,F=1.0] FROM DENSITY LOG
DPOLSWS .V/V   : DENSITY POROSITY LIMESTONE [DPHISSED CONVERTED TO LIMESTONE (M=2.71,F=1.00), SPL. TO DPHILSED @ 6860']
DRESWS  .OHMM  : DEEP RESISTIVITY [ILDED]
GRDED   .GAPI  : GAMMA RAY FROM DENSITY LOG
GRWS    .GAPI  : GAMMA RAY [GRDED]
ILDED   .OHMM  : DEEP INDUCTION FROM RESISTIVITY LOG
ILMED   .OHMM  : MEDIUM INDUCTION FROM RESISTIVITY LOG
LL8ED   .OHMM  : LATEROLOG FROM RESISTIVITY LOG
MRESWS  .OHMM  : MEDIUM RESISTIVITY [ILMED]
NPHILSED.V/V   : NEUTRON POROSITY LIMESTONE FROM DENSITY LOG
NPHISSED.V/V   : NEUTRON POROSITY SANDSTONE FROM DENSITY LOG
NPOLSWS .V/V   : NEUTRON POROSITY LIMESTONE [NPHISSED MATRIX CONVERSION FOR LIMESTONE SPL. TO NPHILSED @6860']
RHOBED  .G/C3  : BULK DENSITY FROM DENSITY LOG [ADJ. TO DPHILSED/DPHILSED]
SPRED   .MV    : SPONTANEOUS POTENTIAL FROM RESISTIVITY LOG
SPWS    .MV    : SPONTANEOUS POTENTIAL [BASELINE 0 MV,SPRED]
SRESWS  .OHMM  : SHALLOW RESISTIVITY [LL8ED]
~Params ----------------------------------------------------
PD  .                     GL : PERMANENT DATUM
EPD .FT                 2714 : ELEVATION PERMANENT DATUM
LMF .                     KB : LOG MEASURED FROM
DAPD.FT                 13.7 : FEET ABOVE PERMANENT DATUM
EKB .FT               2727.7 : KELLY BUSHING
EGL .FT                 2714 : GROUND LEVEL
DATE.               09/24/75 : RUN DATE
RUN .                      1 : RUN NUMBER
DD  .FT                11125 : DEPTH DRILLER
DL  .FT                11121 : DEPTH LOGGER
BLI .FT                11115 : BOTTOM LOG INTERVAL
TLI .FT                 1125 : TOP LOG INTERVAL
CBD .FT                 1125 : CASING BOTTOM DRILLER
CBL .FT                 1125 : CASING BOTTOM LOGGER
BS  .IN                 8.75 : BIT SIZE
BSD .FT                11125 : BIT SIZE AT DEPTH
DFT .               GEL CHEM : DRILLING FLUID TYPE
DFD .                    9.3 : DRILLING FLUID DENSITY
DFV .                    147 : DRILLING FLUID VISCOSITY
DFPH.                    9.5 : DRILLING FLUID PH
DFL .                    9.2 : DRILLING FLUID LOSS
MSS .               FLOWLINE : MUD SAMPLE SOURCE
RMS .OHMM               1.62 : RESISTIVITY MUD SAMPLE
MST .DEGF                 72 : MUD SAMPLE TEMPERATURE
RMF .OHMM               1.26 : RESISTIVITY MUD FILTRATE SAMPLE
MFST.DEGF                 68 : MUD FILTRATE SAMPLE TEMPERATURE
RMB .OHMM               0.41 : RESISTIVITY MUD AT BHT
TCS .HRS                 3.5 : TIME CIRCULATED STOPPED
LUN .                   7691 : LOGGING UNIT NUMBER
LUL .                    EDM : LOGGING UNIT LOCATION
ENGI.              CROCKFORD : RECORDING ENGINEER
WITN.                   ROSS : WITNESSED BY
CLNT.                A2DTECH : CLIENT CODE
ORIG.            2" 5" PRINT : ORIGIN OF DATA
UWI .       100101806321W500 : UNIQUE WELL ID
DICO. A2D Technologies, Inc. : DIGITIZING COMPANY
~Other -----------------------------------------------------
~ASCII -----------------------------------------------------
# ...
 1850.00000   10.43150   10.43150  107.27890    0.06950    0.06950    2.31460    -999.25    0.20330    0.23130    9.32150   70.22970   70.22970    9.32150    7.90850    8.56630    7.90850    -999.25    0.29640    0.25240    2.32740  -50.24410   -3.44810    8.56630
 1900.00000   10.94920   10.94920  199.96590    0.08880    0.08880    2.26680    -999.25    0.23230    0.25920    5.00190   86.25450   86.25450    5.00190    4.04330    5.41210    4.04330    -999.25    0.40220    0.35930    2.29370  -51.21320   -4.54720    5.41210
 1950.00000   10.06270   10.06270  141.63900    0.05890    0.05890    2.46190    -999.25    0.11400    0.14510    7.06020   84.88680   84.88680    7.06020    5.80360    6.43080    5.80360    -999.25    0.27040    0.22640    2.47870  -51.03830   -4.50310    6.43080
 2000.00000    9.51150    9.51150   76.59340    0.06450    0.06450    2.38710    -999.25    0.15930    0.18880   13.05730   61.01220   61.01220   13.05730    9.48660   10.06070    9.48660    -999.25    0.28910    0.24510    2.40820  -57.01910  -10.61380   10.06070
 2050.00000   10.25350   10.25350  193.18660    0.06430    0.06430    2.41910    -999.25    0.14000    0.17010    5.17810   79.47620   79.47620    5.17810    4.57200    5.48190    4.57200    -999.25    0.26770    0.22380    2.44160  -50.05610   -3.78080    5.48190
 2100.00000   10.07790   10.07790  176.20210    0.16310    0.16310    2.33190    -999.25    0.19280    0.22110    5.67530   87.51580   87.51580    5.67530    4.94620    7.27690    4.94620    -999.25    0.35100    0.30740    2.35100  -49.67640   -3.53190    7.27690
 2150.00000    9.54200    9.54200   54.81730    0.09730    0.09730    2.39170    -999.25    0.15650    0.18610   18.28360   74.45870   74.45870   18.28360   13.52160   14.76140   13.52160    -999.25    0.29260    0.24870    2.39830  -55.77920   -9.76460   14.76140
 2200.00000    9.27490    9.27490   91.93370    0.11620    0.11620    2.32990    -999.25    0.19400    0.22230   10.87740   62.58620   62.58620   10.87740    9.62880    9.34720    9.62880    -999.25    0.30150    0.25750    2.34210  -55.17930   -9.29550    9.34720
 2250.00000    9.60320    9.60320  110.61170    0.09680    0.09680    2.35980    -999.25    0.17590    0.20480    9.04760   65.87390   65.87390    9.04760    7.59120    8.41640    7.59120    -999.25    0.28720    0.24320    2.37730  -53.65800   -7.90420    8.41640
 2300.00000   10.42720   10.42720  217.17160    0.11610    0.11610    2.27500    -999.25    0.22730    0.25440    4.61280   89.06010   89.06010    4.61280    4.25760    3.92520    4.25760    -999.25    0.35890    0.31540    2.31160  -50.83880   -5.21490    3.92520
 2350.00000   10.23040   10.23040  281.62670    0.09990    0.09990    1.80670    -999.25    0.51110    0.52830    3.55080   80.30530   80.30530    3.55080    2.77280    3.37440    2.77280    -999.25    0.44090    0.39900    1.80460  -49.14520   -3.65210    3.37440
 2400.00000    9.49970    9.49970   70.14780    0.11020    0.11020    2.32590    -999.25    0.19640    0.22460   14.25720   59.72830   59.72830   14.25720   10.51270   10.87870   10.51270    -999.25    0.31350    0.26960    2.33600  -56.04330  -10.68010   10.87870
 2450.00000    9.71850    9.71850  115.50680    0.12320    0.12320    2.29840    -999.25    0.21310    0.24070    8.65750   58.58730   58.58730    8.65750    6.99180    7.75860    6.99180    -999.25    0.28150    0.23750    2.31610  -57.68030  -12.44790    7.75860
 2500.00000    9.93200    9.93200   83.85500    0.04560    0.04560    2.36920    -999.25    0.17020    0.19930   11.92760   47.54600   47.54600   11.92760   10.20070   12.01070   10.20070    -999.25    0.26470    0.22080    2.37420  -53.29250   -8.19010   12.01070
 2550.00000    9.97590    9.97590   61.92120    0.18750    0.18750    2.34560    -999.25    0.18450    0.21310   16.14950   49.46600   49.46600   16.14950   12.52500   13.80910   12.52500    -999.25    0.28610    0.24200    2.35350  -58.32320  -13.35070   13.80910
 2600.00000   13.40350   13.40350  157.85070    0.02440    0.02440    2.07070    -999.25    0.35110    0.37390    6.33510   60.95050   60.95050    6.33510    5.28630    6.22490    5.28630    -999.25    0.42820    0.38590    2.06640  -53.33140   -8.48970    6.22490
 2650.00000   11.05420   11.05420  242.90510    0.05940    0.05940    2.24350    -999.25    0.24640    0.27280    4.11840   72.20490   72.20490    4.11840    3.62350    4.57690    3.62350    -999.25    0.42910    0.38680    2.23940  -50.11370   -5.40200    4.57690
 2700.00000   15.00080   15.00080  195.64110    0.10300    0.10300    1.75920    -999.25    0.53990    0.55600    5.11140   65.18390   65.18390    5.11140    3.97440    4.91220    3.97440    -999.25    0.43960    0.39760    1.73090  -51.04730   -6.46640    4.91220
 2750.00000   13.09080   13.09080  241.44580    0.05050    0.05050    2.12060    -999.25    0.32080    0.34470    4.14210   62.54010   62.54010    4.14210    3.51470    6.01730    3.51470    -999.25    0.38680    0.34360    2.12820  -51.16200   -6.71100    6.01730
 2800.00000   10.96560   10.96560   99.03650    0.05660    0.05660    2.44290    -999.25    0.12550    0.15620   10.12800   57.20910   57.20910   10.12800    9.09300   10.71860    9.09300    -999.25    0.22820    0.18450    2.45040  -54.02460   -9.70360   10.71860
 2850.00000   12.54610   12.54610  153.31070    0.11030    0.11030    2.39030    -999.25    0.15740    0.18700    6.52270   64.05360   64.05360    6.52270    5.73130    7.28020    5.73130    -999.25    0.31860    0.27470    2.41870  -50.04150   -5.85130    7.28020
 2900.00000   10.86490   10.86490  145.85140    0.04410    0.04410    2.33910    -999.25    0.18840    0.21690    6.85740   57.05750   57.05750    6.85740    5.69850    6.74580    5.69850    -999.25    0.26940    0.22540    2.34110  -48.43090   -4.37060    6.74580
 2950.00000   11.83150   11.83150  160.97620    0.21330    0.21330    2.31640    -999.25    0.20220    0.23020    6.21210   66.62190   66.62190    6.21210    5.79970    5.31840    5.79970    -999.25    0.33330    0.28950    2.38390  -47.69190   -3.27300    5.31840
 3000.00000    9.83060    9.83060   95.57150    0.03710    0.03710    2.50300    -999.25    0.08910    0.12110   10.46390   46.01330   46.01330   10.46390    9.22220    9.89350    9.22220    -999.25    0.23720    0.19330    2.51440  -46.99690   -1.67470    9.89350
 3050.00000   10.13310   10.13310  259.89650    0.15090    0.15090    2.20070    -999.25    0.27230    0.29780    3.85220   73.93350   73.93350    3.85220    3.00250    3.41120    3.00250    -999.25    0.46530    0.42360    2.19570  -47.63990   -1.41440    3.41120
 3100.00000   10.82450   10.82450  166.95880    0.16950    0.16950    2.18570    -999.25    0.28140    0.30660    5.98950   52.74850   52.74850    5.98950    5.32870    6.11760    5.32870    -999.25    0.35540    0.31180    2.22000  -50.81040   -4.06710    6.11760
 3150.00000   10.48480   10.48480   50.55160    0.07880    0.07880    2.39110    -999.25    0.15690    0.18650   19.78730   41.13350   41.13350   19.78730   16.63000   18.43100   16.63000    -999.25    0.26620    0.22230    2.40110  -59.72750  -13.40290   18.43100
 3200.00000    9.64020    9.64020   75.35680    0.05040    0.05040    2.48170    -999.25    0.10200    0.13350   13.27020   57.82430   57.82430   13.27020   11.74030   13.76280   11.74030    -999.25    0.26300    0.21900    2.48750  -48.66500   -2.76200   13.76280
 3250.00000    9.71120    9.71120   63.53120    0.06350    0.06350    2.44000    -999.25    0.12730    0.15790   15.74030   41.40480   41.40480   15.74030   15.37510   21.29160   15.37510    -999.25    0.25550    0.21160    2.46570  -60.30670  -14.82240   21.29160
 3300.00000   13.49810   13.49810  202.26470    0.20070    0.20070    2.09320    -999.25    0.33740    0.36070    4.94620   62.89630   62.89630    4.94620    4.35900    5.09690    4.35900    -999.25    0.42400    0.38160    2.13320  -49.19450   -4.12900    5.09690
 3350.00000   10.83020   10.83020   99.40650    0.02730    0.02730    2.53000    -999.25    0.07270    0.10520   10.05970   61.87300   61.87300   10.05970    9.64260   10.81060    9.64260    -999.25    0.20530    0.16180    2.53200  -50.57920   -5.55030   10.81060
