~Version ---------------------------------------------------
VERS. 2.0 : CWLS log ASCII Standard -VERSION 2.0
WRAP.  NO : ONE LINE PER DEPTH STEP
~Well ------------------------------------------------------
STRT.F                            1100.0 : START DEPTH
STOP.F                           10400.0 : STOP DEPTH
STEP.F                          50.00000 : STEP LENGTH
NULL.                            -999.25 : NULL VALUE
COMP.               CHEVRON STANDARD LTD : COMPANY
WELL. CHEVRON GULF PASS CREEK 7-36-61-18 : WELL
FLD .                                    : FIELD
LOC .                                    : LOCATION
CTRY.                             CANADA : COUNTRY
SRVC.                       Schlumberger : SERVICE COMPANY
DATE.                        11-Jan-1976 : LOGDATE
PROV.                            Alberta : PROVINCE
UWI .                   100073606118W500 : UNIQUE WELL ID
SLAT.WGS84                      54.31663 : SURFACE LATITUDE
SLON.WGS84                      -116.558 : SURFACE LONGITUDE
~Curve Information -----------------------------------------
DEPT   .F    0   1   0  0 : 1 MEASURED DEPTH
SPR    .MV   07 010 01 00 : SPONTANEOUS POTENTIAL FROM RESISTIVITY LOG
ILD    .OHMM 07 120 46 00 : INDUCTION DEEP RESISTIVITY
ILM    .OHMM 07 120 44 00 : INDUCTION MEDIUM RESISTIVITY
LL8    .OHMM 07 220 08 00 : LATEROLOG 8
GRS    .GAPI 60 310 01 00 : GAMMA RAY FROM SONIC LOG
DT     .US/F 60 500 00 00 : DELTA-T (INTERVAL TRANSIT TIME)
CALS   .IN   60 280 50 00 : CALIPER FROM SONIC LOG
DCOR   .G/C3 45 356 01 00 : DENSITY CORRECTION
CALD   .IN   45 280 60 00 : CALIPER FROM DENSITY LOG
RHOB   .G/C3 45 350 01 00 : BULK DENSITY
GRD    .GAPI 45 310 01 00 : GAMMA RAY FROM DENSITY LOG
DPHI_SS.DEC  45 890 12 00 : DENSITY POROSITY SANDSTONE
NPHI_SS.DEC  42 890 03 00 : NEUTRON POROSITY SANDSTONE
NPHI_LS.DEC  42 890 01 00 : NEUTRON POROSITY LIMESTONE
DPHI_LS.DEC  45 890 10 00 : DENSITY POROSITY LIMESTONE
~Params ----------------------------------------------------
PD  .                     GL : PERMANENT DATUM
EPD .FT                 2874 : ELEVATION PERMANENT DATUM
LMF .                     KB : LOG MEASURED FROM
DAPD.FT                   15 : FEET ABOVE PERMANENT DATUM
EKB .FT                 2889 : KELLY BUSHING
EGL .FT                 2874 : GROUND LEVEL
DATE.               01/11/76 : RUN DATE
RUN .                      1 : RUN NUMBER
DD  .FT                10410 : DEPTH DRILLER
DL  .FT                10421 : DEPTH LOGGER
BLI .FT                10415 : BOTTOM LOG INTERVAL
TLI .FT                 1118 : TOP LOG INTERVAL
CBD .FT                 1118 : CASING BOTTOM DRILLER
CBL .FT                 1121 : CASING BOTTOM LOGGER
BS  .IN                 8.75 : BIT SIZE
BSD .FT                10410 : BIT SIZE AT DEPTH
DFT .               GEL CHEM : DRILLING FLUID TYPE
DFD .                    9.5 : DRILLING FLUID DENSITY
DFV .                    137 : DRILLING FLUID VISCOSITY
DFPH.                    9.5 : DRILLING FLUID PH
DFL .                      9 : DRILLING FLUID LOSS
MSS .               FLOWLINE : MUD SAMPLE SOURCE
RMS .OHMM               2.38 : RESISTIVITY MUD SAMPLE
MST .DEGF                 54 : MUD SAMPLE TEMPERATURE
RMF .OHMM               2.06 : RESISTIVITY MUD FILTRATE SAMPLE
MFST.DEGF                 60 : MUD FILTRATE SAMPLE TEMPERATURE
RMC .OHMM               1.88 : RESISTIVITY MUD CAKE
MCST.DEGF                 42 : MUD CAKE SAMPLE TEMPERATURE
RMB .OHMM               0.66 : RESISTIVITY MUD AT BHT
TCS .HRS                 5.5 : TIME CIRCULATED STOPPED
LUN .                   7657 : LOGGING UNIT NUMBER
ENGI.                STANDEN : RECORDING ENGINEER
WITN.                   WONG : WITNESSED BY
CLNT.                A2DTECH : CLIENT CODE
ORIG.            2" 5" PRINT : ORIGIN OF DATA
UWI .       100073606118W500 : UNIQUE WELL ID
DICO. A2D Technologies, Inc. : DIGITIZING COMPANY
~Other -----------------------------------------------------
~ASCII -----------------------------------------------------
# ...
 8000.00000 -154.58120  313.04350  199.07830  261.77070   13.26130   50.06040    9.18400    0.24990   10.67040    2.60050   12.22240    -999.25    -999.25   -0.00080    0.04710
 8050.00000 -171.50540   65.45150   99.16650  181.20430   12.05240   52.67990    9.00750    0.20790   10.62010    2.45250   12.53940    -999.25    -999.25    0.02100    0.19510
 8100.00000 -134.02990  194.50980  136.23370  261.66900   15.38340   50.15570    9.34590    0.26600   10.74870    2.64010   16.72580    -999.25    -999.25    0.00220    0.02190
 8150.00000 -140.37850  253.96240  591.57960  261.80880   10.71710   50.76350    9.72080    0.21570   12.43330    2.23900   12.79450    -999.25    -999.25    0.00360    0.21360
 8200.00000 -137.58920  347.89530  189.91600  308.08150   16.71500   50.28370    9.42920    0.22220   11.98880    2.50870   15.97990    -999.25    -999.25    0.00410    0.08350
 8250.00000 -168.05780  395.49050  219.09260  466.64210   15.54790   50.97170    9.42690    0.17910   13.58480    2.13550   16.52480    -999.25    -999.25    0.00560    0.29290
 8300.00000 -146.04510  116.53090   95.57920  155.34560   13.59700   50.51600    9.28170    0.23780   11.36550    2.47180   12.16000    -999.25    -999.25    0.00520    0.13160
 8350.00000 -145.82650   30.57000   44.58430  274.40990    8.70420   51.46350    8.72520    0.16730    8.66320    2.65050   11.88400    -999.25    -999.25    0.02770    0.04070
 8400.00000 -158.60450   42.32840   57.00140  135.57440   11.00880   53.05060    8.40230    0.08740    8.49270    2.65830   13.59540    -999.25    -999.25    0.02910    0.01040
 8450.00000 -161.75600  501.69080  690.12010 1470.13170   16.91120   48.29310    9.17520    0.05140    8.97980    2.93860   17.72030    -999.25    -999.25    0.00760   -0.12230
 8500.00000 -128.50350   18.41420   27.16890  141.14400   17.97650   53.78470    8.72550    0.04190    8.81300    2.71380   18.36950    -999.25    -999.25    0.09170   -0.00520
 8550.00000 -154.82750   66.67910   83.18540  139.83810   25.17640   49.30230    8.44060    -999.25    8.63820    2.56480   26.13300    -999.25    -999.25    0.09520    0.07890
 8600.00000 -115.90050  111.74470   65.67800  130.49090   27.05240   51.10190    9.34410    0.24620   11.80190    2.18790   26.55360    -999.25    -999.25    0.07160    0.31790
 8650.00000  -71.28490  224.95940  336.85110  495.69390   27.39070   50.16930    8.97810    0.24320    9.41260    2.77100   27.34980    -999.25    -999.25    0.01300   -0.02910
 8700.00000  -30.71260   76.03270   85.49060  107.80340   35.24920   53.38080    9.08620    0.00310    8.95370    2.71120   34.69790    -999.25    -999.25    0.02680   -0.00910
 8750.00000  -58.82330  185.04580  196.40640  339.34450   26.98580   51.26310    9.10520    0.01660    9.00790    2.73650   27.66690    -999.25    -999.25    0.00960   -0.00980
 8800.00000  -82.24400  279.62720  311.82010  618.78380   24.88670   51.02080    9.03430    0.00830    9.01120    2.71160   26.34940    -999.25    -999.25    0.00750   -0.01830
 8850.00000  -48.53160  136.12280  148.29990  200.98890   22.08710   51.99870    9.15300    0.01730    9.05010    2.72910   23.35050    -999.25    -999.25    0.01070   -0.01470
 8900.00000  -16.31050   40.54800   43.93190   53.46990   41.38900   54.85180    9.22680    0.01800    9.19680    2.71730   33.85620    -999.25    -999.25    0.03620   -0.01000
 8950.00000  -29.72990   18.97650   21.11830   25.30780   47.21370   58.51840    9.33590    0.00210    9.42230    2.71240   48.82530    -999.25    -999.25    0.06380   -0.00390
 9000.00000  -24.29330   10.43780   11.02990   15.30840   59.36870   63.54220    9.45450   -0.00440    9.59100    2.68210   61.95460    -999.25    -999.25    0.09640    0.00500
 9050.00000  -33.66670    5.69010    6.24780    8.28210   78.57450   71.25330   10.13670    0.23240   10.64890    2.70570   79.09090    -999.25    -999.25    0.15180   -0.00190
 9100.00000  -36.00750   10.42700   11.34350   14.60680   64.36030   63.71150    9.39710    -999.25    -999.25    -999.25    -999.25    -999.25    -999.25    -999.25    -999.25
 9150.00000  -34.93810    9.60620   10.01410   13.87990   69.69880   65.90930    9.98730    -999.25    -999.25    -999.25    -999.25    -999.25    -999.25    -999.25    -999.25
 9200.00000  -33.92110   10.29700   11.02860   13.93300   99.96720   70.08970    9.70480    -999.25    -999.25    -999.25    -999.25    -999.25    -999.25    -999.25    -999.25
 9250.00000  -40.14120    8.22730    9.01750   11.45390   72.24340   69.22560    9.86720    -999.25    -999.25    -999.25    -999.25    -999.25    -999.25    -999.25    -999.25
 9300.00000  -53.69040    5.46710    6.40510    7.40800   84.11140   79.64410   12.56940    -999.25    -999.25    -999.25    -999.25    -999.25    -999.25    -999.25    -999.25
 9350.00000  -40.63490   28.27260   34.45380   65.14940   67.16670   58.68860    9.65940    -999.25    -999.25    -999.25    -999.25    -999.25    -999.25    -999.25    -999.25
 9400.00000  -39.45290   10.64360   11.46820   14.38880   81.97770   66.56270    9.95810    -999.25    -999.25    -999.25    -999.25    -999.25    -999.25    -999.25    -999.25
 9450.00000  -90.22780   11.67460   12.14430   17.02250   86.92020   65.72560    9.78130    -999.25    -999.25    -999.25    -999.25    -999.25    -999.25    -999.25    -999.25
 9500.00000  -91.47190    9.31390   10.20230   14.10600   91.46990   66.15550    9.69640    -999.25    -999.25    -999.25    -999.25    -999.25    -999.25    -999.25    -999.25
 9550.00000  -92.12120   11.02260   12.14430   16.79970   99.94880   67.96740    9.36480    -999.25    -999.25    -999.25    -999.25    -999.25    -999.25    -999.25    -999.25
 9600.00000  -85.67530    9.00810    9.72930   13.67130   86.66200   67.33400    9.36070    0.13730    9.49630    2.67540   90.96700    -999.25    -999.25    0.17490    0.01290
 9650.00000  -85.25200    9.67390   10.38670   15.92960   93.78070   69.55330    9.16120    0.06470    9.23520    2.70580   94.29650    -999.25    -999.25    0.17120   -0.01790
 9700.00000 -113.70890  132.14520  140.83440  230.19690   83.88460   64.79840    8.99840    0.01520    8.84790    2.65940   87.90910    -999.25    -999.25    0.12440    0.02980
 9750.00000 -164.03450  487.50490  582.36190 1316.22440  164.86580   74.12250    8.98620    0.00840    8.85910    2.51370  179.30920    -999.25    -999.25    0.15910    0.11840
 9800.00000 -111.81070  152.86600  182.07180  207.73580   35.47150   57.65530    8.95060    0.03000    8.84750    2.70700   54.37830    -999.25    -999.25    0.12170    0.04080
 9850.00000  -83.88120   64.15860   72.62790  139.68770   39.23430   54.55260    8.96810    0.00840    8.81530    2.70720   42.90060    -999.25    -999.25    0.04390   -0.01260
 9900.00000  -91.18890  109.74340  339.69200 1481.89070   40.69450   56.75230    8.91210    0.02190    8.81030    2.68610   44.32390    -999.25    -999.25    0.07180    0.01110
 9950.00000  -99.12280  110.60140  141.57690  262.37660   43.83130   52.74600    8.88090    0.01390    8.77200    2.75380   41.69490    -999.25    -999.25    0.03400   -0.03470
 10000.00000 -208.11320  711.59270 1438.08070 1504.34830   18.48820   49.35640    8.84070    0.01610    8.70610    2.72460   20.21670    -999.25    -999.25    0.00830   -0.00570
 10050.00000 -238.40440  731.04570 1401.67080 1507.90860   14.07530   48.96210    8.69210    0.00010    8.66520    2.73210   14.04980    -999.25    -999.25    0.00570   -0.01850
 10100.00000 -297.58750 1416.02320 1544.22790 1515.26920   15.93630   49.24520    8.90950    0.25270    9.07800    2.64060   55.26080    -999.25    -999.25    0.00490    0.03160
 10150.00000 -271.00530 1080.47180 1457.81920 1510.18350   23.66910   49.42200    8.66110    0.03600    8.68800    2.73190   22.04070    -999.25    -999.25    0.00950   -0.00870
 10200.00000 -210.66480   54.78840   88.06680  199.34740   14.59160   55.48360    8.04540    0.17390    8.10590    2.66040   17.50950    -999.25    -999.25    0.15500    0.04260
 10250.00000 -250.57130  919.71860 1502.69170 1547.73730   16.06900   48.53520    8.66450    0.11420    8.73410    2.73290   17.19620    -999.25    -999.25    0.00370   -0.03260
