~Version ---------------------------------------------------
VERS.      2.0 : CWLS log ASCII Standard -VERSION 2.0
WRAP.       NO : One line per depth step
CREA. 12/15/17 : LAS Creation Date
~Well ------------------------------------------------------
STRT.FT                          300.0 : START DEPTH
STOP.FT                         9800.0 : STOP DEPTH
STEP.FT                       50.00000 : STEP LENGTH
NULL.                          -999.25 : NULL VALUE
COMP.        CANADIAN GULF OIL COMPANY : COMPANY
WELL.              CGOC  IOSEGUN 15-28 : WELL
FLD .                                  : FIELD
LOC .                                  : LOCATION
CTRY.                           CANADA : COUNTRY
SRVC. Schlumberger Well Surveying Corp : SERVICE COMPANY
DATE.                      08-Aug-1954 : LOGDATE
PROV.                          Alberta : PROVINCE
UWI .                 100152806721W500 : UNIQUE WELL ID
SLAT.WGS84                    54.83244 : SURFACE LATITUDE
SLON.WGS84                   -117.1373 : SURFACE LONGITUDE
~Curve Information -----------------------------------------
DEPT   .FT         : Depth Curve
CONDWS .MMHO       : CONDUCTIVITY [1000/DRESWS]
DRESWS .OHMM       : DEEP RESISTIVITY [LNED]
GRN1ED .UgRa-Eq/T  : GAMMA RAY FROM GRN LOG [ADJ. TO EL LOG]
GRNED  .GAPI       : GAMMA RAY FROM NEUTRON LOG [ADJ. TO EL LOG]
GRWS   .GAPI       : GAMMA RAY [GRNED SPL. TO GRN1ED*16.50 @ 9390']
LNED   .OHMM       : 64 INCH LONG NORMAL RESISTIVITY FROM EL LOG
LT18ED .OHMM       : LATERAL 18' FROM EL LOG
NEUT1ED.NAPI       : NEUTRON FROM GRN LOG [ADJ. TO EL LOG]
NEUTED .NAPI       : NEUTRON FROM NEUTRON LOG [ADJ. TO EL LOG]
NEUTWS .NAPI       : NEUTRON [NEUTED SPL. TO NEUT1ED @ 9596']
SNED   .OHMM       : 16 INCH SHORT NORMAL RESISTIVITY FROM EL LOG
SPRED  .MV         : SPONTANEOUS POTENTIAL FROM EL LOG
SPWS   .MV         : SPONTANEOUS POTENTIAL [BASELINE 0 MV, SPRED]
SRESWS .OHMM       : SHALLOW RESISTIVITY [SNED]
~Params ----------------------------------------------------
LMF .                     KB : LOG MEASURED FROM
DMF .                     KB : DRILLING MEASURED FROM
EKB .FT                 2318 : KELLY BUSHING
DATE.               08/08/54 : RUN DATE
RUN .                      2 : RUN NUMBER
DD  .FT                 9832 : DEPTH DRILLER
DL  .FT                 9832 : DEPTH LOGGER
BLI .FT                 9832 : BOTTOM LOG INTERVAL
TLI .FT                 9667 : TOP LOG INTERVAL
CBD .FT                  597 : CASING BOTTOM DRILLER
CBL .FT                  597 : CASING BOTTOM LOGGER
BS  .IN                    9 : BIT SIZE
BSD .FT                 9832 : BIT SIZE AT DEPTH
DFT .                AQUAGEL : DRILLING FLUID TYPE
DFD .                   10.5 : DRILLING FLUID DENSITY
DFV .                    250 : DRILLING FLUID VISCOSITY
DFPH.                     10 : DRILLING FLUID PH
DFL .                    5.2 : DRILLING FLUID LOSS
MSS .               FLOWLINE : MUD SAMPLE SOURCE
RMS .OHMM                2.0 : RESISTIVITY MUD SAMPLE
MST .DEGF                 59 : MUD SAMPLE TEMPERATURE
RMB .OHMM                0.7 : RESISTIVITY MUD AT BHT
TCS .HRS                   2 : TIME CIRCULATED STOPPED
LUN .                    770 : LOGGING UNIT NUMBER
LUL .                     PR : LOGGING UNIT LOCATION
ENGI.                 CARSON : RECORDING ENGINEER
WITN.              SCHOMAKER : WITNESSED BY
CLNT.                A2DTECH : CLIENT CODE
ORIG.            2" 5" PRINT : ORIGIN OF DATA
UWI .       100152806721W500 : UNIQUE WELL ID
DICO. A2D Technologies, Inc. : DIGITIZING COMPANY
~Other -----------------------------------------------------
~ASCII -----------------------------------------------------
# ...
 2750.00000   80.72390   12.38790    -999.25   59.63650   59.63650   12.38790   13.05940    -999.25  268.22520  268.22520    9.02400 -162.08780  -12.15820    9.02400
 2800.00000   82.53090   12.11670    -999.25   57.41670   57.41670   12.11670   13.74460    -999.25  199.76650  199.76650    8.67020 -161.05180  -11.02940    8.67020
 2850.00000   90.37100   11.06550    -999.25   64.94630   64.94630   11.06550   11.52970    -999.25  221.04620  221.04620    8.32950 -160.35020  -10.23400    8.32950
 2900.00000   90.86730   11.00510    -999.25   53.46780   53.46780   11.00510   12.24370    -999.25  222.34320  222.34320    8.45930 -158.21110   -8.00210    8.45930
 2950.00000   95.68460   10.45100    -999.25   66.04380   66.04380   10.45100   10.00880    -999.25  290.81130  290.81130    8.32430 -155.68550   -5.38280    8.32430
 3000.00000   84.49090   11.83560    -999.25   68.43030   68.43030   11.83560   11.48800    -999.25  207.31540  207.31540    9.44110 -156.45820   -6.06220    9.44110
 3050.00000   86.83420   11.51620    -999.25   72.91010   72.91010   11.51620   11.53100    -999.25  226.01870  226.01870    9.40840 -155.89250   -5.40360    9.40840
 3100.00000   76.39890   13.08920    -999.25   55.15010   55.15010   13.08920   11.99590    -999.25  319.23080  319.23080    9.79970 -157.18280   -6.60020    9.79970
 3150.00000   65.57550   15.24960    -999.25   70.58250   70.58250   15.24960   12.47480    -999.25  235.57490  235.57490   11.79700 -155.65490   -4.97940   11.79700
 3200.00000   79.53300   12.57340    -999.25   91.65690   91.65690   12.57340   16.55280    -999.25  275.00300  275.00300   11.99900 -155.85670   -5.08750   11.99900
 3250.00000   98.31780   10.17110    -999.25   54.00190   54.00190   10.17110   15.17220    -999.25  317.81790  317.81790    8.06680 -158.27210   -7.40960    8.06680
 3300.00000  103.05150    9.70390    -999.25   52.38940   52.38940    9.70390    8.75840    -999.25  302.26450  302.26450    8.60200 -157.08090   -6.12560    8.60200
 3350.00000  104.93180    9.53000    -999.25   67.76250   67.76250    9.53000   12.23930    -999.25  228.40720  228.40720    7.84900 -157.41370   -6.36460    7.84900
 3400.00000  101.62360    9.84020    -999.25   52.90180   52.90180    9.84020    8.87930    -999.25  248.75700  248.75700    8.63310 -157.58400   -6.44210    8.63310
 3450.00000  113.49840    8.81070    -999.25   52.54390   52.54390    8.81070    8.15780    -999.25  234.61480  234.61480    8.68390 -156.78700   -5.55130    8.68390
 3500.00000  133.90110    7.46820    -999.25   51.75600   51.75600    7.46820    7.32990    -999.25  170.03970  170.03970    6.53810 -156.36630   -5.03740    6.53810
 3550.00000   86.88140   11.50990    -999.25   39.04040   39.04040   11.50990   12.23500    -999.25  248.16360  248.16360   10.14560 -157.21440   -5.79260   10.14560
 3600.00000  120.02640    8.33150    -999.25   51.38920   51.38920    8.33150    8.62180    -999.25  197.89130  197.89130    7.40870 -155.50290   -3.98740    7.40870
 3650.00000  117.96780    8.47690    -999.25   58.35490   58.35490    8.47690    7.00620    -999.25  124.84980  124.84980    7.27760 -155.87950   -4.27110    7.27760
 3700.00000  202.10590    4.94790    -999.25   72.41720   72.41720    4.94790    5.83040    -999.25  171.24270  171.24270    5.81400 -154.45920   -2.75710    5.81400
 3750.00000  205.74860    4.86030    -999.25   56.42200   56.42200    4.86030    4.08300    -999.25  167.47290  167.47290    4.43770 -155.62040   -3.82500    4.43770
 3800.00000  151.28110    6.61040    -999.25   50.54390   50.54390    6.61040    4.70740    -999.25  215.82460  215.82460    5.84330 -154.98640   -3.09820    5.84330
 3850.00000  154.63600    6.46680    -999.25   49.70260   49.70260    6.46680    5.90510    -999.25  209.54610  209.54610    5.67570 -155.75540   -3.77340    5.67570
 3900.00000  145.50250    6.87290    -999.25   52.31840   52.31840    6.87290    5.86900    -999.25  218.34530  218.34530    6.25080 -155.80350   -3.72870    6.25080
 3950.00000   50.54670   19.78370    -999.25   47.63880   47.63880   19.78370    8.42090    -999.25  421.99730  421.99730   15.92860 -164.86160  -12.75460   15.92860
 4000.00000   77.47490   12.90740    -999.25   48.92630   48.92630   12.90740   12.32820    -999.25  376.89750  376.89750   13.49440 -162.04670   -9.93970   13.49440
 4050.00000   79.36330   12.60090    -999.25   39.99160   39.99160   12.60090    7.75060    -999.25  297.95450  297.95450   12.87640 -164.60460  -12.49770   12.87640
 4100.00000   28.06030   35.63760    -999.25   26.48680   26.48680   35.63760   15.04890    -999.25  368.65100  368.65100   34.76970 -190.21850  -38.11150   34.76970
 4150.00000   93.13810   10.73700    -999.25   33.24280   33.24280   10.73700    9.83530    -999.25  369.79820  369.79820    8.62780 -162.92750  -10.82050    8.62780
 4200.00000   94.48130   10.58410    -999.25   39.81600   39.81600   10.58410   32.70800    -999.25  278.67330  278.67330   16.22510 -164.32190  -12.21490   16.22510
 4250.00000  134.44290    7.43810    -999.25   12.96030   12.96030    7.43810    4.00490    -999.25  379.38020  379.38020   10.06370 -247.03610  -94.92910   10.06370
 4300.00000   79.85050   12.52640    -999.25   23.38000   23.38000   12.52640    8.17120    -999.25  307.15850  307.15850   18.50420 -207.86440  -55.75740   18.50420
 4350.00000   82.37980   12.13890    -999.25   39.11880   39.11880   12.13890   13.66770    -999.25  266.40240  266.40240   10.40550 -158.45120   -6.34420   10.40550
 4400.00000   96.76120   10.33480    -999.25   37.40570   37.40570   10.33480    4.26990    -999.25  248.20380  248.20380    7.70120 -158.22820   -6.12120    7.70120
 4450.00000   61.80890   16.17890    -999.25   46.64340   46.64340   16.17890   11.66350    -999.25  188.90070  188.90070   13.20300 -158.36450   -6.25750   13.20300
 4500.00000   77.69950   12.87010    -999.25   39.53780   39.53780   12.87010   29.69180    -999.25  182.84550  182.84550   15.41980 -170.37550  -18.26850   15.41980
 4550.00000  104.42070    9.59520    -999.25   44.30140   44.30140    9.59520   15.74910    -999.25  144.46900  144.46900   11.19990 -161.06620   -8.95920   11.19990
 4600.00000   80.13980   12.47820    -999.25   25.59010   25.59010   12.47820    6.66460    -999.25  340.01660  340.01660   18.69030 -230.08130  -77.97430   18.69030
 4650.00000   98.29040   10.17400    -999.25   40.66560   40.66560   10.17400    7.28170    -999.25  254.71090  254.71090   10.71840 -166.74330  -14.63630   10.71840
 4700.00000   84.83350   11.78780    -999.25   27.31670   27.31670   11.78780    6.44810    -999.25  346.17820  346.17820   18.47020 -227.63330  -75.52630   18.47020
 4750.00000   64.58650   15.48310    -999.25   31.85610   31.85610   15.48310    9.89130    -999.25  337.19510  337.19510   21.15000 -195.30460  -43.19760   21.15000
 4800.00000   77.02290   12.98380    -999.25   26.92860   26.92860   12.98380   14.87530    -999.25  297.59460  297.59460   20.40060 -181.46630  -29.35930   20.40060
 4850.00000  127.25070    7.85850    -999.25   44.86600   44.86600    7.85850    9.98210    -999.25  189.11910  189.11910    8.89020 -158.60100   -6.49400    8.89020
 4900.00000   88.90910   11.24750    -999.25   52.65940   52.65940   11.24750    7.41850    -999.25  247.65320  247.65320   10.82290 -157.69620   -5.58920   10.82290
 4950.00000   45.50790   21.97420    -999.25   28.54060   28.54060   21.97420   10.13700    -999.25  405.25710  405.25710   25.73900 -231.13090  -79.02390   25.73900
 5000.00000   29.12380   34.33620    -999.25   40.97160   40.97160   34.33620   14.83050    -999.25  410.49080  410.49080   30.51650 -210.14740  -58.04040   30.51650
 5050.00000   31.85250   31.44620    -999.25   49.96230   49.96230   31.44620   79.18710    -999.25  143.06460  143.06460   29.88680 -165.01980  -12.91280   29.88680
 5100.00000  156.49450    6.39000    -999.25   52.96760   52.96760    6.39000    5.36190    -999.25  106.05280  106.05280    5.31950 -165.54990  -13.44290    5.31950
 5150.00000  195.49810    5.11520    -999.25   61.68930   61.68930    5.11520    5.63500    -999.25  156.99560  156.99560    4.38000 -164.43900  -12.33200    4.38000
