~Version ---------------------------------------------------
VERS.      2.0 : CWLS log ASCII Standard -VERSION 2.0
WRAP.       NO : One line per depth step
CREA. 08/04/17 : LAS Creation Date
~Well ------------------------------------------------------
STRT.FT                       1050.0 : START DEPTH
STOP.FT                      11000.0 : STOP DEPTH
STEP.FT                     50.00000 : STEP LENGTH
NULL.                        -999.25 : NULL VALUE
COMP.           PETROFINA CANADA LTD : COMPANY
WELL. FINA AMOCO HB GROAT 10-9-58-16 : WELL
FLD .                             WC : FIELD
LOC .                                : LOCATION
CTRY.                         CANADA : COUNTRY
SRVC.         Schlumberger of Canada : SERVICE COMPANY
DATE.                    08-Apr-1977 : LOGDATE
PROV.                        Alberta : PROVINCE
UWI .               100100905816W500 : UNIQUE WELL ID
SLAT.WGS84                  54.00097 : SURFACE LATITUDE
SLON.WGS84                 -116.3132 : SURFACE LONGITUDE
~Curve Information -----------------------------------------
DEPT    .FT    : Depth Curve
CALDED  .IN    : CALIPER FROM COMPENSATED NEUTRON FORMATION DENSITY LOG
CALSED  .IN    : CALIPER FROM BOREHOLE COMPENSATED SONIC LOG [ADJ. TO ILDED/CALDED]
CALWS   .IN    : CALIPER [CALSED SPL. TO CALDED @ 6213']
CONDWS  .MMHO  : CONDUCTIVITY [1000/DRESWS]
DCORED  .G/C3  : DENSITY CORRECTION FROM COMPENSATED NEUTRON FORMATION DENSITY LOG
DCORWS  .G/C3  : DENSITY CORRECTION [DCORED]
DENWS   .G/C3  : FORMATION BULK DENSITY [RHOBED]
DPHILSED.V/V   : DENSITY POROSITY LIMESTONE [M=2.71 F=1.0] FROM COMPENSATED NEUTRON FORMATION DENSITY LOG [ADJ. TO RHOBED]
DPHISSED.V/V   : DENSITY POROSITY SANDSTONE [M=2.65 F=1.0] FROM COMPENSATED NEUTRON FORMATION DENSITY LOG [ADJ. TO RHOBED]
DPOLSWS .V/V   : DENSITY POROSITY LIMESTONE [M=2.71 F=1.0 CALCULATED FROM DENWS]
DRESWS  .OHMM  : DEEP RESISTIVITY [ILDED]
DTED    .US/F  : DELTA-T (INTERVAL TRANSIT TIME)  FROM BOREHOLE COMPENSATED SONIC LOG [ADJ. TO ILDED]
DTWS    .US/F  : COMPRESSIONAL SONIC [DTED]
GRDED   .GAPI  : GAMMA RAY FROM COMPENSATED NEUTRON FORMATION DENSITY LOG
GRSED   .GAPI  : GAMMA RAY  FROM BOREHOLE COMPENSATED SONIC LOG [GRSED IN CASING FROM 1045 - 1158.5'] [ADJ. TO ILDED]
GRWS    .GAPI  : GAMMA RAY [GRSED]
ILDED   .OHMM  : DEEP INDUCTION RESISTIVITY  FROM DUAL INDUCTION-LATEROLOG
ILMED   .OHMM  : MEDIUM INDUCTION RESISTIVITY  FROM DUAL INDUCTION-LATEROLOG
LL8ED   .OHMM  : LATEROLOG 8 FROM DUAL INDUCTION-LATEROLOG
MRESWS  .OHMM  : MEDIUM RESISTIVITY [ILMED]
NPHILSED.V/V   : NEUTRON POROSITY LIMESTONE FROM COMPENSATED NEUTRON FORMATION DENSITY LOG [ADJ. TO RHOBED]
NPHISSED.V/V   : NEUTRON POROSITY SANDSTONE FROM COMPENSATED NEUTRON FORMATION DENSITY LOG [ADJ. TO RHOBED]
NPOLSWS .V/V   : NEUTRON POROSITY LIMESTONE [NPHISSED MATRIX CONVERTED TO LIMESTONE AND SPL. TO NPHILSED FROM 2478 - 7249']
RHOBED  .G/C3  : FORMATION BULK DENSITY FROM COMPENSATED NEUTRON FORMATION DENSITY LOG
SPRED   .MV    : SPONTANEOUS POTENTIAL FROM DUAL INDUCTION-LATEROLOG
SPWS    .MV    : SPONTANEOUS POTENTIAL [BASELINE 0 MV, SPRED]
SRESWS  .OHMM  : SHALLOW RESISTIVITY [LL8ED]
~Params ----------------------------------------------------
PD  .                     GL : PERMANENT DATUM
EPD .FT               3310.2 : ELEVATION PERMANENT DATUM
LMF .                     KB : LOG MEASURED FROM
DAPD.FT                 13.5 : FEET ABOVE PERMANENT DATUM
EKB .FT                 3324 : KELLY BUSHING
EGL .FT               3310.2 : GROUND LEVEL
DATE.               04/08/77 : RUN DATE
RUN .                      1 : RUN NUMBER
DD  .FT                11000 : DEPTH DRILLER
DL  .FT                11005 : DEPTH LOGGER
BLI .FT                10999 : BOTTOM LOG INTERVAL
TLI .FT                 1159 : TOP LOG INTERVAL
CBD .FT                 1159 : CASING BOTTOM DRILLER
CBL .FT                 1159 : CASING BOTTOM LOGGER
BS  .IN                 8.75 : BIT SIZE
BSD .FT                11000 : BIT SIZE AT DEPTH
DFT .                    GEL : DRILLING FLUID TYPE
DFD .                    9.2 : DRILLING FLUID DENSITY
DFV .                    245 : DRILLING FLUID VISCOSITY
DFPH.                     10 : DRILLING FLUID PH
DFL .                    7.2 : DRILLING FLUID LOSS
MSS .               FLOWLINE : MUD SAMPLE SOURCE
RMS .OHMM               2.52 : RESISTIVITY MUD SAMPLE
MST .DEGF                 56 : MUD SAMPLE TEMPERATURE
RMF .OHMM               2.35 : RESISTIVITY MUD FILTRATE SAMPLE
MFST.DEGF                 50 : MUD FILTRATE SAMPLE TEMPERATURE
TCS .HRS                 3.5 : TIME CIRCULATED STOPPED
LUN .                   7809 : LOGGING UNIT NUMBER
LUL .                    EDM : LOGGING UNIT LOCATION
ENGI.               BERNISKY : RECORDING ENGINEER
WITN.                 HALKOW : WITNESSED BY
CLNT.                A2DTECH : CLIENT CODE
ORIG.            2" 5" PRINT : ORIGIN OF DATA
UWI .       100100905816W500 : UNIQUE WELL ID
DICO. A2D Technologies, Inc. : DIGITIZING COMPANY
~Other -----------------------------------------------------
~ASCII -----------------------------------------------------
# ...
 2350.00000    -999.25    9.73580    9.73580  161.62660    -999.25    -999.25    -999.25    -999.25    -999.25    -999.25    6.18710   91.11600   91.11600    -999.25   63.51440   63.51440    6.18710    6.53280    5.81910    6.53280    -999.25    -999.25    -999.25    -999.25  -72.96220   -6.25340    5.81910
 2400.00000    -999.25    9.60210    9.60210  217.02800    -999.25    -999.25    -999.25    -999.25    -999.25    -999.25    4.60770   97.50610   97.50610    -999.25   68.31200   68.31200    4.60770    5.48280    4.35770    5.48280    -999.25    -999.25    -999.25    -999.25  -69.27710   -2.64200    4.35770
 2450.00000    -999.25    9.56510    9.56510  391.30840    -999.25    -999.25    -999.25    -999.25    -999.25    -999.25    2.55580  123.61330  123.61330    -999.25   83.76140   83.76140    2.55580    2.39880    2.65870    2.39880    -999.25    -999.25    -999.25    -999.25  -70.86880   -4.30760    2.65870
 2500.00000    9.22760    9.59230    9.59230  282.80540    0.21380    0.21380    2.38070    -999.25    0.18210    0.19260    3.53600  105.29830  105.29830   82.45410   81.98190   81.98190    3.53600    3.81200    3.46890    3.81200    -999.25    0.39240    0.34940    2.38070  -67.88220   -1.39430    3.46890
 2550.00000    9.70430   10.61690   10.61690  215.39650    0.03820    0.03820    2.40100    -999.25    0.15760    0.18070    4.64260   88.73300   88.73300   68.30090   72.69170   72.69170    4.64260    5.20990    4.32540    5.20990    -999.25    0.42590    0.38360    2.40100  -69.37760   -2.96340    4.32540
 2600.00000   10.14220    9.99140    9.99140  258.67870    0.15010    0.15010    2.26440    -999.25    0.24760    0.26060    3.86580  101.34250  101.34250   79.30050   79.78190   79.78190    3.86580    4.00960    3.78540    4.00960    -999.25    0.35350    0.30990    2.26440  -67.92150   -1.58090    3.78540
 2650.00000   11.02620    9.80190    9.80190  350.49600    0.23510    0.23510    1.99340    -999.25    0.39690    0.41910    2.85310  108.79260  108.79260   87.24870   80.57560   80.57560    2.85310    3.20360    2.98850    3.20360    -999.25    0.49880    0.45710    1.99340  -69.08320   -2.81620    2.98850
 2700.00000   11.42890    9.82630    9.82630  387.30390    0.21830    0.21830    1.79860    -999.25    0.44850    0.53300    2.58480   82.08750   82.08750   83.01440   87.80730   87.80730    2.58480    2.73830    3.20410    2.73830    -999.25    0.40810    0.36540    1.79860  -67.80220   -1.60920    3.20410
 2750.00000   11.45550    9.65960    9.65960  268.83890    0.26410    0.26410    2.13150    -999.25    0.32910    0.33830    3.71970   94.34910   94.34910   77.65250   76.74160   76.74160    3.71970    4.46430    3.98410    4.46430    -999.25    0.39330    0.35030    2.13150  -70.55930   -4.43960    3.98410
 2800.00000   14.95720   11.13640   11.13640  275.50490    0.14580    0.14580    1.55350    -999.25    0.45030    0.67630    3.62970  122.39240  122.39240   68.72320   68.99580   68.99580    3.62970    4.15800    3.91220    4.15800    -999.25    0.51640    0.47470    1.55350  -67.47760   -1.43150    3.91220
 2850.00000    9.98030    9.67360    9.67360  219.64990    0.21370    0.21370    2.27010    -999.25    0.24300    0.25730    4.55270   85.02270   85.02270   77.78070   75.69770   75.69770    4.55270    5.08560    5.21530    5.08560    -999.25    0.34210    0.29840    2.27010  -69.35760   -3.42300    5.21530
 2900.00000    9.66320   10.16900   10.16900  294.35140    0.24910    0.24910    2.05820    -999.25    0.35800    0.38120    3.39730  104.25320  104.25320   84.16720   95.93180   95.93180    3.39730    3.67720    4.66960    3.67720    -999.25    0.46800    0.42630    2.05820  -68.30970   -2.48860    4.66960
 2950.00000   11.87620    9.89020    9.89020  313.26070    0.22160    0.22160    2.04370    -999.25    0.36600    0.38960    3.19230  100.44570  100.44570   92.14070   83.88220   83.88220    3.19230    3.52080    3.28620    3.52080    -999.25    0.41060    0.36790    2.04370  -68.92730   -3.22020    3.28620
 3000.00000   10.77250    9.80670    9.80670  176.38550    0.22240    0.22240    2.22760    -999.25    0.26150    0.28210    5.66940   87.21430   87.21430   91.13470   89.10590   89.10590    5.66940    5.93250    5.35870    5.93250    -999.25    0.33720    0.29340    2.22760  -67.55780   -1.96360    5.35870
 3050.00000   10.79130    9.71370    9.71370  330.02210    0.25460    0.25460    2.13320    -999.25    0.31440    0.33730    3.03010   96.68470   96.68470   87.24520   83.11830   83.11830    3.03010    3.18910    3.18180    3.18910    -999.25    0.42110    0.37870    2.13320  -67.73910   -2.25830    3.18180
 3100.00000    9.38610    9.59370    9.59370  186.21970    0.20060    0.20060    2.25060    -999.25    0.25410    0.26870    5.37000   81.68490   81.68490   83.49600   86.80630   86.80630    5.37000    6.12810    6.48950    6.12810    -999.25    0.35040    0.30680    2.25060  -69.36480   -3.99750    6.48950
 3150.00000    9.23460    8.92930    8.92930  513.42610    0.22240    0.22240    1.91370    -999.25    0.43900    0.46570    1.94770  112.77580  112.77580   95.74960   95.99730   95.99730    1.94770    2.07860    2.12260    2.07860    -999.25    0.51170    0.47000    1.91370  -66.77040   -1.51660    2.12260
 3200.00000    9.89450    9.36450    9.36450  335.46760    0.23560    0.23560    2.09130    -999.25    0.33430    0.36180    2.98330   97.34470   97.34470   87.53020   88.11310   88.11310    2.98330    3.15000    3.19780    3.15000    -999.25    0.42690    0.38460    2.09130  -66.55820   -1.41840    3.19780
 3250.00000   10.62210    9.53800    9.53800  193.83230    0.23490    0.23490    1.93130    -999.25    0.41150    0.45540    5.15910   92.87960   92.87960   79.06550   80.90540   80.90540    5.15910    4.81290    4.28530    4.81290    -999.25    0.40320    0.36040    1.93130  -66.81550   -1.78860    4.28530
 3300.00000    9.55750    9.86210    9.86210  207.97370    0.23410    0.23410    2.41260    -999.25    0.15910    0.17390    4.80830   85.68630   85.68630   78.67840   79.67500   79.67500    4.80830    4.50640    4.34420    4.50640    -999.25    0.38610    0.34300    2.41260  -66.97510   -2.06170    4.34420
 3350.00000   10.32620   10.36520   10.36520  248.46570    0.13910    0.13910    2.36080    -999.25    0.18050    0.20420    4.02470   92.05780   92.05780   81.57490   84.85850   84.85850    4.02470    3.93710    4.74960    3.93710    -999.25    0.41080    0.36810    2.36080  -69.03120   -4.23120    4.74960
 3400.00000   10.13300   10.00650   10.00650   81.33120    0.03440    0.03440    2.39220    -999.25    0.15660    0.18580   12.29540   78.43190   78.43190   48.86030   47.32070   47.32070   12.29540   12.93340   11.59720   12.93340    -999.25    0.30620    0.26220    2.39220  -77.19430  -12.50780   11.59720
 3450.00000   10.08890    9.87130    9.87130  201.44750    0.06770    0.06770    2.46570    -999.25    0.11690    0.14290    4.96430   87.19720   87.19720   71.74670   79.62150   79.62150    4.96430    4.85960    5.61750    4.85960    -999.25    0.42270    0.38030    2.46570  -66.73340   -2.16090    5.61750
 3500.00000   11.11220   10.35320   10.35320  119.36310    0.11190    0.11190    2.35600    -999.25    0.20470    0.20700    8.37780   82.42840   82.42840   67.67700   65.99870   65.99870    8.37780    9.32350   10.17090    9.32350    -999.25    0.40540    0.36260    2.35600  -70.09450   -5.63490   10.17090
 3550.00000   11.09550   11.03050   11.03050  198.76370    0.11000    0.11000    2.28520    -999.25    0.22180    0.24840    5.03110   94.16090   94.16090   54.89770   54.80340   54.80340    5.03110    5.37750    5.09460    5.37750    -999.25    0.40010    0.35720    2.28520  -68.67550   -4.32940    5.09460
 3600.00000   10.02540   10.12890   10.12890  120.25740    0.00880    0.00880    2.48910    -999.25    0.09560    0.12920    8.31550   74.22840   74.22840   44.93010   46.99820   46.99820    8.31550    9.09250    8.90530    9.09250    -999.25    0.25540    0.21150    2.48910  -71.75150   -7.51880    8.90530
