~Version ---------------------------------------------------
VERS.      2.0 : CWLS log ASCII Standard -VERSION 2.0
WRAP.       NO : One line per depth step
CREA. 01/02/18 : LAS Creation Date
~Well ------------------------------------------------------
STRT.FT                     2050.0 : START DEPTH
STOP.FT                    11200.0 : STOP DEPTH
STEP.FT                   50.00000 : STEP LENGTH
NULL.                      -999.25 : NULL VALUE
COMP.     CHEVRON STANDARD LIMITED : COMPANY
WELL. CHEVRON KAYBOB S 10-19-60-18 : WELL
FLD .                              : FIELD
LOC .                              : LOCATION
CTRY.                       CANADA : COUNTRY
SRVC.                      Unknown : SERVICE COMPANY
DATE.                  02-Dec-1969 : LOGDATE
PROV.                      Alberta : PROVINCE
UWI .             100101906018W500 : UNIQUE WELL ID
SLAT.WGS84                54.20497 : SURFACE LATITUDE
SLON.WGS84               -116.6847 : SURFACE LONGITUDE
~Curve Information -----------------------------------------
DEPT  .FT    : Depth Curve
ACED  .US/F  : DELTA TIME FROM SONIC LOG [ADJ. TO RESISTIVITY LOG]
CALSED.IN    : CALIPER FROM SONIC LOG [ADJ. TO RESISTIVITY LOG]
CALWS .IN    : CALIPER [CALSED]
CONDWS.MMHO  : CONDUCTIVITY [1000/DRESWS]
DRESWS.OHMM  : DEEP RESISTIVITY [ILDED]
DTWS  .US/F  : COMPRESSIONAL SONIC [ACED]
GRSED .GAPI  : GAMMA RAY FROM SONIC LOG [ADJ. TO RESISTIVITY LOG]
GRWS  .GAPI  : GAMMA RAY [GRSED]
ILDED .OHMM  : DEEP INDUCTION FROM RESISTIVITY LOG
ILMED .OHMM  : MEDIUM INDUCTION FROM RESISTIVITY LOG
MRESWS.OHMM  : MEDIUM RESISTIVITY [ILMED]
SFLED .OHMM  : SPHERICALLY FOCUSED RESISTIVITY FROM RESISTIVITY LOG
SPRED .MV    : SPONTANEOUS POTENTIAL FROM RESISTIVITY LOG
SPWS  .MV    : SPONTANEOUS POTENTIAL [BASELINE 0 MV, SPRED]
SRESWS.OHMM  : SHALLOW RESISTIVITY [SFLED]
~Params ----------------------------------------------------
PD  .                     GL : PERMANENT DATUM
EPD .FT               3271.7 : ELEVATION PERMANENT DATUM
LMF .                     KB : LOG MEASURED FROM
DAPD.FT                 15.5 : FEET ABOVE PERMANENT DATUM
DMF .                     KB : DRILLING MEASURED FROM
EKB .FT               3287.2 : KELLY BUSHING
EGL .FT               3271.7 : GROUND LEVEL
DATE.               12/02/69 : RUN DATE
RUN .                      1 : RUN NUMBER
DD  .FT                11226 : DEPTH DRILLER
DL  .FT                11223 : DEPTH LOGGER
BLI .FT                11221 : BOTTOM LOG INTERVAL
TLI .FT                 2044 : TOP LOG INTERVAL
CS  .IN                9.625 : CASING SIZE
CBD .FT                 2041 : CASING BOTTOM DRILLER
CBL .FT                 2044 : CASING BOTTOM LOGGER
BS  .IN                 8.75 : BIT SIZE
BSD .FT                11226 : BIT SIZE AT DEPTH
DFT .                MUD GEL : DRILLING FLUID TYPE
DFD .                    9.2 : DRILLING FLUID DENSITY
DFV .                    124 : DRILLING FLUID VISCOSITY
DFPH.                   11.4 : DRILLING FLUID PH
DFL .                    7.6 : DRILLING FLUID LOSS
MSS .                   CIRC : MUD SAMPLE SOURCE
RMS .OHMM               1.75 : RESISTIVITY MUD SAMPLE
MST .DEGF                 50 : MUD SAMPLE TEMPERATURE
RMF .OHMM               1.25 : RESISTIVITY MUD FILTRATE SAMPLE
MFST.DEGF                 60 : MUD FILTRATE SAMPLE TEMPERATURE
RMC .OHMM                2.1 : RESISTIVITY MUD CAKE
MCST.DEGF                 60 : MUD CAKE SAMPLE TEMPERATURE
MFSS.                   MEAS : MUD FILTRATE SAMPLE SOURCE
MCSS.                   MEAS : MUD CAKE SAMPLE SOURCE
TCS .HRS                   7 : TIME CIRCULATED STOPPED
LUN .                   6002 : LOGGING UNIT NUMBER
LUL .                    V V : LOGGING UNIT LOCATION
ENGI.              KOWALCHUK : RECORDING ENGINEER
WITN.               PETERSON : WITNESSED BY
CLNT.                A2DTECH : CLIENT CODE
ORIG.            2" 5" PRINT : ORIGIN OF DATA
UWI .       100101906018W500 : UNIQUE WELL ID
DICO. A2D Technologies, Inc. : DIGITIZING COMPANY
~Other -----------------------------------------------------
~ASCII -----------------------------------------------------
# ...
 6650.00000   70.62000   12.17020   12.17020   67.34550   14.84880   70.62000  106.96920  106.96920   14.84880   16.36580   16.36580   16.77040  -71.40010  -14.55870   16.77040
 6700.00000  130.63500   12.51120   12.51120   33.41470   30.18850  130.63500   99.74030   99.74030   30.18850   30.38120   30.38120   28.29650  -75.47880  -18.99810   28.29650
 6750.00000  120.40000   12.01360   12.01360   82.70070   12.09180  120.40000   86.13230   86.13230   12.09180   14.15890   14.15890   16.11280  -89.91750  -33.79530   16.11280
 6800.00000  156.86000   15.89570   15.89570   52.61910   19.00450  156.86000   71.56210   71.56210   19.00450   11.31630   11.31630   55.79130  -72.66480  -16.90100   55.79130
 6850.00000   73.65000   10.49290   10.49290  103.91660    9.62310   73.65000  108.34530  108.34530    9.62310   11.21030   11.21030   11.73330  -78.49880  -23.09570   11.73330
 6900.00000   66.23000   10.47160   10.47160   77.89560   12.83770   66.23000   99.98560   99.98560   12.83770   15.59770   15.59770   15.44300  -79.69510  -24.65040   15.44300
 6950.00000   91.82000   11.09110   11.09110  234.28760    4.29950   91.82000  104.91530  104.91530    4.29950    5.04630    5.04630    5.70420  -77.28120  -22.59730    5.70420
 7000.00000   62.96000   10.93640   10.93640   87.16120   11.47300   62.96000  111.29590  111.29590   11.47300   13.63040   13.63040   16.48330  -74.97360  -20.64810   16.48330
 7050.00000   74.61000   11.16350   11.16350   37.39410   26.74220   74.61000   87.19110   87.19110   26.74220   30.14150   30.14150   28.45990  -86.03130  -32.06420   28.45990
 7100.00000   71.43000   10.48680   10.48680   98.85530   10.11580   71.43000   90.75380   90.75380   10.11580   15.64950   15.64950    9.49350  -90.19720  -36.59090    9.49350
 7150.00000   73.84620   10.72810   10.72810   70.58910   14.16650   73.84620  121.18020  121.18020   14.16650   16.35070   16.35070   15.59260  -83.00310  -29.75520   15.59260
 7200.00000   75.85200   10.20380   10.20380   35.10220   28.55310   75.85200   87.16240   87.16240   28.55310   35.44200   35.44200   43.08660  -85.85110  -32.96400   43.08660
 7250.00000   76.39200   12.77110   12.77110  114.17220    8.75870   76.39200  106.59880  106.59880    8.75870    9.88730    9.88730   21.82690  -82.62230  -30.09360   21.82690
 7300.00000   84.34200   12.14390   12.14390  205.91810    4.85630   84.34200  139.03260  139.03260    4.85630    5.38230    5.38230    6.24910  -78.31470  -26.14440    6.24910
 7350.00000  100.00000   13.74150   13.74150  381.73770    2.61960  100.00000  135.18270  135.18270    2.61960    2.80130    2.80130    3.82870  -76.60280  -24.79330    3.82870
 7400.00000   94.92400   14.64490   14.64490   64.09350   15.60220   94.92400  181.40800  181.40800   15.60220   10.87610   10.87610   24.84760  -77.21220  -25.76110   24.84760
 7450.00000   66.27000   10.13920   10.13920    7.14730  141.02490   66.27000  106.82170  106.82170  141.02490  196.49740  196.49740  543.92170  -78.79520  -27.70490  543.92170
 7500.00000   68.60000   10.08150   10.08150  107.10540    9.33660   68.60000  118.39260  118.39260    9.33660   10.27660   10.27660   17.11180  -85.67680  -34.94490   17.11180
 7550.00000   59.17600   10.16020   10.16020   40.91740   24.43950   59.17600  114.16310  114.16310   24.43950   29.04210   29.04210   29.46920  -94.60250  -44.22900   29.46920
 7600.00000   68.67600    9.95110    9.95110   48.09330   20.79290   68.67600  113.52270  113.52270   20.79290   24.25520   24.25520   25.24080  -87.87020  -37.85750   25.24080
 7650.00000   63.13600    9.43610    9.43610  495.63840    2.01760   63.13600   53.11010   53.11010    2.01760    4.83300    4.83300   22.38120 -196.09950 -146.44520   22.38120
 7700.00000   54.35600   10.51660   10.51660   34.70220   29.00220   54.35600   60.48710   60.48710   29.00220   34.83480   34.83480   52.04950  -89.43910  -40.14560   52.04950
 7750.00000   77.95600   10.39850   10.39850  175.38940    5.70160   77.95600   57.72760   57.72760    5.70160    6.28570    6.28570   11.25350 -135.09010  -86.15500   11.25350
 7800.00000   55.93200    9.76000    9.76000  143.69880    6.95900   55.93200   52.89960   52.89960    6.95900   10.56300   10.56300   34.86770 -121.12870  -72.55200   34.86770
 7850.00000   54.12800   10.15450   10.15450   41.03810   24.36760   54.12800   60.71460   60.71460   24.36760   31.04310   31.04310  102.41180  -89.12560  -40.90970  102.41180
 7900.00000   50.21200   10.54990   10.54990    6.08740  164.27270   50.21200   24.91430   24.91430  164.27270  255.41080  255.41080 1126.68710  -99.00780  -51.15030 1126.68710
 7950.00000   54.65150    9.57000    9.57000   78.18180   12.79310   54.65150   32.90120   32.90120   12.79310   26.69380   26.69380   64.14400 -152.07070 -104.57390   64.14400
 8000.00000   50.86000   10.06270   10.06270   29.20880   34.23630   50.86000   25.61860   25.61860   34.23630   48.73770   48.73770  177.68050 -138.38240  -91.24410  177.68050
 8050.00000   60.43200    9.99110    9.99110  174.30710    5.73700   60.43200  111.36000  111.36000    5.73700    7.23930    7.23930    8.30160  -74.53030  -27.75040    8.30160
 8100.00000   61.24400   10.10660   10.10660   64.80500   15.43090   61.24400  126.99670  126.99670   15.43090   18.59670   18.59670   19.42510  -56.94230  -10.52310   19.42510
 8150.00000   66.10000   10.18380   10.18380  200.21220    4.99470   66.10000   97.43330   97.43330    4.99470    6.04250    6.04250    6.69400  -64.71610  -18.65540    6.69400
 8200.00000   66.63140   11.24130   11.24130   81.22400   12.31850   66.63140  123.07330  123.07330   12.31850   15.17640   15.17640   21.80540  -48.91520   -3.44190   21.80540
 8250.00000   53.70000   10.12270   10.12270   14.52840   68.83090   53.70000   42.90210   42.90210   68.83090   97.46410   97.46410  333.77690  -52.98360   -8.39080  333.77690
 8300.00000   55.34400   10.51840   10.51840   32.86340   30.42900   55.34400   48.47110   48.47110   30.42900   36.36480   36.36480   40.52450  -51.45040   -7.73800   40.52450
 8350.00000   56.19360   10.08180   10.08180   22.44940   44.54460   56.19360   62.62600   62.62600   44.54460   55.55190   55.55190   60.75340  -57.01320  -14.18710   60.75340
 8400.00000   57.28400   10.11490   10.11490   30.50850   32.77780   57.28400   62.43440   62.43440   32.77780   40.31010   40.31010   43.80920  -58.26800  -16.32240   43.80920
 8450.00000   55.63480    9.97750    9.97750   21.67760   46.13110   55.63480   58.63130   58.63130   46.13110   63.25860   63.25860   78.10890  -62.74500  -21.68560   78.10890
 8500.00000   57.53520    9.93930    9.93930   21.01860   47.57680   57.53520   58.44370   58.44370   47.57680   60.03370   60.03370   85.21320  -67.88300  -27.70410   85.21320
 8550.00000   56.44560    9.95200    9.95200    9.47030  105.59280   56.44560   64.38370   64.38370  105.59280  150.32070  150.32070  210.95520  -74.99500  -35.69660  210.95520
 8600.00000   67.37760   10.06480   10.06480   23.86780   41.89740   67.37760  138.13810  138.13810   41.89740   60.42120   60.42120   64.87650  -65.17650  -26.76430   64.87650
 8650.00000   51.92400   10.09110   10.09110    5.86800  170.41500   51.92400   46.87800   46.87800  170.41500  267.87580  267.87580  749.29340  -81.03330  -43.50160  749.29340
 8700.00000   51.01040   10.17120   10.17120    5.43030  184.16150   51.01040   33.76770   33.76770  184.16150  326.27280  326.27280  372.37530 -122.83390  -86.18840  372.37530
 8750.00000   50.23840    9.81020    9.81020    5.51650  181.27600   50.23840   33.43110   33.43110  181.27600  241.84520  241.84520  295.73720 -117.70740  -81.94240  295.73720
 8800.00000   50.12800   10.72630   10.72630    4.63680  215.66720   50.12800   29.77290   29.77290  215.66720  320.78630  320.78630  754.21770 -133.56570  -98.68120  754.21770
 8850.00000   50.78640   10.23510   10.23510    7.09610  140.92270   50.78640   24.88760   24.88760  140.92270  242.11110  242.11110  297.67800 -143.10820 -109.10990  297.67800
 8900.00000   51.30000   10.83970   10.83970    4.96920  201.24030   51.30000   29.14990   29.14990  201.24030  241.71300  241.71300  442.36430 -136.90780 -103.79000  442.36430
