~Version ---------------------------------------------------
VERS.      2.0 : CWLS log ASCII Standard -VERSION 2.0
WRAP.       NO : One line per depth step
CREA. 09/11/14 : LAS Creation Date
~Well ------------------------------------------------------
STRT.M                         600.0 : START DEPTH
STOP.M                        4700.0 : STOP DEPTH
STEP.M                      50.00000 : STEP LENGTH
NULL.                        -999.25 : NULL VALUE
COMP.      GULF CANADA RESOURCES INC : COMPANY
WELL. GULF ET AL MITCHELL 3-26-49-20 : WELL
FLD .                                : FIELD
LOC .                                : LOCATION
CTRY.                         CANADA : COUNTRY
SRVC.                   Schlumberger : SERVICE COMPANY
DATE.                    19-Feb-1984 : LOGDATE
PROV.                        Alberta : PROVINCE
UWI .               100032604920W500 : UNIQUE WELL ID
SLAT.WGS84                  53.25412 : SURFACE LATITUDE
SLON.WGS84                 -116.8205 : SURFACE LONGITUDE
~Curve Information -----------------------------------------
DEPT    .M      : Depth Curve
C1ED    .MM     : CALIPER 1 FROM DENSITY LOG
C2ED    .MM     : CALIPER 2 FROM DENSITY LOG
CALDED  .MM     : CALIPER FROM DENSITY LOG
CALSED  .MM     : CALIPER FROM SONIC LOG
CALWS   .MM     : CALIPER [CALSED SPL. TO CALDED @ 4695.7 M]
CONDWS  .MMHO   : CONDUCTIVITY [1000/DRESWS]
DCORWS  .KG/M3  : DENSITY CORRECTION [DRHOED]
DENWS   .KG/M3  : FORMATION BULK DENSITY [CALC. FROM DPOLSWS,M=2710,F=1000]
DPHILSED.V/V    : DENSITY POROSITY LIMESTONE [M=2710, F=1000] FROM DENSITY LOG
DPHISSED.V/V    : DENSITY POROSITY SANDSTONE [M=2650, F=1000] FROM DENSITY LOG
DPOLSWS .V/V    : DENSITY POROSITY LIMESTONE [DPHISSED CONVERTED TO LIMSTONE MATRIX,M=2710,F=1000 & SPL. TO DPHILSED @ 3525 M]
DRESWS  .OHMM   : DEEP RESISTIVITY [ILDED]
DRHOED  .KG/M3  : BULK DENSITY CORRECTION FROM DENSITY LOG
DTED    .US/M   : DELTA-T FROM SONIC LOG
DTWS    .US/M   : COMPRESSIONAL SONIC [DTED]
GRDED   .GAPI   : GAMMA RAY FROM DENSITY LOG
GRSED   .GAPI   : GAMMA RAY FROM SONIC LOG
GRWS    .GAPI   : GAMMA RAY [GRSED SPL. TO GRDED @ 4691.3 M &  GRWS IN CSG @ (3107.98 M-3127 M) +15 GAPI ]
ILDED   .OHMM   : DEEP INDUCTION RESISTIVITY FROM RESISTIVITY LOG
ILMED   .OHMM   : MEDIUM INDUCTION RESISTIVITY FROM RESISTIVITY LOG
MRESWS  .OHMM   : MEDIUM RESISTIVITY [ILMED]
NPHILSED.V/V    : NEUTRON POROSITY LIMESTONE FROM DENSITY LOG
NPHISSED.V/V    : NEUTRON POROSITY SANDSTONE FROM DENSITY LOG
NPOLSWS .V/V    : NEUTRON POROSITY LIMESTONE [NPHISSED CONVERSION FOR LIMESTONE MATRIX,SPL. TO NPHILSED @ 3525.4 M]
RHOBED  .KG/M3  : BULK DENSITY FROM DENSITY LOG
SFLUED  .OHMM   : SHALLOW FOCUSED RESISTIVITY FROM RESISTIVITY LOG
SPRED   .MV     : SPONTANEOUS POTENTIAL FROM RESISTIVITY LOG
SPWS    .MV     : SPONTANEOUS POTENTIAL [BASELINE 0 MV,SPRED]
SRESWS  .OHMM   : SHALLOW RESISTIVITY [SFLUED]
TENDED  .N      : TENSION [KG*9.80665002864] FROM DENSITY LOG
TENSED  .N      : TENSION [KG*9.80665002864] FROM SONIC LOG
~Params ----------------------------------------------------
PD  .                         GL : PERMANENT DATUM
EPD .M                      1136 : ELEVATION PERMANENT DATUM
LMF .                         KB : LOG MEASURED FROM
DAPD.M                      7.65 : FEET ABOVE PERMANENT DATUM
DMF .                         KB : DRILLING MEASURED FROM
EKB .M                   1144.35 : KELLY BUSHING
EGL .M                    1136.7 : GROUND LEVEL
DATE.                   02/19/84 : RUN DATE
RUN .                          2 : RUN NUMBER
DD  .M                      4712 : DEPTH DRILLER
DL  .M                      4718 : DEPTH LOGGER
BLI .M                      4717 : BOTTOM LOG INTERVAL
TLI .M                      3127 : TOP LOG INTERVAL
CS  .MM                      244 : CASING SIZE
CBD .M                      3120 : CASING BOTTOM DRILLER
CBL .M                      3127 : CASING BOTTOM LOGGER
BS  .MM                      216 : BIT SIZE
BSD .M                      4712 : BIT SIZE AT DEPTH
DFT .                   GEL CHEM : DRILLING FLUID TYPE
DFD .                       1185 : DRILLING FLUID DENSITY
DFV .                        180 : DRILLING FLUID VISCOSITY
DFPH.                         11 : DRILLING FLUID PH
DFL .                        8.8 : DRILLING FLUID LOSS
MSS .                   FLOWLINE : MUD SAMPLE SOURCE
RMS .OHMM                    1.1 : RESISTIVITY MUD SAMPLE
MST .DEGC                     24 : MUD SAMPLE TEMPERATURE
RMF .OHMM                   0.81 : RESISTIVITY MUD FILTRATE SAMPLE
MFST.DEGC                     22 : MUD FILTRATE SAMPLE TEMPERATURE
RMC .OHMM                  0.236 : RESISTIVITY MUD CAKE
MCST.DEGC                     28 : MUD CAKE SAMPLE TEMPERATURE
MFSS.                      PRESS : MUD FILTRATE SAMPLE SOURCE
MCSS.                      PRESS : MUD CAKE SAMPLE SOURCE
RMB .OHMM                  0.335 : RESISTIVITY MUD AT BHT
TCS .HRS                    2315 : TIME CIRCULATED STOPPED
TLAB.HRS                    2100 : TIME LOGGER AT BOTTOM
LUN .                       8210 : LOGGING UNIT NUMBER
LUL .                        EDM : LOGGING UNIT LOCATION
ENGI.                   ACKERMAN : RECORDING ENGINEER
WITN.                   STEPHENS : WITNESSED BY
CLNT.                    A2DTECH : CLIENT CODE
ORIG. 6.5"/100M 16.5"/100M PRINT : ORIGIN OF DATA
UWI .           100032604920W500 : UNIQUE WELL ID
DICO.     A2D Technologies, Inc. : DIGITIZING COMPANY
~Other -----------------------------------------------------
~ASCII -----------------------------------------------------
# ...
 2900.00000  302.56560  372.63900    -999.25  328.57370  328.57370   87.25470   66.14870 2546.87500    -999.25    0.06250    0.09540   11.46070   66.14870  281.69100  281.69100   95.54310   98.25790   98.25790   11.46070   12.06080   12.06080    -999.25    0.39550    0.35010 2551.18070   14.52090    7.45320   -1.72690   14.52090    -999.25    -999.25
 2950.00000  370.49880  361.49500    -999.25  362.96840  362.96840  107.27770  112.78240 2526.91000    -999.25    0.07460    0.10710    9.32160  112.78240  286.27570  286.27570   89.70760   95.33660   95.33660    9.32160    8.81680    8.81680    -999.25    0.41770    0.37430 2527.99540   11.16140    8.26900   -3.53750   11.16140    -999.25    -999.25
 3000.00000  369.69250  283.96980    -999.25  372.41210  372.41210  146.07710  147.18980 2398.21000    -999.25    0.15260    0.18230    6.84570  147.18980  273.13370  273.13370   88.51950   91.61100   91.61100    6.84570    6.73950    6.73950    -999.25    0.36780    0.32020 2388.16040    7.81610   10.92890   -4.96070    7.81610    -999.25    -999.25
 3050.00000  378.52750  364.32000    -999.25  362.56960  362.56960  141.41670   19.47540 2310.59500    -999.25    0.20570    0.23360    7.07130   19.47540  264.18510  264.18510   84.34720   87.52640   87.52640    7.07130    7.45820    7.45820    -999.25    0.45140    0.41170 2319.07450    7.76470   14.61420   -5.95420    7.76470    -999.25    -999.25
 3100.00000  299.57120  290.55820    -999.25  315.75930  315.75930  144.07770  121.29830 2512.06000    -999.25    0.08360    0.11580    6.94070  121.29830  264.08140  264.08140   92.42190   91.48470   91.48470    6.94070    7.51920    7.51920    -999.25    0.31670    0.26600 2515.20460    8.50700   20.42420   -7.14260    8.50700    -999.25    -999.25
 3150.00000    -999.25    -999.25  272.87070  278.82950  278.82950   64.35300   46.69790 2434.67500    -999.25    0.13050    0.16100   15.53930   46.69790  224.74930  224.74930   56.10670   59.00560   59.00560   15.53930   13.41190   13.41190    -999.25    0.22920    0.17700 2440.45170   16.17230   18.22800   -8.04010   16.17230 18298.36850 18467.46660
 3200.00000    -999.25    -999.25  304.54970  282.21130  282.21130   83.63580  125.95220 2285.51500    -999.25    0.22090    0.24820   11.95660  125.95220  219.60690  219.60690   63.41460   65.43050   65.43050   11.95660   12.49050   12.49050    -999.25    0.23270    0.18030 2250.67240   11.68270   20.80590   -9.05390   11.68270 18978.75780 18997.32670
 3250.00000    -999.25    -999.25  328.52260  266.00710  266.00710   72.02430  184.07770 2282.38000    -999.25    0.22280    0.25010   13.88420  184.07770  228.58800  228.58800   77.87910   80.84330   80.84330   13.88420   12.65470   12.65470    -999.25    0.24780    0.19520 2297.36450   11.97180   32.30650   -1.38080   11.97180 18796.28160 19035.85700
 3300.00000    -999.25    -999.25  288.79220  254.08200  254.08200   40.27390  220.62070 2543.90500    -999.25    0.06430    0.09710   24.83000  220.62070  221.08650  221.08650   71.98920   74.92740   74.92740   24.83000   19.19260   19.19260    -999.25    0.18670    0.13690 2526.78760   27.84020   29.39250   -1.99120   27.84020 19496.58520 19137.65790
 3350.00000    -999.25    -999.25  293.83060  257.52520  257.52520   25.57750  209.13250 2624.59000    -999.25    0.01540    0.04990   39.09690  209.13250  205.86460  205.86460   75.54140   76.21920   76.21920   39.09690   22.68440   22.68440    -999.25    0.18440    0.13480 2629.52390   60.54320   33.26510   -1.53720   60.54320 19593.57790 19654.39580
 3400.00000    -999.25    -999.25  292.37110  253.51280  253.51280   42.50630  179.07860 2502.32500    -999.25    0.08950    0.12140   23.52590  179.07860  201.02310  201.02310   67.57940   71.37870   71.37870   23.52590  271.21490  271.21490    -999.25    0.21080    0.15930 2504.37890   40.89950   32.71890   -4.52990   40.89950 19735.43310 19845.38420
 3450.00000    -999.25    -999.25  398.10380  288.40460  288.40460   88.66350  160.26770 2189.81500    -999.25    0.27890    0.30420   11.27860  160.26770  274.01100  274.01100  102.00430  106.02170  106.02170   11.27860    5.74730    5.74730    -999.25    0.24850    0.19590 2204.57670   10.72750   38.70320   -1.29250   10.72750 19894.89800 19961.88820
 3500.00000    -999.25    -999.25  294.98430  255.38410  255.38410  105.79210   56.05830 2486.65000    -999.25    0.09900    0.13060    9.45250   56.05830  237.52460  237.52460   80.56720   83.21420   83.21420    9.45250   10.27210   10.27210    -999.25    0.09780    0.06030 2619.22070   10.62570   35.33150   -3.95270   10.62570 20170.51690 20474.59460
 3550.00000    -999.25    -999.25  237.58540  234.58330  234.58330    0.50000   17.94700 2616.80500    0.05450    -999.25    0.05450 2000.00000   17.94700  181.11030  181.11030   22.01960   22.99900   22.99900 2000.00000  138.12780  138.12780    0.00930    -999.25    0.00930 2620.37600 1611.56200    6.96270  -42.30750 1611.56200 20161.36920 20706.38950
 3600.00000    -999.25    -999.25  293.19940  234.41110  234.41110    7.36340  184.34210 2625.18400    0.04960    -999.25    0.04960  135.80600  184.34210  201.25350  201.25350  108.35150  112.47550  112.47550  135.80600   49.95220   49.95220    0.08060    -999.25    0.08060 2601.69480  117.75780   16.49690  -42.75920  117.75780 20557.45590 20902.33120
 3650.00000    -999.25    -999.25  253.70770  233.30150  233.30150    0.65990  174.44460 2742.66100   -0.01910    -999.25   -0.01910 1515.31910  174.44460  175.95140  175.95140   63.83230   66.45220   66.45220 1515.31910  152.84780  152.84780    0.01400    -999.25    0.01400 2747.25440  618.93190   33.73780  -35.50430  618.93190 20524.00440 21321.57530
 3700.00000    -999.25    -999.25  245.48520  236.59290  236.59290   14.76630    9.32860 2792.42200   -0.04820    -999.25   -0.04820   67.72170    9.32860  168.04480  168.04480   24.54500   26.55130   26.55130   67.72170   47.38250   47.38250    0.00060    -999.25    0.00060 2785.94040  113.54960   45.81510  -33.41300  113.54960 21315.12450 21536.45470
 3750.00000    -999.25    -999.25  314.52140  243.14340  243.14340   12.44240  246.91310 2328.84100    0.22290    -999.25    0.22290   80.37040  246.91310  183.74060  183.74060   82.35300   82.34150   82.34150   80.37040   68.28790   68.28790    0.08950    -999.25    0.08950 2337.45460  169.84150   61.00600  -28.20810  169.84150 21288.27390 21412.89680
 3800.00000    -999.25    -999.25  254.58140  255.52580  255.52580   33.71490   32.33800 2713.24900   -0.00190    -999.25   -0.00190   29.66050   32.33800  176.19120  176.19120   18.27760   18.40650   18.40650   29.66050   26.10430   26.10430    0.01160    -999.25    0.01160 2708.43850  195.05920   80.32860  -18.87150  195.05920 21931.46660 22175.48840
 3850.00000    -999.25    -999.25  235.77600  227.61400  227.61400   41.91710   15.16500 2691.19000    0.01100    -999.25    0.01100   23.85660   15.16500  187.05530  187.05530   38.83170   40.06450   40.06450   23.85660   20.96120   20.96120    0.02580    -999.25    0.02580 2692.82030   37.49170   78.62910  -31.82870   37.49170 21907.47950 22359.52590
 3900.00000    -999.25    -999.25  236.19750  225.64190  225.64190   26.52380    0.81590 2676.82600    0.01940    -999.25    0.01940   37.70200    0.81590  194.30880  194.30880   58.82290   61.96390   61.96390   37.70200   32.97260   32.97260    0.05800    -999.25    0.05800 2677.30570   46.43280   85.07330  -36.85620   46.43280 22400.10480 22571.81240
 3950.00000    -999.25    -999.25  280.47190  240.47700  240.47700    0.50000  236.51690 2638.69300    0.04170    -999.25    0.04170 2000.00000  236.51690  158.93880  158.93880   10.76540   10.86080   10.86080 2000.00000  105.21760  105.21760   -0.00390    -999.25   -0.00390 2649.12940 1980.66970   23.22110 -110.18010 1980.66970 22415.15510 22828.88290
 4000.00000    -999.25    -999.25  294.25080  247.23540  247.23540    0.51000  121.73310 2351.41300    0.20970    -999.25    0.20970 1960.95060  121.73310  156.69390  156.69390    8.89930    9.14730    9.14730 1960.95060 1888.15320 1888.15320    0.00340    -999.25    0.00340 2344.70140 2009.49300   32.46720 -112.40570 2009.49300 22821.25240 23122.68720
