~Version ---------------------------------------------------
VERS. 2.0 : CWLS log ASCII Standard -VERSION 2.0
WRAP.  NO : ONE LINE PER DEPTH STEP
~Well ------------------------------------------------------
STRT.M                                300.0 : START DEPTH
STOP.M                               1700.0 : STOP DEPTH
STEP.M                             50.00000 : STEP LENGTH
NULL.                               -999.25 : NULL VALUE
COMP. CONOCOPHILLIPS CANADA RESOURCES CORP. : COMPANY
WELL.      MANNVILLE ET AL NIPISI 4-30-80-7 : WELL
FLD .                                       : FIELD
LOC .                                       : LOCATION
CTRY.                                CANADA : COUNTRY
SRVC.                          Schlumberger : SERVICE COMPANY
DATE.                           18-Dec-1990 : LOGDATE
PROV.                               Alberta : PROVINCE
UWI .                      100043008007W500 : UNIQUE WELL ID
SLAT.WGS84                    55.9575288309 : SURFACE LATITUDE
SLON.WGS84                  -115.0944534502 : SURFACE LONGITUDE
~Curve Information -----------------------------------------
DEPT    .M                                                           : DEPTH METERS
CALDED  .MM                                                          : CALIPER FROM DENSITY LOG
CALWS   .MM                                                          : CALIPER [CALDED]
CONDWS  .MMHO                                                        : CONDUCTIVITY [1000/DRESWS]
DCORWS  .KG/M3                                                       : DENSITY CORRECTION FROM DENSITY LOG
DENWS   .KG/M3                                                       : BULK DENSITY [CALCULATED FROM DPOLSWS]
DPHILSED.V/V                                                         : DENSITY POROSITY LIMESTONE [M=2710 F=1000] FROM DENSITY LOG
DPHISSED.V/V                                                         : DENSITY POROSITY SANDSTONE [M=2650 F=1000] FROM DENSITY LOG
DPOLSWS .V/V                                                         : DENSITY POROSITY LIMESTONE [MERGED DPHISSED/DPHILSED] [CONVERTED DPHISSED TO M-2710 F=1000 ABOVE 601 M]
DRESWS  .OHMM                                                        : DEEP RESISTIVITY [IDPHED]
DRHOED  .KG/M3                                                       : DENSITY CORRECTION FROM DENSITY LOG
GRRED   .GAPI                                                        : GAMMA RAY FROM RESISTIVITY LOG
GRWS    .GAPI                                                        : GAMMA RAY [GRRED]
IDPHED  .OHMM                                                        : INDUCTION DEEP PHASE RESISTIVITY
IMPHED  .OHMM                                                        : INDUCTION MEDIUM PHASE RESISTIVITY
MRESWS  .OHMM                                                        : MEDIUM RESISTIVITY [IMPHED]
NPOLSWS .V/V :   NEUTRON POROSITY LIMESTONE [CONVERTED FROM NPHISSED : CO.=SWS, TOOL=CNL(NPHI). SIGMA IN=4.6, SIGMA OUT=7.1 ABOVE 601M]
NPORLSED.V/V                                                         : NEUTRON POROSITY LIMESTONE FROM DENSITY LOG
NPORSSED.V/V                                                         : NEUTRON POROSITY SANDSTONE FROM DENSITY LOG
RHOBED  .KG/M3                                                       : BULK DENSITY FROM DENSITY LOG
SFLUED  .OHMM                                                        : SPHERICALLY FOCUSED LOG RESISTIVITY
SPRED   .MV                                                          : SPONTANEOUS POTENTIAL FROM RESISTIVITY LOG
SPWS    .MV                                                          : SPONTANEOUS POTENTIAL [BASELINE 0 MV] [SPRED]
SRESWS  .OHMM                                                        : SHALLOW RESISTIVITY [SFLUED]
~Params ----------------------------------------------------
PD  .                         GL : PERMANENT DATUM
EPD .M                     664.4 : ELEVATION PERMANENT DATUM
LMF .                         GL : LOG MEASURED FROM
DAPD.M                        KB : FEET ABOVE PERMANENT DATUM
DMF .                        4.2 : DRILLING MEASURED FROM
EKB .M                     668.8 : KELLY BUSHING
EDF .M                     668.3 : DRILLING FLOOR
EGL .M                     664.4 : GROUND LEVEL
DATE.                   12/18/90 : RUN DATE
RUN .                          1 : RUN NUMBER
DD  .M                      1716 : DEPTH DRILLER
DL  .M                    1717.3 : DEPTH LOGGER
BLI .M                    1714.4 : BOTTOM LOG INTERVAL
TLI .M                     180.7 : TOP LOG INTERVAL
CS  .MM                    219.1 : CASING SIZE
CBD .M                     180.8 : CASING BOTTOM DRILLER
CBL .M                     180.7 : CASING BOTTOM LOGGER
BS  .MM                      200 : BIT SIZE
BSD .M                      1716 : BIT SIZE AT DEPTH
DFT .                   GEL CHEM : DRILLING FLUID TYPE
DFD .                       1140 : DRILLING FLUID DENSITY
DFV .                         77 : DRILLING FLUID VISCOSITY
DFPH.                         11 : DRILLING FLUID PH
DFL .                        9.2 : DRILLING FLUID LOSS
MSS .                  FLOW LINE : MUD SAMPLE SOURCE
RMS .OHMM                  0.834 : RESISTIVITY MUD SAMPLE
MST .DEGC                     20 : MUD SAMPLE TEMPERATURE
RMF .OHMM                  0.629 : RESISTIVITY MUD FILTRATE SAMPLE
MFST.DEGC                     17 : MUD FILTRATE SAMPLE TEMPERATURE
RMC .OHMM                   1.94 : RESISTIVITY MUD CAKE
MCST.DEGC                     10 : MUD CAKE SAMPLE TEMPERATURE
MFSS.                       MEAS : MUD FILTRATE SAMPLE SOURCE
MCSS.                       MEAS : MUD CAKE SAMPLE SOURCE
RMB .OHMM                  0.545 : RESISTIVITY MUD AT BHT
TCS .HRS                    1100 : TIME CIRCULATED STOPPED
TLAB.HRS                    2015 : TIME LOGGER AT BOTTOM
LUN .                       8387 : LOGGING UNIT NUMBER
LUL .                   EDMONTON : LOGGING UNIT LOCATION
ENGI.                  ZACHYSTAL : RECORDING ENGINEER
WITN.                     PIERCE : WITNESSED BY
CLNT.                    A2DTECH : CLIENT CODE
ORIG. 6.5"/100M 16.5"/100M PRINT : ORIGIN OF DATA
UWI .           100043008007W500 : UNIQUE WELL ID
DICO.     A2D Technologies, Inc. : DIGITIZING COMPANY
~Other -----------------------------------------------------
~ASCII -----------------------------------------------------
  300.00000  216.12200  216.12200  369.09900  105.79430 1904.36500    -999.25    0.45190    0.47110    2.70930  105.79430   78.03930   78.03930    2.70930    2.52390    2.52390    0.44660    -999.25    0.48830 1875.20090    2.79340  -63.27290   -5.85420    2.79340
  350.00000  216.49510  216.49510  163.97470   27.48670 2167.87010    -999.25    0.29220    0.31700    6.09850   27.48670   36.20170   36.20170    6.09850    6.74300    6.74300    0.30260    -999.25    0.34630 2170.98970    6.86560  -75.89050  -22.36170    6.86560
  400.00000  204.68550  204.68550  293.20360   12.27780 1974.16000    -999.25    0.40960    0.43030    3.41060   12.27780   56.90700   56.90700    3.41060    4.15610    4.15610    0.43730    -999.25    0.47900 1285.63380    5.67390  -66.44730  -13.99370    5.67390
  450.00000  243.94650  243.94650  230.01200   10.52470 2100.55000    -999.25    0.33300    0.35640    4.34760   10.52470   53.15560   53.15560    4.34760    4.22840    4.22840    0.43510    -999.25    0.47680 2093.87080    4.20490  -73.13010  -21.39660    4.20490
  500.00000  228.63950  228.63950  186.61940   17.90540 2152.85500    -999.25    0.30130    0.32580    5.35850   17.90540   51.99410   51.99410    5.35850    5.80460    5.80460    0.43750    -999.25    0.47920 2160.88180    5.44340  -70.23340  -19.22010    5.44340
  550.00000  254.32060  254.32060  164.46020  107.59890 2275.12010    -999.25    0.22720    0.25430    6.08050  107.59890   57.69870   57.69870    6.08050    5.79850    5.79850    0.35170    -999.25    0.39470 2283.98000    6.00390  -65.70180  -15.40860    6.00390
  600.00000  254.51190  254.51190   21.51400   10.62310 2536.14990    -999.25    0.06900    0.10170   46.48140   10.62310   12.58680   12.58680   46.48140   55.43280   55.43280    0.13990    -999.25    0.18310 2537.71780   82.23700  -64.52070  -14.94770   82.23700
  650.00000  241.42660  241.42660   46.94020    2.16340 2577.64600    0.07740    0.04960    0.07740   21.30370    2.16340   17.70210   17.70210   21.30370   20.73530   20.73530    0.10970    0.10970    -999.25 2583.59030   22.71380  -63.44350  -14.77970   22.71380
  700.00000  277.83380  277.83380  103.26200    5.37660 2524.97800    0.10820    -999.25    0.10820    9.68410    5.37660   26.27140   26.27140    9.68410    9.18510    9.18510    0.18810    0.18810    -999.25 2513.88110   10.74270  -47.48570   -3.32420   10.74270
  750.00000  247.68870  247.68870   82.49740   -1.65850 2568.24100    0.08290    -999.25    0.08290   12.12160   -1.65850   27.53540   27.53540   12.12160   11.79660   11.79660    0.14550    0.14550    -999.25 2565.90450   12.35890  -50.14750  -10.48820   12.35890
  800.00000  250.45150  250.45150   17.33240   -7.42060 2641.08690    0.04030    -999.25    0.04030   57.69530   -7.42060   15.73250   15.73250   57.69530   68.95930   68.95930    0.06700    0.06700    -999.25 2635.05960   75.66100  -66.27870  -29.40180   75.66100
  850.00000  238.28090  238.28090   14.02160   -1.47350 2651.68900    0.03410    -999.25    0.03410   71.31830   -1.47350   10.28110   10.28110   71.31830   86.96260   86.96260    0.05770    0.05770    -999.25 2649.11010  102.02260  -79.48260  -42.60570  102.02260
  900.00000  220.63310  220.63310    8.69660   -6.83300 2661.09400    0.02860    -999.25    0.02860  114.98720   -6.83300   10.56680   10.56680  114.98720  111.76640  111.76640    0.04310    0.04310    -999.25 2656.92550  115.14830  -65.65170  -28.77480  115.14830
  950.00000  234.61970  234.61970   34.17540   13.10410 2632.53710    0.04530    -999.25    0.04530   29.26080   13.10410    8.52660    8.52660   29.26080   39.19510   39.19510    0.09450    0.09450    -999.25 2620.97340   66.94970  -81.20110  -44.32420   66.94970
 1000.00000  222.08090  222.08090   10.18990    0.46060 2664.68510    0.02650    -999.25    0.02650   98.13610    0.46060   11.03540   11.03540   98.13610  112.12910  112.12910    0.05050    0.05050    -999.25 2668.53320  115.54400  -75.68660  -38.80970  115.54400
 1050.00000  220.23310  220.23310   39.24320   22.79570 2541.05200    0.09880    -999.25    0.09880   25.48210   22.79570    9.14760    9.14760   25.48210   41.03390   41.03390    0.21720    0.21720    -999.25 2547.92460   62.52420  -86.42660  -49.54970   62.52420
 1100.00000  223.79330  223.79330   47.48650    9.74220 2709.48710    0.00030    -999.25    0.00030   21.05860    9.74220   20.49030   20.49030   21.05860   26.27760   26.27760    0.15130    0.15130    -999.25 2700.60990   54.71660  -80.07650  -46.14740   54.71660
 1150.00000  220.81540  220.81540   42.53240   76.94440 2764.20700   -0.03170    -999.25   -0.03170   23.51150   76.94440   11.70210   11.70210   23.51150   36.81330   36.81330    0.15570    0.15570    -999.25 2766.19340   66.62350  -97.74750  -68.33960   66.62350
 1200.00000  280.03890  280.03890  212.64380  132.30800 2454.52610    0.14940    -999.25    0.14940    4.70270  132.30800   54.83650   54.83650    4.70270    4.46900    4.46900    0.26920    0.26920    -999.25 2423.74290    4.76660  -38.65390  -13.43790    4.76660
 1250.00000  401.02670  401.02670  432.11480   68.56840 1719.91000    0.57900    -999.25    0.57900    2.31420   68.56840   68.13980   68.13980    2.31420    2.08170    2.08170    0.43160    0.43160    -999.25 1664.33030    2.44080  -40.79830  -17.53090    2.44080
 1300.00000  223.73540  223.73540  124.79880   19.93570 2611.16210    0.05780    -999.25    0.05780    8.01290   19.93570   60.66820   60.66820    8.01290    8.62280    8.62280    0.19910    0.19910    -999.25 2625.84160    7.30060  -27.73550   -6.41660    7.30060
 1350.00000  216.30320  216.30320  118.69290   59.23230 2615.60790    0.05520    -999.25    0.05520    8.42510   59.23230   44.09140   44.09140    8.42510   13.22640   13.22640    0.11080    0.11080    -999.25 2614.79980   13.54390  -27.85690   -8.48660   13.54390
 1400.00000  209.69060  209.69060  133.39380   15.75140 2647.07200    0.03680    -999.25    0.03680    7.49660   15.75140   54.13030   54.13030    7.49660    7.66900    7.66900    0.14930    0.14930    -999.25 2635.96700    8.78390  -21.60660   -4.18490    8.78390
 1450.00000  267.28300  267.28300  412.72850   71.66180 2237.52710    0.27630    -999.25    0.27630    2.42290   71.66180   90.17770   90.17770    2.42290    2.26760    2.26760    0.43320    0.43320    -999.25 2236.00070    2.72320  -29.40090  -13.92780    2.72320
 1500.00000  263.63330  263.63330  297.51280  146.42900 2119.87890    0.34510    -999.25    0.34510    3.36120  146.42900   76.18220   76.18220    3.36120    3.29040    3.29040    0.39540    0.39540    -999.25 2152.37960    3.27720  -31.24830  -18.36810    3.27720
 1550.00000  221.69150  221.69150   85.35410   30.05030 2671.69600    0.02240    -999.25    0.02240   11.71590   30.05030   35.86350   35.86350   11.71590   15.70300   15.70300    0.10830    0.10830    -999.25 2662.06050   17.40700  -15.76770   -5.94700   17.40700
 1600.00000  225.91480  225.91480  118.97960    0.24860 2677.33910    0.01910    -999.25    0.01910    8.40480    0.24860   54.61510   54.61510    8.40480    9.09800    9.09800    0.13990    0.13990    -999.25 2671.20290   11.11670  -11.28830   -4.26360   11.11670
 1650.00000  217.10600  217.10600  185.09260   -3.19920 2636.81200    0.04280    -999.25    0.04280    5.40270   -3.19920   76.63450   76.63450    5.40270    5.46140    5.46140    0.21190    0.21190    -999.25 2638.77080    6.70540  -15.28300   -1.90580    6.70540
 1700.00000  195.87830  195.87830   23.94960    0.98360 2816.53300   -0.06230    -999.25   -0.06230   41.75440    0.98360   11.61590   11.61590   41.75440   38.99680   38.99680    0.08740    0.08740    -999.25 2819.23830  104.85390  -56.16090  -15.02190  104.85390
