~Version ---------------------------------------------------
VERS.      2.0 : CWLS log ASCII Standard -VERSION 2.0
WRAP.       NO : One line per depth step
CREA. 11/22/17 : LAS Creation Date
~Well ------------------------------------------------------
STRT.FT                              300.0 : START DEPTH
STOP.FT                            16950.0 : STOP DEPTH
STEP.FT                           50.00000 : STEP LENGTH
NULL.                              -999.25 : NULL VALUE
COMP.                        BANFF OIL LTD : COMPANY
WELL. BANFF AQUIT SIEBENS RAMR 14-21-37-11 : WELL
FLD .                                      : FIELD
LOC .                                      : LOCATION
CTRY.                               CANADA : COUNTRY
SRVC.                         Schlumberger : SERVICE COMPANY
DATE.                          21-Oct-1970 : LOGDATE
PROV.                              Alberta : PROVINCE
UWI .                     100142103711W500 : UNIQUE WELL ID
SLAT.WGS84                        52.19912 : SURFACE LATITUDE
SLON.WGS84                       -115.5164 : SURFACE LONGITUDE
~Curve Information -----------------------------------------
DEPT    .FT    : Depth Curve
CALDED  .IN    : CALIPER FROM DENSITY LOG [DEP. ADJ. TO ILMED]
CALNED  .IN    : CALIPER FROM NEUTRON LOG [DEP. ADJ. TO ILMED]
CALSED  .IN    : CALIPER FROM SONIC LOG [DEP. ADJ. TO ILMED]
CALWS   .IN    : CALIPER 148' CALSED 13012' CALNED 13190' CALDED 14980' CALSED 15315' CALDED 16246' CALSED]
CONDWS  .MMHO  : DEEP CONDUCTIVITY [1000/DRESWS]
DCORWS  .G/C3  : DENSITY CORRECTION [DRHOED]
DENWS   .G/C3  : BULK DENSITY [M=2.71, F=1.00] [RHOBED]
DPHILSED.V/V   : DENSITY POROSITY [M=2.71, F=1.00] FROM DENSITY LOG [DEP. ADJ. TO ILMED]
DPOLSWS .V/V   : DENSITY POROSITY [M=2.71, F=1.00] [CAL. FROM DENWS]
DRESWS  .OHMM  : DEEP RESISTIVITY [ILDED]
DRHOED  .G/C3  : DENSITY CORRECTION FROM DENSITY LOG [DEP. ADJ. TO ILMED]
DTED    .US/F  : DELTA TIME FROM SONIC LOG [DEP. ADJ. TO ILMED]
DTWS    .US/F  : DELTA TIME [DTED]
GRDED   .GAPI  : GAMMA RAY FROM DENSITY LOG [DEP. ADJ. TO ILMED]
GRNED   .GAPI  : GAMMA RAY FROM NEUTRON LOG [DEP. ADJ. TO ILMED]
GRSED   .GAPI  : GAMMA RAY FROM SONIC LOG [DEP. ADJ. TO ILMED]
GRWS    .GAPI  : GAMMA RAY [GRSED]
ILDED   .OHMM  : INDUCTION LOG DEEP RESISTIVITY
ILMED   .OHMM  : INDUCTION LOG MEDIUM RESISTIVITY
LL8ED   .OHMM  : 8 INCH LATEROLOG RESISTIVITY
MRESWS  .OHMM  : MEDIUM RESISTIVITY [ILMED]
NPOLSWS .V/V   : NEUTRON POROSITY LIMESTONE [SNPLSED]
RHOBED  .G/C3  : BULK DENSITY FROM DENSITY LOG [DEP. ADJ. TO ILMED]
SNPLSED .V/V   : SIDEWALL NEUTRON POROSITY [LIMESTONE] [DEP. ADJ. TO ILMED]
SPRED   .MV    : SPONTANEOUS POTENTIAL FROM RESIST. LOG [DIVIDED BY 2 BELOW 13778'], SHIFTS REMOVED, PATCHED]
SPWS    .MV    : SPONTANEOUS POTENTIAL [BASELINE 0 MV] [SPRED][PL. USE W/ RESERVATION]
SRESWS  .OHMM  : SHALLOW RESISTIVITY [LL8ED]
~Params ----------------------------------------------------
PD  .                     GL : PERMANENT DATUM
EPD .FT                 4914 : ELEVATION PERMANENT DATUM
LMF .                     KB : LOG MEASURED FROM
DAPD.FT                 18.7 : FEET ABOVE PERMANENT DATUM
EKB .FT               4932.7 : KELLY BUSHING
EGL .FT                 4914 : GROUND LEVEL
DATE.               10/21/70 : RUN DATE
RUN .                      4 : RUN NUMBER
DD  .FT                16960 : DEPTH DRILLER
DL  .FT                16960 : DEPTH LOGGER
BLI .FT                16954 : BOTTOM LOG INTERVAL
TLI .FT                16000 : TOP LOG INTERVAL
BS  .IN                8.375 : BIT SIZE
BSD .FT                16960 : BIT SIZE AT DEPTH
DFT .                    GEL : DRILLING FLUID TYPE
DFD .                   10.1 : DRILLING FLUID DENSITY
DFV .                     61 : DRILLING FLUID VISCOSITY
DFPH.                     10 : DRILLING FLUID PH
DFL .                    8.4 : DRILLING FLUID LOSS
MSS .               FLOWLINE : MUD SAMPLE SOURCE
RMS .OHMM               1.51 : RESISTIVITY MUD SAMPLE
MST .DEGF                 66 : MUD SAMPLE TEMPERATURE
RMF .OHMM               1.11 : RESISTIVITY MUD FILTRATE SAMPLE
MFST.DEGF                 70 : MUD FILTRATE SAMPLE TEMPERATURE
TCS .HRS                   4 : TIME CIRCULATED STOPPED
LUN .                   7002 : LOGGING UNIT NUMBER
LUL .                     RD : LOGGING UNIT LOCATION
ENGI.                 TALBOT : RECORDING ENGINEER
WITN.          LEMEE BRINKER : WITNESSED BY
CLNT.                A2DTECH : CLIENT CODE
ORIG.            2" 5" PRINT : ORIGIN OF DATA
UWI .       100142103711W500 : UNIQUE WELL ID
DICO. A2D Technologies, Inc. : DIGITIZING COMPANY
~Other -----------------------------------------------------
~ASCII -----------------------------------------------------
# ...
 8100.00000    -999.25    -999.25   14.60950   14.60950  112.26750    -999.25    -999.25    -999.25    -999.25    8.90730    -999.25   85.59570   85.59570    -999.25    -999.25   66.16460   66.16460    8.90730    7.95900    9.66430    7.95900    -999.25    -999.25    -999.25   65.06530  -17.18670    9.66430
 8150.00000    -999.25    -999.25   14.79210   14.79210   43.95640    -999.25    -999.25    -999.25    -999.25   22.74980    -999.25   71.59640   71.59640    -999.25    -999.25   45.23680   45.23680   22.74980   21.06220   24.89970   21.06220    -999.25    -999.25    -999.25   62.20290  -20.12830   24.89970
 8200.00000    -999.25    -999.25   14.91610   14.91610   79.31470    -999.25    -999.25    -999.25    -999.25   12.60800    -999.25   87.22460   87.22460    -999.25    -999.25   56.48570   56.48570   12.60800   11.80680   13.31830   11.80680    -999.25    -999.25    -999.25   68.13990  -14.27060   13.31830
 8250.00000    -999.25    -999.25   15.01360   15.01360   82.55320    -999.25    -999.25    -999.25    -999.25   12.11340    -999.25   84.20040   84.20040    -999.25    -999.25   57.39800   57.39800   12.11340   10.61990   12.13260   10.61990    -999.25    -999.25    -999.25   65.00590  -17.48380   12.13260
 8300.00000    -999.25    -999.25   14.99750   14.99750   92.63120    -999.25    -999.25    -999.25    -999.25   10.79550    -999.25  100.89640  100.89640    -999.25    -999.25   55.39990   55.39990   10.79550    9.75560   10.63420    9.75560    -999.25    -999.25    -999.25   65.63950  -16.92950   10.63420
 8350.00000    -999.25    -999.25   15.01180   15.01180  111.29040    -999.25    -999.25    -999.25    -999.25    8.98550    -999.25  120.99960  120.99960    -999.25    -999.25   54.06710   54.06710    8.98550    7.51900    9.40470    7.51900    -999.25    -999.25    -999.25   61.50040  -21.14780    9.40470
 8400.00000    -999.25    -999.25   14.76180   14.76180   87.96000    -999.25    -999.25    -999.25    -999.25   11.36880    -999.25   79.99530   79.99530    -999.25    -999.25   75.89770   75.89770   11.36880   10.35450   11.02110   10.35450    -999.25    -999.25    -999.25   58.59850  -24.12900   11.02110
 8450.00000    -999.25    -999.25   14.91300   14.91300   80.87930    -999.25    -999.25    -999.25    -999.25   12.36410    -999.25   90.12170   90.12170    -999.25    -999.25   50.53600   50.53600   12.36410    9.98160   10.72120    9.98160    -999.25    -999.25    -999.25   60.88410  -21.92260   10.72120
 8500.00000    -999.25    -999.25   14.19890   14.19890   30.49790    -999.25    -999.25    -999.25    -999.25   32.78910    -999.25   93.38020   93.38020    -999.25    -999.25   46.22200   46.22200   32.78910   22.36090   15.02240   22.36090    -999.25    -999.25    -999.25   60.60990  -22.27610   15.02240
 8550.00000    -999.25    -999.25   14.80590   14.80590  115.41610    -999.25    -999.25    -999.25    -999.25    8.66430    -999.25  138.07730  138.07730    -999.25    -999.25   53.22810   53.22810    8.66430    6.31280    7.52440    6.31280    -999.25    -999.25    -999.25   59.44140  -23.52390    7.52440
 8600.00000    -999.25    -999.25   14.83380   14.83380   30.36960    -999.25    -999.25    -999.25    -999.25   32.92770    -999.25   68.74150   68.74150    -999.25    -999.25   41.17210   41.17210   32.92770   36.61420   29.45960   36.61420    -999.25    -999.25    -999.25   55.41180  -27.63270   29.45960
 8650.00000    -999.25    -999.25   14.83020   14.83020   88.66980    -999.25    -999.25    -999.25    -999.25   11.27780    -999.25  130.83860  130.83860    -999.25    -999.25   45.50170   45.50170   11.27780    6.18030    7.32140    6.18030    -999.25    -999.25    -999.25   58.52150  -24.60230    7.32140
 8700.00000    -999.25    -999.25   14.19830   14.19830   25.12230    -999.25    -999.25    -999.25    -999.25   39.80530    -999.25   57.85960   57.85960    -999.25    -999.25   32.18120   32.18120   39.80530   37.98930   35.73190   37.98930    -999.25    -999.25    -999.25   37.61330  -45.58970   35.73190
 8750.00000    -999.25    -999.25   14.80630   14.80630   76.61660    -999.25    -999.25    -999.25    -999.25   13.05200    -999.25   82.76680   82.76680    -999.25    -999.25   44.40970   44.40970   13.05200    8.48080    9.62760    8.48080    -999.25    -999.25    -999.25   58.62590  -24.65640    9.62760
 8800.00000    -999.25    -999.25   14.68990   14.68990   28.75600    -999.25    -999.25    -999.25    -999.25   34.77540    -999.25   69.21060   69.21060    -999.25    -999.25   43.22130   43.22130   34.77540   37.71000   30.07230   37.71000    -999.25    -999.25    -999.25   57.79320  -25.56830   30.07230
 8850.00000    -999.25    -999.25   14.71110   14.71110  107.95640    -999.25    -999.25    -999.25    -999.25    9.26300    -999.25  156.93190  156.93190    -999.25    -999.25   41.85590   41.85590    9.26300    5.84830    8.54570    5.84830    -999.25    -999.25    -999.25   63.84120  -19.59960    8.54570
 8900.00000    -999.25    -999.25   14.71370   14.71370  110.21350    -999.25    -999.25    -999.25    -999.25    9.07330    -999.25  157.50140  157.50140    -999.25    -999.25   46.30940   46.30940    9.07330    5.88220    6.31770    5.88220    -999.25    -999.25    -999.25   66.01640  -17.50360    6.31770
 8950.00000    -999.25    -999.25   14.90510   14.90510  146.71150    -999.25    -999.25    -999.25    -999.25    6.81610    -999.25  196.48820  196.48820    -999.25    -999.25   41.83560   41.83560    6.81610    4.08610    4.74560    4.08610    -999.25    -999.25    -999.25   70.76020  -12.83910    4.74560
 9000.00000    -999.25    -999.25   14.91070   14.91070   80.99070    -999.25    -999.25    -999.25    -999.25   12.34710    -999.25  102.87140  102.87140    -999.25    -999.25   43.01000   43.01000   12.34710    9.51970    8.09900    9.51970    -999.25    -999.25    -999.25   69.26310  -14.41540    8.09900
 9050.00000    -999.25    -999.25   14.79190   14.79190   85.31330    -999.25    -999.25    -999.25    -999.25   11.72150    -999.25  111.15340  111.15340    -999.25    -999.25   41.42340   41.42340   11.72150    5.99710    7.19320    5.99710    -999.25    -999.25    -999.25   67.19190  -16.56590    7.19320
 9100.00000    -999.25    -999.25   13.64680   13.64680   23.65190    -999.25    -999.25    -999.25    -999.25   42.27990    -999.25   69.17870   69.17870    -999.25    -999.25   32.29920   32.29920   42.27990   40.11390   36.34160   40.11390    -999.25    -999.25    -999.25   47.22110  -36.61590   36.34160
 9150.00000    -999.25    -999.25   14.96630   14.96630   94.08580    -999.25    -999.25    -999.25    -999.25   10.62860    -999.25   85.92230   85.92230    -999.25    -999.25   43.06950   43.06950   10.62860    6.43850    7.99970    6.43850    -999.25    -999.25    -999.25   67.30160  -16.61470    7.99970
 9200.00000    -999.25    -999.25   14.46870   14.46870   76.06360    -999.25    -999.25    -999.25    -999.25   13.14690    -999.25  104.95870  104.95870    -999.25    -999.25   43.35520   43.35520   13.14690   11.16530   10.13290   11.16530    -999.25    -999.25    -999.25   66.69530  -17.30030   10.13290
 9250.00000    -999.25    -999.25   14.13860   14.13860   19.35340    -999.25    -999.25    -999.25    -999.25   51.67060    -999.25   63.39130   63.39130    -999.25    -999.25   35.07810   35.07810   51.67060   49.06570   43.52260   49.06570    -999.25    -999.25    -999.25   65.35070  -18.72410   43.52260
 9300.00000    -999.25    -999.25   14.80120   14.80120   98.93060    -999.25    -999.25    -999.25    -999.25   10.10810    -999.25  151.06720  151.06720    -999.25    -999.25   43.22040   43.22040   10.10810    7.79860    9.14370    7.79860    -999.25    -999.25    -999.25   66.50740  -17.64670    9.14370
 9350.00000    -999.25    -999.25   14.96670   14.96670   96.94900    -999.25    -999.25    -999.25    -999.25   10.31470    -999.25   93.34150   93.34150    -999.25    -999.25   40.17070   40.17070   10.31470    9.26970    8.65050    9.26970    -999.25    -999.25    -999.25   67.27970  -16.95360    8.65050
