~Version ---------------------------------------------------
VERS.      2.0 : CWLS log ASCII Standard -VERSION 2.0
WRAP.       NO : One line per depth step
CREA. 10/25/17 : LAS Creation Date
~Well ------------------------------------------------------
STRT.FT                         1100.0 : START DEPTH
STOP.FT                        10800.0 : STOP DEPTH
STEP.FT                       50.00000 : STEP LENGTH
NULL.                          -999.25 : NULL VALUE
COMP. AMOCO CANADA PETROLEUM CO., LTD. : COMPANY
WELL.       AMOCO N-2 ANTE 11-25-65-23 : WELL
FLD .                                  : FIELD
LOC .                                  : LOCATION
CTRY.                           CANADA : COUNTRY
SRVC.           Schlumberger of Canada : SERVICE COMPANY
DATE.                      30-Oct-1976 : LOGDATE
PROV.                          Alberta : PROVINCE
UWI .                 100112506523W500 : UNIQUE WELL ID
SLAT.WGS84                    54.65705 : SURFACE LATITUDE
SLON.WGS84                   -117.3447 : SURFACE LONGITUDE
~Curve Information -----------------------------------------
DEPT    .FT    : Depth Curve
CALDED  .IN    : CALIPER FROM DENSITY LOG [DEP. ADJ. TO RESIST. LOG]
CALSED  .IN    : CALIPER FROM SONIC LOG [DEP. ADJ. TO RESIST. LOG]
CALWS   .IN    : CALIPER [1152' CALDED 10764' CALSED]
CONDWS  .MMHO  : CONDUCTIVITY [1000/DRESWS]
DCORWS  .G/C3  : DENSITY CORRECTION [DRHOED]
DENWS   .G/C3  : BULK DENSITY [M=2.71, F=1.00] [RHOBED]
DPHILSED.V/V   : DENSITY POROSITY [M=2.71, F=1.00] FROM DENSITY LOG [DEP. ADJ. TO RESIST. LOG]
DPHISSED.V/V   : DENSITY POROSITY [M=2.65, F=1.00] FROM DENSITY LOG [DEP. ADJ. TO RESIST. LOG]
DPOLSWS .V/V   : DENSITY POROSITY [M=2.71, F=1.00] [CAL. FROM DENWS]
DRESWS  .OHMM  : DEEP RESISTIVITY [ILDED]
DRHOED  .G/C3  : DENSITY CORRECTION FROM DENSITY LOG [DEP. ADJ. TO RESIST. LOG]
DTED    .US/F  : DELTA TIME FROM SONIC LOG [DEP. ADJ. TO RESIST. LOG]
DTWS    .US/F  : DELTA TIME [DTED]
GRDED   .GAPI  : GAMMA RAY FROM DENSITY LOG [DEP. ADJ. TO RESIST. LOG]
GRSED   .GAPI  : GAMMA RAY FROM SONIC LOG [DEP. ADJ. TO RESIST. LOG]
GRWS    .GAPI  : GAMMA RAY [1096' GRSED 1142' GRDED]
ILDED   .OHMM  : INDUCTION LOG DEEP RESISTIVITY
ILMED   .OHMM  : INDUCTION LOG MEDIUM RESISTIVITY
LL8ED   .OHMM  : 8 INCH LATEROLOG RESISTIVITY
MRESWS  .OHMM  : MEDIUM RESISTIVITY [ILMED]
NPHILSED.V/V   : NEUTRON POROSITY LIMESTONE FROM DENSITY LOG [DEP. ADJ. TO RESIST. LOG]
NPHISSED.V/V   : NEUTRON POROSITY SANDSTONE FROM DENSITY LOG [DEP. ADJ. TO RESIST. LOG]
NPOLSWS .V/V   : NEUTRON POROSITY LIMESTONE [NPHISSED CONVERTED FOR LIMESTONE, SPL. TO NPHILSED @ 6253']
RHOBED  .G/C3  : BULK DENSITY FROM DENSITY LOG [DEP. ADJ. TO RESIST. LOG]
SPRED   .MV    : SPONTANEOUS POTENTIAL FROM RESISTIVITY LOG
SPWS    .MV    : SPONTANEOUS POTENTIAL [BASELINE 0 MV] [SPRED]
SRESWS  .OHMM  : SHALLOW RESISTIVITY [LL8ED]
~Params ----------------------------------------------------
PD  .                     GL : PERMANENT DATUM
EPD .FT                 2441 : ELEVATION PERMANENT DATUM
LMF .                     KB : LOG MEASURED FROM
DAPD.FT                 13.6 : FEET ABOVE PERMANENT DATUM
EKB .FT               2454.6 : KELLY BUSHING
EGL .FT                 2441 : GROUND LEVEL
DATE.               10/30/76 : RUN DATE
RUN .                      1 : RUN NUMBER
DD  .FT                10805 : DEPTH DRILLER
DL  .FT                10818 : DEPTH LOGGER
BLI .FT                10812 : BOTTOM LOG INTERVAL
TLI .FT                 1155 : TOP LOG INTERVAL
CBD .FT                 1153 : CASING BOTTOM DRILLER
CBL .FT                 1155 : CASING BOTTOM LOGGER
BS  .IN                 8.75 : BIT SIZE
BSD .FT                10805 : BIT SIZE AT DEPTH
DFT .                    GEL : DRILLING FLUID TYPE
DFD .                      9 : DRILLING FLUID DENSITY
DFV .                    115 : DRILLING FLUID VISCOSITY
DFPH.                    9.5 : DRILLING FLUID PH
DFL .                    8.6 : DRILLING FLUID LOSS
MSS .             CIRCULATED : MUD SAMPLE SOURCE
RMS .OHMM               3.02 : RESISTIVITY MUD SAMPLE
MST .DEGF                 62 : MUD SAMPLE TEMPERATURE
RMF .OHMM               2.62 : RESISTIVITY MUD FILTRATE SAMPLE
MFST.DEGF                 52 : MUD FILTRATE SAMPLE TEMPERATURE
MFSS.             CALCULATED : MUD FILTRATE SAMPLE SOURCE
MCSS.             CALCULATED : MUD CAKE SAMPLE SOURCE
TCS .HRS                   3 : TIME CIRCULATED STOPPED
LUN .                   7809 : LOGGING UNIT NUMBER
LUL .                    EDM : LOGGING UNIT LOCATION
ENGI.               SEDGWICK : RECORDING ENGINEER
WITN.              SCHWIEDER : WITNESSED BY
CLNT.                A2DTECH : CLIENT CODE
ORIG.            2" 5" PRINT : ORIGIN OF DATA
UWI .       100112506523W500 : UNIQUE WELL ID
DICO. A2D Technologies, Inc. : DIGITIZING COMPANY
~Other -----------------------------------------------------
~ASCII -----------------------------------------------------
# ...
 7600.00000    9.37460    9.19900    9.37460  201.44640    0.02870    2.68050    0.00680    -999.25    0.01730    4.96530    0.02870   65.05510   65.05510   72.33750   85.65410   72.33750    4.96530    5.85460    8.59590    5.85460    0.18130    -999.25    0.18130    2.68050 -105.03130  -38.79310    8.59590
 7650.00000    9.65630    9.04900    9.65630  233.07850    0.05170    2.68710    0.01370    -999.25    0.01340    4.29040    0.05170   60.57880   60.57880   44.29500   60.36690   44.29500    4.29040    5.33620   14.12100    5.33620    0.15640    -999.25    0.15640    2.68710  -90.31530  -25.01270   14.12100
 7700.00000    9.79410    9.22450    9.79410   34.13410    0.03620    2.68330    0.01630    -999.25    0.01560   29.29740    0.03620   56.85740   56.85740   49.83750   65.36610   49.83750   29.29740   38.35520   46.22480   38.35520    0.08190    -999.25    0.08190    2.68330  -74.00880   -9.64780   46.22480
 7750.00000   12.75410   10.04900   12.75410    1.74670    0.23930    2.55080    0.09520    -999.25    0.09310  572.51140    0.23930   50.02740   50.02740   15.19500   35.22150   15.19500  572.51140 1028.86730 1088.44100 1028.86730    0.01210    -999.25    0.01210    2.55080  -64.55120  -39.72110 1088.44100
 7800.00000   11.04130    9.64900   11.04130   15.28170    0.05770    2.68570    0.01040    -999.25    0.01420   65.43790    0.05770   51.85840   51.85840   18.00000   24.74770   18.00000   65.43790   72.11850  132.82010   72.11850    0.02140    -999.25    0.02140    2.68570 -121.78690 -100.79210  132.82010
 7850.00000   11.18800    9.59900   11.18800   16.81570    0.24970    2.68850    0.00980    -999.25    0.01260   59.54070    0.24970   53.70350   53.70350   25.34250   37.18630   25.34250   59.54070   68.64660  112.89140   68.64660    0.03620    -999.25    0.03620    2.68850  -76.56450  -59.43030  112.89140
 7900.00000   10.98010    9.79900   10.98010   24.95160    0.24600    2.72530   -0.01520    -999.25   -0.00890   40.07760    0.24600   51.78680   51.78680   22.99500   29.57100   22.99500   40.07760   54.16000  103.97090   54.16000    0.03550    -999.25    0.03550    2.72530  -94.45050  -81.15160  103.97090
 7950.00000    9.19100    8.94900    9.19100    9.10890    0.02340    2.71340   -0.00410    -999.25   -0.00200  109.78280    0.02340   52.70460   52.70460   37.69500   63.99610   37.69500  109.78280  125.79030  153.22470  125.79030    0.03560    -999.25    0.03560    2.71340  -62.93890  -53.50060  153.22470
 8000.00000    9.20080    8.64900    9.20080    3.22460    0.00560    2.66780    0.02720    -999.25    0.02470  310.11810    0.00560   51.36520   51.36520   29.49000   47.86400   29.49000  310.11810  355.60800  492.73390  355.60800    0.02160    -999.25    0.02160    2.66780  -58.97600  -53.37300  492.73390
 8050.00000    9.21390    8.89900    9.21390   16.03010    0.05120    2.74120   -0.02250    -999.25   -0.01820   62.38260    0.05120   56.15680   56.15680   54.28500   77.51900   54.28500   62.38260   71.67200   82.38240   71.67200    0.05980    -999.25    0.05980    2.74120  -56.33450  -54.56680   82.38240
 8100.00000    9.21900    8.89900    9.21900   13.28220    0.02500    2.70030    0.00690    -999.25    0.00570   75.29610    0.02500   56.37860   56.37860   51.54750   79.72670   51.54750   75.29610   85.63630  100.75790   85.63630    0.06830    -999.25    0.06830    2.70030  -44.75210  -46.84500  100.75790
 8150.00000   12.83110   10.04900   12.83110    3.02490    0.22600    2.61360    0.06600    -999.25    0.05640  330.58640    0.22600   52.75890   52.75890   26.59500   48.51860   26.59500  330.58640  272.67700 1084.04140  272.67700    0.01780    -999.25    0.01780    2.61360  -20.43450  -26.36270 1084.04140
 8200.00000    9.39490    8.54900    9.39490    3.94870    0.00600    2.63170    0.03540    -999.25    0.04580  253.54190    0.00600   51.13270   51.13270   35.09250   47.29990   35.09250  253.54190  558.93490 1099.68350  558.93490    0.02940    -999.25    0.02940    2.63170  -27.39320  -37.18200 1099.68350
 8250.00000    9.81750    9.29900    9.81750    1.67530    0.08480    2.76660   -0.03480    -999.25   -0.03310  596.92580    0.08480   49.88980   49.88980   19.18500   30.48900   19.18500  596.92580  518.73790 1081.79300  518.73790    0.01100    -999.25    0.01100    2.76660  -81.04270  -85.63940 1081.79300
 8300.00000   11.07620    9.75000   11.07620    2.27660    0.24980    2.66440    0.02050    -999.25    0.02670  439.25270    0.24980   49.34520   49.34520   21.79500   37.00860   21.79500  439.25270  413.02180 1089.29940  413.02180    0.00830    -999.25    0.00830    2.66440  -60.34590  -58.76200 1089.29940
 8350.00000   10.73600    9.59900   10.73600    2.30470    0.17970    2.63500    0.04860    -999.25    0.04380  434.16040    0.17970   49.55550   49.55550   18.09000   33.95630   18.09000  434.16040  366.68600  680.30660  366.68600    0.00820    -999.25    0.00820    2.63500  -86.84370  -79.03870  680.30660
 8400.00000   11.00330    9.75000   11.00330    4.13250    0.25000    2.66970    0.02330    -999.25    0.02360  241.98220    0.25000   49.73510   49.73510   19.89000   35.98610   19.89000  241.98220  216.12420  303.95900  216.12420    0.01730    -999.25    0.01730    2.66970  -77.86130  -63.87580  303.95900
 8450.00000   11.65720    9.79900   11.65720    0.66110    0.24580    2.52670    0.11850    -999.25    0.10720 1512.72980    0.24580   49.26420   49.26420   17.29500   22.59370   17.29500 1512.72980  783.44150 1119.64540  783.44150    0.00900    -999.25    0.00900    2.52670  -69.94850  -49.74180 1119.64540
 8500.00000   11.28620    9.69900   11.28620   17.48960    0.24980    2.55550    0.09650    -999.25    0.09040   57.17680    0.24980   50.50000   50.50000   13.50000   27.69520   13.50000   57.17680   75.62620  116.65130   75.62620    0.02020    -999.25    0.02020    2.55550 -157.13700 -130.74980  116.65130
 8550.00000   10.96580    9.69900   10.96580    3.97090    0.25000    2.55500    0.09550    -999.25    0.09060  251.83130    0.25000   50.11850   50.11850   15.79500   22.39870   15.79500  251.83130  165.61450  239.05530  165.61450    0.01110    -999.25    0.01110    2.55500  -98.89270  -66.32500  239.05530
 8600.00000   12.43720    9.77450   12.43720    0.77230    0.25000    2.50000    0.12730    -999.25    0.12280 1301.75140    0.25000   49.63530   49.63530   16.79250   21.23850   16.79250 1301.75140  333.24310  783.56260  333.24310    0.01700    -999.25    0.01700    2.50000  -82.79640  -44.00750  783.56260
 8650.00000   12.24140    9.69900   12.24140    3.84710    0.25150    2.43550    0.16940    -999.25    0.16050  259.93890    0.25150   50.42080   50.42080   16.69500   19.52910   16.69500  259.93890  165.73910  243.15200  165.73910    0.02340    -999.25    0.02340    2.43550 -108.72180  -63.75240  243.15200
 8700.00000   12.51740    9.69900   12.51740    1.76010    0.25080    2.44070    0.15970    -999.25    0.15750  570.44760    0.25080   50.64530   50.64530   16.03500   20.49990   16.03500  570.44760  247.03610  781.68690  247.03610    0.02050    -999.25    0.02050    2.44070  -88.71290  -37.52240  781.68690
 8750.00000   12.35050    9.75000   12.35050    1.83210    0.24710    2.46990    0.14190    -999.25    0.14040  545.81450    0.24710   49.67020   49.67020   19.29000   23.33010   19.29000  545.81450  476.86660  778.29800  476.86660    0.01510    -999.25    0.01510    2.46990 -107.93460  -50.56360  778.29800
 8800.00000   12.79730    9.75000   12.79730    0.91590    0.16760    2.47350    0.14000    -999.25    0.13830 1091.82960    0.16760   50.60780   50.60780   15.39000   20.48290   15.39000 1091.82960  380.11000 1107.07810  380.11000    0.03290    -999.25    0.03290    2.47350 -101.01140  -37.45980 1107.07810
 8850.00000   11.88890    9.77450   11.88890    2.33110    0.25070    2.50380    0.12820    -999.25    0.12060  428.98960    0.25070   50.25540   50.25540   18.84000   22.60090   18.84000  428.98960  241.40670  290.62370  241.40670    0.01870    -999.25    0.01870    2.50380 -132.69710  -62.92440  290.62370
