~Version ---------------------------------------------------
VERS.      2.0 : CWLS log ASCII Standard -VERSION 2.0
WRAP.       NO : One line per depth step
CREA. 10/26/17 : LAS Creation Date
~Well ------------------------------------------------------
STRT.FT                     850.0 : START DEPTH
STOP.FT                    9900.0 : STOP DEPTH
STEP.FT                  50.00000 : STEP LENGTH
NULL.                     -999.25 : NULL VALUE
COMP. SHELL CANADA RESOURCES LTD. : COMPANY
WELL.   SHELL MAHASKA 11-33-56-13 : WELL
FLD .                             : FIELD
LOC .                             : LOCATION
CTRY.                      CANADA : COUNTRY
SRVC.                Schlumberger : SERVICE COMPANY
DATE.                 12-May-1977 : LOGDATE
PROV.                     Alberta : PROVINCE
UWI .            100113305613W500 : UNIQUE WELL ID
SLAT.WGS84               53.88568 : SURFACE LATITUDE
SLON.WGS84              -115.8759 : SURFACE LONGITUDE
~Curve Information -----------------------------------------
DEPT    .FT    : Depth Curve
CALSED  .IN    : CALIPER FROM SONIC LOG
CALWS   .IN    : CALIPER [CALSED]
CONDWS  .MMHO  : CONDUCTIVITY [1000/DRESWS]
DCORWS  .G/C3  : DENSITY CORRECTION [DRHOED]
DENWS   .G/C3  : BULK DENSITY [M=2.71, F=1.00] [RHOBED]
DPHILSED.V/V   : DENSITY POROSITY [M=2.71, F=1.00] FROM DENSITY LOG [DEP. ADJ. TO GRSED]
DPHISSED.V/V   : DENSITY POROSITY [M=2.65, F=1.00] FROM DENSITY LOG [DEP. ADJ. TO GRSED]
DPOLSWS .V/V   : DENSITY POROSITY [M=2.71, F=1.00] [CAL. FROM DENWS]
DRESWS  .OHMM  : DEEP RESISTIVITY [LLDED]
DRHOED  .G/C3  : DENSITY CORRECTION FROM DENSITY LOG [DEP. ADJ. TO GRSED]
DTED    .US/F  : DELTA TIME FROM SONIC LOG
DTWS    .US/F  : DELTA TIME [DTED]
GRDED   .GAPI  : GAMMA RAY FROM DENSITY LOG [DEP. ADJ. TO GRSED]
GRSED   .GAPI  : GAMMA RAY FROM SONIC LOG
GRWS    .GAPI  : GAMMA RAY [GRSED]
LLDED   .OHMM  : LATEROLOG DEEP RESISTIVITY  [READINGS >2000 ARE REDUCED TO 2000 OHMM]
LLSED   .OHMM  : LATEROLOG SHALLOW RESISTIVITY [READINGS >2000 ARE REDUCED TO 2000 OHMM]
NPHILSED.V/V   : NEUTRON POROSITY LIMESTONE FROM DENSITY LOG [DEP. ADJ. TO GRSED]
NPHISSED.V/V   : NEUTRON POROSITY SANDSTONE FROM DENSITY LOG [DEP. ADJ. TO GRSED]
NPOLSWS .V/V   : NEUTRON POROSITY LIMESTONE [1007' NPOLSCAL [CONV. FROM NPHISSED] 6161' NPHILSED]
RHOBED  .G/C3  : BULK DENSITY FROM DENSITY LOG [DEP. ADJ. TO GRSED]
SRESWS  .OHMM  : SHALLOW RESISTIVITY [LLSED]
~Params ----------------------------------------------------
PD  .                     GL : PERMANENT DATUM
EPD .FT                 2626 : ELEVATION PERMANENT DATUM
LMF .                     KB : LOG MEASURED FROM
DAPD.FT                 21.2 : FEET ABOVE PERMANENT DATUM
EKB .FT               2647.2 : KELLY BUSHING
EGL .FT                 2626 : GROUND LEVEL
DATE.               05/12/77 : RUN DATE
RUN .                      2 : RUN NUMBER
DD  .FT                 9950 : DEPTH DRILLER
DL  .FT                 9947 : DEPTH LOGGER
BLI .FT                 9931 : BOTTOM LOG INTERVAL
TLI .FT                 8800 : TOP LOG INTERVAL
CBD .FT                 1026 : CASING BOTTOM DRILLER
BS  .IN                 8.75 : BIT SIZE
BSD .FT                 9950 : BIT SIZE AT DEPTH
DFT .                    KCL : DRILLING FLUID TYPE
DFD .                    8.9 : DRILLING FLUID DENSITY
DFV .                     65 : DRILLING FLUID VISCOSITY
DFPH.                   10.5 : DRILLING FLUID PH
MSS .             CIRCULATED : MUD SAMPLE SOURCE
RMS .OHMM               0.28 : RESISTIVITY MUD SAMPLE
MST .DEGF                 76 : MUD SAMPLE TEMPERATURE
RMF .OHMM               0.12 : RESISTIVITY MUD FILTRATE SAMPLE
MFST.DEGF                186 : MUD FILTRATE SAMPLE TEMPERATURE
RMB .OHMM               0.19 : RESISTIVITY MUD AT BHT
TCS .HRS                   1 : TIME CIRCULATED STOPPED
LUN .              OSU C 308 : LOGGING UNIT NUMBER
LUL .                    EDM : LOGGING UNIT LOCATION
ENGI.                   BIGG : RECORDING ENGINEER
WITN.                   WEBB : WITNESSED BY
CLNT.                A2DTECH : CLIENT CODE
ORIG.            2" 5" PRINT : ORIGIN OF DATA
UWI .       100113305613W500 : UNIQUE WELL ID
DICO. A2D Technologies, Inc. : DIGITIZING COMPANY
~Other -----------------------------------------------------
~ASCII -----------------------------------------------------
# ...
 5650.00000    9.97510    9.97510   88.40330    0.24660    2.30140    -999.25    0.22810    0.23890   11.31180    0.24660   83.25320   83.25320  111.30000  105.92180  105.92180   11.31180    8.69910    -999.25    0.36440    0.32090    2.30140    8.69910
 5700.00000    9.79060    9.79060   64.72720    0.01720    2.57860    -999.25    0.04640    0.07690   15.44990    0.01720   74.50750   74.50750   94.21500   95.44510   95.44510   15.44990   12.22100    -999.25    0.27690    0.23290    2.57860   12.22100
 5750.00000   10.16230   10.16230   85.76920    0.01360    2.50530    -999.25    0.09730    0.11970   11.65920    0.01360   73.36280   73.36280   57.39000   61.99800   61.99800   11.65920    7.60760    -999.25    0.25640    0.21250    2.50530    7.60760
 5800.00000    9.35350    9.35350   94.15660    0.08950    2.48140    -999.25    0.10660    0.13370   10.62060    0.08950   72.21170   72.21170   45.22500   51.87100   51.87100   10.62060   11.45210    -999.25    0.20650    0.16300    2.48140   11.45210
 5850.00000    9.67420    9.67420  132.77920    0.02230    2.47950    -999.25    0.09980    0.13480    7.53130    0.02230   70.53300   70.53300   46.44000   52.63300   52.63300    7.53130    8.45930    -999.25    0.21520    0.17160    2.47950    8.45930
 5900.00000    9.80000    9.80000   97.41180   -0.05460    2.05270    -999.25    0.28400    0.38440   10.26570   -0.05460   76.98730   76.98730   97.23000   93.36100   93.36100   10.26570    9.08520    -999.25    0.29950    0.25550    2.05270    9.08520
 5950.00000    9.75900    9.75900  102.22020    0.02270    2.60520    -999.25    0.02920    0.06130    9.78680    0.02270   77.39240   77.39240   96.71250   91.66700   91.66700    9.78680   10.87900    -999.25    0.27030    0.22640    2.60520   10.87900
 6000.00000    9.52150    9.52150   27.07320    0.00800    2.54680    -999.25    0.06760    0.09540   36.93690    0.00800   65.77580   65.77580   50.86500   49.36160   49.36160   36.93690   30.37850    -999.25    0.15880    0.11610    2.54680   30.37850
 6050.00000    9.47790    9.47790   19.27840    0.25470    3.00440    -999.25   -0.14900   -0.17220   51.87160    0.25470   67.29980   67.29980   75.01500   79.78050   79.78050   51.87160   47.64950    -999.25    0.18150    0.13830    3.00440   47.64950
 6100.00000    9.48330    9.48330   19.10610    0.01690    2.57620    -999.25    0.05740    0.07820   52.33930    0.01690   71.55960   71.55960   96.75000   94.27230   94.27230   52.33930   40.15990    -999.25    0.25730    0.21340    2.57620   40.15990
 6150.00000    9.75850    9.75850  125.90020    0.00840    2.53570    -999.25    0.06530    0.10190    7.94280    0.00840   75.40800   75.40800   83.52000   76.87110   76.87110    7.94280    7.63650    -999.25    0.25800    0.21410    2.53570    7.63650
 6200.00000    9.84140    9.84140  141.85320    0.02500    2.66140    0.02290    -999.25    0.02850    7.10950    0.02500   79.25240   79.25240  105.90000  110.38680  110.38680    7.10950    8.34960    0.23530    -999.25    0.23530    2.66140    8.34960
 6250.00000    8.99370    8.99370   34.11080    0.01190    2.56090    0.07760    -999.25    0.08720   29.31620    0.01190   58.98500   58.98500   31.62000   38.17720   38.17720   29.31620   36.91250    0.08520    -999.25    0.08520    2.56090   36.91250
 6300.00000    8.97180    8.97180   11.93620    0.01810    2.58790    0.02710    -999.25    0.07140   83.77910    0.01810   56.46920   56.46920   29.37000   32.74820   32.74820   83.77910  107.63740    0.03380    -999.25    0.03380    2.58790  107.63740
 6350.00000    8.88080    8.88080    0.50000    0.02100    2.61460    0.08700    -999.25    0.05580 2000.00000    0.02100   55.10130   55.10130   22.72500   27.57740   27.57740 2000.00000 1267.02400    0.01900    -999.25    0.01900    2.61460 1267.02400
 6400.00000    9.27020    9.27020    0.66020    0.01780    2.55220    0.08370    -999.25    0.09230 1514.73680    0.01780   65.62320   65.62320  136.27500  119.01570  119.01570 1514.73680  500.50760    0.14760    -999.25    0.14760    2.55220  500.50760
 6450.00000    9.03520    9.03520   39.70280    0.02720    2.73910   -0.00610    -999.25   -0.01700   25.95990    0.02720   52.78820   52.78820   32.41500   34.44140   34.44140   25.95990   25.20760    0.11260    -999.25    0.11260    2.73910   25.20760
 6500.00000    8.94270    8.94270   65.23800    0.01260    2.62810    0.03220    -999.25    0.04790   15.32850    0.01260   54.43720   54.43720   22.59000   24.40580   24.40580   15.32850   19.37190    0.11960    -999.25    0.11960    2.62810   19.37190
 6550.00000    9.26700    9.26700  252.13690    0.02260    2.63580    0.03970    -999.25    0.04340    3.96610    0.02260   62.44710   62.44710   66.18000  106.13110  106.13110    3.96610    5.08980    0.19900    -999.25    0.19900    2.63580    5.08980
 6600.00000    9.16900    9.16900  111.22980    0.01140    2.69680   -0.00200    -999.25    0.00770    8.99040    0.01140   59.51590   59.51590   57.24000   56.85070   56.85070    8.99040   10.51930    0.12460    -999.25    0.12460    2.69680   10.51930
 6650.00000    9.26010    9.26010   64.78870    0.01960    2.70480    0.00430    -999.25    0.00300   15.43480    0.01960   57.20600   57.20600   53.70000   54.44320   54.44320   15.43480   19.27500    0.10230    -999.25    0.10230    2.70480   19.27500
 6700.00000    9.63100    9.63100   45.06460    0.02140    2.59320    0.06620    -999.25    0.06830   23.26780    0.02150   57.64820   57.64820   43.20750   53.43910   53.43910   23.26780   24.53490    0.07180    -999.25    0.07180    2.59320   24.53490
 6750.00000    9.56800    9.56800    0.99840    0.11330    2.57210    0.08450    -999.25    0.08060 1001.59440    0.11330   50.26580   50.26580   16.84500   19.16020   19.16020 1001.59440  403.14070    0.00860    -999.25    0.00860    2.57210  403.14070
 6800.00000    8.93680    8.93680   15.66600    0.03600    2.74690   -0.02960    -999.25   -0.02160   63.83250    0.03600   54.49340   54.49340   34.17000   36.29530   36.29530   63.83250   55.23350    0.03330    -999.25    0.03330    2.74690   55.23350
 6850.00000    9.05810    9.05810   17.66110   -0.00130    2.69890    0.00760    -999.25    0.00650   56.62160   -0.00130   53.93060   53.93060   28.93500   34.50330   34.50330   56.62160   52.97050    0.03010    -999.25    0.03010    2.69890   52.97050
 6900.00000    8.92040    8.92040   14.28270    0.00770    2.71190   -0.00940    -999.25   -0.00110   70.01460    0.00770   53.44140   53.44140   23.53500   31.06800   31.06800   70.01460   65.40910    0.02530    -999.25    0.02530    2.71190   65.40910
 6950.00000    9.01610    9.01610   14.74130    0.00360    2.66220    0.02330    -999.25    0.02790   67.83660    0.00360   54.20270   54.20270   37.60880   45.48570   45.48570   67.83660   64.05080    0.03090    -999.25    0.03090    2.66220   64.05080
 7000.00000    9.07410    9.07410   18.44150    0.02500    2.72680   -0.01200    -999.25   -0.00980   54.22550    0.02500   55.32000   55.32000   47.58750   52.36530   52.36530   54.22550   51.98980    0.04310    -999.25    0.04310    2.72680   51.98980
 7050.00000    9.07410    9.07410    7.47690    0.00750    2.70470    0.00170    -999.25    0.00310  133.74610    0.00750   56.43210   56.43210   58.30500   53.93900   53.93900  133.74610  114.96140    0.04400    -999.25    0.04400    2.70470  114.96140
 7100.00000    9.09060    9.09060   14.91090    0.02570    2.71940   -0.00660    -999.25   -0.00550   67.06490    0.02570   54.52080   54.52080   41.55000   55.21210   55.21210   67.06490   56.57030    0.04190    -999.25    0.04190    2.71940   56.57030
 7150.00000    9.17280    9.17280    4.77020    0.07280    2.69180    0.00820    -999.25    0.01060  209.63430    0.07280   51.45290   51.45290   48.45000   46.40330   46.40330  209.63430  117.06890    0.01560    -999.25    0.01560    2.69180  117.06890
 7200.00000    9.49840    9.49840    1.36520    0.07600    2.68340    0.01660    -999.25    0.01560  737.53560    0.07600   50.21850   50.21850   15.71250   19.89740   19.89740  737.53560  251.21970    0.00050    -999.25    0.00050    2.68340  251.21970
