~Version ---------------------------------------------------
VERS.      2.0 : CWLS log ASCII Standard -VERSION 2.0
WRAP.       NO : One line per depth step
CREA. 10/26/17 : LAS Creation Date
~Well ------------------------------------------------------
STRT.FT                          1000.0 : START DEPTH
STOP.FT                          9700.0 : STOP DEPTH
STEP.FT                        50.00000 : STEP LENGTH
NULL.                           -999.25 : NULL VALUE
COMP.                      GUYER OIL CO : COMPANY
WELL. GUYER ET AL SAKWATAMAU 2-15-63-15 : WELL
FLD .                                WC : FIELD
LOC .                                   : LOCATION
CTRY.                            CANADA : COUNTRY
SRVC.                      Schlumberger : SERVICE COMPANY
DATE.                       13-Nov-1969 : LOGDATE
PROV.                           Alberta : PROVINCE
UWI .                  100021506315W500 : UNIQUE WELL ID
SLAT.WGS84                     54.44702 : SURFACE LATITUDE
SLON.WGS84                     -116.175 : SURFACE LONGITUDE
~Curve Information -----------------------------------------
DEPT    .FT    : Depth Curve
CALNED  .IN    : CALIPER FROM SNP LOG [ADJ. TO RESISTIVITY LOG]
CALSED  .IN    : CALIPER FROM SONIC LOG [ADJ. TO RESISTIVITY LOG]
CALWS   .IN    : CALIPER [CALSED]
CONDWS  .MMHO  : CONDUCTIVITY [1000/DRESWS]
DRESWS  .OHMM  : DEEP RESISTIVITY [ILDED]
DTED    .US/F  : DELTA TIME FROM SONIC LOG [ADJ. TO RESISTIVITY LOG]
DTWS    .US/F  : COMPRESSIONAL SONIC [DTED]
GRSED   .GAPI  : GAMMA RAY FROM SONIC LOG [ADJ. TO RESISTIVITY LOG]
GRWS    .GAPI  : GAMMA RAY [GRSED]
ILDED   .OHMM  : DEEP INDUCTION RESISTIVITY FROM RESISTIVITY LOG
ILMED   .OHMM  : MEDIUM INDUCTION RESISTIVITY FROM RESISTIVITY LOG
LL8ED   .OHMM  : LATEROLOG-8 RESISTIVITY FROM RESISTIVITY LOG
MRESWS  .OHMM  : MEDIUM RESISTIVITY [ILMED]
NPOLSWS .V/V   : NEUTRON POROSITY LIMESTONE [SNPLSED]
SNPLSED .V/V   : SIDEWALL NEUTRON POROSITY LIMESTONE FROM SNP LOG [ADJ. TO RESISTIVITY LOG]
SPHILSED.V/V   : SONIC POROSITY LIMESTONE [DTM=47.6, DTF=189] FROM SONIC LOG [ADJ. TO RESISTIVITY LOG]
SPHISSED.V/V   : SONIC POROSITY SANDSTONE [DTM=55.6, DTF=189] FROM SONIC LOG [ADJ. TO RESISTIVITY LOG]
SPOLSWS .V/V   : SONIC POROSITTY LIMESTONE [SPHISSED SPL. TO SPHILSED @ 5901']
SPRED   .MV    : SPONTANEOUS POTENTIAL FROM RESISTIVITY LOG
SPWS    .MV    : SPONTANEOUS POTENTIAL [BASELINE 0 MV, SPRED]
SRESWS  .OHMM  : SHALLOW RESISTIVITY [LL8ED]
~Params ----------------------------------------------------
PD  .                     GL : PERMANENT DATUM
EPD .FT                 3072 : ELEVATION PERMANENT DATUM
LMF .                     KB : LOG MEASURED FROM
DAPD.FT                   13 : FEET ABOVE PERMANENT DATUM
EKB .FT                 3085 : KELLY BUSHING
EGL .FT                 3072 : GROUND LEVEL
DATE.               11/13/69 : RUN DATE
RUN .                      1 : RUN NUMBER
DD  .FT                 9704 : DEPTH DRILLER
DL  .FT                 9705 : DEPTH LOGGER
BLI .FT                 9701 : BOTTOM LOG INTERVAL
TLI .FT                 1005 : TOP LOG INTERVAL
CBD .FT                 1005 : CASING BOTTOM DRILLER
CBL .FT                 1005 : CASING BOTTOM LOGGER
BS  .IN                7.875 : BIT SIZE
BSD .FT                 9704 : BIT SIZE AT DEPTH
DFT .                    GEL : DRILLING FLUID TYPE
DFD .                    9.1 : DRILLING FLUID DENSITY
DFV .                     70 : DRILLING FLUID VISCOSITY
DFPH.                    8.5 : DRILLING FLUID PH
DFL .                      9 : DRILLING FLUID LOSS
MSS .                DRILLER : MUD SAMPLE SOURCE
RMS .OHMM               2.61 : RESISTIVITY MUD SAMPLE
MST .DEGF                 74 : MUD SAMPLE TEMPERATURE
RMF .OHMM               2.12 : RESISTIVITY MUD FILTRATE SAMPLE
MFST.DEGF                 75 : MUD FILTRATE SAMPLE TEMPERATURE
RMC .OHMM               2.91 : RESISTIVITY MUD CAKE
MCST.DEGF                 75 : MUD CAKE SAMPLE TEMPERATURE
TCS .HRS                   6 : TIME CIRCULATED STOPPED
LUN .                   7501 : LOGGING UNIT NUMBER
LUL .                    EDM : LOGGING UNIT LOCATION
ENGI.                 EDGSON : RECORDING ENGINEER
WITN.              ZASEYBIDA : WITNESSED BY
CLNT.                A2DTECH : CLIENT CODE
ORIG.            2" 5" PRINT : ORIGIN OF DATA
UWI .       100021506315W500 : UNIQUE WELL ID
DICO. A2D Technologies, Inc. : DIGITIZING COMPANY
~Other -----------------------------------------------------
DLL-BCS-SNP LOG RUN
~ASCII -----------------------------------------------------
# ...
 4300.00000    -999.25   11.27470   11.27470  172.92360    5.78290   99.67600   99.67600  100.08300  100.08300    5.78290    5.37680    7.01110    5.37680    -999.25    -999.25    -999.25    -999.25    -999.25  -52.22630   -0.37290    7.01110
 4350.00000    -999.25   10.64560   10.64560  146.04080    6.84740   85.72520   85.72520   74.49280   74.49280    6.84740    6.44120    7.15330    6.44120    -999.25    -999.25    -999.25    -999.25    -999.25  -55.68080   -4.70550    7.15330
 4400.00000    -999.25   10.58090   10.58090  223.83880    4.46750   93.22900   93.22900   90.22150   90.22150    4.46750    4.20420    5.19220    4.20420    -999.25    -999.25    -999.25    -999.25    -999.25  -51.19910   -1.09610    5.19220
 4450.00000    -999.25   10.84750   10.84750  202.94940    4.92740   92.00660   92.00660   89.93780   89.93780    4.92740    4.78260    5.43970    4.78260    -999.25    -999.25    -999.25    -999.25    -999.25  -51.65510   -2.43020    5.43970
 4500.00000    -999.25   10.94030   10.94030  145.49050    6.87330   85.76940   85.76940   82.85910   82.85910    6.87330    6.63890    7.34020    6.63890    -999.25    -999.25    -999.25    0.22360    0.22360  -52.14510   -3.79250    7.34020
 4550.00000    -999.25   11.35760   11.35760  200.79920    4.98010   90.34420   90.34420   87.74730   87.74730    4.98010    4.84300    5.61730    4.84300    -999.25    -999.25    -999.25    0.25500    0.25500  -49.59090   -2.11060    5.61730
 4600.00000    -999.25   12.42870   12.42870  246.64560    4.05440   96.51350   96.51350   81.53610   81.53610    4.05440    3.78540    4.71060    3.78540    -999.25    -999.25    -999.25    0.30000    0.30000  -49.18110   -2.57890    4.71060
 4650.00000    -999.25   11.37730   11.37730  172.12300    5.80980   92.01240   92.01240   97.16780   97.16780    5.80980    5.55250    6.49840    5.55250    -999.25    -999.25    -999.25    0.27480    0.27480  -48.20510   -2.47520    6.49840
 4700.00000    -999.25   10.38130   10.38130  258.44160    3.87220  101.83320  101.83320  199.73850  199.73850    3.87220    3.79920    5.06040    3.79920    -999.25    -999.25    -999.25    0.30000    0.30000  -47.69460   -2.84280    5.06040
 4750.00000    -999.25   12.21200   12.21200  344.67310    2.90130   97.16210   97.16210   89.73560   89.73560    2.90130    3.04440    3.25870    3.04440    -999.25    -999.25    -999.25    0.30000    0.30000  -45.46220   -1.55070    3.25870
 4800.00000    -999.25   12.10820   12.10820  261.38320    3.82580   93.69110   93.69110   81.40040   81.40040    3.82580    3.99900    4.15350    3.99900    -999.25    -999.25    -999.25    0.28450    0.28450  -49.89370   -7.13360    4.15350
 4850.00000    -999.25   10.31220   10.31220  125.84630    7.94620   75.50780   75.50780   87.07090   87.07090    7.94620    8.58400   14.93650    8.58400    -999.25    -999.25    -999.25    0.14600    0.14600  -49.71220   -8.11110   14.93650
 4900.00000    -999.25   10.74150   10.74150  103.17890    9.69190   77.74070   77.74070   45.04250   45.04250    9.69190   10.84340   11.61560   10.84340    -999.25    -999.25    -999.25    0.16250    0.16250  -67.27630  -26.82660   11.61560
 4950.00000    -999.25   11.02340   11.02340   94.85270   10.54550   79.17030   79.17030   50.25820   50.25820   10.54550   11.50570   12.50640   11.50570    -999.25    -999.25    -999.25    0.17230    0.17230  -67.61980  -28.32910   12.50640
 5000.00000    -999.25   11.05850   11.05850  100.43190    9.95700   81.13160   81.13160   49.27110   49.27110    9.95700   10.35680   10.86510   10.35680    -999.25    -999.25    -999.25    0.19010    0.19010  -55.95520  -17.81590   10.86510
 5050.00000    -999.25   13.32890   13.32890  157.42330    6.35230  106.66950  106.66950   64.75400   64.75400    6.35230    6.00640    6.04580    6.00640    -999.25    -999.25    -999.25    0.29060    0.29060  -41.03270   -4.04480    6.04580
 5100.00000    -999.25   11.25120   11.25120  182.36530    5.48350   77.66020   77.66020   65.75930   65.75930    5.48350    5.76710    5.94750    5.76710    -999.25    -999.25    -999.25    0.16480    0.16480  -43.36070   -7.53180    5.94750
 5150.00000    -999.25   11.37290   11.37290  175.32170    5.70380   77.89010   77.89010   58.63170   58.63170    5.70380    6.15710    6.34610    6.15710    -999.25    -999.25    -999.25    0.16570    0.16570  -46.87550  -12.19810    6.34610
 5200.00000    -999.25   12.37430   12.37430   65.77270   15.50500  117.68700  117.68700   25.83270   25.83270   15.50500   16.75150   26.20650   16.75150    -999.25    -999.25    -999.25    0.30000    0.30000  -61.51360  -27.99520   26.20650
 5250.00000    -999.25   11.08090   11.08090   98.20100   10.18320   74.35940   74.35940   60.08350   60.08350   10.18320   10.80900   11.03800   10.80900    -999.25    -999.25    -999.25    0.13790    0.13790  -62.28800  -29.92100   11.03800
 5300.00000    -999.25   11.61360   11.61360  117.47290    8.51260   81.01140   81.01140   47.75340   47.75340    8.51260    9.09140    9.80790    9.09140    -999.25    -999.25    -999.25    0.19110    0.19110  -56.63330  -25.41770    9.80790
 5350.00000    -999.25   10.83150   10.83150  128.31040    7.79360   74.66050   74.66050   54.19940   54.19940    7.79360   10.01440   14.89240   10.01440    -999.25    -999.25    -999.25    0.14110    0.14110  -77.45490  -47.39830   14.89240
 5400.00000    -999.25   10.88260   10.88260  119.00510    8.40300   82.28870   82.28870   68.34660   68.34660    8.40300    9.07890   10.35230    9.07890    -999.25    -999.25    -999.25    0.19710    0.19710  -47.86280  -18.95760   10.35230
 5450.00000    -999.25   11.15220   11.15220  141.94040    7.05150   79.82020   79.82020   56.95080   56.95080    7.05150    7.57550   10.67980    7.57550    -999.25    -999.25    -999.25    0.17990    0.17990  -57.88530  -30.13910   10.67980
 5500.00000    -999.25   10.28360   10.28360  119.92850    8.33830   76.63250   76.63250   68.20470   68.20470    8.33830    8.68640    8.97950    8.68640    -999.25    -999.25    -999.25    0.15470    0.15470  -38.69800  -12.10320    8.97950
 5550.00000    -999.25   11.81800   11.81800  179.75590    5.56310   87.25910   87.25910   57.89200   57.89200    5.56310    5.93290    5.09670    5.93290    -999.25    -999.25    -999.25    0.23440    0.23440  -32.62690   -7.18350    5.09670
 5600.00000    -999.25   11.05960   11.05960  119.84660    8.34400   80.35770   80.35770   70.35940   70.35940    8.34400    8.79320    9.45000    8.79320    -999.25    -999.25    -999.25    0.18640    0.18640  -31.15330   -6.86890    9.45000
 5650.00000   13.49200   11.94650   11.94650  120.16920    8.32160   89.89280   89.89280   76.70780   76.70780    8.32160    8.72790    9.10080    8.72790    0.45840    0.45840    -999.25    0.25120    0.25120  -32.09510   -8.96220    9.10080
 5700.00000    9.77980    9.82550    9.82550   95.72560   10.45600   69.51120   69.51120   79.15730   79.15730   10.45600   11.96620   18.13460   11.96620    0.13900    0.13900    -999.25    0.10160    0.10160  -49.06390  -27.08990   18.13460
 5750.00000   10.36020   10.22640   10.22640  139.41750    7.17270   73.59930   73.59930   24.58970   24.58970    7.17270    8.47230   17.54130    8.47230    0.11050    0.11050    -999.25    0.13300    0.13300  -80.33300  -59.51050   17.54130
 5800.00000   14.70110   12.85080   12.85080  180.85140    5.52940   86.76720   86.76720   77.80710   77.80710    5.52940    5.83110    6.55420    5.83110    0.36730    0.36730    -999.25    0.22390    0.22390  -24.30460   -4.63350    6.55420
 5850.00000   10.11030    9.80990    9.80990   81.41530   12.28270   75.75680   75.75680   79.27350   79.27350   12.28270   12.62850   15.22180   12.62850    0.15660    0.15660    -999.25    0.14950    0.14950  -22.35640   -3.84430   15.22180
 5900.00000   14.97780   13.87180   13.87180  194.89000    5.13110   94.12020   94.12020   79.23120   79.23120    5.13110    5.35100    7.17520    5.35100    0.43610    0.43610    -999.25    0.27470    0.27470  -20.94210   -3.45550    7.17520
