~Version ---------------------------------------------------
VERS.      2.0 : CWLS log ASCII Standard -VERSION 2.0
WRAP.       NO : One line per depth step
CREA. 10/26/17 : LAS Creation Date
~Well ------------------------------------------------------
STRT.FT                     1150.0 : START DEPTH
STOP.FT                    11150.0 : STOP DEPTH
STEP.FT                   50.00000 : STEP LENGTH
NULL.                      -999.25 : NULL VALUE
COMP.            TRIAD OIL CO. LTD : COMPANY
WELL. TRIAD PAN AM ANTE 2-27-66-25 : WELL
FLD .                              : FIELD
LOC .                              : LOCATION
CTRY.                       CANADA : COUNTRY
SRVC.                   Lane Wells : SERVICE COMPANY
DATE.                  15-Aug-1967 : LOGDATE
PROV.                      Alberta : PROVINCE
UWI .             100022706625W500 : UNIQUE WELL ID
SLAT.WGS84                54.73614 : SURFACE LATITUDE
SLON.WGS84                 -117.69 : SURFACE LONGITUDE
~Curve Information -----------------------------------------
DEPT  .FT    : Depth Curve
CALSED.IN    : CALIPER FROM SONIC LOG
CALWS .IN    : CALIPER [CALSED]
CONDWS.MMHO  : CONDUCTIVITY [1000/DRESWS]
DRESWS.OHMM  : DEEP RESISTIVITY [ILDED]
DTED  .US/F  : DELTA TIME FROM SONIC LOG
DTWS  .US/F  : DELTA TIME [DTED]
GRSED .GAPI  : GAMMA RAY FROM SONIC LOG
GRWS  .GAPI  : GAMMA RAY [GRSED]
ILDED .OHMM  : INDUCTION LOG DEEP RESISTIVITY
SNED  .OHMM  : 16 INCH SHORT NORMAL RESISTIVITY FROM IEL
SPRED .MV    : SPONTANEOUS POTENTIAL FROM RESISTIVITY LOG
SPWS  .MV    : SPONTANEOUS POTENTIAL [BASELINE 0 MV] [SPRED]
SRESWS.OHMM  : SHALLOW RESISTIVITY [SNED]
~Params ----------------------------------------------------
PD  .                     GL : PERMANENT DATUM
EPD .FT               2399.7 : ELEVATION PERMANENT DATUM
LMF .                     KB : LOG MEASURED FROM
DAPD.FT                   15 : FEET ABOVE PERMANENT DATUM
DMF .                     KB : DRILLING MEASURED FROM
EKB .FT               2414.7 : KELLY BUSHING
EGL .FT               2399.7 : GROUND LEVEL
DATE.               08/15/67 : RUN DATE
RUN .                      1 : RUN NUMBER
DD  .FT                11172 : DEPTH DRILLER
DL  .FT                11160 : DEPTH LOGGER
BLI .FT                11156 : BOTTOM LOG INTERVAL
TLI .FT                 1144 : TOP LOG INTERVAL
CS  .IN                9.625 : CASING SIZE
CBD .FT                 1145 : CASING BOTTOM DRILLER
CBL .FT                 1144 : CASING BOTTOM LOGGER
BS  .IN                7.625 : BIT SIZE
BSD .FT                11172 : BIT SIZE AT DEPTH
DFT .                MUD GEL : DRILLING FLUID TYPE
DFD .                    9.9 : DRILLING FLUID DENSITY
DFV .                     89 : DRILLING FLUID VISCOSITY
DFPH.                      9 : DRILLING FLUID PH
DFL .                    7.2 : DRILLING FLUID LOSS
MSS .                   CIRC : MUD SAMPLE SOURCE
RMS .OHMM                3.0 : RESISTIVITY MUD SAMPLE
MST .DEGF                 86 : MUD SAMPLE TEMPERATURE
RMF .OHMM                2.4 : RESISTIVITY MUD FILTRATE SAMPLE
MFST.DEGF                 86 : MUD FILTRATE SAMPLE TEMPERATURE
RMC .OHMM                3.2 : RESISTIVITY MUD CAKE
MCST.DEGF                 86 : MUD CAKE SAMPLE TEMPERATURE
MFSS.                   MEAS : MUD FILTRATE SAMPLE SOURCE
MCSS.                   MEAS : MUD CAKE SAMPLE SOURCE
RMB .OHMM                1.2 : RESISTIVITY MUD AT BHT
TCS .HRS                   6 : TIME CIRCULATED STOPPED
LUN .                   1256 : LOGGING UNIT NUMBER
LUL .                    EDM : LOGGING UNIT LOCATION
ENGI.      KOWALCHUK DOMSTAD : RECORDING ENGINEER
WITN.            DANIELEWICZ : WITNESSED BY
CLNT.                A2DTECH : CLIENT CODE
ORIG.            2" 5" PRINT : ORIGIN OF DATA
UWI .       100022706625W500 : UNIQUE WELL ID
DICO. A2D Technologies, Inc. : DIGITIZING COMPANY
~Other -----------------------------------------------------
~ASCII -----------------------------------------------------
# ...
 3750.00000   11.50800   11.50800  129.13220    7.74400   95.48510   95.48510   79.80300   78.66580    7.74400    9.51200  -82.28930  -19.08830    9.51200
 3800.00000   10.16980   10.16980  114.45840    8.73680   90.10860   90.10860   85.93100   85.93100    8.73680   12.23010  -80.53570  -17.33470   12.23010
 3850.00000   10.31680   10.31680  109.07280    9.16830  102.30280  102.30280  121.83710  122.59010    9.16830   14.37740  -78.95440  -15.75660   14.37710
 3900.00000   11.45800   11.45800  134.86180    7.41500   97.05400   97.05400   94.12200   94.12200    7.41500    9.24900  -80.73600  -17.74460    9.24900
 3950.00000   10.48800   10.48800  119.43820    8.37310  130.09250  130.09250  100.47480  100.21030    8.37770   13.28040  -79.48050  -16.69780   13.32390
 4000.00000   10.35800   10.35800  123.77000    8.07960   94.97700   94.97700   74.98750   75.01970    8.03300    9.60700  -80.86950  -18.29430    9.60970
 4050.00000   11.31630   11.31630  161.73900    6.18280  104.70130  104.70130   79.96590   79.96590    6.18280    6.97710  -80.99350  -18.62490    6.97710
 4100.00000    8.70100    8.70100  114.78970    8.71610   90.97120   90.97120   62.05150   62.06700    8.57400   14.54890 -102.56350  -40.40340   14.85110
 4150.00000    9.44900    9.44900  124.17730    8.05300   85.54340   85.54340   86.32450   86.32450    8.05300   10.58510  -87.04950  -25.09600   10.58510
 4200.00000   10.48780   10.48780  157.72930    6.34030  105.28640  105.28640   72.51890   72.79140    6.34290    7.18840  -79.71050  -17.96560    7.18530
 4250.00000   12.36400   12.36400  147.19230    6.79400  101.86100  101.86100   82.16000   82.08700    6.83100    7.71200  -79.24730  -17.71000    7.67560
 4300.00000   12.97520   12.97520  137.71070    7.26160   97.04910   97.04910   79.84630   79.84630    7.26160    8.44320  -78.59650  -17.26570    8.44320
 4350.00000   14.35850   14.35850  164.25440    6.08820   94.85790   94.85790   91.94030   92.19780    6.08850    7.01180  -78.88050  -17.75830    7.00840
 4400.00000   14.47700   14.47700  135.70360    7.36900   87.68700   87.68700   83.35100   83.35100    7.36900    8.87600  -78.36100  -17.44530    8.87600
 4450.00000   14.84110   14.84110  161.93550    6.17530   88.18620   88.18620   97.68160   97.99290    6.17570    7.06970  -79.94580  -19.23880    7.06950
 4500.00000   15.11800   15.11800  215.47080    4.64100  100.85760  100.85760  119.43600  120.38230    4.64100    4.14200  -78.92600  -18.42650    4.14200
 4550.00000   14.42700   14.42700  207.67570    4.81520   99.59260   99.59260   91.51980   91.51980    4.81520    4.33070  -78.44710  -18.15420    4.33070
 4600.00000   15.60380   15.60380  254.03060    3.93660  138.01010  138.01010   56.32060   56.45940    3.93660    3.29330  -77.41420  -17.32980    3.29310
 4650.00000   13.89700   13.89700  184.50180    5.42000  101.56400  101.56400   93.67300   93.67300    5.42000    5.05700  -77.42700  -17.54920    5.05700
 4700.00000   12.96620   12.96620  192.61960    5.19170   99.79250   99.79250  102.94970  103.52050    5.19370    5.59780  -77.15110  -17.48200    5.59560
 4750.00000   12.62400   12.62400   88.55220   11.29700   90.32930   90.32930   87.87900   87.86380   11.29500   18.69000  -78.67570  -19.21400   18.64810
 4800.00000    8.49680    8.49680   88.37360   11.31560   99.24040   99.24040   35.92050   35.92050   11.31560   24.80710 -137.55760  -78.30250   24.80710
 4850.00000   12.02000   12.02000  137.41490    7.27770   89.20260   89.20260   95.99040   96.02300    7.27770    8.83970  -77.64480  -18.59830    8.84710
 4900.00000   12.17990   12.17990  102.82780    9.72500   89.92010   89.92010  108.79070  108.79070    9.72500   13.55420  -79.43750  -20.59750   13.55420
 4950.00000   12.16410   12.16410   75.67230   13.23620  107.98480  107.98480   68.71230   68.39960   13.65860   12.62760  -78.82500  -20.19370   12.58380
 5000.00000    9.15200    9.15200   70.82910   14.12000   90.20660   90.20660   58.52300   58.57290   14.12000   27.72800 -117.99680  -59.57300   27.72840
 5050.00000   11.83180   11.83180  109.34460    9.14540  107.02610  107.02610  105.25810  105.25810    9.14540   12.09870  -78.34850  -20.13130   12.09870
 5100.00000   10.36990   10.36990  147.70430    6.77030   95.34500   95.34500   99.88750   98.54330    6.77000    8.00580  -76.00640  -17.99780    8.00530
 5150.00000    9.42300    9.42300   80.08970   12.48600   90.15200   90.15200   64.86800   64.86800   12.48600   24.57000 -113.38500  -55.58290   24.57000
 5200.00000   11.05680   11.05680  101.59400    9.84590   89.94080   89.94080   77.78150   77.59040    9.84680   12.12600  -80.09750  -22.50400   12.09900
 5250.00000    9.99300    9.99300   96.57390   10.36170   88.70410   88.70410   95.48790   95.68130   10.36210   14.48730  -78.86830  -21.48240   14.48440
 5300.00000    8.80900    8.80900   61.31810   16.30840   88.38380   88.38380   54.48260   54.48260   16.30840   36.27190 -134.27440  -77.09500   36.27190
 5350.00000    9.81530    9.81530   58.93630   17.00310   80.92240   80.92240   86.20500   87.78000   17.21790   30.56370  -79.72200  -22.75120   30.52850
 5400.00000   10.19730   10.19730   98.35070   10.16770   87.39220   87.39220  103.68930  103.68930   10.16770   15.66950  -75.49880  -18.73450   15.66950
 5450.00000    9.92270    9.92270   87.44220   11.47140   84.89870   84.89870   81.02770   80.70510   11.44190   26.49220  -91.47520  -34.91950   26.61610
 5500.00000    9.40000    9.40000  128.98790    7.75670   88.42600   88.42600   84.47000   84.38300    7.75600   19.84700 -121.80540  -65.45730   19.86840
 5550.00000   11.22630   11.22630  103.53150    9.65890   88.12190   88.12190   89.68420   89.68420    9.65890   12.97570  -79.32430  -23.18280   12.97570
 5600.00000    9.36450    9.36450   91.47510   10.93200   72.27190   72.27190   69.92650   69.84690   10.93230   31.02860 -136.78160  -80.84860   31.02840
 5650.00000   10.37300   10.37300  118.59580    8.43200   87.95000   87.95000   84.52500   84.52500    8.43200   12.73700  -82.39300  -26.66660   12.73700
 5700.00000   10.35870   10.35870   90.99960   10.99420   88.36580   88.36580  102.84470  102.73390   10.86170   18.07210  -69.60450  -14.08670   18.12720
 5750.00000   11.55090   11.55090  113.46890    8.84320   91.29000   91.29000  118.96580  119.80290    8.83290   10.45390  -70.53130  -15.22110   10.44000
 5800.00000    9.33420    9.33420   53.64720   18.64030   88.71410   88.71410   58.13910   58.13910   18.64030   39.36350 -139.32940  -84.22570   39.36350
 5850.00000   10.18690   10.18690   97.55300   10.25090   82.27210   82.27210   71.63840   71.90530   10.25120   27.07750 -119.15630  -64.26120   27.08180
 5900.00000   11.30700   11.30700   85.92540   11.63800   86.45400   86.45400  120.06900  120.06900   11.63800   24.79100  -73.92300  -19.23450   24.79100
 5950.00000   10.09490   10.09490   47.49190   21.06650   81.63780   81.63780   85.58530   85.43350   21.04360   43.75530  -68.11850  -13.63860   43.85470
 6000.00000    9.96800    9.96800   70.01320   14.28930   83.71060   83.71060  112.45800  110.43460   14.20300   23.67900  -64.90700  -10.63470   23.71020
 6050.00000   12.37560   12.37560   99.70390   10.02970   81.02570   81.02570  105.52340  105.52340   10.02970   16.12240  -63.71310  -10.49100   16.12240
 6100.00000   10.35100   10.35100   73.73380   13.56630   82.29480   82.29480  105.08930  104.60150   13.63150   22.77600  -64.92240  -12.87250   22.64950
 6150.00000   10.38600   10.38600   93.01110   10.75140   84.22670   84.22670   92.81850   92.81850   10.75140   16.10330  -73.36920  -22.47980   16.10330
 6200.00000    8.85900    8.85900   78.52000   12.73810   92.80010   92.80010   57.39630   57.49520   12.72760   29.51190 -156.06040 -106.34310   29.49360
 6250.00000    9.26100    9.26100   72.15290   13.85940   91.36270   91.36270   48.47000   47.65150   13.88600   31.69600 -165.60670 -117.05570   31.69830
 6300.00000   13.67920   13.67920  186.46280    5.36300   99.01950   99.01950  102.25690  102.25690    5.36300    5.47880  -65.72090  -18.33050    5.47880
