~Version ---------------------------------------------------
VERS. 2.0 : CWLS log ASCII Standard -VERSION 2.0
WRAP.  NO : ONE LINE PER DEPTH STEP
~Well ------------------------------------------------------
STRT.F                             1200.0 : START DEPTH
STOP.F                            10150.0 : STOP DEPTH
STEP.F                           50.00000 : STEP LENGTH
NULL.                             -999.25 : NULL VALUE
COMP.               CANADIAN FINA OIL LTD : COMPANY
WELL. FINA PAN AM HB HEAVYSOUND 2-6-62-16 : WELL
FLD .                                     : FIELD
LOC .                                     : LOCATION
CTRY.                              CANADA : COUNTRY
SRVC.              Schlumberger of Canada : SERVICE COMPANY
DATE.                         03-Mar-1959 : LOGDATE
PROV.                             Alberta : PROVINCE
UWI .                    100020606216W500 : UNIQUE WELL ID
SLAT.WGS84                       54.32879 : SURFACE LATITUDE
SLON.WGS84                       -116.385 : SURFACE LONGITUDE
~Curve Information -----------------------------------------
DEPT.F      0   1   0  0 : 1 MEASURED DEPTH
CILD.MMHO   05 110 46 00 : INDUCTION DEEP CONDUCTIVITY
ILD .OHMM   05 120 46 00 : INDUCTION DEEP RESISTIVITY
SN  .OHMM   05 040 16 00 : SHORT NORMAL RESISTIVITY
SPR .MV     05 010 01 00 : SPONTANEOUS POTENTIAL FROM RESISTIVITY LOG
LL7 .OHMM   10 220 07 00 : LATEROLOG 7
GRS .MG/TON 60 310 01 00 : GAMMA RAY FROM SONIC LOG
DT  .US/F   60 500 33 00 : DELTA-T (INTERVAL TRANSIT TIME)
MLL .OHMM   20 270 04 00 : MICRO FOCUSED LATEROLOG RESISTIVITY
CALM.IN     20 280 01 00 : CALIPER FROM MICROLATEROLOG
~Params ----------------------------------------------------
LMF .                     KB : LOG MEASURED FROM
DMF .                     KB : DRILLING MEASURED FROM
EKB .FT               2992.4 : KELLY BUSHING
DATE.               03/03/59 : RUN DATE
RUN .                      1 : RUN NUMBER
DD  .FT                10185 : DEPTH DRILLER
DL  .FT                10186 : DEPTH LOGGER
BLI .FT                10182 : BOTTOM LOG INTERVAL
TLI .FT                 3000 : TOP LOG INTERVAL
BS  .IN                    9 : BIT SIZE
BSD .FT                10185 : BIT SIZE AT DEPTH
DFT .               OIL EMUL : DRILLING FLUID TYPE
DFD .                    9.8 : DRILLING FLUID DENSITY
DFV .                    145 : DRILLING FLUID VISCOSITY
DFPH.                    9.5 : DRILLING FLUID PH
DFL .                    6.4 : DRILLING FLUID LOSS
RMS .OHMM                  3 : RESISTIVITY MUD SAMPLE
MST .DEGF                 58 : MUD SAMPLE TEMPERATURE
RMB .OHMM               0.95 : RESISTIVITY MUD AT BHT
TCS .HRS                   6 : TIME CIRCULATED STOPPED
LUN .                   1573 : LOGGING UNIT NUMBER
LUL .                     WC : LOGGING UNIT LOCATION
ENGI.               SHERRIFF : RECORDING ENGINEER
WITN.                   TODD : WITNESSED BY
CLNT.                A2DTECH : CLIENT CODE
ORIG.           5" 25" PRINT : ORIGIN OF DATA
UWI .       100020606216W500 : UNIQUE WELL ID
DICO. A2D Technologies, Inc. : DIGITIZING COMPANY
~Other -----------------------------------------------------
~ASCII -----------------------------------------------------
 1200.00000    -999.25    -999.25    -999.25    -999.25    -999.25    2.41080    -999.25    -999.25    -999.25
 1250.00000  381.67550    1.52310    4.14450  -79.51880    -999.25    5.66780  121.76730    -999.25    -999.25
 1300.00000  121.12720    8.01990    8.99950  -81.55830    -999.25    3.56160  101.00560    -999.25    -999.25
 1350.00000  313.63320    2.10990    4.29210  -80.77520    -999.25    5.09520  113.96840    -999.25    -999.25
 1400.00000  284.86750    2.68480    5.30840  -79.53320    -999.25    4.81010  100.74990    -999.25    -999.25
 1450.00000  370.67910    1.66090    3.51090  -79.03290    -999.25    6.04400  137.83090    -999.25    -999.25
 1500.00000  317.81800    2.14060    3.97210  -78.92070    -999.25    6.93250  120.39320    -999.25    -999.25
 1550.00000  155.83580    6.49460    8.44480  -86.52380    -999.25    4.09260  166.82860    -999.25    -999.25
 1600.00000  318.93750    2.19370    3.69130  -78.96190    -999.25    5.53720  110.28620    -999.25    -999.25
 1650.00000  132.70530    7.37390    8.22110  -86.56910    -999.25    3.49400  113.14760    -999.25    -999.25
 1700.00000  340.09480    1.82960    3.79770  -78.91220    -999.25    4.77930  103.40120    -999.25    -999.25
 1750.00000  313.74240    2.27260    4.06500  -78.90920    -999.25    4.84200  106.95330    -999.25    -999.25
 1800.00000  183.47160    4.97010    6.89530  -79.99350    -999.25    5.64730  125.31010    -999.25    -999.25
 1850.00000  176.13050    5.14450    7.15420  -78.49160    -999.25    3.95890   89.46360    -999.25    -999.25
 1900.00000  278.95110    2.76400    4.57520  -77.79780    -999.25    5.28620  107.40600    -999.25    -999.25
 1950.00000  328.81130    2.16640    5.05840  -78.60190    -999.25    7.13470  141.59470    -999.25    -999.25
 2000.00000  143.35050    6.66820    8.07630  -79.16790    -999.25    3.93950   97.79000    -999.25    -999.25
 2050.00000  438.18770    1.25190    3.50320  -77.91130    -999.25    6.91530  112.78060    -999.25    -999.25
 2100.00000  207.95180    4.08070    5.35510  -77.51280    -999.25    5.44160  113.68870    -999.25    -999.25
 2150.00000   78.30440   14.77780   14.15070  -79.13410    -999.25    5.31560   81.25170    -999.25    -999.25
 2200.00000  281.78570    2.67020    4.62690  -77.25160    -999.25    4.60400   91.04730    -999.25    -999.25
 2250.00000  199.68860    4.33860    6.05370  -78.68120    -999.25    4.17450   99.35920    -999.25    -999.25
 2300.00000  497.80740    1.02790    2.72090  -77.38440    -999.25    4.77660  103.52950    -999.25    -999.25
 2350.00000  127.08940    7.80740   10.20220  -84.27410    -999.25    3.64460   94.73900    -999.25    -999.25
 2400.00000  156.70250    5.80840    7.32430  -82.77530    -999.25    4.66020  102.33950    -999.25    -999.25
 2450.00000  300.89550    2.41620    3.89570  -79.99380    -999.25    4.73340  123.31480    -999.25    -999.25
 2500.00000  208.18040    4.22300    6.27760  -77.35960    -999.25    4.61660   90.55160    -999.25    -999.25
 2550.00000  101.47150   10.55260   13.25330  -86.31100    -999.25    3.33080   91.35790    -999.25    -999.25
 2600.00000   35.10300   43.71600   39.44410  -91.26840    -999.25    2.13250   76.72750    -999.25    -999.25
 2650.00000  264.88790    3.12050    4.43160  -77.78240    -999.25    4.10800  108.79610    -999.25    -999.25
 2700.00000  253.31730    3.24240    5.29740  -78.60920    -999.25    4.06700  106.96780    -999.25    -999.25
 2750.00000   85.97770   12.51950   13.01330  -79.05960    -999.25    3.39390   87.30290    -999.25    -999.25
 2800.00000  329.93450    1.97520    3.75870  -76.67930    -999.25    4.70710  102.84750    -999.25    -999.25
 2850.00000  128.20360    8.30390   12.89730  -77.58170    -999.25    3.09140   90.06140    -999.25    -999.25
 2900.00000  260.88370    3.08650    4.48410  -75.57090    -999.25    4.10640  115.95170    -999.25    -999.25
 2950.00000  109.24850    9.33100    9.82940  -86.80730    -999.25    3.66380  104.29330    -999.25    -999.25
 3000.00000  190.13580    4.67680    5.97050  -76.02220    7.62120    3.97100  108.37450    -999.25    -999.25
 3050.00000  250.47730    3.36080    4.86820  -75.79280    7.03430    4.29380  109.68280    -999.25    -999.25
 3100.00000  223.67130    3.68240    5.06380  -75.67310    6.60930    4.70590  101.91560    -999.25    -999.25
 3150.00000  103.41580   10.27750   14.42740  -85.76630   18.19080    3.49550   90.48460    -999.25    -999.25
 3200.00000   73.53260   15.77530   18.02250  -93.60810   31.48530    2.63430   87.07770    -999.25    -999.25
 3250.00000  101.77380   11.13820   15.90750  -88.02430   25.57470    2.81730   85.81170    -999.25    -999.25
 3300.00000  199.45840    4.38950    6.01120  -75.72510    7.45880    3.98430  100.93750    -999.25    -999.25
 3350.00000  237.19450    3.54190    5.49390  -76.10120    7.14640    4.62590  101.18320    -999.25    -999.25
 3400.00000  126.48780    7.65010   11.13250  -77.95060   14.78640    4.98760   89.37420    -999.25    -999.25
 3450.00000  181.86680    4.87110    6.79650  -79.21960    9.68360    5.73390   97.05750    -999.25    -999.25
 3500.00000  147.23430    6.33700    8.11070  -78.90590   11.30570    5.75180   85.12640    -999.25    -999.25
 3550.00000  164.94950    5.44170    7.86350  -79.01900   10.53400    6.21430   95.57180    -999.25    -999.25
 3600.00000  178.03240    5.10530    7.70160  -78.93520   10.53100    7.37970   99.80700    -999.25    -999.25
 3650.00000  111.34510    9.02120   12.58850  -79.63820   16.19380    6.43240   90.35950    -999.25    -999.25
 3700.00000  144.85400    6.51030    9.22930  -78.53340   12.36860    6.82840   92.11690    -999.25    -999.25
 3750.00000  124.64300    7.89950   10.15330  -80.18220   14.92200    5.78880   90.50170    -999.25    -999.25
 3800.00000  160.53050    5.89350    7.44820  -79.66560   10.78420    6.27880   97.49220    -999.25    -999.25
 3850.00000  118.98410    8.34070    9.76840  -79.71000   13.70220    5.41860   93.01350    -999.25    -999.25
 3900.00000  141.13680    6.67990    8.37040  -77.66600   12.00590    6.41050   92.66480    -999.25    -999.25
 3950.00000  174.06920    5.18130    7.21610  -77.92140   10.28870    6.64520   97.11090    -999.25    -999.25
 4000.00000  191.07050    4.63240    6.60250  -76.52760    9.51710    7.04560   98.56050    -999.25    -999.25
 4050.00000  172.49020    5.36630    7.00780  -77.42050   10.49830    6.58420  100.11270    -999.25    -999.25
 4100.00000  146.74310    6.50260    8.04110  -78.69540   11.01710    6.26870   97.64080    -999.25    -999.25
 4150.00000  168.56390    5.36080    7.56390  -77.49160    9.25720    5.39620   94.35680    -999.25    -999.25
 4200.00000  135.41300    7.09590    8.96330  -78.28180   12.09730    6.60820   89.08580    -999.25    -999.25
 4250.00000  136.98360    7.02110    9.05230  -78.59970   12.02950    6.69370   90.79510    -999.25    -999.25
 4300.00000  145.51370    6.49640    8.39640  -78.81800   11.25960    6.47100   93.11410    -999.25    -999.25
 4350.00000  155.94300    5.75640    8.02670  -77.09520   10.89490    6.26520   92.22990    -999.25    -999.25
 4400.00000  153.83500    6.07810    8.55800  -78.66700   10.67700    6.30420   93.90990    -999.25    -999.25
 4450.00000  146.33260    6.40810    9.62350  -76.20600   11.73330    6.87100   93.46720    -999.25    -999.25
 4500.00000  139.86570    6.82320   10.25150  -76.26650   12.30610    7.32050   97.54470    -999.25    -999.25
 4550.00000  125.11890    7.79040   11.82160  -74.87570   13.71580    7.81960   97.70720    -999.25    -999.25
 4600.00000  102.99500   10.08430   15.66120  -73.50420   18.29400    7.76630   94.35950    -999.25    -999.25
 4650.00000  117.84310    8.42280   12.76050  -73.25490   14.83160    6.76680   94.76960    -999.25    -999.25
 4700.00000  143.34150    6.48620   11.38670  -70.96360   17.35130   11.13700  104.87400    -999.25    -999.25
 4750.00000  143.81510    6.57670    9.27700  -78.52840   11.63950    4.84520   79.70870    -999.25    -999.25
 4800.00000  141.93590    7.17430   11.27480  -76.55680   19.26970    5.33020   75.15200    -999.25    -999.25
