~Version ---------------------------------------------------
VERS.      2.0 : CWLS log ASCII Standard -VERSION 2.0
WRAP.       NO : One line per depth step
CREA. 11/20/17 : LAS Creation Date
~Well ------------------------------------------------------
STRT.FT                         1450.0 : START DEPTH
STOP.FT                        13550.0 : STOP DEPTH
STEP.FT                       50.00000 : STEP LENGTH
NULL.                          -999.25 : NULL VALUE
COMP. AMOCO CANADA PETROLEUM CO., LTD. : COMPANY
WELL.            AMOCO TONY 7-16-62-24 : WELL
FLD .                                  : FIELD
LOC .                                  : LOCATION
CTRY.                           CANADA : COUNTRY
SRVC.                     Schlumberger : SERVICE COMPANY
DATE.                      27-Nov-1977 : LOGDATE
PROV.                          Alberta : PROVINCE
UWI .                 100071606224W500 : UNIQUE WELL ID
SLAT.WGS84                    54.36239 : SURFACE LATITUDE
SLON.WGS84                   -117.5361 : SURFACE LONGITUDE
~Curve Information -----------------------------------------
DEPT    .FT    : Depth Curve
CALDED  .IN    : CALIPER FROM DENSITY LOG [ADJ. TO RESISTIVITY LOG]
CALSED  .IN    : CALIPER FROM  SONIC LOG [ADJ. TO RESISTIVITY LOG]
CALWS   .IN    : CALIPER [CALDED]
CONDWS  .MMHO  : CONDUCTIVITY [1000/DRESWS]
DCORWS  .IN    : DENSITY CORRECTION [DRHOED]
DENWS   .IN    : FORMATION BULK DENSITY [CALC. FROM DPOLSWS M=2.71, F=1.00]
DPHILSED.V/V   : DENSITY POROSITY LIMESTONE [M=2.71, F=1.00] FROM DENSITY LOG [ADJ. TO RESISTIVITY LOG]
DPHISSED.V/V   : DENSITY POROSITY SANDSTONE [M=2.65, F=1.00] FROM DENSITY LOG [ADJ. TO RESISTIVITY LOG]
DPOLSWS .V/V   : DENSITY POROSITY LIMESTONE [DPHISSED MATRIX CONVERSION FOR LS, SPL. TO DPHILSED @8451' & SPL. TO CALC. FROM RHOBED M=2.71, F=1.00]
DRESWS  .OHMM  : DEEP RESISTIVITITY [ILDED]
DRHOED  .IN    : DENSITY CORRECTION FROM DENSITY LOG [ADJ. TO RESISTIVITY LOG]
DTED    .US/F  : DELTA TIME FROM SONIC LOG [ADJ. TO RESISTIVITY LOG]
DTWS    .US/F  : COMPRESSIONAL SONIC [DTED]
GRDED   .GAPI  : GAMMA RAY FROM DENSITY LOG [ADJ. TO RESISTIVITY LOG]
GRSED   .GAPI  : GAMMA RAY FROM SONIC LOG [ADJ. TO RESISTIVITY LOG]
GRWS    .GAPI  : GAMMA RAY [GRSED]
ILDED   .OHMM  : DEEP INDUCTION FROM RESISTIVITY LOG
ILMED   .OHMM  : MEDIUM INDUCTION FROM RESISTIVITY LOG
LL8ED   .OHMM  : 8 INCH LATEROLOG RESISTIVITY FROM RESISTIVITY LOG
MRESWS  .OHMM  : MEDIUM RESISTIVITY [ILMED]
NPHILSED.V/V   : NEUTRON POROSITY LIMESTONE FROM DENSITY LOG [ADJ. TO RESISTIVITY LOG]
NPHISSED.V/V   : NEUTRON POROSITY SANDSTONE FROM DENSITY LOG [ADJ. TO RESISTIVITY LOG]
NPOLSWS .V/V   : NEUTRON POROSITY LIMESTONE [NPHISSED MATRIX CONVERSION FOR LIMESTONE, SPL. TO NPHILSED @ 8424']
RHOBED  .IN    : BULK DENSITY FROM DENSITY LOG [ADJ. TO RESISTIVITY LOG]
SPRED   .MV    : SPONTANEOUS POTENTIAL FROM RESISTIVITY LOG
SPWS    .MV    : SPONTANEOUS POTENTIAL [BASELINE 0 MV,SPRED]
SRESWS  .OHMM  : SHALLOW RESISTIVITY [LL8ED]
~Params ----------------------------------------------------
PD  .                     GL : PERMANENT DATUM
EPD .FT                 5402 : ELEVATION PERMANENT DATUM
LMF .                     KB : LOG MEASURED FROM
DAPD.FT                   17 : FEET ABOVE PERMANENT DATUM
DATE.               11/27/77 : RUN DATE
RUN .                      2 : RUN NUMBER
DD  .FT                13685 : DEPTH DRILLER
DL  .FT                13579 : DEPTH LOGGER
BLI .FT                13573 : BOTTOM LOG INTERVAL
TLI .FT                 8448 : TOP LOG INTERVAL
CBD .FT                 8448 : CASING BOTTOM DRILLER
CBL .FT                 8448 : CASING BOTTOM LOGGER
BSD .FT                13685 : BIT SIZE AT DEPTH
DFT .                    8.6 : DRILLING FLUID TYPE
DFD .                     86 : DRILLING FLUID DENSITY
CLNT.                A2DTECH : CLIENT CODE
ORIG.          1" 2.5" PRINT : ORIGIN OF DATA
UWI .       100071606224W500 : UNIQUE WELL ID
DICO. A2D Technologies, Inc. : DIGITIZING COMPANY
~Other -----------------------------------------------------
DIL-BHC-CNL-FDC LOG RUN
RHOB & DRHO FROM 2" SCALE
~ASCII -----------------------------------------------------
# ...
 6650.00000   14.58900   12.15220   14.58900  128.56440    0.24050    2.22940    -999.25    0.25490    0.28100    7.77820    0.24050   80.76000   80.76000  103.78440  108.66730  108.66730    7.77820    7.10140    9.36550    7.10140    -999.25    0.39410    0.35110    2.23120  -46.08800   -3.64050    9.36550
 6700.00000   13.72090   12.13310   13.72090  186.90630    0.17310    2.20140    -999.25    0.27180    0.29740    5.35070    0.17310   90.78950   90.78950  114.40460  117.81730  117.81730    5.35070    5.11110    6.76800    5.11110    -999.25    0.40610    0.36330    2.20450  -46.37200   -4.41230    6.76800
 6750.00000   16.90880   12.49740   16.90880  250.88440    0.09330    2.28680    -999.25    0.22010    0.24750    3.98590    0.09330   90.67970   90.67970  101.69110  113.20910  113.20910    3.98590    3.51970    5.03670    3.51970    -999.25    0.45970    0.41830    2.29570  -46.89190   -5.41700    5.03670
 6800.00000   17.16340   12.67550   17.16340  231.58870    0.16970    2.19580    -999.25    0.27530    0.30070    4.31800    0.16970   93.93020   93.93020   98.56630  107.05490  107.05490    4.31800    3.91020    5.74340    3.91020    -999.25    0.48950    0.44920    2.17190  -45.91530   -4.92530    5.74340
 6850.00000   14.97070   12.31290   14.97070  159.98900    0.18930    2.08640    -999.25    0.34160    0.36470    6.25370    0.18930   85.54580   85.54580   98.59700  104.29380  104.29380    6.25370    5.75310    7.14550    5.75310    -999.25    0.42740    0.38510    2.07780  -44.71340   -4.21120    7.14550
 6900.00000   12.35170   12.36060   12.35170   93.09770    0.10650    2.47870    -999.25    0.10380    0.13520   10.74140    0.10650   82.28980   82.28980  110.84860  109.91840  108.70020   10.74140    8.15660   10.62830    8.15660    -999.25    0.35300    0.30940    2.47840  -42.38290   -2.36460   10.62830
 6950.00000   12.02610   11.80540   12.02610   45.32560    0.07760    2.52000    -999.25    0.07880    0.11110   22.06420    0.07760   82.08190   82.08190   69.98890   75.09900   72.69550   22.06420   17.03390   18.42370   17.03390    -999.25    0.19950    0.15610    2.53240  -57.32540  -17.76740   18.42370
 7000.00000   10.88280   11.42190   10.88280   45.67000    0.14380    2.39140    -999.25    0.15670    0.18630   21.89620    0.14380   65.67490   65.67490   31.61470   32.20050   32.20050   21.89620   24.87970   41.62460   24.87970    -999.25    0.17090    0.12790    2.40060 -118.25640  -79.13160   41.62460
 7050.00000   14.82670   12.29180   14.82670   67.76670    0.23170    2.37810    -999.25    0.16480    0.19410   14.75650    0.23170   74.62810   74.62810   87.11330   92.17050   91.33050   14.75650   13.53280   15.54720   13.53280    -999.25    0.31970    0.27580    2.41450  -44.03780   -5.34620   15.54720
 7100.00000   12.62940   12.04000   12.62940   76.55240    0.15180    2.46100    -999.25    0.11460    0.14560   13.06940    0.15180   69.05480   69.05480   79.30610   85.98220   86.51970   13.06940   11.37220   15.37690   11.37220    -999.25    0.31590    0.27200    2.45410  -42.06020   -3.80430   15.37690
 7150.00000   13.09710   12.08210   13.09710   82.78080    0.13540    2.44420    -999.25    0.12470    0.15540   12.08010    0.13540   69.97150   69.97150   82.41540   90.49260   90.49260   12.08010   10.96700   14.39880   10.96700    -999.25    0.31450    0.27060    2.46800  -43.89960   -6.07600   14.39880
 7200.00000   14.26730   12.38060   14.26730   79.83140    0.25290    1.96680    -999.25    0.41410    0.43460   12.52690    0.25290   78.22120   78.22120   91.55570   95.40610   95.40610   12.52690   10.88530   17.60630   10.88530    -999.25    0.39990    0.35700    1.96150  -47.01970   -9.63190   17.60630
 7250.00000   12.75440   12.26860   12.75440   73.38960    0.16590    2.28900    -999.25    0.21880    0.24620   13.62590    0.16590   74.08430   74.08430   86.06990   93.98640   92.28610   13.62590   11.81480   14.19050   11.81480    -999.25    0.34640    0.30270    2.27580  -41.70540   -4.75080   14.19050
 7300.00000   12.24370   12.01070   12.24370   39.39640    0.00890    2.54260    -999.25    0.06510    0.09790   25.38300    0.00890   68.80630   68.80630   85.50730   90.89180   91.61370   25.38300   20.35820   24.13490   20.35820    -999.25    0.30790    0.26390    2.54400  -46.21940   -9.69790   24.13490
 7350.00000   12.18300   11.96540   12.18300   49.94300    0.01380    2.65140    -999.25   -0.00090    0.03420   20.02410    0.01380   67.74030   67.74030   72.53210   77.57060   77.57060   20.02410   17.44010   21.84670   17.44010    -999.25    0.26120    0.21720    2.66200  -48.30950  -12.22380   21.84670
 7400.00000   12.02580   11.94460   12.02580   42.34520    0.06650    2.62860    -999.25    0.00910    0.04760   23.61540    0.06650   68.78700   68.78700   79.87830   80.75040   80.75040   23.61540   20.21330   24.43860   20.21330    -999.25    0.26950    0.22550    2.62860  -46.19050  -10.53710   24.43860
 7450.00000   13.14290   12.63210   13.14290   62.08460    0.10590    2.28220    -999.25    0.22290    0.25020   16.10720    0.10590   74.02780   74.02780   94.25410  103.27880  102.08560   16.10720   15.78950   21.29720   15.78950    -999.25    0.41640    0.37390    2.25160  -43.81430   -9.03140   21.29720
 7500.00000   15.97150   12.74950   15.97150   30.91330    0.11520    1.68980    -999.25    0.57740    0.59660   32.34850    0.11520  114.62930  114.62930   59.26960   58.22570   58.22570   32.34850   25.69780   44.17320   25.69780    -999.25    0.68170    0.65360    1.68980  -45.52710  -12.77260   44.17320
 7550.00000   12.49250   12.34380   12.49250   51.91540    0.10940    2.53730    -999.25    0.06830    0.10100   19.26210    0.10940   73.56860   73.56860   85.22810   95.79870   95.79870   19.26210   16.15220   19.55810   16.15220    -999.25    0.28800    0.24400    2.52050  -42.86410  -12.13790   19.55810
 7600.00000   13.30770   12.76650   13.30770   46.11860    0.08910    2.04980    -999.25    0.36590    0.38610   21.78070    0.08910   91.48590   91.48590   68.53160   67.20090   70.47870   21.78070   18.58380   25.00350   18.58380    -999.25    0.44750    0.40590    2.02440  -41.30810  -12.62250   25.00350
 7650.00000   13.50510   12.66830   13.50510   18.27200    0.00020    1.40200    -999.25    0.60060    0.76490   54.72840    0.00020  130.98480  130.98480   37.56450   37.24550   34.07750   54.72840   24.64260  186.70360   24.64260    -999.25    0.65990    0.63020    1.40200  -34.46880   -7.03650  186.70360
 7700.00000   12.71900   12.26420   12.71900   49.73480    0.06730    2.61960    -999.25    0.01850    0.05290   20.17030    0.06730   59.08080   59.08080   44.59040   42.52560   46.11940   20.17030   14.82600   16.27720   14.82600    -999.25    0.23440    0.19060    2.60810  -45.69940  -19.51950   16.27720
 7750.00000   12.32710   12.08910   12.32710   47.14400    0.04280    2.58850    -999.25    0.03730    0.07110   21.21160    0.04280   70.92660   70.92660   85.29420   89.50330   90.82050   21.21160   17.90390   20.21630   17.90390    -999.25    0.29990    0.25590    2.53490  -27.22320   -2.28820   20.21630
 7800.00000   13.09630   12.22080   13.09630   84.70630    0.12250    2.40680    -999.25    0.14740    0.17730   11.80550    0.12250   64.76830   64.76830   90.46130   96.80950   93.12830   11.80550   10.59880   24.28670   10.59880    -999.25    0.24410    0.20020    2.41610  -32.78190   -9.09170   24.28670
 7850.00000   13.29830   12.09950   13.29830   44.37470    0.24770    2.52970    -999.25    0.07290    0.10540   22.53970    0.24770   71.43800   71.43800   87.07180   97.98430   96.17380   22.53970   20.08530   25.08480   20.08530    -999.25    0.24930    0.20540    2.53120  -29.94510   -7.50730   25.08480
 7900.00000   12.21440   11.95190   12.21440    5.75950    0.00710    2.63500    -999.25    0.00500    0.04390  173.62610    0.00710   61.14540   61.14540   55.55180   58.48080   57.57670  173.62610   76.29660  115.61970   76.29660    -999.25    0.13230    0.08990    2.63500  -34.53690  -12.94090  115.61970
