~Version ---------------------------------------------------
VERS.      2.0 : CWLS log ASCII Standard -VERSION 2.0
WRAP.       NO : One line per depth step
CREA. 01/05/18 : LAS Creation Date
~Well ------------------------------------------------------
STRT.FT                   300.0 : START DEPTH
STOP.FT                 11550.0 : STOP DEPTH
STEP.FT                50.00000 : STEP LENGTH
NULL.                   -999.25 : NULL VALUE
COMP.      MOBIL OIL CANADA LTD : COMPANY
WELL. MOBIL PINEDALE 6-29-54-16 : WELL
FLD .                           : FIELD
LOC .                           : LOCATION
CTRY.                    CANADA : COUNTRY
SRVC.    Schlumberger of Canada : SERVICE COMPANY
DATE.               02-Oct-1968 : LOGDATE
PROV.                   Alberta : PROVINCE
UWI .          100062905416W500 : UNIQUE WELL ID
SLAT.WGS84             53.69074 : SURFACE LATITUDE
SLON.WGS84            -116.3264 : SURFACE LONGITUDE
~Curve Information -----------------------------------------
DEPT    .FT    : Depth Curve
CALDED  .IN    : CALIPER FROM DENSITY LOG [ADJ. TO RESISTIVITY LOG]
CALNED  .IN    : CALIPER FROM NEUTRON LOG [ADJ. TO RESISTIVITY LOG]
CALSED  .IN    : CALIPER FROM SONIC LOG [ADJ. TO RESISTIVITY LOG]
CALWS   .IN    : CALIPER [CALSED]
CILDED  .MMHO  : DEEP INDUCTION CONDUCTIVITY FROM RESISTIVITY LOG
CONDWS  .MMHO  : CONDUCTIVITY [1000/DRESWS]
DCORED  .G/C3  : DENSITY CORRECTION FROM DENSITY LOG [ADJ. TO RESISTIVITY LOG]
DCORWS  .G/C3  : DENSITY CORRECTION [DCORED]
DENWS   .G/C3  : FORMATION BULK DENSITY [RHOBED]
DPHILSED.V/V   : DENSITY POROSITY LIMESTONE [M=2.71,F=1.0] FROM DENSITY LOG [ADJ. TO RESISTIVITY LOG]
DPOLSWS .V/V   : DENSITY POROSITY LIMESTONE [CALC. FROM DENWS M=2.71,F=1.0]
DRESWS  .OHMM  : DEEP RESISTIVITY [1000/CILDED IF ILDED <5, ILDED]
DTED    .US/F  : DELTA-T FROM SONIC LOG [ADJ. TO RESISTIVITY LOG]
DTWS    .US/F  : COMPRESSIONAL SONIC [DTED]
GRDED   .GAPI  : GAMMA RAY FROM DENSITY LOG [ADJ. TO RESISTIVITY LOG]
GRNED   .GAPI  : GAMMA RAY FROM NEUTRON LOG [ADJ. TO RESISTIVITY LOG]
GRSED   .GAPI  : GAMMA RAY FROM SONIC LOG [ADJ. TO RESISTIVITY LOG]
GRWS    .GAPI  : GAMMA RAY [GRSED SPL. TO GRDED @ 11555']
ILDED   .OHMM  : DEEP INDUCTION FROM RESISTIVITY LOG
NPOLSWS .V/V   : NEUTRON POROSITY LIMESTONE [SNPLSED]
RHOBED  .G/C3  : BULK DENSITY FROM DENSITY LOG [ADJ. TO RESISTIVITY LOG]
SNED    .OHMM  : SHORT NORMAL FROM RESISTIVITY LOG
SNPLSED .V/V   : SIDEWALL NEUTRON POROSITY LIMESTONE FROM NEUTRON LOG [ADJ. TO RESISTIVITY LOG]
SPRED   .MV    : SPONTANEOUS POTENTIAL FROM RESISTIVITY LOG
SPWS    .MV    : SPONTANEOUS POTENTIAL [BASELINE 0 MV, SPRED]
SRESWS  .OHMM  : SHALLOW RESISTIVITY [SNED]
~Params ----------------------------------------------------
DATE.               10/02/68 : RUN DATE
RUN .                      1 : RUN NUMBER
CLNT.                A2DTECH : CLIENT CODE
ORIG.               5" PRINT : ORIGIN OF DATA
UWI .       100062905416W500 : UNIQUE WELL ID
DICO. A2D Technologies, Inc. : DIGITIZING COMPANY
~Other -----------------------------------------------------
IEL & SNP & FDC & BHC SONIC LOG RAN
SPRED,SNED,ILDED & CILDED VERIFY FROM SMALL SECTION FROM TOP - 6470'
~ASCII -----------------------------------------------------
# ...
 1650.00000    -999.25    -999.25   11.53310   11.53310  103.47130   87.88120    -999.25    -999.25    -999.25    -999.25    -999.25   11.37900   87.25370   87.25370    -999.25    -999.25   58.09470   58.09470   11.37900    -999.25    -999.25    8.40260    -999.25 -134.53350   -5.43490    8.40260
 1700.00000    -999.25    -999.25   11.73590   11.73590  340.33690  340.33690    -999.25    -999.25    -999.25    -999.25    -999.25    2.94720  163.54570  163.54570    -999.25    -999.25   57.06960   57.06960    4.74220    -999.25    -999.25    3.83460    -999.25 -133.89550   -5.23470    3.83460
 1750.00000    -999.25    -999.25   11.01890   11.01890   76.88600   70.20890    -999.25    -999.25    -999.25    -999.25    -999.25   14.24320   91.69270   91.69270    -999.25    -999.25   49.64430   49.64430   14.24320    -999.25    -999.25   12.08970    -999.25 -136.07680   -7.85090   12.08970
 1800.00000    -999.25    -999.25   10.93940   10.93940  260.37940  260.37940    -999.25    -999.25    -999.25    -999.25    -999.25    3.84050  101.55280  101.55280    -999.25    -999.25   77.77650   77.77650    4.43690    -999.25    -999.25    5.76650    -999.25 -125.15000   -8.11760    5.76650
 1850.00000    -999.25    -999.25   11.76100   11.76100   86.74410   69.32460    -999.25    -999.25    -999.25    -999.25    -999.25   14.42490  129.30630  129.30630    -999.25    -999.25   60.30770   60.30770   14.42490    -999.25    -999.25   13.02510    -999.25 -118.69820   -7.87510   13.02510
 1900.00000    -999.25    -999.25   11.16840   11.16840  119.34970  111.32140    -999.25    -999.25    -999.25    -999.25    -999.25    8.98300   90.22950   90.22950    -999.25    -999.25   66.13280   66.13280    8.98300    -999.25    -999.25    9.11740    -999.25 -113.67250   -5.34510    9.11740
 1950.00000    -999.25    -999.25   12.12460   12.12460   80.07670   67.75130    -999.25    -999.25    -999.25    -999.25    -999.25   14.76240   77.55700   77.55700    -999.25    -999.25   52.08370   52.08370   14.76240    -999.25    -999.25   13.36140    -999.25 -117.30720  -11.17280   13.36140
 2000.00000    -999.25    -999.25   10.94850   10.94850  131.11960  126.91640    -999.25    -999.25    -999.25    -999.25    -999.25    7.87920   85.43630   85.43630    -999.25    -999.25   79.57560   79.57560    7.87920    -999.25    -999.25    7.63510    -999.25 -106.80110   -2.79490    7.63510
 2050.00000    -999.25    -999.25   11.45050   11.45050  168.07720  149.96100    -999.25    -999.25    -999.25    -999.25    -999.25    6.66840   97.35910   97.35910    -999.25    -999.25   63.30150   63.30150    6.66840    -999.25    -999.25    6.33020    -999.25 -106.18990   -4.31190    6.33020
 2100.00000    -999.25    -999.25   11.33670   11.33670   77.94350   66.60980    -999.25    -999.25    -999.25    -999.25    -999.25   15.01280   80.39970   80.39970    -999.25    -999.25   50.58630   50.58630   15.01280    -999.25    -999.25    9.73600    -999.25 -111.31360   -8.90240    9.73600
 2150.00000    -999.25    -999.25   11.44620   11.44620  122.85790  105.55540    -999.25    -999.25    -999.25    -999.25    -999.25    9.47370   83.11040   83.11040    -999.25    -999.25   62.57010   62.57010    9.47370    -999.25    -999.25    8.65890    -999.25 -111.47060   -5.61690    8.65890
 2200.00000    -999.25    -999.25   11.52060   11.52060  146.02060  127.60050    -999.25    -999.25    -999.25    -999.25    -999.25    7.83710   91.75060   91.75060    -999.25    -999.25   68.37310   68.37310    7.83710    -999.25    -999.25    6.91250    -999.25 -113.25860   -3.93980    6.91250
 2250.00000    -999.25    -999.25   11.82710   11.82710  161.12570  158.22030    -999.25    -999.25    -999.25    -999.25    -999.25    6.32030   88.82480   88.82480    -999.25    -999.25   62.22810   62.22810    6.32030    -999.25    -999.25    5.63590    -999.25 -115.73510   -2.97390    5.63590
 2300.00000    -999.25    -999.25   11.26310   11.26310  179.50050  146.52660    -999.25    -999.25    -999.25    -999.25    -999.25    6.82470  108.33390  108.33390    -999.25    -999.25   69.56400   69.56400    6.82470    -999.25    -999.25    6.56010    -999.25 -121.53760   -8.25700    6.56010
 2350.00000    -999.25    -999.25   13.35130   13.35130  384.73580  384.73580    -999.25    -999.25    -999.25    -999.25    -999.25    2.59920  139.10780  139.10780    -999.25    -999.25   59.91050   59.91050    2.54050    -999.25    -999.25    3.64720    -999.25 -116.64330   -5.31480    3.64720
 2400.00000    -999.25    -999.25   10.57000   10.57000   42.83710   37.79550    -999.25    -999.25    -999.25    -999.25    -999.25   26.45820   82.37030   82.37030    -999.25    -999.25   53.81180   53.81180   26.45820    -999.25    -999.25   20.41280    -999.25 -140.60420  -28.56840   20.41280
 2450.00000    -999.25    -999.25   11.01940   11.01940  105.02720   91.47380    -999.25    -999.25    -999.25    -999.25    -999.25   10.94940   79.97190   79.97190    -999.25    -999.25   74.45640   74.45640   10.94940    -999.25    -999.25    9.79870    -999.25 -122.86120  -10.11340    9.79870
 2500.00000    -999.25    -999.25   11.55920   11.55920  157.03910  144.17950    -999.25    -999.25    -999.25    -999.25    -999.25    6.93580   94.70120   94.70120    -999.25    -999.25   75.24860   75.24860    6.93580    -999.25    -999.25    6.20220    -999.25 -115.03570   -1.58050    6.20220
 2550.00000    -999.25    -999.25   13.50880   13.50880  347.52370  347.52370    -999.25    -999.25    -999.25    -999.25    -999.25    2.87750  107.67540  107.67540    -999.25    -999.25   75.90350   75.90350    4.18350    -999.25    -999.25    3.81630    -999.25 -129.25240   -8.21940    3.81630
 2600.00000    -999.25    -999.25   11.03910   11.03910  187.17150  179.96290    -999.25    -999.25    -999.25    -999.25    -999.25    5.55670   88.92530   88.92530    -999.25    -999.25   71.54760   71.54760    5.55670    -999.25    -999.25    5.58010    -999.25 -156.40460   -6.62850    5.58010
 2650.00000    -999.25    -999.25   11.63500   11.63500  265.65660  265.65660    -999.25    -999.25    -999.25    -999.25    -999.25    3.76430   95.46110   95.46110    -999.25    -999.25   70.15800   70.15800    4.50630    -999.25    -999.25    4.36690    -999.25 -154.24390  -12.35010    4.36690
 2700.00000    -999.25    -999.25   11.21810   11.21810  216.35580  178.60150    -999.25    -999.25    -999.25    -999.25    -999.25    5.60100   97.25130   97.25130    -999.25    -999.25   66.91080   66.91080    5.60100    -999.25    -999.25    5.43420    -999.25 -159.75640   -8.31000    5.43420
 2750.00000    -999.25    -999.25   10.60820   10.60820   80.29260   70.99750    -999.25    -999.25    -999.25    -999.25    -999.25   14.08500   79.31930   79.31930    -999.25    -999.25   57.32120   57.32120   14.08500    -999.25    -999.25   10.84220    -999.25 -164.33810   -5.08870   10.84220
 2800.00000    -999.25    -999.25   10.73770   10.73770  188.92040  170.08540    -999.25    -999.25    -999.25    -999.25    -999.25    5.87940   94.91120   94.91120    -999.25    -999.25   65.65680   65.65680    5.87940    -999.25    -999.25    5.97810    -999.25 -158.83970   -7.19650    5.97810
 2850.00000    -999.25    -999.25   14.99620   14.99620  197.86490  179.81080    -999.25    -999.25    -999.25    -999.25    -999.25    5.56140  141.64180  141.64180    -999.25    -999.25   45.47950   45.47950    5.56140    -999.25    -999.25    5.94060    -999.25 -153.13390   -9.14700    5.94060
 2900.00000    -999.25    -999.25   12.67570   12.67570  202.87510  183.32810    -999.25    -999.25    -999.25    -999.25    -999.25    5.45470   91.62140   91.62140    -999.25    -999.25   69.21940   69.21940    5.45470    -999.25    -999.25    4.91380    -999.25 -143.25800  -13.60150    4.91380
 2950.00000    -999.25    -999.25   12.43120   12.43120  227.03930  216.01320    -999.25    -999.25    -999.25    -999.25    -999.25    4.65850   92.90440   92.90440    -999.25    -999.25   69.98110   69.98110    5.00980    -999.25    -999.25    4.79450    -999.25 -137.87730   -4.92580    4.79450
