~Version ---------------------------------------------------
VERS. 2.0 : CWLS log ASCII Standard -VERSION 2.0
WRAP.  NO : ONE LINE PER DEPTH STEP
~Well ------------------------------------------------------
STRT.F                       550.0 : START DEPTH
STOP.F                     12450.0 : STOP DEPTH
STEP.F                    50.00000 : STEP LENGTH
NULL.                      -999.25 : NULL VALUE
COMP.       CALIFORNIA STANDARD CO : COMPANY
WELL. STANDARD CYNTHIA 16-21-49-13 : WELL
FLD .                           WC : FIELD
LOC .                              : LOCATION
CTRY.                       CANADA : COUNTRY
SRVC.                 Schlumberger : SERVICE COMPANY
DATE.                  28-Dec-1957 : LOGDATE
PROV.                      Alberta : PROVINCE
UWI .             100162104913W500 : UNIQUE WELL ID
SLAT.WGS84                53.24881 : SURFACE LATITUDE
SLON.WGS84               -115.8321 : SURFACE LONGITUDE
~Curve Information -----------------------------------------
DEPT.F                   : 
MCAL.IN     15 280 01 00 : MLT (MICROLOG) CALIPER
GRN .MG/TON 35 310 00 00 : GAMMA RAY FROM GRN LOG
NEUT.CPS    35 330 30 00 : NEUTRON
CALM.IN     20 280 01 00 : CALIPER FROM MICROLATEROLOG
TENM.LB     20 635 00 00 : TENSION FROM MICROLOG/MICROLOG FOCUSED
MLL .OHMM   20 270 04 00 : MICRO FOCUSED LATEROLOG RESISTIVITY
ILD .OHMM   06 120 46 00 : INDUCTION DEEP RESISTIVITY
SPR1.MV                  : SPONTANEOUS POTENTIAL
CILD.MMHO   06 110 46 00 : INDUCTION DEEP CONDUCTIVITY
SPR2.MV                  : SPONTANEOUS POTENTIAL
LL7 .OHMM   01 220 07 00 : LATEROLOG 7
SPR .MV     01 010 01 00 : SPONTANEOUS POTENTIAL FROM RESISTIVITY LOG
SN  .OHMM   01 040 16 00 : SHORT NORMAL RESISTIVITY
LN  .OHMM   01 060 64 00 : LONG NORMAL RESISTIVITY
LT18.OHMM   01 070 18 00 : LATERAL 18'
~Params ----------------------------------------------------
PD  .                        : PERMANENT DATUM
EPD .FT                    0 : ELEVATION PERMANENT DATUM
LMF .                     KB : LOG MEASURED FROM
DAPD.FT                    0 : FEET ABOVE PERMANENT DATUM
DMF .                     KB : DRILLING MEASURED FROM
EKB .FT                 3297 : KELLY BUSHING
EDF .FT                    0 : DRILLING FLOOR
EGL .FT                    0 : GROUND LEVEL
DATE.               12/28/57 : RUN DATE
RUN .                      4 : RUN NUMBER
DD  .FT                12492 : DEPTH DRILLER
DL  .FT                12492 : DEPTH LOGGER
BLI .FT                12491 : BOTTOM LOG INTERVAL
TLI .FT                 8904 : TOP LOG INTERVAL
CS  .IN                    0 : CASING SIZE
CBD .FT                  616 : CASING BOTTOM DRILLER
CBL .FT                  616 : CASING BOTTOM LOGGER
BS  .IN                    9 : BIT SIZE
BSD .FT                12492 : BIT SIZE AT DEPTH
DFT .               OIL EMUL : DRILLING FLUID TYPE
DFD .                   10.7 : DRILLING FLUID DENSITY
DFV .                    140 : DRILLING FLUID VISCOSITY
DFPH.                     13 : DRILLING FLUID PH
DFL .                    3.6 : DRILLING FLUID LOSS
MSS .                        : MUD SAMPLE SOURCE
RMS .OHMM                1.1 : RESISTIVITY MUD SAMPLE
MST .DEGF                 50 : MUD SAMPLE TEMPERATURE
RMF .OHMM                  0 : RESISTIVITY MUD FILTRATE SAMPLE
MFST.DEGF                  0 : MUD FILTRATE SAMPLE TEMPERATURE
RMC .OHMM                  0 : RESISTIVITY MUD CAKE
MCST.DEGF                  0 : MUD CAKE SAMPLE TEMPERATURE
MFSS.                        : MUD FILTRATE SAMPLE SOURCE
MCSS.                        : MUD CAKE SAMPLE SOURCE
RMB .OHMM               0.28 : RESISTIVITY MUD AT BHT
TCS .HRS                   3 : TIME CIRCULATED STOPPED
TLAB.HRS                   0 : TIME LOGGER AT BOTTOM
LUN .                   1749 : LOGGING UNIT NUMBER
LUL .                     DV : LOGGING UNIT LOCATION
ENGI.                  GOETZ : RECORDING ENGINEER
WITN.             CHARLESTON : WITNESSED BY
CLNT.                A2DTECH : CLIENT CODE
ORIG.            2" 5" PRINT : ORIGIN OF DATA
UWI .       100162104913W500 : UNIQUE WELL ID
DICO. A2D Technologies, Inc. : DIGITIZING COMPANY
OS  .                        : OTHER SERVICES
PWI .                        : PRIMARY WELL IDENTIFIER
R1  .                        : REMARKS 1
R2  .                        : REMARKS 2
LSRV.                        : LOG MNEMONIC
~Other -----------------------------------------------------
~ASCII -----------------------------------------------------
# ...
 2850.00000   10.69310    5.17800  233.42100    -999.25    -999.25    -999.25   20.02250  -62.53890  140.66870    -999.25    -999.25  -46.99390   11.79040   12.02180   11.48920
 2900.00000   10.58910    6.56320  204.10270    -999.25    -999.25    -999.25   12.83190  -62.73680  213.19540    -999.25    -999.25  -39.52840    6.62320    7.24980    7.61010
 2950.00000   11.09110    5.64970  243.15970    -999.25    -999.25    -999.25   22.65150  -65.44430  126.85510    -999.25    -999.25  -39.49600   12.95210   15.61640   10.57620
 3000.00000   11.90840    6.57610  203.18790    -999.25    -999.25    -999.25   15.18770  -66.63070  182.18100    -999.25    -999.25  -39.63140    7.01820   11.67060    6.78020
 3050.00000   12.16730    5.92390  223.86860    -999.25    -999.25    -999.25   20.26360  -74.95890  139.66040    -999.25    -999.25  -38.78830   10.68970   13.70510    0.83340
 3100.00000   11.59260    4.57440  235.75210    -999.25    -999.25    -999.25   22.46330  -65.79630  120.37520    -999.25    -999.25  -40.85910   15.56950   10.64590   14.91180
 3150.00000   11.78930    5.71250  234.70950    -999.25    -999.25    -999.25   14.26020  -61.69830  188.58430    -999.25    -999.25  -40.05570    9.58240   10.10280   10.26810
 3200.00000   12.58100    7.64930  192.03770    -999.25    -999.25    -999.25   10.11470  -62.33190  262.79560    -999.25    -999.25  -38.92870    5.54560    6.30880   10.49300
 3250.00000   13.10430    5.27830  209.38850    -999.25    -999.25    -999.25   13.53590  -63.90430  202.62400    -999.25    -999.25  -39.76470    5.80150    7.10320    4.84580
 3300.00000   13.16230    5.51450  223.24390    -999.25    -999.25    -999.25   16.24490  -63.91600  171.33270    -999.25    -999.25  -39.05540    6.46240    5.87840    5.43540
 3350.00000   12.40600    4.43290  230.30000    -999.25    -999.25    -999.25   25.02050  -63.10950  116.66570    -999.25    -999.25  -43.81350   17.30540   17.75900   13.47190
 3400.00000   12.85120    6.21270  209.36390    -999.25    -999.25    -999.25   17.95030  -60.42870  159.76480    -999.25    -999.25  -39.30930    6.41750    7.87850    5.44750
 3450.00000   12.43980    5.70980  209.23500    -999.25    -999.25    -999.25   17.08710  -64.87580  164.91460    -999.25    -999.25  -39.64550    8.74140    7.32190    4.87160
 3500.00000   12.70460    6.66590  204.19670    -999.25    -999.25    -999.25   17.58490  -60.27390  165.04160    -999.25    -999.25  -41.09750    8.33830   11.38240    2.93110
 3550.00000   11.02800    4.68200  246.73150    9.28400 2042.90230   35.98900   23.00370  -58.57390  116.47700    -999.25    -999.25  -42.96930   19.32480    6.87780   18.25660
 3600.00000    9.85760    4.50050  279.76700    8.47210 2031.69760   44.77680   56.80160  -71.72910   76.09420    -999.25    -999.25  -47.89840   28.92410   19.26960   10.46260
 3650.00000   12.06140    5.96260  220.35590    9.47280 2034.68770    7.80180   15.66660  -55.21480  170.43750    -999.25    -999.25  -40.53910    9.88620    8.90100   10.30660
 3700.00000   10.65410    5.77750  231.41760    9.01880 2041.19410   10.32420   16.92280  -57.45340  155.65550    -999.25    -999.25  -40.31940    9.85150    8.09150   13.95790
 3750.00000    9.86980    6.19740  229.08380    8.68960 2047.70060   26.12190   31.11680  -62.99210  105.50240    -999.25    -999.25  -40.77420   18.10100   14.33920   12.33890
 3800.00000    9.98040    6.59750  253.95370    8.61860 2058.57520   17.98190   28.46050  -60.88560  110.47640    -999.25    -999.25  -40.43190   13.29730    9.62360   11.59400
 3850.00000   10.29860    5.30050  258.82950    -999.25    -999.25    -999.25   18.36810  -55.84950  149.48530    -999.25    -999.25  -39.13010    9.85300    7.87940    9.10130
 3900.00000   10.83060    6.72850  234.67430    -999.25    -999.25    -999.25   10.15990  -51.49490  267.23000    -999.25    -999.25  -39.25190    6.17550    6.57250    3.23570
 3950.00000   11.04620    7.07460  222.25560    -999.25    -999.25    -999.25    8.26010  -53.69600  340.08170    -999.25    -999.25  -40.74110    5.46980    6.31810    9.54150
 4000.00000   11.20400    6.83710  213.96140    -999.25    -999.25    -999.25   20.34570  -58.55200  140.47440    -999.25    -999.25  -41.83540   13.30070   11.54320   19.62310
 4050.00000   10.58050    5.62830  214.55550    8.60730 2106.62570   10.06480   23.59400  -59.24380  127.51240    -999.25    -999.25  -42.54170   10.55710    9.77380    6.47850
 4100.00000    8.66600    4.11800  242.17570    7.52110 2090.11600   22.68860   39.59290  -74.22630   88.78130    -999.25    -999.25  -66.23570   25.35300   16.14220   13.34360
 4150.00000   11.20680    6.44440  201.13240   10.12220 2085.82840    4.32550   15.11230  -55.77570  192.54850    -999.25    -999.25  -40.90520    7.27510    9.35140    5.18770
 4200.00000   10.03130    5.27520  246.55190    8.25500 2044.30600   20.91730   34.03810  -56.90120  103.22540    -999.25    -999.25  -41.60650   13.63650   10.53600    9.77510
 4250.00000   10.04820    7.47560  207.96260    8.46170 2088.90280    6.21080   12.46350  -49.75110  226.45760    -999.25    -999.25  -39.53900    5.76370    7.63660    5.43710
 4300.00000   11.46710    6.16870  197.73390    8.95930 2072.64260   34.68660   23.58100  -59.15660  127.08320    -999.25    -999.25  -40.59750   11.09260    9.32590    9.47420
 4350.00000   11.73320    5.34930  227.14920    8.40520 2084.59720    9.08350   16.19300  -46.88450  167.79510    -999.25    -999.25  -41.55660    9.77210   12.57950   18.00490
 4400.00000   12.54900    5.31660  200.09530    8.64570 2022.68790   10.01540   20.48910  -54.93870  145.10590    -999.25    -999.25  -42.67990    8.95260    7.58310    7.59870
 4450.00000   11.81990    5.65830  217.97270    7.98500 2084.89550   14.38450   31.07440  -61.38210  110.19940    -999.25    -999.25  -44.93720   14.60210   16.18260    5.44320
 4500.00000    8.44220    3.30420  233.49920    7.89140 2095.48070   22.33680   48.91500  -68.46570   78.97070    -999.25    -999.25  -68.40840   37.18460   33.07750   44.16880
 4550.00000   10.48960    6.01380  213.13860    8.21920 2084.06200   14.62040   21.11550  -47.03670  134.03990    -999.25    -999.25  -41.03440    9.50330    8.55560   13.08200
 4600.00000   10.20570    4.26690  244.05230    7.82490 2086.84280   44.51830   81.16030  -54.31340   70.45370    -999.25    -999.25  -44.32330   26.36040   23.82350   16.23210
 4650.00000   11.89630    5.10130  194.26970    8.22970 2107.21240   10.55930   19.87280  -41.67680  145.17470    -999.25    -999.25  -40.91370    9.98050    9.01870   11.86300
 4700.00000   12.07640    5.58510  217.24590    7.83360 2032.96340   17.92100   29.68690  -44.95230  108.50130    -999.25    -999.25  -40.14600   12.01910   11.72860    7.66400
 4750.00000    9.83030    3.34400  227.12710    8.11140 2057.06960   12.32220   24.01770  -36.43380  126.02610    -999.25    -999.25  -47.04070   15.47210   16.74310   48.21840
 4800.00000   10.24560    4.69770  209.12500    8.08760 2038.03100   20.30370   26.26930  -38.06920  115.62320    -999.25    -999.25  -40.24270   18.85290   17.83170   12.84580
 4850.00000   10.34380    4.86230  216.19860    8.39470 2105.87770    7.38860   25.02820  -41.81950  115.68800    -999.25    -999.25  -40.83380   16.84900   13.31410   22.76820
 4900.00000   10.28160    3.92470  211.69090    8.21390 2080.09670   14.28540   25.12330  -42.30460  119.89650    -999.25    -999.25  -41.57870   17.55610   13.39350   15.33880
 4950.00000    9.08160    4.06820  233.42630    7.99390 2068.83450   34.22950   58.86500  -60.43240   74.78330    -999.25    -999.25  -47.97010   35.45970   32.02490   16.64600
 5000.00000   11.40450    5.23800  206.48650    8.10340 2072.67430   10.64170   20.57810  -43.61220  138.87490    -999.25    -999.25  -38.47420   12.58940   13.20780   10.11050
 5050.00000   11.17790    5.44750  213.98970    7.94920 2065.98020   13.86680   22.74540  -42.78520  128.40230    -999.25    -999.25  -36.94400   13.81660   13.01870   10.81350
 5100.00000   11.33000    5.25620  226.96540    7.75060 2087.51880   21.32770   40.68450  -44.13360   95.76960    -999.25    -999.25  -43.44930   27.11110   24.77170   10.45350
