~Version ---------------------------------------------------
VERS.      2.0 : CWLS log ASCII Standard -VERSION 2.0
WRAP.       NO : One line per depth step
CREA. 08/31/17 : LAS Creation Date
~Well ------------------------------------------------------
STRT.FT                                 1050.0 : START DEPTH
STOP.FT                                10100.0 : STOP DEPTH
STEP.FT                               50.00000 : STEP LENGTH
NULL.                                  -999.25 : NULL VALUE
COMP.            HUDSON'S BAY OIL & GAS CO LTD : COMPANY
WELL. HUDSONS BAY UNION SNIPE LAKE 16-19-68-19 : WELL
FLD .                                          : FIELD
LOC .                                          : LOCATION
CTRY.                                   CANADA : COUNTRY
SRVC.                   Schlumberger of Canada : SERVICE COMPANY
DATE.                              25-Mar-1962 : LOGDATE
PROV.                                  Alberta : PROVINCE
UWI .                         100161906819W500 : UNIQUE WELL ID
SLAT.WGS84                            54.90768 : SURFACE LATITUDE
SLON.WGS84                           -116.8764 : SURFACE LONGITUDE
~Curve Information -----------------------------------------
DEPT  .FT         : Depth Curve
CALWS .IN         : CALIPER [MCALDED]
CILDED.MMHO       : CONDUCTIVITY INDUCTION LOG DEEP FROM RESISTIVITY LOG
CONDWS.MMHO       : CONDUCTIVITY [1000/DRESWS]
DRESWS.OHMM       : DEEP RESISTIVITY [1000/CILDED, IF ILDED<5, ILDED]
DTED  .US/F       : ACOUSTIC TRANSIT TIME SLOWNESS, DELTA T FROM SONIC LOG
DTWS  .US/F       : COMPRESSIONAL SONIC [DTED]
GRRED .UgRa-Eq/T  : GAMMA RAY FROM SONIC LOG
GRWS  .GAPI       : GAMMA RAY [GRRED*16.50 FOR GAPI]
ILDED .OHMM       : DEEP INDUCTION RESISTIVITY FROM RESISTIVITY LOG
MCALED.IN         : MLT [MICROLOG] CALIPER FROM SONIC LOG
SNED  .OHMM       : SHORT NORMAL 10" FROM RESISTIVITY LOG
SPRED .MV         : SPONTANEOUS POTENTIAL FROM RESISTIVITY LOG
SPWS  .MV         : SPONTANEOUS POTENTIAL [BASELINE 0 MV, SPRED]
SRESWS.OHMM       : SHALLOW RESISTIVITY [SNED]
~Params ----------------------------------------------------
PD  .                     GL : PERMANENT DATUM
EPD .FT                 2478 : ELEVATION PERMANENT DATUM
LMF .                     KB : LOG MEASURED FROM
DAPD.FT                 12.6 : FEET ABOVE PERMANENT DATUM
EKB .FT               2490.6 : KELLY BUSHING
EGL .FT                 2478 : GROUND LEVEL
DATE.               03/25/62 : RUN DATE
RUN .                      1 : RUN NUMBER
DD  .FT                10135 : DEPTH DRILLER
DL  .FT                10139 : DEPTH LOGGER
BLI .FT                10138 : BOTTOM LOG INTERVAL
TLI .FT                 1010 : TOP LOG INTERVAL
CBD .FT                 1009 : CASING BOTTOM DRILLER
CBL .FT                 1010 : CASING BOTTOM LOGGER
BS  .IN                    9 : BIT SIZE
BSD .FT                10135 : BIT SIZE AT DEPTH
DFT .                    GEL : DRILLING FLUID TYPE
DFD .                     10 : DRILLING FLUID DENSITY
DFV .                    190 : DRILLING FLUID VISCOSITY
DFPH.                    8.5 : DRILLING FLUID PH
DFL .                    7.2 : DRILLING FLUID LOSS
RMS .OHMM                2.6 : RESISTIVITY MUD SAMPLE
MST .DEGF                 62 : MUD SAMPLE TEMPERATURE
RMF .OHMM                  2 : RESISTIVITY MUD FILTRATE SAMPLE
MFST.DEGF                 68 : MUD FILTRATE SAMPLE TEMPERATURE
RMC .OHMM               3.04 : RESISTIVITY MUD CAKE
MCST.DEGF                 68 : MUD CAKE SAMPLE TEMPERATURE
RMB .OHMM              0.815 : RESISTIVITY MUD AT BHT
TCS .HRS                   4 : TIME CIRCULATED STOPPED
LUN .                   1534 : LOGGING UNIT NUMBER
LUL .                    EDM : LOGGING UNIT LOCATION
ENGI.                SKILTON : RECORDING ENGINEER
WITN.                   COLE : WITNESSED BY
CLNT.                A2DTECH : CLIENT CODE
ORIG.            2" 5" PRINT : ORIGIN OF DATA
UWI .       100161906819W500 : UNIQUE WELL ID
DICO. A2D Technologies, Inc. : DIGITIZING COMPANY
~Other -----------------------------------------------------
~ASCII -----------------------------------------------------
# ...
 8400.00000   15.04780  236.15210  236.15210    4.23460   83.01410   83.01410   58.48360   58.48360    4.18680   15.04780    5.47770  -73.57070  -32.74220    5.47770
 8450.00000   10.35440   93.73480   97.27370   10.28050   64.01810   64.01810   51.22070   51.22070   10.28050   10.35440   15.21720  -69.17790  -30.45240   15.21720
 8500.00000    9.31410   66.33990   66.79490   14.97120   61.38980   61.38980   45.83270   45.83270   14.97120    9.31410   19.38250  -64.72610  -28.08990   19.38250
 8550.00000    9.54370   92.42050   96.61090   10.35080   67.46960   67.46960   57.61090   57.61090   10.35080    9.54370   15.41070  -65.72210  -31.17510   15.41070
 8600.00000   10.49680  109.41540  115.55180    8.65410   68.12570   68.12570   58.39460   58.39460    8.65410   10.49680   12.96360  -57.93870  -25.49470   12.96360
 8650.00000    9.48680   92.12360   97.45920   10.26070   65.84130   65.84130   66.66950   66.66950   10.26070    9.48680   17.64720  -42.15540  -11.80060   17.64720
 8700.00000   11.14620  107.48070  115.12530    8.68810   77.29940   77.29940   58.84530   58.84530    8.68810   11.14620   13.32530  -59.95140  -31.69960   13.32530
 8750.00000   13.82130  127.12590  135.30880    7.39050   71.27930   71.27930   55.54990   55.54990    7.39050   13.82130   10.89970  -53.33080  -27.16830   10.89970
 8800.00000    9.42590  101.79450  109.42000    9.13910   76.47330   76.47330   70.09360   70.09360    9.13910    9.42590   15.07040  -43.33730  -19.26400   15.07040
 8850.00000   11.34030  152.67200  157.08210    6.36870   75.96510   75.96510   61.89170   61.89170    6.36870   11.34030    9.10390  -66.49400  -43.15370    9.10390
 8900.00000   12.72280  158.47150  157.26480    6.35870   70.11820   70.11820   71.49150   71.49150    6.35870   12.72280   10.02720  -73.15510  -49.90180   10.02720
 8950.00000    9.23980   70.39060   72.47030   13.79880   62.90080   62.90080   45.91690   45.91690   13.79880    9.23980   20.99750  -75.61850  -52.45280   20.99750
 9000.00000   12.91770  115.14890  119.07740    8.39790   77.87270   77.87270   66.06840   66.06840    8.39790   12.91770   14.52320  -84.93100  -61.85220   14.52320
 9050.00000   12.19030   86.55300   87.61780   11.41320   65.18000   65.18000   43.41300   43.41300   11.41320   12.19030   16.27490  -79.11200  -56.12020   16.27490
 9100.00000    9.14710   14.59550   18.54080   54.12450   53.51290   53.51290   30.36770   30.36770   54.12450    9.14710   49.87900  -55.06120  -32.15690   49.87900
 9150.00000    9.03670    6.75780    8.43970  118.48810   50.89170   50.89170   29.26090   29.26090  118.48810    9.03670  105.96230  -84.25700  -61.43970  105.96230
 9200.00000    9.25270    6.37710    1.77970  561.90630   48.65000   48.65000   12.71720   12.71720  561.90630    9.25270  186.71580 -153.20030 -130.47050  186.71580
 9250.00000    9.01200    0.96960    1.77790  562.45960   52.79630   52.79630   12.68900   12.68900  562.45960    9.01200  295.48900 -208.22920 -185.58640  295.48900
 9300.00000    9.27440   15.50070   20.71320   48.27850   51.94540   51.94540   15.17040   15.17040   48.27850    9.27440   68.24300 -185.41550 -162.85970   68.24300
 9350.00000    9.05820    4.80150    1.77830  562.33310   49.21720   49.21720   17.36140   17.36140  562.33310    9.05820  243.15960 -153.34240 -130.87420  243.15960
 9400.00000    9.24270    1.09290    2.49300  401.11980   52.19890   52.19890   23.05060   23.05060  401.11980    9.24270  151.67030  -75.14850  -52.76720  151.67030
 9450.00000    7.57540 2055.85510 2055.85510    0.48660   69.03550   69.03550   77.33050   77.33050    1.30620    7.57540    8.93560 -228.58110 -206.28730    8.93560
 9500.00000    9.06990  114.38040  125.05000    7.99680   60.79180   60.79180  100.17170  100.17170    7.99680    9.06990   14.93550  -81.61440  -58.92620   14.93550
 9550.00000    7.75920  594.58470  594.58470    1.68180   62.69670   62.69670   37.41170   37.41170    2.46370    7.75920   21.20310 -207.24590 -174.19100   21.20310
 9600.00000    8.78390   80.10070   80.83630   12.41020   53.92200   53.92200   31.06870   31.06870   12.41020    8.78390   19.84880 -133.04390  -89.55420   19.84880
 9650.00000    7.50820   59.98720   61.87510   16.16160   53.05830   53.05830   24.26640   24.26640   16.16160    7.50820   54.13850 -218.41790 -164.56160   54.13850
 9700.00000    8.30450   27.56450   31.35480   31.90620   57.86870   57.86870   21.39720   21.39720   31.90620    8.30450   58.26910 -148.72650  -84.43530   58.26910
 9750.00000    6.84640 2633.31300 2633.31300    0.37970   79.29340   79.29340   33.55130   33.55130    1.09990    6.84640    2.63490 -221.08950 -146.43170    2.63490
 9800.00000    6.87080  876.01590  876.01590    1.14150   72.69330   72.69330   28.00110   28.00110    2.05500    6.87080    8.52320 -219.38290 -134.35850    8.52320
 9850.00000    7.66420 2654.73910 2654.73910    0.37800   75.52150   75.52150   21.02910   21.02910    1.06360    7.66420    2.81050 -196.51300 -101.05370    2.81050
 9900.00000    8.07980  111.59740  126.63520    7.89670   64.98820   64.98820   52.82880   52.82880    7.89670    8.07980   25.39780 -184.07530  -78.75240   25.39780
 9950.00000    8.42420  547.28420  547.28420    1.82890   67.98450   67.98450  110.48820  110.48820    2.42430    8.42420   12.07370 -209.93100  -95.49990   12.07370
 10000.00000    8.99110  175.80570  186.01190    5.37600   70.71300   70.71300  107.29420  107.29420    5.37600    8.99110    8.42830 -173.31230  -49.83270    8.42830
 10050.00000    8.58170   57.16250   60.94250   16.40890   65.33790   65.33790   90.74110   90.74110   16.40890    8.58170   21.22650 -215.80570  -83.27760   21.22650
 10100.00000    7.77670 3184.31150 3184.31150    0.31410   80.65500   80.65500   43.94660   43.94660    1.09450    7.77670    1.68800 -249.27080 -107.63460    1.68800
