~Version ---------------------------------------------------
VERS.      2.0 : CWLS log ASCII Standard -VERSION 2.0
WRAP.       NO : One line per depth step
CREA. 12/29/17 : LAS Creation Date
~Well ------------------------------------------------------
STRT.FT                     1350.0 : START DEPTH
STOP.FT                    12700.0 : STOP DEPTH
STEP.FT                   50.00000 : STEP LENGTH
NULL.                      -999.25 : NULL VALUE
COMP. TRANS-PRAIRIES PIPELINES LTD : COMPANY
WELL. TPPL DEEP VALLEY 11-21-64-25 : WELL
FLD .                              : FIELD
LOC .                              : LOCATION
CTRY.                       CANADA : COUNTRY
SRVC.                 Schlumberger : SERVICE COMPANY
DATE.                  04-Jan-1974 : LOGDATE
PROV.                      Alberta : PROVINCE
UWI .             100112106425W500 : UNIQUE WELL ID
SLAT.WGS84                54.55513 : SURFACE LATITUDE
SLON.WGS84               -117.7228 : SURFACE LONGITUDE
~Curve Information -----------------------------------------
DEPT    .FT    : Depth Curve
CALDED  .IN    : CALIPER FROM DENSITY LOG [ADJ. TO RESISTIVITY LOG]
CALSED  .IN    : CALIPER FROM SONIC LOG [ADJ. TO RESISTIVITY LOG]
CALWS   .IN    : CALIPER [CALSED]
CILDED  .MMHO  : CONDUCTIVITY FROM RESISTIVITY LOG
CONDWS  .MMHO  : CONDUCTIVITY [1000/DRESWS]
DCORWS  .G/C3  : DENSITY CORRECTION [DRHOED]
DENWS   .G/C3  : FORMATION BULK DENSITY [RHOBED]
DPHILSED.V/V   : DENSITY POROSITY LIMESTONE [M=2.71 F=1.00] FROM DENSITY LOG [ADJ. TO RHOBED/RESISTIVITY LOG]
DPHISSED.V/V   : DENSITY POROSITY SANDSTONE [M=2.65 F=1.00] FROM DENSITY LOG [ADJ. TO RHOBED/RESISTIVITY LOG]
DPOLSWS .V/V   : DENSITY POROSITY LIMESTONE [CALC FROM DENWS,M=2.71 F=1.00]
DRESWS  .OHMM  : DEEP RESISTIVITY [1000/CILDED IF ILDED<=5, ILDED]
DRHOED  .G/C3  : DENSITY CORRECTION FROM DENSITY LOG [ADJ. TO RESISTIVITY LOG]
DTED    .US/F  : DELTA T FROM SONIC LOG [ADJ. TO RESISTIVITY LOG]
DTWS    .US/F  : COMPRESSIONAL SONIC [DTED]
GRDED   .GAPI  : GAMMA RAY FROM DENSITY LOG [ADJ. TO RESISTIVITY LOG]
GRSED   .GAPI  : GAMMA RAY FROM SONIC LOG [ADJ. TO RESISTIVITY LOG]
GRWS    .GAPI  : GAMMA RAY [GRSED SPL. TO GRDED @ 7211']
ILDED   .OHMM  : DEEP INDUCTION FROM RESISTIVITY LOG
NPHILSED.V/V   : NEUTRON POROSITY LIMESTONE FROM DENSITY LOG [ADJ. TO RHOBED/RESISTIVITY LOG]
NPHISSED.V/V   : NEUTRON POROSITY SANDSTONE FROM DENSITY LOG [ADJ. TO RHOBED/RESISTIVITY LOG]
NPOLSWS .V/V   : NEUTRON POROSITY LIMESTONE [NPHISSED CONVERTED TO LIMESTONE MATRIX, SPL. TO NPHILSED @ 7065']
RHOBED  .G/C3  : BULK DENSITY FROM DENSITY LOG [ADJ. TO RESISTIVITY LOG]
SNED    .OHMM  : SHORT NORMAL FROM RESISTIVITY LOG
SPRED   .MV    : SPONTANEOUS POTENTIAL FROM RESISTIVITY LOG
SPWS    .MV    : SPONATENOUS POTENTIAL [BASELINE 0 MV, SPRED]
SRESWS  .OHMM  : SHALLOW RESISTIVITY [SNED]
~Params ----------------------------------------------------
PD  .                     GL : PERMANENT DATUM
EPD .FT                 2726 : ELEVATION PERMANENT DATUM
LMF .                     KB : LOG MEASURED FROM
DAPD.FT                   22 : FEET ABOVE PERMANENT DATUM
EKB .FT                 2748 : KELLY BUSHING
EDF .FT                 2726 : DRILLING FLOOR
DATE.               01/04/74 : RUN DATE
RUN .                      3 : RUN NUMBER
DD  .FT                12720 : DEPTH DRILLER
DL  .FT                12719 : DEPTH LOGGER
BLI .FT                12713 : BOTTOM LOG INTERVAL
TLI .FT                11088 : TOP LOG INTERVAL
CBD .FT                 1313 : CASING BOTTOM DRILLER
CBL .FT                 1314 : CASING BOTTOM LOGGER
BS  .IN                 8.75 : BIT SIZE
BSD .FT                12720 : BIT SIZE AT DEPTH
DFT .               GEL CHEM : DRILLING FLUID TYPE
DFD .                    9.6 : DRILLING FLUID DENSITY
DFV .                     97 : DRILLING FLUID VISCOSITY
DFL .                   10.9 : DRILLING FLUID LOSS
RMS .OHMM               2.08 : RESISTIVITY MUD SAMPLE
MST .DEGF                 50 : MUD SAMPLE TEMPERATURE
RMF .OHMM               1.51 : RESISTIVITY MUD FILTRATE SAMPLE
MFST.DEGF                 58 : MUD FILTRATE SAMPLE TEMPERATURE
RMC .OHMM               2.27 : RESISTIVITY MUD CAKE
MCST.DEGF                 52 : MUD CAKE SAMPLE TEMPERATURE
TCS .HRS                 2.5 : TIME CIRCULATED STOPPED
LUN .                   7691 : LOGGING UNIT NUMBER
LUL .                    EDM : LOGGING UNIT LOCATION
ENGI.                  LEITH : RECORDING ENGINEER
WITN.        SLOAN MCDONNELL : WITNESSED BY
CLNT.                A2DTECH : CLIENT CODE
ORIG.            2" 5" PRINT : ORIGIN OF DATA
UWI .       100112106425W500 : UNIQUE WELL ID
DICO. A2D Technologies, Inc. : DIGITIZING COMPANY
~Other -----------------------------------------------------
CNFD-IEL-BCS LOG RAN.
RUN#2: FDC ONLY TO 11088' & CNL ONLY TO 11650'
~ASCII -----------------------------------------------------
# ...
 8100.00000    8.82230    8.96890    8.96890    9.90290    4.11670    0.02220    2.85110   -0.07670    -999.25   -0.08250  242.91370    0.02220   48.68830   48.68830   35.61460    -999.25   35.61460  242.91370    -999.25    -999.25    -999.25    2.85110  121.83870    3.06860  -42.46500  121.83870
 8150.00000    8.69550    8.92190    8.92190    4.89930    2.01250    0.04940    2.84560   -0.08290    -999.25   -0.07930  496.89450    0.04940   47.29400   47.29400   21.31790    -999.25   21.31790  496.89450    -999.25    -999.25    -999.25    2.84560  284.13880  -52.60550 -100.26050  284.13880
 8200.00000    8.59460    8.67940    8.67940  107.74370  111.15060    0.05880    2.67580    0.02510    -999.25    0.02000    8.99680    0.05880   57.09520   57.09520   26.27370    -999.25   26.27370    8.99680    -999.25    -999.25    -999.25    2.67580   77.05050  -63.13660 -112.92700   77.05050
 8250.00000    8.90140    8.94520    8.94520   27.93770   23.04150    0.05620    2.81210   -0.05780    -999.25   -0.05970   43.40000    0.05620   52.41490   52.41490   14.74330    -999.25   14.74330   43.40000    -999.25    -999.25    -999.25    2.81210   83.22520  -45.38110  -97.29300   83.22520
 8300.00000    9.96090    9.31680    9.31680   49.55920   49.67120    0.26200    2.69350    0.01210    -999.25    0.00960   20.13240    0.26200   55.43240   55.43240   25.29680    -999.25   25.29680   20.13240    -999.25    -999.25    -999.25    2.69350   24.39450   -4.80500  -58.83830   24.39450
 8350.00000    8.82960    9.17330    9.17330  370.80230  370.80230    0.03870    2.65510    0.02990    -999.25    0.03210    2.69690    0.03870   55.72620   55.72620   22.29120    -999.25   22.29120    3.21010    -999.25    -999.25    -999.25    2.65510   44.11890  -41.23120  -97.39990   44.11890
 8400.00000    8.85920    8.99250    8.99250   35.51690   27.87470    0.07820    2.77460   -0.04390    -999.25   -0.03780   35.87480    0.07820   48.84010   48.84010   15.18440    -999.25   15.18440   35.87480    -999.25    -999.25    -999.25    2.77460   66.45390  -33.11170  -91.40180   66.45390
 8450.00000   10.62580    9.35690    9.35690    8.23720    2.01250    0.23160    2.46950    0.14650    -999.25    0.14060  496.89450    0.23160   49.38800   49.38800   13.35170    -999.25   13.35170  496.89450    -999.25    -999.25    -999.25    2.46950  183.32750   -5.28210  -65.70760  183.32750
 8500.00000    9.02330    8.85970    8.85970   28.33890   18.00420    0.00370    2.67300    0.06540    -999.25    0.02160   55.54250    0.00370   51.06150   51.06150   12.51800    -999.25   12.51800   55.54250    -999.25    -999.25    -999.25    2.67300   54.05900   43.44260  -19.10440   54.05900
 8550.00000    8.87610    8.86900    8.86900   34.13970   20.45580    0.03350    2.78050   -0.02960    -999.25   -0.04120   48.88600    0.03350   50.48140   50.48140   27.09070    -999.25   27.09070   48.88600    -999.25    -999.25    -999.25    2.78050   49.81410   17.75240  -47.24270   49.81410
 8600.00000    9.41840    9.19680    9.19680   63.14940   62.75850    0.20350    2.74150   -0.02350    -999.25   -0.01840   15.93410    0.20350   56.93390   56.93390   27.37490    -999.25   27.37490   15.93410    -999.25    -999.25    -999.25    2.74150   38.72330  -28.99670  -96.50580   38.72330
 8650.00000    9.10930    8.95470    8.95470  171.57360  160.41070    0.04110    2.76300   -0.04060    -999.25   -0.03100    6.23400    0.04110   57.31810   57.31810   58.69180    -999.25   58.69180    6.23400    -999.25    -999.25    -999.25    2.76300   19.44570  -14.64520  -84.65200   19.44570
 8700.00000    9.11430    9.10490    9.10490   68.51850   64.19140    0.01910    2.80260   -0.06770    -999.25   -0.05420   15.57840    0.01910   56.29270   56.29270   40.35410    -999.25   40.35410   15.57840    -999.25    -999.25    -999.25    2.80260   34.73780   13.94570  -58.57510   34.73780
 8750.00000    9.97360    9.74540    9.74540   10.29910    3.18990    0.26330    2.60480    0.04300    -999.25    0.06150  313.49000    0.26330   51.25580   51.25580   10.16770    -999.25   10.16770  313.49000    -999.25    -999.25    -999.25    2.60480  204.32880  -35.81050 -110.82890  204.32880
 8800.00000    8.72230    8.65880    8.65880   38.56360   28.18120    0.02460    2.65900    0.04590    -999.25    0.02980   35.48470    0.02460   54.53770   54.53770   12.39170    -999.25   12.39170   35.48470    -999.25    -999.25    -999.25    2.65900   72.47860  -74.85050 -152.36650   72.47860
 8850.00000    9.56610    9.22680    9.22680    7.00680    2.01250    0.00940    2.72420   -0.00620    -999.25   -0.00830  496.89450    0.00940   49.70940   49.70940   12.21620    -999.25   12.21620  496.89450    -999.25    -999.25    -999.25    2.72420  177.14860  -65.52710 -145.55720  177.14860
 8900.00000    9.34210    9.30650    9.30650   55.85780   51.65530    0.03010    2.78600   -0.04380    -999.25   -0.04440   19.35910    0.03010   59.10370   59.10370   71.52590    -999.25   71.52590   19.35910    -999.25    -999.25    -999.25    2.78600   27.04350   23.87560  -58.65210   27.04350
 8950.00000    9.25030    9.23100    9.23100  217.11230  217.11230    0.06600    2.78230   -0.04370    -999.25   -0.04230    4.60590    0.06600   64.83450   64.83450   69.80520    -999.25   69.80520    4.76960    -999.25    -999.25    -999.25    2.78230    7.70920   29.14530  -55.89650    7.70920
 9000.00000    9.18450    9.01180    9.01180   19.45200   10.40600    0.02230    2.76520   -0.03470    -999.25   -0.03230   96.09840    0.02230   50.91930   50.91930   44.56220    -999.25   44.56220   96.09840    -999.25    -999.25    -999.25    2.76520   65.31610   59.10520  -28.43420   65.31610
 9050.00000    9.23430    9.12890    9.12890   38.70580   34.32630    0.00650    2.72690   -0.00800    -999.25   -0.00990   29.13220    0.00650   56.05120   56.05120   41.21610    -999.25   41.21610   29.13220    -999.25    -999.25    -999.25    2.72690   38.37760   56.04980  -33.98720   38.37760
 9100.00000    9.57170    9.34320    9.34320   40.36910   36.66790    0.14850    2.77410   -0.04280    -999.25   -0.03750   27.27180    0.14850   56.82290   56.82290   40.13140    -999.25   40.13140   27.27180    -999.25    -999.25    -999.25    2.77410   34.63900   56.76950  -35.78150   34.63900
 9150.00000    9.21430    9.08960    9.08960   57.71370   48.01210    0.01620    2.71280    0.00250    -999.25   -0.00160   20.82810    0.01620   60.57470   60.57470   54.85680    -999.25   54.85680   20.82810    -999.25    -999.25    -999.25    2.71280   26.94200   74.68580  -20.36290   26.94200
 9200.00000    9.66690    9.19700    9.19700    8.82590    4.11800    0.07660    2.71060   -0.00060    -999.25   -0.00040  242.83770    0.07660   53.15660   53.15660   11.58480    -999.25   11.58480  242.83770    -999.25    -999.25    -999.25    2.71060  121.98470   37.01720  -60.54550  121.98470
 9250.00000    8.83310    8.74860    8.74860    7.77860    2.39330    0.03390    2.75520   -0.02740    -999.25   -0.02640  417.83570    0.03390   52.60770   52.60770   29.33710    -999.25   29.33710  417.83570    -999.25    -999.25    -999.25    2.75520  127.97160   67.43100  -32.62930  127.97160
 9300.00000    8.90870    8.88080    8.88080   13.38890    7.80640    0.00780    2.72010   -0.00560    -999.25   -0.00590  128.09970    0.00780   53.76930   53.76930   31.51000    -999.25   31.51000  128.09970    -999.25    -999.25    -999.25    2.72010   80.84320   84.74930  -17.80860   80.84320
 9350.00000    8.97380    8.88150    8.88150   35.23160   29.51030    0.05980    2.73480   -0.01140    -999.25   -0.01450   33.88650    0.05980   58.05300   58.05300   52.27740    -999.25   52.27740   33.88650    -999.25    -999.25    -999.25    2.73480   37.22050   99.51010   -5.56190   37.22050
 9400.00000    8.97980    8.99890    8.99890   55.69840   49.66940    0.01310    2.73780   -0.01490    -999.25   -0.01630   20.13310    0.01310   61.71840   61.71840   63.48860    -999.25   63.48860   20.13310    -999.25    -999.25    -999.25    2.73780   25.39820  100.81250   -5.51340   25.39820
