~Version ---------------------------------------------------
VERS.      2.0 : CWLS log ASCII Standard -VERSION 2.0
WRAP.       NO : One line per depth step
CREA. 08/02/17 : LAS Creation Date
~Well ------------------------------------------------------
STRT.FT                     950.0 : START DEPTH
STOP.FT                   10050.0 : STOP DEPTH
STEP.FT                  50.00000 : STEP LENGTH
NULL.                     -999.25 : NULL VALUE
COMP. SHELL CANADA RESOURCES LTD. : COMPANY
WELL.     ISH MAHASKA 11-32-56-13 : WELL
FLD .                             : FIELD
LOC .                             : LOCATION
CTRY.                      CANADA : COUNTRY
SRVC.                Schlumberger : SERVICE COMPANY
DATE.                 17-Nov-1977 : LOGDATE
PROV.                     Alberta : PROVINCE
UWI .            100113205613W500 : UNIQUE WELL ID
SLAT.WGS84               53.88366 : SURFACE LATITUDE
SLON.WGS84              -115.9002 : SURFACE LONGITUDE
~Curve Information -----------------------------------------
DEPT    .FT    : Depth Curve
CALDED  .IN    : CALIPER FROM DENSITY LOG [ADJ. TO GRRED]
CALSED  .IN    : CALIPER FROM SONIC LOG [ADJ. TO GRRED]
CALWS   .IN    : CALIPER [CALSED]
CONDWS  .MMHO  : CONDUCTIVITY [1000/DRESWS]
DCORWS  .G/C3  : DENSITY CORRECTION [DRHOED]
DENWS   .G/C3  : FORMATION BULK DENSITY [RHOBED]
DPHILSED.V/V   : DENSITY POROSITY LIME [M=2.71, F=1.00] FROM DENSITY LOG [ADJ. TO GRRED]
DPHISSED.V/V   : DENSITY POROSITY SAND [M=2.65, F=1.00] FROM DENSITY LOG [ADJ. TO GRRED]
DPOLSWS .V/V   : DENSITY POROSITY LIME [CALC FROM DENWS M=2.71, F=1.00]
DRESWS  .OHMM  : DEEP RESISTIVITY [LLDED]
DRHOED  .G/C3  : BULK DENSITY CORRECTION FROM DENSITY LOG [ADJ. TO GRRED]
DTED    .US/F  : DELTA-T FROM SONIC LOG [ADJ. TO GRRED]
DTWS    .US/F  : COMPRESSIONAL SONIC [DTED]
GRDED   .GAPI  : GAMMA RAY FROM DENSITY LOG [ADJ. TO GRRED]
GRRED   .GAPI  : GAMMA RAY FROM RESISTIVITY LOG
GRSED   .GAPI  : GAMMA RAY FROM SONIC LOG [ADJ. TO GRRED]
GRWS    .GAPI  : GAMMA RAY [GRSED]
LLDED   .OHMM  : LATEROLOG DEEP RESISTIVITY FROM RESISTIVITY LOG
LLSED   .OHMM  : LATEROLOG SHALLOW RESISTIVITY FROM RESISTIVITY LOG
MLLED   .OHMM  : MICRO FOCUSED LATERO RESISTIVITY FROM RESISTIVITY LOG
NPHILSED.V/V   : NEUTRON POROSITY LIME FROM DENSITY LOG [ADJ. TO GRRED]
NPHISSED.V/V   : NEUTRON POROSITY SAND FROM DENSITY LOG [ADJ. TO GRRED]
NPOLSWS .V/V   : NEUTRON POROSITY LIME [SS MATRIX CONVERTS TO LS SPL. TO LS @ 6450']
RHOBED  .G/C3  : BULK DENSITY FROM DENSITY LOG [ADJ. TO GRRED]
SRESWS  .OHMM  : SHALLOW RESISTIVITY [LLSED]
~Params ----------------------------------------------------
PD  .                     GL : PERMANENT DATUM
EPD .FT               2734.7 : ELEVATION PERMANENT DATUM
LMF .                     KB : LOG MEASURED FROM
DAPD.FT                   13 : FEET ABOVE PERMANENT DATUM
DMF .                     KB : DRILLING MEASURED FROM
EKB .FT               2747.7 : KELLY BUSHING
EGL .FT               2734.7 : GROUND LEVEL
DATE.               11/17/77 : RUN DATE
RUN .                      1 : RUN NUMBER
DD  .FT                10070 : DEPTH DRILLER
DL  .FT                10075 : DEPTH LOGGER
BLI .FT                10074 : BOTTOM LOG INTERVAL
TLI .FT                 4250 : TOP LOG INTERVAL
CBD .FT                 1066 : CASING BOTTOM DRILLER
BS  .IN                 8.75 : BIT SIZE
BSD .FT                10070 : BIT SIZE AT DEPTH
DFT .                    KCL : DRILLING FLUID TYPE
DFD .                    9.3 : DRILLING FLUID DENSITY
DFV .                     85 : DRILLING FLUID VISCOSITY
DFPH.                   10.5 : DRILLING FLUID PH
RMS .OHMM               0.33 : RESISTIVITY MUD SAMPLE
MST .DEGF                 64 : MUD SAMPLE TEMPERATURE
RMF .OHMM               0.47 : RESISTIVITY MUD FILTRATE SAMPLE
MFST.DEGF                 61 : MUD FILTRATE SAMPLE TEMPERATURE
TCS .HRS                 700 : TIME CIRCULATED STOPPED
LUN .                   7730 : LOGGING UNIT NUMBER
LUL .                    EDM : LOGGING UNIT LOCATION
ENGI.                PERKINS : RECORDING ENGINEER
WITN.                  FUCHS : WITNESSED BY
CLNT.                A2DTECH : CLIENT CODE
ORIG.               5" PRINT : ORIGIN OF DATA
UWI .       100113205613W500 : UNIQUE WELL ID
DICO. A2D Technologies, Inc. : DIGITIZING COMPANY
~Other -----------------------------------------------------
~ASCII -----------------------------------------------------
# ...
 9350.00000    9.78810    9.36950    9.36950   60.15510    0.10270    2.60090    0.09830    -999.25    0.06380   16.62370    0.10270   71.17420   71.17420  118.40000  116.49860  108.16740  108.16740   16.62370   17.06700   16.78940    0.19630    -999.25    0.19630    2.60090   17.06700
 9400.00000    9.03960    9.00400    9.00400   26.29780   -0.00340    2.58630    0.08020    -999.25    0.07230   38.02600   -0.00340   71.42190   71.42190  125.10840  126.73720  121.74010  121.74010   38.02600   46.09420   52.39390    0.17910    -999.25    0.17910    2.58630   46.09420
 9450.00000    9.08630    9.11250    9.11250    4.53730    0.00520    2.69000    0.01980    -999.25    0.01170  220.39540    0.00520   51.86250   51.86250   33.51010   33.63760   30.29670   30.29670  220.39540  190.40510  151.53810    0.01960    -999.25    0.01960    2.69000  190.40510
 9500.00000    9.16820    9.10550    9.10550    7.12920    0.02160    2.68170    0.00920    -999.25    0.01650  140.26810    0.02160   49.75130   49.75130   40.44890   35.38820   30.92310   30.92310  140.26810  119.89510  413.50480    0.04580    -999.25    0.04580    2.68170  119.89510
 9550.00000    9.26040    9.06640    9.06640    2.21650    0.00990    2.66250    0.03110    -999.25    0.02780  451.16560    0.00990   48.55080   48.55080   16.54200   18.56010   12.36020   12.36020  451.16560  230.82820  333.26260    0.00070    -999.25    0.00070    2.66250  230.82820
 9600.00000   10.17250    9.35880    9.35880    0.11020    0.02450    2.67250    0.02800    -999.25    0.02190 9078.23930    0.02450   47.79370   47.79370   13.10830   12.35490   14.42910   14.42910 9078.23930  291.39800  121.76140   -0.00280    -999.25   -0.00280    2.67250  291.39800
 9650.00000    9.23550    9.01970    9.01970    4.98030   -0.00560    2.63650    0.05310    -999.25    0.04300  200.79140   -0.00560   48.94650   48.94650   10.34470   11.70550   10.39170   10.39170  200.79140  131.67290  478.96560    0.00230    -999.25    0.00230    2.63650  131.67290
 9700.00000   11.34310    9.48160    9.48160    0.22650    0.14080    2.48010    0.12500    -999.25    0.13440 4414.76610    0.14080   49.38350   49.38350   15.38770   15.81990   17.48050   17.48050 4414.76610  460.96930    3.99140    0.00370    -999.25    0.00370    2.48010  460.96930
 9750.00000   10.07040    9.21460    9.21460    1.60700    0.16630    2.65670    0.01300    -999.25    0.03120  622.29130    0.16630   49.48870   49.48870   14.67570   14.35610   13.14200   13.14200  622.29130  268.16850    4.01090    0.00290    -999.25    0.00290    2.65670  268.16850
 9800.00000   12.85650    9.39100    9.39100    0.11700    0.12830    2.38050    0.15890    -999.25    0.19270 8545.75200    0.12830   50.98600   50.98600   23.37710   21.52650   22.58590   22.58590 8545.75200  260.01390    2.56560    0.01520    -999.25    0.01520    2.38050  260.01390
 9850.00000    8.79020    9.05630    9.05630   23.67420    0.00620    2.61150    0.06440    -999.25    0.05760   42.24010    0.00620   66.42850   66.42850  150.30600  152.06580  142.02350  142.02350   42.24010   45.48130  120.32010    0.15310    -999.25    0.15310    2.61150   45.48130
 9900.00000    8.86340    8.95300    8.95300   36.68970   -0.00740    2.66280    0.01150    -999.25    0.02760   27.25560   -0.00740   66.33360   66.33360  156.67410  144.59180  137.61870  137.61870   27.25560   34.01840   41.38500    0.17520    -999.25    0.17520    2.66280   34.01840
 9950.00000    8.72200    8.80480    8.80480   22.80270   -0.01040    2.63080    0.04770    -999.25    0.04630   43.85450   -0.01040   61.82490   61.82490  190.70870  172.61040  169.29780  169.29780   43.85450   47.30790   45.52970    0.18950    -999.25    0.18950    2.63080   47.30790
 10000.00000    8.44860    8.69990    8.69990  135.74780    0.05640    2.53990    0.11390    -999.25    0.09950    7.36660    0.05640   60.60580   60.60580   45.40080   35.10340   36.88940   36.88940    7.36660    9.39730   41.60880    0.06670    -999.25    0.06670    2.53990    9.39730
 10050.00000    8.77430    8.76310    8.76310   70.14340    0.01910    2.69590    0.01360    -999.25    0.00820   14.25650    0.01910   53.96500   53.96500   23.50620   38.16550   38.66930   38.66930   14.25650   13.09980   13.34420    0.11270    -999.25    0.11270    2.69590   13.09980
