~Version ---------------------------------------------------
VERS.      2.0 : CWLS log ASCII Standard -VERSION 2.0
WRAP.       NO : One line per depth step
CREA. 10/12/17 : LAS Creation Date
~Well ------------------------------------------------------
STRT.FT                      1050.0 : START DEPTH
STOP.FT                      9550.0 : STOP DEPTH
STEP.FT                    50.00000 : STEP LENGTH
NULL.                       -999.25 : NULL VALUE
COMP. GOLDEN EAGLE REFINING COMPANY : COMPANY
WELL. GREC GOA SAKWATAMAU 6-1-63-15 : WELL
FLD .                            WC : FIELD
LOC .                               : LOCATION
CTRY.                        CANADA : COUNTRY
SRVC.                  Schlumberger : SERVICE COMPANY
DATE.                   08-Dec-1970 : LOGDATE
PROV.                       Alberta : PROVINCE
UWI .              100060106315W500 : UNIQUE WELL ID
SLAT.WGS84                 54.41837 : SURFACE LATITUDE
SLON.WGS84                -116.1336 : SURFACE LONGITUDE
~Curve Information -----------------------------------------
DEPT  .FT    : Depth Curve
CALSED.IN    : CALIPER FROM SONIC LOG [ADJ. TO RESISTIVITY LOG]
CALWS .IN    : CALIPER [CALSED]
CONDWS.MMHO  : CONDUCTIVITY [1000/DRESWS]
DRESWS.OHMM  : DEEP RESISTIVITY [ILDED]
DTED  .US/F  : DELTA TIME FROM SONIC LOG [ADJ. TO RESISTIVITY LOG]
DTWS  .US/F  : COMPRESSIONAL SONIC [DTED]
GRSED .GAPI  : GAMMA RAY FROM SONIC LOG [ADJ. TO RESISTIVITY LOG]
GRWS  .GAPI  : GAMMA RAY [GRSED]
ILDED .OHMM  : DEEP INDUCTION FROM RESISTIVITY LOG
ILMED .OHMM  : MEDIUM INDUCTION FROM RESISTIVITY LOG
LL8ED .OHMM  : LATEROLOG 8 FROM  RESISTIVITY LOG
MRESWS.OHMM  : MEDIUM RESISTIVITY [ILMED]
SPRED .MV    : SPONTANEOUS POTENTIAL FROM RESISTIVITY LOG
SPWS  .MV    : SPONTANEOUS POTENTIAL [BASELINE 0 MV. SPRED]
SRESWS.OHMM  : SHALLOW RESISTIVITY [LL8ED]
~Params ----------------------------------------------------
PD  .                     GL : PERMANENT DATUM
EPD .FT                 2985 : ELEVATION PERMANENT DATUM
LMF .                     KB : LOG MEASURED FROM
DAPD.FT                   14 : FEET ABOVE PERMANENT DATUM
EKB .FT                 2999 : KELLY BUSHING
EGL .FT                 2985 : GROUND LEVEL
DATE.               12/08/70 : RUN DATE
RUN .                      1 : RUN NUMBER
DD  .FT                 9566 : DEPTH DRILLER
DL  .FT                 9567 : DEPTH LOGGER
BLI .FT                 9559 : BOTTOM LOG INTERVAL
TLI .FT                 1035 : TOP LOG INTERVAL
CBD .FT                 1035 : CASING BOTTOM DRILLER
CBL .FT                 1035 : CASING BOTTOM LOGGER
BS  .IN                7.875 : BIT SIZE
BSD .FT                 9566 : BIT SIZE AT DEPTH
DFT .                    GEL : DRILLING FLUID TYPE
DFD .                      9 : DRILLING FLUID DENSITY
DFV .                    115 : DRILLING FLUID VISCOSITY
DFPH.                     10 : DRILLING FLUID PH
DFL .                   11.5 : DRILLING FLUID LOSS
MSS .               FLOWLINE : MUD SAMPLE SOURCE
RMS .OHMM               6.04 : RESISTIVITY MUD SAMPLE
MST .DEGF                 70 : MUD SAMPLE TEMPERATURE
RMF .OHMM               5.75 : RESISTIVITY MUD FILTRATE SAMPLE
MFST.DEGF                 62 : MUD FILTRATE SAMPLE TEMPERATURE
RMB .OHMM               2.15 : RESISTIVITY MUD AT BHT
TCS .HRS                   3 : TIME CIRCULATED STOPPED
LUN .                   7002 : LOGGING UNIT NUMBER
LUL .                     RD : LOGGING UNIT LOCATION
ENGI.                 TALBOT : RECORDING ENGINEER
WITN.               DUCHARME : WITNESSED BY
CLNT.                A2DTECH : CLIENT CODE
ORIG.        2" 5" 10" PRINT : ORIGIN OF DATA
UWI .       100060106315W500 : UNIQUE WELL ID
DICO. A2D Technologies, Inc. : DIGITIZING COMPANY
~Other -----------------------------------------------------
DIL-BHC LOG RAN
~ASCII -----------------------------------------------------
# ...
 7950.00000    8.32230    8.32230   24.04240   41.59310   56.16590   56.16590   36.87380   36.87380   41.59310   45.64680   58.35930   45.64680  -62.12450  -18.51150   58.35930
 8000.00000    8.30410    8.30410   43.21820   23.13840   59.12670   59.12670   48.80490   48.80490   23.13840   25.85740   35.17020   25.85740  -60.89180  -16.78680   35.17020
 8050.00000    8.35190    8.35190   42.25030   23.67100   57.25380   57.25380   49.77530   49.77530   23.67100   26.60960   38.58550   26.60960  -64.38130  -19.78440   38.58550
 8100.00000    8.38090    8.38090   56.65630   17.65030   58.57280   58.57280   58.33020   58.33020   17.65030   19.58020   27.29690   19.58020  -64.34370  -19.25160   27.29690
 8150.00000    8.63740    8.63740  115.20840    8.67990   65.82520   65.82520   63.65030   63.65030    8.67990    9.86690   14.64130    9.86690  -58.73590  -13.15180   14.64130
 8200.00000    8.34700    8.34700   42.84970   23.33740   58.37690   58.37690   39.83090   39.83090   23.33740   25.65620   41.22480   25.65620  -64.20970  -18.13040   41.22480
 8250.00000    8.31960    8.31960   81.78890   12.22660   62.32800   62.32800   58.96140   58.96140   12.22660   13.73840   19.59630   13.73840  -62.25840  -15.68720   19.59630
 8300.00000    8.49340    8.49340   44.37660   22.56920   72.23480   72.23480   88.86380   88.86380   22.56920   26.26260   52.42720   26.26260  -59.27470  -12.21150   52.42720
 8350.00000    8.20230    8.20230   82.33980   12.14480   57.86120   57.86120   65.84750   65.84750   12.14480   13.46970   19.97170   13.46970  -60.01230  -12.45390   19.97170
 8400.00000    8.16530    8.16530   60.51390   16.53160   58.54140   58.54140   46.67820   46.67820   16.53160   18.56010   30.46290   18.56010  -58.30710  -10.25680   30.46290
 8450.00000    9.53560    9.53560  176.44460    5.66750   74.57570   74.57570   82.17300   82.17300    5.66750    6.19270    8.58870    6.19270  -77.51120  -30.56050    8.58870
 8500.00000    9.70100    9.70100  193.15460    5.17720   80.58760   80.58760   99.10320   99.10320    5.17720    5.97650    7.84270    5.97650  -82.58670  -37.05280    7.84270
 8550.00000    8.14530    8.14530   84.76480   11.80200   61.32200   61.32200   63.49500   63.49500   11.80200   13.04410   19.99300   13.04410  -62.03870  -17.92160   19.99300
 8600.00000    8.20810    8.20810  102.88600    9.71950   66.31230   66.31230   80.86880   80.86880    9.71950   10.66820   16.29480   10.66820  -61.08270  -18.39170   16.29480
 8650.00000    8.20180    8.20180   91.18880   10.96820   65.86930   65.86930   73.70190   73.70190   10.96820   11.95050   19.90950   11.95050  -59.41070  -18.13660   19.90950
 8700.00000    8.03120    8.03120  133.17180    7.50910   72.30970   72.30970  103.75670  103.75670    7.50910    8.35770   12.39750    8.35770  -63.31600  -23.46800   12.39750
 8750.00000    8.17980    8.17980  114.22310    8.75480   70.70650   70.70650   97.70580   97.70580    8.75480    9.65720   14.78500    9.65720  -58.48020  -20.04900   14.78500
 8800.00000    8.17820    8.17820  147.41590    6.78610   74.93130   74.93130   79.24490   79.24490    6.78610    7.75040   10.14600    7.75040  -64.00350  -26.98910   10.14600
 8850.00000    8.23470    8.23470  155.13500    6.44600   73.71300   73.71300   93.31680   93.31680    6.44600    7.15060   10.15640    7.15060  -57.90240  -22.31410   10.15640
 8900.00000    8.96940    8.96940  158.71020    6.30090   78.84820   78.84820  114.97280  114.97280    6.30090    6.80320    9.86720    6.80320  -63.37150  -29.20010    9.86720
 8950.00000    7.97080    7.97080    7.11390  140.56960   65.80530   65.80530   88.91540   88.91540  140.56960  151.40730  234.01240  151.40730  -38.99150   -6.24620  234.01240
 9000.00000    8.02250    8.02250    4.94780  202.11070   66.43260   66.43260  103.04910  103.04910  202.11070  249.87670  966.98550  249.87670  -41.39350  -10.06500  966.98550
 9050.00000    8.23090    8.23090   48.25230   20.72510   66.15760   66.15760   76.85340   76.85340   20.72510   23.35480   34.53950   23.35480  -36.77090   -6.85920   34.53950
 9100.00000    8.70140    8.70140  102.06160    9.79800   73.51590   73.51590  112.10260  112.10260    9.79800   10.89530   16.79320   10.89530  -49.67480  -20.45400   16.79320
 9150.00000    8.15930    8.15930    0.76010 1315.67120   48.72050   48.72050   10.26190   10.26190 1315.67120 1528.73820 1422.92180 1528.73820 -192.38530 -162.68720 1422.92180
 9200.00000    8.10010    8.10010    1.34440  743.81750   49.69950   49.69950    7.62840    7.62840  743.81750  449.95090  468.20720  449.95090 -152.33010 -122.15150  468.20720
 9250.00000    8.03910    8.03910    0.77050 1297.83510   48.65780   48.65780   14.38960   14.38960 1297.83510 1550.19230 1401.02610 1550.19230 -179.81760 -149.16160 1401.02610
 9300.00000    8.03520    8.03520    3.15240  318.82590   49.90160   49.90160    7.87790    7.87790  318.82590  226.15500  380.97950  226.15500 -157.19550 -126.06220  380.97950
 9350.00000    8.01960    8.01960    7.81160  128.01400   49.31320   49.31320    9.11890    9.11890  128.01400  114.56740  170.75610  114.56740 -169.43500 -137.82120  170.75610
 9400.00000    8.00840    8.00840    0.75000 1333.25870   48.46730   48.46730   10.71790   10.71790 1333.25870 1495.35210 1405.14360 1495.35210 -146.78440 -114.69320 1405.14360
 9450.00000    8.00380    8.00380    0.76610 1305.25670   49.65920   49.65920   22.98210   22.98210 1305.25670 1491.00490 1423.26100 1491.00490 -145.57110 -112.99940 1423.26100
 9500.00000    7.98100    7.98100    0.99380 1006.24040   47.14490   47.14490   40.44780   40.44780 1006.24040 1024.31530 1380.75600 1024.31530  -73.89450  -40.84550 1380.75600
 9550.00000    8.08460    8.08460  126.64430    7.98440   57.81530   57.81530    2.36500    2.36500    7.98440    8.55900   15.07340    8.55900  -94.37000  -60.84360   15.07340
