~Version ---------------------------------------------------
VERS. 2.0 : CWLS log ASCII Standard -VERSION 2.0
WRAP.  NO : ONE LINE PER DEPTH STEP
~Well ------------------------------------------------------
STRT.M                           450.0 : START DEPTH
STOP.M                          3500.0 : STOP DEPTH
STEP.M                        50.00000 : STEP LENGTH
NULL.                          -999.25 : NULL VALUE
COMP.      NORCEN ENERGY RESOURCES LTD : COMPANY
WELL. NORCEN SHERRITT WOLF 15-20-54-16 : WELL
FLD .                                  : FIELD
LOC .                                  : LOCATION
CTRY.                           CANADA : COUNTRY
SRVC.                    Dresser Atlas : SERVICE COMPANY
DATE.                      07-Aug-1981 : LOGDATE
PROV.                          Alberta : PROVINCE
UWI .                 100152005416W500 : UNIQUE WELL ID
SLAT.WGS84                    53.68332 : SURFACE LATITUDE
SLON.WGS84                   -116.3186 : SURFACE LONGITUDE
~Curve Information -----------------------------------------
DEPT    .M      : DEPTH METERS
ACED    .US/M   : ACOUSTIC TIME
CALDED  .MM     : CALIPER FROM DENSITY LOG
CALSED  .MM     : CALIPER FROM SONIC LOG
CALWS   .MM     : CALIPER [CALDED]
CONDWS  .MMHO   : CONDUCTIVITY [1000/DRESWS]
CORRED  .KG/M3  : DENSITY CORRECTION FROM DENSITY LOG
DCORWS  .KG/M3  : DENSITY CORRECTION [CORRED]
DENWS   .KG/M3  : BULK DENSITY [M=2650/2710 AT 2427 F=1000] [RHOBED]
DPHILSED.V/V    : DENSITY POROSITY [M=2710 F=1000] FROM DENSITY LOG
DPHISSED.V/V    : DENSITY POROSITY [M=2650 F=1000] FROM DENSITY LOG
DPOLSWS .V/V    : DENSITY POROSITY [M=2710 F=1000] [CALCULATED FROM DENWS]
DRESWS  .OHMM   : DEEP RESISTIVITY [LLDED]
DTWS    .US/M   : DELTA TIME [ACED]
GRDED   .GAPI   : GAMMA RAY FROM DENSITY LOG
GRRED   .GAPI   : GAMMA RAY FROM RESISTIVITY LOG
GRSED   .GAPI   : GAMMA RAY FROM SONIC LOG
GRWS    .GAPI   : GAMMA RAY [GRRED] CSG @ 457.7m
LLDED   .OHMM   : LATEROLOG DEEP RESISTIVITY
LLSED   .OHMM   : LATEROLOG SHALLOW RESISTIVITY
NPHILSED.V/V    : NEUTRON POROSITY LIMESTONE FROM DENSITY LOG
NPHISSED.V/V    : NEUTRON POROSITY SANDSTONE FROM DENSITY LOG
NPOLSWS .V/V    : NEUTON POROSITY LIMESTONE [NPHISSED CONVERTED TO LIMESTONE FROM POWER LOG FROM START TO 2423, THEN NPHILSED TO END]
RHOBED  .KG/M3  : BULK DENSITY FROM DENSITY LOG
SRESWS  .OHMM   : SHALLOW RESISTIVITY [LLSED]
TENDED  .KG     : TENSTON FROM DENSITY LOG
TENRED  .KG     : TENSTON FROM DLL LOG
TENSED  .KG     : TENSTON FROM SONIC LOG
~Params ----------------------------------------------------
PD  .                         GL : PERMANENT DATUM
EPD .M                     893.2 : ELEVATION PERMANENT DATUM
LMF .                         KB : LOG MEASURED FROM
DAPD.M                       6.6 : FEET ABOVE PERMANENT DATUM
DMF .                         KB : DRILLING MEASURED FROM
EKB .M                     899.8 : KELLY BUSHING
EGL .M                     893.2 : GROUND LEVEL
DATE.                   08/07/81 : RUN DATE
RUN .                          1 : RUN NUMBER
DD  .M                      3505 : DEPTH DRILLER
DL  .M                      3502 : DEPTH LOGGER
BLI .M                    3501.8 : BOTTOM LOG INTERVAL
TLI .M                       450 : TOP LOG INTERVAL
CS  .MM                      244 : CASING SIZE
CBD .M                       456 : CASING BOTTOM DRILLER
CBL .M                     457.7 : CASING BOTTOM LOGGER
BS  .MM                      222 : BIT SIZE
BSD .M                      3505 : BIT SIZE AT DEPTH
DFT .                    KCL MUD : DRILLING FLUID TYPE
DFD .                       1090 : DRILLING FLUID DENSITY
DFV .                         45 : DRILLING FLUID VISCOSITY
DFPH.                         10 : DRILLING FLUID PH
DFL .                         32 : DRILLING FLUID LOSS
MSS .                   FLOWLINE : MUD SAMPLE SOURCE
RMS .OHMM                   0.16 : RESISTIVITY MUD SAMPLE
MST .DEGC                     24 : MUD SAMPLE TEMPERATURE
RMF .OHMM                   0.15 : RESISTIVITY MUD FILTRATE SAMPLE
MFST.DEGC                     24 : MUD FILTRATE SAMPLE TEMPERATURE
RMC .OHMM                    0.3 : RESISTIVITY MUD CAKE
MCST.DEGC                     25 : MUD CAKE SAMPLE TEMPERATURE
MFSS.                       MEAS : MUD FILTRATE SAMPLE SOURCE
MCSS.                       MEAS : MUD CAKE SAMPLE SOURCE
RMB .OHMM                  0.057 : RESISTIVITY MUD AT BHT
TCS .HRS                       5 : TIME CIRCULATED STOPPED
LUN .                    HL 6253 : LOGGING UNIT NUMBER
LUL .                        EDM : LOGGING UNIT LOCATION
ENGI.                     WERNER : RECORDING ENGINEER
WITN.                     HUGHES : WITNESSED BY
CLNT.                    A2DTECH : CLIENT CODE
ORIG. 6.5"/100M 16.5"/100M PRINT : ORIGIN OF DATA
UWI .           100152005416W500 : UNIQUE WELL ID
DICO.     A2D Technologies, Inc. : DIGITIZING COMPANY
~Other -----------------------------------------------------
~ASCII -----------------------------------------------------
  450.00000    -999.25    -999.25    -999.25    -999.25    -999.25    -999.25    -999.25    -999.25    -999.25    -999.25    -999.25    -999.25    -999.25    -999.25   45.44170   50.41010   50.41010    -999.25    -999.25    -999.25    -999.25    -999.25    -999.25    -999.25    -999.25    -999.25    -999.25
  500.00000  354.50860  221.76630  254.91520  221.76630  187.26240    -999.25    -999.25    -999.25    -999.25    -999.25    -999.25    5.34010  354.50860  111.44600   87.55170   93.77900   87.55170    5.34010    2.32880    -999.25    0.30390    0.26470    -999.25    2.32880    -999.25   11.73740    2.79540
  550.00000  423.42540  251.31540  264.98280  251.31540  114.48980    -999.25    -999.25    -999.25    -999.25    -999.25    -999.25    8.73440  423.42540   88.86900   72.57920   73.39030   72.57920    8.73440    9.20480    -999.25    0.35590    0.31670    -999.25    9.20480    -999.25   -1.87850    2.12180
  600.00000  307.47510  367.06710  263.95900  367.06710  160.15890    -999.25    -999.25    -999.25    -999.25    -999.25    -999.25    6.24380  307.47510  114.90010   87.84650   92.29500   87.84650    6.24380    3.53500    -999.25    0.22770    0.18860    -999.25    3.53500    -999.25   11.21400    2.46840
  650.00000  301.86750  241.16680  240.46770  241.16680  176.05640    -999.25    -999.25    -999.25    -999.25    -999.25    -999.25    5.68000  301.86750  109.68910   89.15650   94.49950   89.15650    5.68000    3.63830    -999.25    0.27050    0.23130    -999.25    3.63830    -999.25   11.14080    2.84360
  700.00000  369.12570  160.92310  225.64070  160.92310  220.23520    -999.25    -999.25    -999.25    -999.25    -999.25    -999.25    4.54060  369.12570  115.75770   97.60980  101.43790   97.60980    4.54060    2.25680    -999.25    0.33380    0.29460    -999.25    2.25680    -999.25   10.32000    1.58960
  750.00000  295.48360  247.89230  215.57320  247.89230   86.02450    -999.25    -999.25    -999.25    -999.25    -999.25    -999.25   11.62460  295.48360  124.40350  106.52340  102.44620  106.52340   11.62460    7.08000    -999.25    0.24670    0.20760    -999.25    7.08000    -999.25    9.51920    2.70460
  800.00000  308.74280  275.13320  228.95850  275.13320  161.87780    -999.25    -999.25    -999.25    -999.25    -999.25    -999.25    6.17750  308.74280  108.36100   82.10830   93.69570   82.10830    6.17750    3.68720    -999.25    0.26450    0.22530    -999.25    3.68720    -999.25   11.95930    3.70020
  850.00000  340.33310  280.89530  205.94440  280.89530  123.82980    -999.25    -999.25    -999.25    -999.25    -999.25    -999.25    8.07560  340.33310  137.77860  102.18150  110.88540  102.18150    8.07560    5.64810    -999.25    0.29440    0.25520    -999.25    5.64810    -999.25   -6.96030    3.50340
  900.00000  303.99430  266.87090  205.03190  266.87090  145.83210    -999.25    -999.25    -999.25    -999.25    -999.25    -999.25    6.85720  303.99430  109.46230   83.81600   92.02300   83.81600    6.85720    5.04860    -999.25    0.26150    0.22230    -999.25    5.04860    -999.25   11.91150    4.08940
  950.00000  300.37830  219.41880  210.39210  219.41880  152.39020    -999.25    -999.25    -999.25    -999.25    -999.25    -999.25    6.56210  300.37830  116.58300   82.78640   95.27350   82.78640    6.56210    4.09690    -999.25    0.25610    0.21690    -999.25    4.09690    -999.25   -2.28670    4.48520
 1000.00000  234.12200  241.75870  216.46790  241.75870   31.42070    -999.25    -999.25    -999.25    -999.25    -999.25    -999.25   31.82620  234.12200   80.35040   58.50970   66.44070   58.50970   31.82620   23.29260    -999.25    0.19490    0.15580    -999.25   23.29260    -999.25   17.28390    3.59180
 1050.00000  266.06480  267.49690  234.44910  267.49690   69.79580    -999.25    -999.25    -999.25    -999.25    -999.25    -999.25   14.32750  266.06480   93.02960   70.79150   76.56850   70.79150   14.32750    9.17090    -999.25    0.21970    0.18060    -999.25    9.17090    -999.25   14.16000    3.66110
 1100.00000  299.66760  232.84990  234.60990  232.84990  158.80580    -999.25    -999.25    -999.25    -999.25    -999.25    -999.25    6.29700  299.66760  108.26430   84.56110   87.08750   84.56110    6.29700    4.21910    -999.25    0.28060    0.24140    -999.25    4.21910    -999.25   11.97440    4.01480
 1150.00000  289.59110  236.68920  229.46140  236.68920  140.82720    -999.25    -999.25    -999.25    -999.25    -999.25    -999.25    7.10090  289.59110  108.66920   81.43050   81.31970   81.43050    7.10090    4.07330    -999.25    0.26270    0.22350    -999.25    4.07330    -999.25   12.32590    3.15190
 1200.00000  290.19370  304.64900  242.53520  304.64900  163.93980    -999.25    -999.25    -999.25    -999.25    -999.25    -999.25    6.09980  290.19370   94.28580   79.41100   78.08980   79.41100    6.09980    3.56950    -999.25    0.25770    0.21850    -999.25    3.56950    -999.25   12.45190    2.90430
 1250.00000  240.95110  307.37070  273.72920  307.37070   61.54910    -999.25    -999.25    -999.25    -999.25    -999.25    -999.25   16.24720  240.95110   81.54390   62.97320   69.39650   62.97320   16.24720   10.04950    -999.25    0.21030    0.17120    -999.25   10.04950    -999.25   16.40620    5.15200
 1300.00000  246.32210  294.84950  225.98470  294.84950  137.98620    -999.25    -999.25    -999.25    -999.25    -999.25    -999.25    7.24710  246.32210   65.46590   51.28560   55.37910   51.28560    7.24710    3.98350    -999.25    0.22870    0.18960    -999.25    3.98350    -999.25   -2.92890    3.02590
 1350.00000  238.26520  265.76410  249.14370  265.76410   33.93960    -999.25    -999.25    -999.25    -999.25    -999.25    -999.25   29.46410  238.26520   75.96320   56.74800   62.83420   56.74800   29.46410   18.81670    -999.25    0.21430    0.17520    -999.25   18.81670    -999.25   18.07270    2.77280
 1400.00000  285.06060  267.69000  239.79790  267.69000  105.39960    -999.25    -999.25    -999.25    -999.25    -999.25    -999.25    9.48770  285.06060  105.86050   84.18750   89.92400   84.18750    9.48770    6.68750    -999.25    0.26910    0.22990    -999.25    6.68750    -999.25    9.70400    3.07310
 1450.00000  253.57030  263.92670  243.12600  263.92670   58.50070    -999.25    -999.25    -999.25    -999.25    -999.25    -999.25   17.09380  253.57030  130.34060  100.91880  109.45250  100.91880   17.09380   12.76680    -999.25    0.23900    0.19990    -999.25   12.76680    -999.25    9.56240    3.65660
 1500.00000  285.38550  248.41460  240.01400  248.41460   57.33090    -999.25    -999.25    -999.25    -999.25    -999.25    -999.25   17.44260  285.38550  156.18080  128.99260  130.05480  128.99260   17.44260   14.15340    -999.25    0.25810    0.21890    -999.25   14.15340    -999.25    7.89340    3.40240
 1550.00000  264.46860  236.91290  244.67110  236.91290   84.03780  -23.49070  -23.49070 2515.73190    -999.25    0.07990    0.11360   11.89940  264.46860  139.55880  105.11540  114.19990  105.11540   11.89940    9.14430    -999.25    0.25860    0.21940 2515.73190    9.14430   -1.55860    9.50810    3.68240
 1600.00000  238.14660  242.64610  226.26060  242.64610   56.12300  334.59000  334.59000 2498.41460    -999.25    0.08590    0.12370   17.81800  238.14660  125.97420   98.99500  101.53500   98.99500   17.81800   14.18410    -999.25    0.19990    0.16080 2498.41460   14.18410    0.94160   10.18250    4.32610
 1650.00000  264.33650  261.86080  233.29700  261.86080   89.63220  218.61760  218.61760 2242.76640    -999.25    0.26110    0.27320   11.15670  264.33650  141.14630  113.71910  121.70460  113.71910   11.15670    8.87650    -999.25    0.24790    0.20880 2242.76640    8.87650    1.58950    8.96630    3.48930
 1700.00000  240.34320  228.34530  223.67450  228.34530   49.00640  125.25380  125.25380 2531.43120    -999.25    0.07010    0.10440   20.40550  240.34320  128.46310  106.08280  111.27180  106.08280   20.40550   16.95500    -999.25    0.20280    0.16370 2531.43120   16.95500    0.17170    9.15040    4.04750
