~Version ---------------------------------------------------
VERS.      2.0 : CWLS log ASCII Standard -VERSION 2.0
WRAP.       NO : One line per depth step
CREA. 08/02/17 : LAS Creation Date
~Well ------------------------------------------------------
STRT.FT                       300.0 : START DEPTH
STOP.FT                     10150.0 : STOP DEPTH
STEP.FT                    50.00000 : STEP LENGTH
NULL.                       -999.25 : NULL VALUE
COMP.          MOBIL OIL CANADA LTD : COMPANY
WELL. MOBIL MCLEOD RIVER 11-1-57-14 : WELL
FLD .                               : FIELD
LOC .                               : LOCATION
CTRY.                        CANADA : COUNTRY
SRVC.        Schlumberger of Canada : SERVICE COMPANY
DATE.                   02-May-1978 : LOGDATE
PROV.                       Alberta : PROVINCE
UWI .              100110105714W500 : UNIQUE WELL ID
SLAT.WGS84                 53.89809 : SURFACE LATITUDE
SLON.WGS84                -115.9478 : SURFACE LONGITUDE
~Curve Information -----------------------------------------
DEPT    .FT    : Depth Curve
CALDED  .IN    : CALIPER FROM CNL-FDC LOG [ADJ. TO ILDED/CALSED]
CALSED  .IN    : CALIPER FROM BCS LOG
CALWS   .IN    : CALIPER [CALSED]
CONDWS  .MMHO  : CONDUCTIVITY [1000/DRESWS]
DCORED  .G/C3  : DENSITY CORRECTION FROM CNL-FDC LOG [ADJ. TO ILDED]
DCORWS  .G/C3  : DENSITY CORRECTION [DCORED]
DENWS   .G/C3  : FORMATION BULK DENSITY [RHOBED]
DPHILSED.V/V   : DENSITY POROSITY LIMESTONE [M=2.71, F=1.0] FROM CNL-FDC LOG [ADJ. TO ILDED]
DPHISSED.V/V   : DENSITY POROSITY SANDSTONE [M=2.65, F=1.0] FROM CNL-FDC LOG [ADJ. TO ILDED]
DPOLSWS .V/V   : DENSITY POROSITY LIMESTONE [CALCULATED FROM DENWS, M=2.71, F=1.0]
DRESWS  .OHMM  : DEEP RESISTIVITY [ILDED]
DTED    .US/F  : DELTA-T (INTERVAL TRANSIT TIME) FROM BCS LOG
DTWS    .US/F  : COMPRESSIONAL SONIC [DTED]
GRDED   .GAPI  : GAMMA RAY FROM CNL-FDC LOG  [ADJ. TO ILDED]
GRSED   .GAPI  : GAMMA RAY FROM BCS LOG
GRWS    .GAPI  : GAMMA RAY [GRDED SPL. TO GRSED @ 10161']
ILDED   .OHMM  : DEEP INDUCTION FROM DIL-LL LOG
ILMED   .OHMM  : MEDIUM INDUCTION FROM DIL-LL LOG
LL8ED   .OHMM  : LATEROLOG 8 FROM DIL-LL LOG
MRESWS  .OHMM  : MEDIUM RESISTIVITY [ILMED]
NPHILSED.V/V   : NEUTRON POROSITY LIMESTONE FROM CNL-FDC LOG [ADJ. TO ILDED]
NPHISSED.V/V   : NEUTRON POROSITY SANDSTONE FROM CNL-FDC LOG [ADJ. TO ILDED]
NPOLSWS .V/V   : NEUTRON POROSITY LIMESTONE [NPHISSED CONVERTED TO LIMESTONE MATRIX & SPL. TO NPHILSED @ 6700']
RHOBED  .G/C3  : BULK DENSITY FROM CNL-FDC LOG [ADJ. TO ILDED]
SPRED   .MV    : SPONTANEOUS POTENTIAL FROM DIL-LL LOG
SPWS    .MV    : SPONTANEOUS POTENTIAL [BASELINE 0 MV, SPRED]
SRESWS  .OHMM  : SHALLOW RESISTIVITY [LL8ED]
~Params ----------------------------------------------------
PD  .                     GL : PERMANENT DATUM
EPD .FT               2845.4 : ELEVATION PERMANENT DATUM
LMF .                     KB : LOG MEASURED FROM
DAPD.FT                   20 : FEET ABOVE PERMANENT DATUM
EKB .FT               2865.2 : KELLY BUSHING
EGL .FT               2845.4 : GROUND LEVEL
DATE.               05/02/78 : RUN DATE
RUN .                      1 : RUN NUMBER
DD  .FT                10200 : DEPTH DRILLER
DL  .FT                10189 : DEPTH LOGGER
BLI .FT                10183 : BOTTOM LOG INTERVAL
TLI .FT                 1217 : TOP LOG INTERVAL
CBD .FT                 1217 : CASING BOTTOM DRILLER
CBL .FT                 1217 : CASING BOTTOM LOGGER
BS  .IN                 8.75 : BIT SIZE
BSD .FT                10200 : BIT SIZE AT DEPTH
DFT .                    GEL : DRILLING FLUID TYPE
DFD .                    9.4 : DRILLING FLUID DENSITY
DFV .                    205 : DRILLING FLUID VISCOSITY
DFPH.                   10.0 : DRILLING FLUID PH
DFL .                    8.5 : DRILLING FLUID LOSS
MSS .               FLOWLINE : MUD SAMPLE SOURCE
RMS .OHMM               2.27 : RESISTIVITY MUD SAMPLE
MST .DEGF                 66 : MUD SAMPLE TEMPERATURE
RMF .OHMM               1.96 : RESISTIVITY MUD FILTRATE SAMPLE
MFST.DEGF                 65 : MUD FILTRATE SAMPLE TEMPERATURE
TCS .HRS                   4 : TIME CIRCULATED STOPPED
LUN .                   7800 : LOGGING UNIT NUMBER
LUL .                    EDM : LOGGING UNIT LOCATION
ENGI.                 KUBICA : RECORDING ENGINEER
WITN.                   RUSH : WITNESSED BY
CLNT.                A2DTECH : CLIENT CODE
ORIG.            2" 5" PRINT : ORIGIN OF DATA
UWI .       100110105714W500 : UNIQUE WELL ID
DICO. A2D Technologies, Inc. : DIGITIZING COMPANY
~Other -----------------------------------------------------
~ASCII -----------------------------------------------------
# ...
 9400.00000    8.98040    9.00140    9.00140   35.16810   -0.00460   -0.00460    2.66740    0.01860    -999.25    0.02490   28.43490   58.53680   58.53680   60.33520   59.48240   60.33520   28.43490   35.45180   71.34480   35.45180    0.08690    -999.25    0.08690    2.66740   -7.91130   -3.69120   71.34480
 9450.00000    8.95090    8.96090    8.96090   16.04370    0.01070    0.01070    2.71610   -0.00910    -999.25   -0.00360   62.33000   53.59060   53.59060   35.61740   36.12740   35.61740   62.33000   73.72760   94.69270   73.72760    0.03330    -999.25    0.03330    2.71610  -14.18340  -10.05500   94.69270
 9500.00000    8.91260    9.07540    9.07540   13.45220    0.01260    0.01260    2.51430    0.12300    -999.25    0.11440   74.33710   85.18310   85.18310  182.07540  180.53900  182.07540   74.33710  128.57020  191.48950  128.57020    0.24660    -999.25    0.24660    2.51430  -11.92210   -7.79370  191.48950
 9550.00000   12.88280   11.41360   11.41360  132.03240    0.18720    0.18720    2.38520    0.18660    -999.25    0.18990    7.57390   75.83230   75.83230  104.21250   99.61170  104.21250    7.57390    8.69220   10.36360    8.69220    0.29450    -999.25    0.29450    2.38520  -15.71650  -11.58810   10.36360
 9600.00000    9.26440    9.09230    9.09230   10.60330    0.14390    0.14390    2.72530   -0.00810    -999.25   -0.00900   94.63610   53.38640   53.38640   41.65090   37.85020   41.65090   94.63610  103.81330  202.18380  103.81330    0.03950    -999.25    0.03950    2.72530  -37.06200  -32.93360  202.18380
 9650.00000    9.73250    8.57540    8.57540    5.96180    0.14370    0.14370    2.63420    0.04370    -999.25    0.04430  167.73500   52.86880   52.86880   15.05060   13.08420   15.05060  167.73500  167.71540  240.52250  167.71540    0.01440    -999.25    0.01440    2.63420 -128.71750 -124.58910  240.52250
 9700.00000   10.56630    9.51190    9.51190    2.34530    0.21450    0.21450    2.61480    0.05930    -999.25    0.05570  435.23030   49.50320   49.50320   17.05630   15.87650   17.05630  435.23030  357.86680  400.58380  357.86680    0.00330    -999.25    0.00330    2.61480  -54.56990  -50.44150  400.58380
 9750.00000   10.37780    9.36130    9.36130    2.73380    0.21220    0.21220    2.69340    0.02300    -999.25    0.00970  365.79770   49.05100   49.05100   17.19640   16.12140   17.19640  365.79770  473.86840  488.66190  473.86840    0.00150    -999.25    0.00150    2.69340  -97.54100  -93.41260  488.66190
 9800.00000    9.26620    9.08690    9.08690    4.78340    0.02480    0.02480    2.69190    0.00830    -999.25    0.01060  209.05800   48.49140   48.49140   11.59600   14.57810   11.59600  209.05800  237.28440  233.83720  237.28440    0.00350    -999.25    0.00350    2.69190 -112.09140 -107.96300  233.83720
 9850.00000    9.08790    9.01740    9.01740   24.69060    0.01940    0.01940    2.70270    0.00030    -999.25    0.00430   40.50450   50.92360   50.92360   13.28560   10.72990   13.28560   40.50450   42.39410   91.65700   42.39410    0.01810    -999.25    0.01810    2.70270 -116.09240 -111.96400   91.65700
 9900.00000   10.64020    9.33820    9.33820    3.77640    0.25620    0.25620    2.54410    0.10300    -999.25    0.09700  264.80530   49.99960   49.99960   15.48470   13.63260   15.48470  264.80530  314.45370  552.75540  314.45370    0.00450    -999.25    0.00450    2.54410 -122.84860 -118.72020  552.75540
 9950.00000   11.26630    9.35160    9.35160    3.19720    0.17770    0.17770    2.52210    0.11580    -999.25    0.10990  312.81060   52.61200   52.61200   21.44130   18.33520   21.44130  312.81060  187.56010  402.46520  187.56010    0.01720    -999.25    0.01720    2.52210 -127.47240 -123.34400  402.46520
 10000.00000    9.00730    9.00850    9.00850   49.85690    0.01940    0.01940    2.74170   -0.02360    -999.25   -0.01850   20.05740   58.84570   58.84570  138.34880  133.83000  138.34880   20.05740   22.81490   42.90840   22.81490    0.14610    -999.25    0.14610    2.74170  -16.44200  -12.31360   42.90840
 10050.00000    8.85300    8.93720    8.93720   81.73470    0.01470    0.01470    2.68890    0.01270    -999.25    0.01230   12.23470   60.75680   60.75680  154.89740  140.60750  154.89740   12.23470   15.02160   24.32020   15.02160    0.16550    -999.25    0.16550    2.68890  -29.72640  -20.25420   24.32020
 10100.00000    8.80800    8.94860    8.94860   62.56680   -0.00130   -0.00130    2.65080    0.03430    -999.25    0.03460   15.99220   59.72160   59.72160  117.43000   95.73610  117.43000   15.99220   18.22540   23.50090   18.22540    0.06430    -999.25    0.06430    2.65080  -30.13620  -14.07040   23.50090
 10150.00000    8.78860    8.89120    8.89120  109.98800    0.01260    0.01260    2.67470    0.02300    -999.25    0.02060    9.09190   67.08980   67.08980  154.73430  154.16650  154.73430    9.09190   12.29550   16.44610   12.29550    0.18770    -999.25    0.18770    2.67470  -53.54210  -30.92590   16.44610
