~Version ---------------------------------------------------
VERS.      2.0 : CWLS log ASCII Standard -VERSION 2.0
WRAP.       NO : One line per depth step
CREA. 11/21/17 : LAS Creation Date
~Well ------------------------------------------------------
STRT.FT                             1050.0 : START DEPTH
STOP.FT                            10400.0 : STOP DEPTH
STEP.FT                           50.00000 : STEP LENGTH
NULL.                              -999.25 : NULL VALUE
COMP.               CHEVRON CANADA LIMITED : COMPANY
WELL. CHEVRON GULF ET AL FOXCK 10-21-62-18 : WELL
FLD .                                      : FIELD
LOC .                                      : LOCATION
CTRY.                               CANADA : COUNTRY
SRVC.                         Schlumberger : SERVICE COMPANY
DATE.                          28-Apr-1976 : LOGDATE
PROV.                              Alberta : PROVINCE
UWI .                     102102106218W500 : UNIQUE WELL ID
SLAT.WGS84                        54.37974 : SURFACE LATITUDE
SLON.WGS84                       -116.6321 : SURFACE LONGITUDE
~Curve Information -----------------------------------------
DEPT    .FT    : Depth Curve
CALDED  .IN    : CALIPER FROM DENSITY LOG
CALSED  .IN    : CALIPER FROM SONIC LOG
CALWS   .IN    : CALIPER [CALSED SPL. TO CALDED @ 10384']
CONDWS  .MMHO  : CONDUCTIVITY [1000/DRESWS]
DCORED  .G/C3  : DENSITY CORRECTION FROM DENSITY LOG
DCORWS  .G/C3  : DENSITY CORRECTION [DCORED]
DENWS   .G/C3  : FORMATION BULK DENSITY [RHOBED]
DPHILSED.V/V   : DENSITY POROSITY LIMESTONE [M=2.71, F=1.00] FROM DENSITY LOG
DPHISSED.V/V   : DENSITY POROSITY SANDSTONE [M=2.65, F=1.00] FROM DENSITY LOG
DPOLSWS .V/V   : DENSITY POROSITY LIMESTONE [CALC. FROM DENWS M=2.71, F=1.00]
DRESWS  .OHMM  : DEEP RESISTIVITY [ILDED]
DTED    .US/F  : DELTA-T FROM SONIC LOG
DTWS    .US/F  : COMPRESSIONAL SONIC [DTED]
GRDED   .GAPI  : GAMMA RAY FROM DENSITY LOG
GRSED   .GAPI  : GAMMA RAY FROM SONIC LOG
GRWS    .GAPI  : GAMMA RAY [GRSED SPL. TO GRDED@3031M]
ILDED   .OHMM  : DEEP INDUCTION FROM RESISTIVITY LOG
ILMED   .OHMM  : MEDIUM INDUCTION FROM RESISTIVITY LOG
LL8ED   .OHMM  : LATEROLOG-8 FROM RESISTIVITY LOG
MRESWS  .OHMM  : MEDIUM RESISTIVITY [ILMED]
NPHILSED.V/V   : NEUTRON POROSITY  SANDSTONE FROM DENSITY LOG
NPHISSED.V/V   : NEUTRON POROSITY SANDSTONE FROM DENSITY LOG
NPOLSWS .V/V   : NEUTRON POROSITY LIMESTONE [NPHISSED MATRIX CONVERSION FOR LIMESTONE, SPL. TO NPHILSED @ 6545']
RHOBED  .G/C3  : BULK DENSITY FROM DENSITY LOG
SPRED   .MV    : SPONTANEOUS POTENTIAL FROM RESISTIVITY LOG
SPWS    .MV    : SPONTANEOUS POTENTIAL [BASELINE 0 MV,SPRED]
SRESWS  .OHMM  : SHALLOW EWSISTIVITY [LL8ED]
TENDED  .LBF   : TENSION FROM DENSITY LOG
TENSED  .LBF   : TENSION FROM SONIC LOG
~Params ----------------------------------------------------
PD  .                     GL : PERMANENT DATUM
EPD .FT               2869.5 : ELEVATION PERMANENT DATUM
LMF .                     KB : LOG MEASURED FROM
DAPD.FT                 14.5 : FEET ABOVE PERMANENT DATUM
EKB .FT                 2884 : KELLY BUSHING
EGL .FT               2869.5 : GROUND LEVEL
DATE.               04/28/76 : RUN DATE
RUN .                      1 : RUN NUMBER
DD  .FT                10415 : DEPTH DRILLER
DL  .FT                10422 : DEPTH LOGGER
BLI .FT                10416 : BOTTOM LOG INTERVAL
TLI .FT                 1107 : TOP LOG INTERVAL
CBD .FT                 1108 : CASING BOTTOM DRILLER
CBL .FT                 1107 : CASING BOTTOM LOGGER
BS  .IN                 8.75 : BIT SIZE
BSD .FT                10415 : BIT SIZE AT DEPTH
DFT .               GEL CHEM : DRILLING FLUID TYPE
DFD .                    9.4 : DRILLING FLUID DENSITY
DFV .                     72 : DRILLING FLUID VISCOSITY
DFPH.                   10.5 : DRILLING FLUID PH
DFL .                   10.8 : DRILLING FLUID LOSS
MSS .             CIRCULATED : MUD SAMPLE SOURCE
RMS .OHMM               1.66 : RESISTIVITY MUD SAMPLE
MST .DEGF                 60 : MUD SAMPLE TEMPERATURE
RMF .OHMM                1.2 : RESISTIVITY MUD FILTRATE SAMPLE
MFST.DEGF                 60 : MUD FILTRATE SAMPLE TEMPERATURE
RMB .OHMM               0.52 : RESISTIVITY MUD AT BHT
TCS .HRS                 3.5 : TIME CIRCULATED STOPPED
LUN .                   7691 : LOGGING UNIT NUMBER
LUL .                    EDM : LOGGING UNIT LOCATION
ENGI.   CROCKFORD KREZANOSKI : RECORDING ENGINEER
WITN.                   WONG : WITNESSED BY
CLNT.                A2DTECH : CLIENT CODE
ORIG.            2" 5" PRINT : ORIGIN OF DATA
UWI .       102102106218W500 : UNIQUE WELL ID
DICO. A2D Technologies, Inc. : DIGITIZING COMPANY
~Other -----------------------------------------------------
DIL-LL-BHC-CNL-FDC LOG RUN
SCH.- CNL(NPHI) USED FOR NEUTRON MATRIX CONVERSION
~ASCII -----------------------------------------------------
# ...
 4800.00000    -999.25   10.32420   10.32420  122.77320    -999.25    -999.25    -999.25    -999.25    -999.25    -999.25    8.14510   76.72200   76.72200    -999.25   93.55820   93.55820    8.14510    8.48070    9.18200    8.48070    -999.25    -999.25    -999.25    -999.25  -69.48130  -15.47450    9.18200    -999.25  858.16190
 4850.00000    -999.25   10.54000   10.54000  151.51970    -999.25    -999.25    -999.25    -999.25    -999.25    -999.25    6.59980   83.37120   83.37120    -999.25   93.65350   93.65350    6.59980    6.76840    7.19970    6.76840    -999.25    -999.25    -999.25    -999.25  -70.69070  -15.83240    7.19970    -999.25 1193.81050
 4900.00000    -999.25   10.35230   10.35230  167.63900    -999.25    -999.25    -999.25    -999.25    -999.25    -999.25    5.96520   85.31070   85.31070    -999.25   90.61610   90.61610    5.96520    6.12020    6.50930    6.12020    -999.25    -999.25    -999.25    -999.25  -69.78080  -14.07650    6.50930    -999.25  878.90660
 4950.00000    -999.25    9.72990    9.72990  166.18370    -999.25    -999.25    -999.25    -999.25    -999.25    -999.25    6.01820   85.21130   85.21130    -999.25   87.44670   87.44670    6.01820    6.22270    6.89920    6.22270    -999.25    -999.25    -999.25    -999.25  -67.35160  -10.79580    6.89920    -999.25  927.71210
 5000.00000    9.56220   10.17670   10.17670  216.04800    0.03890    0.03890    2.31860    -999.25    0.20120    0.22890    4.62860   92.47300   92.47300   93.96030   92.41850   92.41850    4.62860    4.93360    5.12540    4.93360    -999.25    0.39790    0.35500    2.31860  -66.85730   -9.45550    5.12540  838.60090  417.91280
 5050.00000   12.11580   11.33680   11.33680  214.68900    0.05370    0.05370    2.54560    -999.25    0.07180    0.09610    4.65790   92.75590   92.75590  100.58960  108.42400  108.42400    4.65790    5.02020    5.51930    5.02020    -999.25    0.35440    0.31080    2.54560  -65.20630   -6.95850    5.51930  908.01030  566.51940
 5100.00000   13.54010   10.31080   10.31080  275.01240    0.05630    0.05630    2.47080    -999.25    0.11610    0.13990    3.63620   98.69300   98.69300  120.14810  120.17480  120.17480    3.63620    3.83650    4.48680    3.83650    -999.25    0.36780    0.32440    2.47080  -64.27870   -5.17940    4.48680 1265.09260  794.01680
 5150.00000   13.08820   12.27030   12.27030  357.80740    0.06190    0.06190    2.43840    -999.25    0.12410    0.15880    2.79480   96.58620   96.58620   97.83340   94.60320   94.60320    2.79480    2.98610    3.49580    2.98610    -999.25    0.37020    0.32680    2.43840  -62.63890   -2.69360    3.49580 1448.61810  899.85770
 5200.00000   12.51330   11.46710   11.46710  193.62410    0.07730    0.07730    2.51700    -999.25    0.08810    0.11290    5.16560   84.01400   84.01400   92.47160   89.45470   89.45470    5.16560    5.31590    5.79100    5.31590    -999.25    0.27650    0.23260    2.51700  -64.23290   -3.43600    5.79100  301.89460 1106.68990
 5250.00000   11.76340   10.53780   10.53780  229.21590    0.08470    0.08470    2.49450    -999.25    0.09430    0.12600    4.36270   90.36360   90.36360  100.54450   97.11270   97.11270    4.36270    4.47960    4.99340    4.47960    -999.25    0.30430    0.26030    2.49450  -64.03240   -2.38960    4.99340  228.10800 1291.11750
 5300.00000   10.81940   10.05460   10.05460   77.81310    0.05030    0.05030    2.51250    -999.25    0.09000    0.11550   12.85130   74.39180   74.39180   66.10270   66.14100   66.14100   12.85130   13.28750   12.06400   13.28750    -999.25    0.19300    0.14970    2.51250  -69.17710   -8.41280   12.06400 1095.70570 1283.07180
 5350.00000   10.25910    9.27470    9.27470  599.95200    0.11150    0.11150    1.75210    -999.25    0.53910    0.56020    1.66680  147.13930  147.13930   72.18910   79.30550   79.30550    1.66680    1.93780    2.60330    1.93780    -999.25    0.49400    0.45390    1.75210  -65.09420   -5.26110    2.60330 1256.97360 1000.66150
 5400.00000    9.59550    9.38690    9.38690   40.32750   -0.00190   -0.00190    2.67980    -999.25   -0.00550    0.01770   24.79700   57.63640   57.63640   29.92980   31.65870   31.65870   24.79700   29.87040   51.44400   29.87040    -999.25    0.11750    0.07540    2.67980  -77.86480  -18.95690   51.44400 1631.04970  827.06930
 5450.00000   11.67980   11.45570   11.45570  182.94010    0.04930    0.04930    1.96050    -999.25    0.37660    0.43830    5.46820  102.08120  102.08120   70.66130   72.71890   72.71890    5.46820    7.78870    7.03400    7.78870    -999.25    0.38010    0.33700    1.96050  -65.83260   -7.85590    7.03400 2846.06410 1188.21120
 5500.00000   10.31180   10.36020   10.36020   99.40950   -0.00130   -0.00130    2.55260    -999.25    0.05990    0.09210   10.05940   74.13270   74.13270   48.11640   45.02430   45.02430   10.05940    9.09440   12.83140    9.09440    -999.25    0.23380    0.19000    2.55260  -69.20170  -12.15010   12.83140  264.21230  759.80260
 5550.00000   10.66230   10.24480   10.24480  110.34120    0.08110    0.08110    2.55230    -999.25    0.07380    0.09220    9.06280   74.06530   74.06530   77.36010   75.81380   75.81380    9.06280   10.09950   17.52750   10.09950    -999.25    0.32400    0.28010    2.55230  -65.43020   -9.74930   17.52750  -75.58490  818.63640
 5600.00000   10.55800   10.04720   10.04720   83.75630    0.04030    0.04030    2.63880    -999.25    0.00860    0.04160   11.93940   71.99560   71.99560   71.90880   69.13320   69.13320   11.93940   12.24410   13.06500   12.24410    -999.25    0.20710    0.16360    2.63880  -66.15370  -18.22150   13.06500  600.59210  787.18380
 5650.00000   11.62370   11.16130   11.16130   99.96200    0.03790    0.03790    2.55070    -999.25    0.05950    0.09320   10.00380   76.12790   76.12790   47.65660   51.26870   51.26870   10.00380    9.21270    8.97300    9.21270    -999.25    0.19510    0.15170    2.55070  -71.38910  -31.15500    8.97300  665.58180  983.29370
 5700.00000   10.50340    9.96610    9.96610   36.29270    0.05030    0.05030    2.62230    -999.25    0.02140    0.05130   27.57280   59.64470   59.64470   41.51170   41.69220   41.69220   27.57280   34.18900   61.83510   34.18900    -999.25    0.11830    0.07620    2.62230  -61.19320  -28.70770   61.83510  976.02380 1408.41870
 5750.00000   10.48070   10.37980   10.37980   42.86090    0.02290    0.02290    2.58270    -999.25    0.05590    0.07440   23.33130   62.45260   62.45260   56.93190   59.04830   59.04830   23.33130   24.95400   30.27620   24.95400    -999.25    0.14810    0.10560    2.58270  -35.58230   -9.69380   30.27620 1309.35110 1354.74350
 5800.00000   11.91290   11.41100   11.41100  102.27040   -0.00710   -0.00710    2.25970    -999.25    0.25060    0.26330    9.77800   98.41400   98.41400   59.81110   63.19420   63.19420    9.77800    7.56420   13.37890    7.56420    -999.25    0.35070    0.30710    2.25970  -27.54550   -6.56570   13.37890 1503.72600  899.67650
 5850.00000   10.06070    9.15380    9.15380  156.22800    0.11590    0.11590    2.42230    -999.25    0.12540    0.16820    6.40090   75.36140   75.36140   53.65910   54.62830   54.62830    6.40090    7.97200   13.00590    7.97200    -999.25    0.23200    0.18820    2.42230  -70.85480  -51.31530   13.00590 1061.64620  901.02380
 5900.00000    9.84390    9.49320    9.49320  120.08690    0.13320    0.13320    2.51510    -999.25    0.08500    0.11400    8.32730   71.76150   71.76150   45.14020   48.57600   48.57600    8.32730    9.60180   13.82010    9.60180    -999.25    0.18580    0.14260    2.51510  -73.04140  -53.90130   13.82010 1794.01680  933.20470
 5950.00000    9.99570    9.70640    9.70640   63.48130    0.02220    0.02220    2.66050    -999.25   -0.00710    0.02900   15.76280   66.80870   66.80870   66.81950   65.66080   65.66080   15.76280   16.35160   16.85530   16.35160    -999.25    0.17450    0.13150    2.66050  -30.33470  -11.59660   16.85530 1393.78960 1376.90580
 6000.00000    9.86000    9.66820    9.66820   75.30060    0.03420    0.03420    2.61830    -999.25    0.02520    0.05360   13.28010   73.49440   73.49440   76.67910   73.40840   73.40840   13.28010   13.88430   15.50830   13.88430    -999.25    0.23440    0.19060    2.61830  -30.75220  -12.41350   15.50830 1815.73160 2649.03930
