~Version ---------------------------------------------------
VERS.      2.0 : CWLS log ASCII Standard -VERSION 2.0
WRAP.       NO : One line per depth step
CREA. 09/19/13 : LAS Creation Date
~Well ------------------------------------------------------
STRT.M                           450.0 : START DEPTH
STOP.M                          3650.0 : STOP DEPTH
STEP.M                        50.00000 : STEP LENGTH
NULL.                          -999.25 : NULL VALUE
COMP. CANADA OCCIDENTAL PETROLEUM LTD. : COMPANY
WELL.     CDNOXY ANTE CREEK 7-13-65-26 : WELL
FLD .                                  : FIELD
LOC .                                  : LOCATION
CTRY.                           CANADA : COUNTRY
SRVC.                          Unknown : SERVICE COMPANY
DATE.                      02-Feb-1981 : LOGDATE
PROV.                          Alberta : PROVINCE
UWI .                 100071306526W500 : UNIQUE WELL ID
SLAT.WGS84                    54.62402 : SURFACE LATITUDE
SLON.WGS84                   -117.7905 : SURFACE LONGITUDE
~Curve Information -----------------------------------------
DEPT    .M      : DEPTH METERS
CALDED  .MM     : CALIPER FROM DENSITY LOG [DEP ADJ TO GRSED]
CALSED  .MM     : CALIPER FROM SONIC LOG
CALWS   .MM     : CALIPER [CALDED]
CONDWS  .MMHO   : CONDUCTIVITY [1000/DRESWS]
CORRED  .KG/M3  : DENSITY CORRECTION FROM DENSITY LOG [DEP ADJ TO GRSED]
DCORWS  .KG/M3  : DENSITY CORRECTION [CORRED]
DENWS   .KG/M3  : BULK DENSITY [M=2710 F=1000] [RHOBED]
DPHILSED.V/V    : DENSITY POROSITY [M=2710 F=1000] FROM DENSITY LOG [DEP ADJ TO GRSED]
DPHISSED.V/V    : DENSITY POROSITY [M=2650 F=1000] FROM DENSITY LOG [DEP ADJ TO GRSED]
DPOLSWS .V/V    : DENSITY POROSITY [M=2710 F=1000] [CAL FR DENWS]
DRESWS  .OHMM   : DEEP RESISTIVITY [ILDED] [FILLED GAPS BY 2000 OHMM]
DTED    .US/M   : DELTA TIME FROM SONIC LOG
DTWS    .US/M   : DELTA TIME [DTED]
GRDED   .GAPI   : GAMMA RAY FROM DENSITY LOG [DEP ADJ TO GRSED]
GRNED   .CPS    : GAMMA RAY FROM NEUTRON LOG [CASEDHOLE][DEP ADJ TO GRSED]
GRSED   .GAPI   : GAMMA RAY FROM SONIC LOG
GRWS    .GAPI   : GAMMA RAY [440 GRSED 460 GRDED]
ILDED   .OHMM   : INDUCTION LOG DEEP RESISTIVITY
ILMED   .OHMM   : INDUCTION LOG MEDIUM RESISTIVITY
MRESWS  .OHMM   : MEDIUM RESISTIVITY [ILMED][FILLED GAPS BY 2000 OHMM]
NEUTED  .NAPI   : NEUTRON FROM NEUTRON LOG [UNIT IS ASSUMED][CASEDHOLE][DEP ADJ TO GRSED]
NEUTWS  .NAPI   : NEUTRON [NEUTED]
NPHILSED.V/V    : NEUTRON POROSITY LIMESTONE FROM DENSITY LOG [DEP ADJ TO GRSED]
NPHISSED.V/V    : NEUTRON POROSITY SANDSTONE FROM DENSITY LOG [DEP ADJ TO GRSED]
NPOLSWS .V/V    : NEUTRON POROSITY LIMESTONE [445 NPOLSCAL [BY CONVERTING NPHISSED] 2198 NPHILSED]
RHOBED  .KG/M3  : BULK DENSITY FROM DENSITY LOG [DEP ADJ TO GRSED]
SFLED   .OHMM   : SPHERICALLY FOCUSED LOG RESISTIVITY
SPRED   .MV     : SPONTANEOUS POTENTIAL FROM RESISTIVITY LOG
SPWS    .MV     : SPONTANEOUS POTENTIAL [BASELINE 0 MV] [SPRED]
SRESWS  .OHMM   : SHALLOW RESISTIVITY [SFLED][FILLED GAPS BY 2000 OHMM]
~Params ----------------------------------------------------
PD  .                         GL : PERMANENT DATUM
EPD .M                     803.9 : ELEVATION PERMANENT DATUM
LMF .                         KB : LOG MEASURED FROM
DAPD.M                       7.1 : FEET ABOVE PERMANENT DATUM
DMF .                         KB : DRILLING MEASURED FROM
EKB .M                       811 : KELLY BUSHING
EGL .M                     803.9 : GROUND LEVEL
DATE.                   02/02/81 : RUN DATE
RUN .                          1 : RUN NUMBER
DD  .M                      3655 : DEPTH DRILLER
DL  .M                      3653 : DEPTH LOGGER
BLI .M                    3652.1 : BOTTOM LOG INTERVAL
TLI .M                     459.2 : TOP LOG INTERVAL
CS  .MM                    244.5 : CASING SIZE
CBD .M                       459 : CASING BOTTOM DRILLER
CBL .M                     459.2 : CASING BOTTOM LOGGER
BS  .MM                      216 : BIT SIZE
BSD .M                      3655 : BIT SIZE AT DEPTH
DFT .                   GEL CHEM : DRILLING FLUID TYPE
DFD .                       1070 : DRILLING FLUID DENSITY
DFV .                        120 : DRILLING FLUID VISCOSITY
DFPH.                        9.5 : DRILLING FLUID PH
DFL .                        9.4 : DRILLING FLUID LOSS
MSS .                CIRCULATION : MUD SAMPLE SOURCE
RMS .OHMM                   1.17 : RESISTIVITY MUD SAMPLE
MST .DEGC                     15 : MUD SAMPLE TEMPERATURE
RMF .OHMM                   0.94 : RESISTIVITY MUD FILTRATE SAMPLE
MFST.DEGC                     15 : MUD FILTRATE SAMPLE TEMPERATURE
MFSS.                      PRESS : MUD FILTRATE SAMPLE SOURCE
RMB .OHMM                    0.5 : RESISTIVITY MUD AT BHT
TCS .HRS                    1000 : TIME CIRCULATED STOPPED
TLAB.HRS                    1630 : TIME LOGGER AT BOTTOM
LUN .                       8108 : LOGGING UNIT NUMBER
LUL .                      EDSON : LOGGING UNIT LOCATION
ENGI.                  CROCKFORD : RECORDING ENGINEER
WITN.                      SKOKO : WITNESSED BY
CLNT.                    A2DTECH : CLIENT CODE
ORIG. 6.5"/100M 16.5"/100M PRINT : ORIGIN OF DATA
UWI .           100071306526W500 : UNIQUE WELL ID
DICO.     A2D Technologies, Inc. : DIGITIZING COMPANY
~Other -----------------------------------------------------
~ASCII -----------------------------------------------------
# ...
 1650.00000  262.56760  259.95820  262.56760  280.26120  123.46980  123.46980 2279.00390    -999.25    0.22600    0.25200    3.56810  308.00770  308.00770   90.55120   56.83080   96.94750   90.55120    3.56810    3.20770    3.20770  205.73050  205.73050    -999.25    0.46400    0.42270 2279.00390    3.57490  -88.69820   -7.85240    3.57490
 1700.00000  256.46050  240.74250  256.46050   44.48970   19.23910   19.23910 2532.38060    -999.25    0.07040    0.10390   22.47710  233.84710  233.84710   91.80620   30.60920   84.54020   91.80620   22.47710   20.58420   20.58420  709.86190  709.86190    -999.25    0.16280    0.12000 2532.38060   21.55210  -96.67360  -16.58260   21.55210
 1750.00000  280.64360  257.88800  280.64360   49.07060   21.75050   21.75050 2499.79880    -999.25    0.09170    0.12290   20.37880  244.45860  244.45860   44.73480   17.51940   45.16150   44.73480   20.37880   20.64190   20.64190  423.55130  423.55130    -999.25    0.22470    0.18100 2499.79880   18.88760 -110.27690  -30.94080   18.88760
 1800.00000  276.18050  261.67840  276.18050   54.77140   13.81090   13.81090 2614.62110    -999.25    0.02440    0.05580   18.25770  227.45140  227.45140   72.45720   38.63650   66.91060   72.45720   18.25770   18.63940   18.63940  355.76110  355.76110    -999.25    0.22940    0.18560 2614.62110   19.85260  -87.36570   -8.78440   19.85260
 1850.00000  274.24010  256.80060  274.24010   45.48310  -38.66790  -38.66790 2345.97710    -999.25    0.16910    0.21290   21.98620  202.33740  202.33740   37.88580   28.69000   40.12080   37.88580   21.98620   49.42280   49.42280  429.14240  429.14240    -999.25    0.32960    0.28580 2345.97710   49.37280  -89.08540  -11.25900   49.37280
 1900.00000  280.34030  261.16410  280.34030   51.18340  113.79080  113.79080 2513.36910    -999.25    0.07800    0.11500   19.53760  233.07860  233.07860   73.47690   48.81850   72.81680   73.47690   19.53760   20.04350   20.04350  583.99620  583.99620    -999.25    0.18610    0.14290 2513.36910   29.22700  -80.77390   -4.87150   29.22700
 1950.00000  263.13770  260.08240  263.13770   77.47670   15.48530   15.48530 2602.99610    -999.25    0.02940    0.06260   12.90710  234.22470  234.22470   71.24270   63.20680   67.55490   71.24270   12.90710   13.09210   13.09210  599.31380  599.31380    -999.25    0.24040    0.19660 2602.99610   14.00250  -89.07930  -16.18900   14.00250
 2000.00000  316.45680  263.78280  316.45680   94.81910  246.66470  246.66470 2171.72560    -999.25    0.29420    0.31480   10.54640  247.67190  247.67190   89.78700   52.48830   89.79720   89.78700   10.54640   10.90020   10.90020  306.07930  306.07930    -999.25    0.26010    0.21610 2171.72560   11.94160  -75.66850   -5.79020   11.94160
 2050.00000  293.74440  264.37050  293.74440   26.74890   -8.70720   -8.70720 1861.80810    -999.25    0.52240    0.49600   37.38470  308.14900  308.14900   60.27220   46.30330   67.94500   60.27220   37.38470   25.23990   25.23990  259.01070  259.01070    -999.25    0.54940    0.51220 1861.80810   59.73390  -74.94080   -8.28700   59.73390
 2100.00000  276.29380  245.31410  276.29380   61.56120  229.54060  229.54060 2506.39230    -999.25    0.08810    0.11910   16.24400  224.80140  224.80140   86.09110    -999.25   84.47150   86.09110   16.24400   23.32810   23.32810    -999.25    -999.25    -999.25    0.24520    0.20130 2506.39230   25.63060  -80.40230  -17.35060   25.63060
 2150.00000  286.06430  294.97790  286.06430  146.28870  172.47600  172.47600 2504.37720    -999.25    0.08940    0.12020    6.83580  270.03810  270.03810   93.72130    -999.25   92.92110   93.72130    6.83580    6.41240    6.41240    -999.25    -999.25    -999.25    0.38110    0.33790 2504.37720    7.22530  -61.18280   -1.66650    7.22530
 2200.00000  233.66380  217.96130  233.66380    0.50000   13.12640   13.12640 2411.36690    0.17250    0.14700    0.17460 2000.00000  251.09050  251.09050  260.38200    -999.25  272.60450  260.38200    -999.25    -999.25 2000.00000    -999.25    -999.25    0.24200    0.28280    0.24200 2411.36690 1975.96920  -91.39950  -33.26060 1975.96920
 2250.00000  254.88390  241.49860  254.88390  117.49220   45.55560   45.55560 2573.88160    0.07900    0.04750    0.07960    8.51120  209.72690  209.72690   75.99390    -999.25   78.05740   75.99390    8.51120   11.07490   11.07490    -999.25    -999.25    0.13460    0.17580    0.13460 2573.88160   17.85140 -120.00960  -63.24810   17.85140
 2300.00000  248.75290  238.68600  248.75290    7.62970    5.37850    5.37850 2710.09720    0.00180   -0.03520   -0.00010  131.06710  104.37000  104.37000   64.68360    -999.25   66.07610   64.68360  131.06710  137.27990  137.27990    -999.25    -999.25    0.04640    0.08590    0.04640 2710.09720  116.35170  -80.70040  -25.31630  116.35170
 2350.00000  265.27110  259.87820  265.27110   20.68620    4.17760    4.17760 2678.85300    0.01850   -0.01820    0.01820   48.34130  210.51020  210.51020  105.49300    -999.25  101.08540  105.49300   48.34130   51.41970   51.41970    -999.25    -999.25    0.11190    0.15040    0.11190 2678.85300   49.60690  -66.43130  -12.51500   49.60690
 2400.00000  292.77690  243.53140  292.77690    4.92280  223.28690  223.28690 2245.40820    0.27310    0.24150    0.27170  203.13520  158.98230  158.98230   36.99530    -999.25   42.62220   36.99530  203.13520  113.03230  113.03230    -999.25    -999.25    0.10710    0.14650    0.10710 2245.40820  148.54470  -97.97920  -45.68200  148.54470
 2450.00000  246.12270  228.62070  246.12270    6.08070   15.73250   15.73250 2695.74730    0.01250    -999.25    0.00830  164.45540  166.08420  166.08420   19.76060    -999.25   19.35250   19.76060  164.45540  240.40230  240.40230    -999.25    -999.25    0.08120    -999.25    0.08120 2695.74730  254.88490 -145.58830  -90.10740  254.88490
 2500.00000  247.28560  223.59790  247.28560   26.48040   26.78190   26.78190 2664.02370    0.02920    -999.25    0.02690   37.76380  174.66040  174.66040   19.01330    -999.25   19.93080   19.01330   37.76380   71.09990   71.09990    -999.25    -999.25    0.12370    -999.25    0.12370 2664.02370   96.55980 -128.28710  -66.99070   96.55980
 2550.00000  283.93930  241.37540  283.93930   60.34490  251.26990  251.26990 2541.40110    0.09710    -999.25    0.09860   16.57140  208.21900  208.21900   68.15180    -999.25   68.81210   68.15180   16.57140   14.17690   14.17690    -999.25    -999.25    0.12890    -999.25    0.12890 2541.40110   17.87530  -73.12890   -6.01700   17.87530
 2600.00000  231.58900  220.76040  231.58900  126.86330   72.71310   72.71310 2772.20360   -0.03570    -999.25   -0.03640    7.88250  181.86000  181.86000   28.25100    -999.25   25.56520   28.25100    7.88250   10.28870   10.28870    -999.25    -999.25    0.08350    -999.25    0.08350 2772.20360   27.44380 -140.82520  -73.28290   27.44380
 2650.00000  280.38330  232.36180  280.38330    4.78850  202.31230  202.31230 2669.97220    0.01920    -999.25    0.02340  208.83540  169.26480  169.26480   13.63010    -999.25   14.95230   13.63010  208.83540  623.23110  623.23110    -999.25    -999.25    0.00590    -999.25    0.00590 2669.97220  950.61660 -181.53550 -113.83410  950.61660
 2700.00000  242.36920  230.37390  242.36920  103.25250   12.58100   12.58100 2718.56130   -0.00120    -999.25   -0.00500    9.68500  196.81560  196.81560   71.85420    -999.25   82.79780   71.85420    9.68500   10.73390   10.73390    -999.25    -999.25    0.10120    -999.25    0.10120 2718.56130   25.16460 -132.90920  -65.04890   25.16460
 2750.00000  299.52020  239.85970  299.52020   41.51410  249.66710  249.66710 2529.38130    0.10180    -999.25    0.10560   24.08820  181.37710  181.37710   20.52300    -999.25   18.81280   20.52300   24.08820   21.08420   21.08420    -999.25    -999.25    0.03740    -999.25    0.03740 2529.38130   32.75460  -80.44160  -13.74440   32.75460
 2800.00000  250.90890  217.75070  250.90890    5.02300   25.03540   25.03540 2735.37450   -0.01430    -999.25   -0.01480  199.08590  172.05980  172.05980   25.72780    -999.25   28.72450   25.72780  199.08590  184.40040  184.40040    -999.25    -999.25    0.00910    -999.25    0.00910 2735.37450  171.35850 -122.67300  -58.87710  171.35850
