~Version ---------------------------------------------------
VERS.      2.0 : CWLS log ASCII Standard -VERSION 2.0
WRAP.       NO : One line per depth step
CREA. 12/21/17 : LAS Creation Date
~Well ------------------------------------------------------
STRT.FT                        1250.0 : START DEPTH
STOP.FT                       11500.0 : STOP DEPTH
STEP.FT                      50.00000 : STEP LENGTH
NULL.                         -999.25 : NULL VALUE
COMP.    CANADIAN HOMESTEAD OILS LTD. : COMPANY
WELL. HOMESTEAD RB ANTE CK 10-2-66-24 : WELL
FLD .                                 : FIELD
LOC .                                 : LOCATION
CTRY.                          CANADA : COUNTRY
SRVC.                    Schlumberger : SERVICE COMPANY
DATE.                     02-Sep-1962 : LOGDATE
PROV.                         Alberta : PROVINCE
UWI .                100100206624W500 : UNIQUE WELL ID
SLAT.WGS84                   54.68504 : SURFACE LATITUDE
SLON.WGS84                  -117.5129 : SURFACE LONGITUDE
~Curve Information -----------------------------------------
DEPT  .FT    : Depth Curve
CALSED.IN    : CALIPER FROM GR-CALIPER-SONIC LOG
CALWS .IN    : CALIPER [CALSED]
CILDED.MMHO  : DEEP INDUCTION CONDUCTIVITY FROM IEL LOG
CONDWS.MMHO  : CONDUCTIVITY [1000/DRESWS]
DRESWS.OHMM  : DEEP RESISTIVITY [ILDED]
DT1ED .US/F  : DELTA-T (1' SPAN)  FROM GR-CALIPER-SONIC LOG
DTED  .US/F  : ACOUSTIC TRANSIT TIME SLOWNESS (3' SPAN), DELTA T FROM GR-CALIPER-SONIC LOG
DTWS  .US/F  : COMPRESSIONAL SONIC [DTED]
GRSED .GAPI  : GAMMA RAY FROM GR-CALIPER-SONIC LOG
GRWS  .GAPI  : GAMMA RAY [GRSED]
ILDED .OHMM  : DEEP INDUCTION RESISTIVITY FROM IEL LOG
SNED  .OHMM  : SHORT NORMAL FROM IEL LOG
SPRED .MV    : SPONTANEOUS POTENTIAL FROM IEL LOG
SPWS  .MV    : SPONTANEOUS POTENTIAL [BASELINED 0 MV, SPRED]
SRESWS.OHMM  : SHALLOW RESISTIVITY [SNED]
~Params ----------------------------------------------------
PD  .                     GL : PERMANENT DATUM
EPD .FT                 2929 : ELEVATION PERMANENT DATUM
LMF .                     KB : LOG MEASURED FROM
DAPD.FT                   13 : FEET ABOVE PERMANENT DATUM
EKB .FT                 2942 : KELLY BUSHING
EGL .FT                 2929 : GROUND LEVEL
DATE.               09/02/62 : RUN DATE
RUN .                      1 : RUN NUMBER
DD  .FT                11515 : DEPTH DRILLER
DL  .FT                11527 : DEPTH LOGGER
BLI .FT                11526 : BOTTOM LOG INTERVAL
TLI .FT                 1237 : TOP LOG INTERVAL
CBD .FT                 1234 : CASING BOTTOM DRILLER
CBL .FT                 1237 : CASING BOTTOM LOGGER
BS  .IN                    9 : BIT SIZE
BSD .FT                11515 : BIT SIZE AT DEPTH
DFT .           GEL OIL CHEM : DRILLING FLUID TYPE
DFD .                     10 : DRILLING FLUID DENSITY
DFV .                     87 : DRILLING FLUID VISCOSITY
DFPH.                      9 : DRILLING FLUID PH
DFL .                   12.4 : DRILLING FLUID LOSS
RMS .OHMM               2.19 : RESISTIVITY MUD SAMPLE
MST .DEGF                 75 : MUD SAMPLE TEMPERATURE
RMF .OHMM               1.39 : RESISTIVITY MUD FILTRATE SAMPLE
MFST.DEGF                 73 : MUD FILTRATE SAMPLE TEMPERATURE
RMC .OHMM               2.51 : RESISTIVITY MUD CAKE
MCST.DEGF                 76 : MUD CAKE SAMPLE TEMPERATURE
RMB .OHMM               0.85 : RESISTIVITY MUD AT BHT
TCS .HRS                   4 : TIME CIRCULATED STOPPED
LUN .                   3534 : LOGGING UNIT NUMBER
LUL .                     WC : LOGGING UNIT LOCATION
ENGI.               HATLELID : RECORDING ENGINEER
WITN.                TIBBITT : WITNESSED BY
CLNT.                A2DTECH : CLIENT CODE
ORIG.            2" 5" PRINT : ORIGIN OF DATA
UWI .       100100206624W500 : UNIQUE WELL ID
DICO. A2D Technologies, Inc. : DIGITIZING COMPANY
~Other -----------------------------------------------------
~ASCII -----------------------------------------------------
# ...
 8150.00000    9.46710    9.46710    2.14710    2.50800  398.72030   50.89980   53.04630   53.04630   21.70000   21.70000  398.72030  159.03200 -220.06210 -195.25410  159.03200
 8200.00000    8.91220    8.91220   20.36320   20.39860   49.02300   53.16750   50.27240   50.27240   23.54080   23.54080   49.02300   81.94190 -236.66720 -217.74220   81.94190
 8250.00000    9.23790    9.23790    1.89530    4.43680  225.39000   52.01710   53.16780   53.16780   23.79960   23.79960  225.39000  114.75040 -240.66610 -227.58580  114.75040
 8300.00000    9.17340    9.17340   91.50290   92.33270   10.83040   72.84520   69.73070   69.73070   91.84680   91.84680   10.83040   18.91740 -127.82090 -120.58520   18.91740
 8350.00000   10.04020   10.04020  164.22210  159.14440    6.28360   63.07200   63.14260   63.14260   58.33990   58.33990    6.28360   10.46200 -108.54870 -107.19610   10.46200
 8400.00000   11.22440   11.22440  317.56850  283.09360    3.53240   59.13100   61.30720   61.30720   46.01110   46.01110    3.53240    6.75310  -40.28430  -42.97230    6.75310
 8450.00000   10.13000   10.13000   32.04500   31.93600   31.31260   53.64650   56.61340   56.61340   39.17290   39.17290   31.31260   41.41530  -71.70680  -73.20040   41.41530
 8500.00000    9.99430    9.99430   29.86940   28.59680   34.96900   62.91180   61.86290   61.86290   64.47680   64.47680   34.96900   45.49190 -104.31500 -104.62200   45.49190
 8550.00000    9.07780    9.07780   22.44700   22.69830   44.05620   55.56190   57.41300   57.41300   45.95580   45.95580   44.05620   46.52380 -169.95320 -169.07370   46.52380
 8600.00000    9.12960    9.12960    6.65620    6.13980  162.87070   52.32040   53.09860   53.09860   28.80290   28.80290  162.87070  125.45230 -107.14420 -105.07030  125.45230
 8650.00000    8.56210    8.56210    6.48720    6.42780  155.57500   52.60710   54.73790   54.73790   37.92650   37.92650  155.57500  130.02820  -72.56360  -69.30310  130.02820
 8700.00000    8.93470    8.93470    7.47770    7.84940  127.39800   55.53520   56.07690   56.07690   42.93620   42.93620  127.39800  103.15610 -136.66610 -132.21120  103.15610
 8750.00000    8.98400    8.98400    8.21450    7.94910  125.80040   54.05790   55.18000   55.18000   43.69610   43.69610  125.80040   97.92730  -58.02580  -52.38440   97.92730
 8800.00000    8.59270    8.59270    1.90190    4.25680  234.92000   51.85660   54.05690   54.05690   33.63720   33.63720  234.92000  174.05950 -101.84810  -95.02010  174.05950
 8850.00000    9.15200    9.15200    8.88980    9.85720  101.44900   56.73910   58.74460   58.74460   55.61310   55.61310  101.44900   82.26120  -71.87900  -63.85660   82.26120
 8900.00000    8.77340    8.77340    6.57670    7.55160  132.42250   54.34730   55.72760   55.72760   42.65470   42.65470  132.42250  124.74830 -127.36500 -118.15610  124.74830
 8950.00000    9.75040    9.75040    0.76640    3.69540  270.60830   50.03100   52.93680   52.93680   27.45540   27.45540  270.60830  114.34110  -95.13060  -84.72730  114.34110
 9000.00000    9.32650    9.32650    1.28040    2.57790  387.91500   50.83640   52.33330   52.33330   26.74370   26.74370  387.91500  251.04820 -197.35640 -185.76650  251.04820
 9050.00000    8.69870    8.69870    2.65300    2.33790  427.73130   49.27380   49.87850   49.87850   22.70200   22.70200  427.73130  188.44850 -242.58740 -229.81100  188.44850
 9100.00000    8.99870    8.99870    1.44120    2.44750  408.58800   50.73090   52.92880   52.92880   20.44370   20.44370  408.58800  216.34020 -240.81650 -226.84570  216.34020
 9150.00000    9.09900    9.09900    3.53730    4.48420  223.00740   50.44260   52.49430   52.49430   17.08360   17.08360  223.00740  150.69670 -257.09760 -241.94020  150.69670
 9200.00000    9.34670    9.34670    1.97680    2.62130  381.49720   52.10440   53.61240   53.61240   19.63470   19.63470  381.49720  156.61340 -221.32890 -204.97720  156.61340
 9250.00000   10.26960   10.26960    1.49720    2.09890  476.44170   51.44280   52.90630   52.90630   23.27950   23.27950  476.44170  124.21100 -251.29870 -233.76040  124.21100
 9300.00000    9.35240    9.35240    2.32570    5.87280  170.27570   50.25160   51.68800   51.68800   15.17330   15.17330  170.27570  140.71040 -174.99820 -156.27330  140.71040
 9350.00000    9.20730    9.20730    3.41460    4.53120  220.69310   53.32170   51.30530   51.30530   14.29160   14.29160  220.69310  115.35850 -209.95470 -190.03550  115.35850
 9400.00000    9.50740    9.50740    2.44850    4.24590  235.52340   52.33800   54.62380   54.62380   17.83030   17.83030  235.52340  137.04620 -270.48550 -249.37970  137.04620
 9450.00000    9.54090    9.54090    2.54930    4.48260  223.08250   52.73320   55.77120   55.77120   22.71850   22.71850  223.08250  141.35870 -224.28740 -201.98720  141.35870
 9500.00000    9.20000    9.20000    2.99250    3.64140  274.61610   54.01930   53.72560   53.72560   22.15790   22.15790  274.61610  150.44090 -292.41390 -268.92720  150.44090
 9550.00000    8.87840    8.87840    1.66460    3.52040  284.05830   49.94360   50.82180   50.82180   21.07920   21.07920  284.05830  144.05730 -202.12170 -177.44840  144.05730
 9600.00000    9.18440    9.18440    2.32940    2.00140  499.65070   50.24020   49.70070   49.70070   20.12130   20.12130  499.65070  184.35310 -167.52030 -141.65260  184.35310
 9650.00000    9.24930    9.24930    1.75820    2.09110  478.21390   47.77590   50.07290   50.07290   18.08470   18.08470  478.21390  235.27760 -148.60510 -121.55090  235.27760
 9700.00000    6.79980    6.79980   80.08410   78.26320   12.77740   56.13250   55.80400   55.80400   18.46460   18.46460   12.77740   58.03640 -244.97350 -216.72490   58.03640
 9750.00000    8.90590    8.90590    8.06710    9.08490  110.07330   51.58590   54.96150   54.96150   22.06540   22.06540  110.07330   93.85660 -246.01300 -216.57780   93.85660
 9800.00000    6.66680    6.66680   17.16860   17.58460   56.86790   51.87120   54.96510   54.96510   21.74640   21.74640   56.86790   72.72910 -279.28000 -248.65830   72.72910
 9850.00000    7.10560    7.10560   79.25630   73.84430   13.54200   52.01770   53.74640   53.74640   21.17350   21.17350   13.54200   42.20950 -299.69770 -267.88160   42.20950
 9900.00000    8.55370    8.55370   11.55950   12.13960   82.37520   54.82860   52.07960   52.07960   35.88840   35.88840   82.37520   58.80120 -231.68380 -198.68110   58.80120
 9950.00000    8.89430    8.89430    1.61130    3.30810  302.28730   51.59570   52.71260   52.71260   30.45400   30.45400  302.28730  180.98910 -213.60770 -179.41070  180.98910
 10000.00000    8.17900    8.17900    1.47240    1.99800  500.49610   52.24260   52.37330   52.37330   32.30630   32.30630  500.49610  239.32340 -136.29980 -100.91620  239.32340
 10050.00000    8.26500    8.26500    1.62730    2.29640  435.46550   50.93720   53.11800   53.11800   42.02310   42.02310  435.46550  198.92530  -60.62790  -24.05770  198.92530
 10100.00000    7.64450    7.64450    2.34890    2.56860  389.31700   50.95420   53.12000   53.12000   37.44750   37.44750  389.31700  175.59000  -49.14020  -11.51310  175.59000
 10150.00000    7.96740    7.96740    2.89810    2.30820  433.23460   49.36160   53.24610   53.24610   36.18710   36.18710  433.23460  190.29350  -72.70850  -36.87930  190.29350
 10200.00000    9.04010    9.04010    2.29090    2.72820  366.53550   50.87570   53.72790   53.72790   28.55320   28.55320  366.53550  183.71010 -146.39730 -110.45420  183.71010
 10250.00000    8.88750    8.88750   10.54760    9.40700  106.30380   54.45670   56.26300   56.26300   41.51660   41.51660  106.30380   89.97240 -228.64960 -191.25560   89.97240
 10300.00000    8.99700    8.99700   14.26470   13.58540   73.60850   54.39830   57.49620   57.49620   39.76850   39.76850   73.60850   68.05110 -296.90210 -258.05720   68.05110
 10350.00000    9.25160    9.25160   13.27580   12.10560   82.60620   54.26490   56.26370   56.26370   39.65710   39.65710   82.60620   81.29540 -296.90210 -256.59670   81.29540
 10400.00000    8.89170    8.89170   44.03490   41.72790   23.96480   63.73630   63.73080   63.73080   61.78520   61.78520   23.96480   32.99950 -296.90210 -255.14580   32.99950
