~Version ---------------------------------------------------
VERS.      2.0 : CWLS log ASCII Standard -VERSION 2.0
WRAP.       NO : One line per depth step
CREA. 12/12/17 : LAS Creation Date
~Well ------------------------------------------------------
STRT.FT                      1200.0 : START DEPTH
STOP.FT                     11750.0 : STOP DEPTH
STEP.FT                    50.00000 : STEP LENGTH
NULL.                       -999.25 : NULL VALUE
COMP.  DEKALB PETROLEUM CORPORATION : COMPANY
WELL. DEKALB ET AL PEERS 6-32-52-14 : WELL
FLD .                               : FIELD
LOC .                               : LOCATION
CTRY.                        CANADA : COUNTRY
SRVC.                  Schlumberger : SERVICE COMPANY
DATE.                   21-Aug-1968 : LOGDATE
PROV.                       Alberta : PROVINCE
UWI .              100063205214W500 : UNIQUE WELL ID
SLAT.WGS84                 53.53109 : SURFACE LATITUDE
SLON.WGS84                -116.0318 : SURFACE LONGITUDE
~Curve Information -----------------------------------------
DEPT  .FT    : Depth Curve
CALSED.IN    : CALIPER FROM SONIC LOG
CALWS .IN    : CALIPER [CALSED]
CONDWS.MMHO  : CONDUCTIVITY [1000/DRESWS]
DRESWS.OHMM  : DEEP RESISTIVITY [ILDED]
DTED  .US/F  : DELTA-TIME FROM SONIC LOG
DTWS  .US/F  : COMPRESSIONAL SONIC [DTED]
GRSED .GAPI  : GAMMA RAY FROM SONIC LOG
GRWS  .GAPI  : GAMMA RAY [GRSED]
ILDED .OHMM  : DEEP INDUCTION RESISTIVITY FROM RESISTIVITY LOG
ILMED .OHMM  : MEDIUM INDUCTION RESISTIVITY FROM RESISTIVITY LOG
LL8ED .OHMM  : LATEROLOG 8 RESISTIVITY FROM RESISTIVITY LOG
MRESWS.OHMM  : MEDIUM RESISTIVITY [ILMED]
SPRED .MV    : SPONTANEOUS POTENTIAL FROM RESISTIVITY LOG
SPWS  .MV    : SPONTANEOUS POTENTIAL [BASELINE 0 MV, SPRED]
SRESWS.OHMM  : SHALLOW RESISTIVITY [LL8ED]
~Params ----------------------------------------------------
PD  .                     GL : PERMANENT DATUM
EPD .FT               3044.5 : ELEVATION PERMANENT DATUM
LMF .                     KB : LOG MEASURED FROM
DAPD.FT                 13.5 : FEET ABOVE PERMANENT DATUM
EKB .FT                 3058 : KELLY BUSHING
EGL .FT               3044.5 : GROUND LEVEL
DATE.               08/21/68 : RUN DATE
RUN .                      1 : RUN NUMBER
DD  .FT                11760 : DEPTH DRILLER
DL  .FT                11767 : DEPTH LOGGER
BLI .FT                11762 : BOTTOM LOG INTERVAL
TLI .FT                 1227 : TOP LOG INTERVAL
CBD .FT                 1227 : CASING BOTTOM DRILLER
CBL .FT                 1227 : CASING BOTTOM LOGGER
BS  .IN                 8.75 : BIT SIZE
BSD .FT                11760 : BIT SIZE AT DEPTH
DFT .                    GEL : DRILLING FLUID TYPE
DFD .                    9.5 : DRILLING FLUID DENSITY
DFV .                     55 : DRILLING FLUID VISCOSITY
DFPH.                    8.5 : DRILLING FLUID PH
DFL .                    8.4 : DRILLING FLUID LOSS
MSS .             CIRCULATED : MUD SAMPLE SOURCE
RMS .OHMM               2.95 : RESISTIVITY MUD SAMPLE
MST .DEGF                 59 : MUD SAMPLE TEMPERATURE
RMF .OHMM               1.86 : RESISTIVITY MUD FILTRATE SAMPLE
MFST.DEGF                 67 : MUD FILTRATE SAMPLE TEMPERATURE
RMB .OHMM               2.73 : RESISTIVITY MUD AT BHT
TCS .HRS                   4 : TIME CIRCULATED STOPPED
LUN .                   7501 : LOGGING UNIT NUMBER
LUL .                    EDM : LOGGING UNIT LOCATION
ENGI.               STUEHMER : RECORDING ENGINEER
WITN.                 MCLEOD : WITNESSED BY
CLNT.                A2DTECH : CLIENT CODE
ORIG.            2" 5" PRINT : ORIGIN OF DATA
UWI .       100063205214W500 : UNIQUE WELL ID
DICO. A2D Technologies, Inc. : DIGITIZING COMPANY
~Other -----------------------------------------------------
DILL-BCS LOG RUN
ALL DATA FROM SMALL SECTION @ TOP-6588'
~ASCII -----------------------------------------------------
# ...
 10400.00000    9.86560    9.86560  171.61780    5.82690   72.02730   72.02730   74.04190   74.04190    5.82690    6.61410    8.12140    6.61410 -112.87110  -14.00780    8.12140
 10450.00000    9.32400    9.32400  115.83860    8.63270   67.71780   67.71780   65.66140   65.66140    8.63270    9.92550   12.64220    9.92550 -122.67050  -28.09550   12.64220
 10500.00000    9.71160    9.71160  145.75560    6.86080   71.99360   71.99360   73.23840   73.23840    6.86080    8.17660   11.12810    8.17660 -123.65310  -33.36630   11.12810
 10550.00000    9.58210    9.58210  110.14740    9.07970   75.21240   75.21240   83.36450   83.36450    9.07970   10.28280   16.22450   10.28280 -107.54120  -21.52130   16.22450
 10600.00000    9.67910    9.67910  125.94460    7.94000   75.00610   75.00610   76.48440   76.48440    7.94000    9.27780   13.16610    9.27780  -88.07120   -6.61170   13.16610
 10650.00000    9.20570    9.20570   11.34700   88.12940   73.18270   73.18270   95.00260   95.00260   88.12940  113.22070  234.21980  113.22070  -92.55550  -16.24900  234.21980
 10700.00000   10.36940   10.36940   51.41440   19.44980   95.61900   95.61900  115.07790  115.07790   19.44980   15.35840   26.81130   15.35840 -117.44890  -46.29550   26.81130
 10750.00000   10.48840   10.48840  158.59930    6.30520   77.68430   77.68430   77.37430   77.37430    6.30520    7.21190   10.50580    7.21190 -122.27330  -56.27290   10.50580
 10800.00000    9.34430    9.34430   14.48920   69.05770   55.04100   55.04100   27.48270   27.48270   69.05770  101.54840  167.60670  101.54840 -120.71080  -59.83770  167.60670
 10850.00000    9.44390    9.44390   26.53420   37.68720   58.65670   58.65670   35.96260   35.96260   37.68720   49.82490   66.25020   49.82490  -59.28350   -3.58910   66.25020
 10900.00000   10.28230   10.28230  139.94230    7.14580   70.76700   70.76700   68.85780   68.85780    7.14580    8.22790    9.79080    8.22790  -79.91860  -31.06290    9.79080
 10950.00000    9.41580    9.41580   67.30830   14.85700   60.78180   60.78180   51.28640   51.28640   14.85700   16.67750   18.97730   16.67750  -91.12530  -49.58380   18.97730
 11000.00000    9.22600    9.22600   37.77460   26.47280   55.89000   55.89000   34.09370   34.09370   26.47280   30.22020   35.80380   30.22020  -98.53510  -64.30780   35.80380
 11050.00000    9.26900    9.26900   21.39160   46.74740   54.51490   54.51490   26.97430   26.97430   46.74740   58.92910   64.75200   58.92910  -91.18760  -64.23800   64.75200
 11100.00000    9.57440    9.57440    1.71950  581.57570   51.93310   51.93310    9.98510    9.98510  581.57570  191.02280 1312.02280  191.02280  -82.38570  -62.78680 1312.02280
 11150.00000    8.76920    8.76920    9.90910  100.91720   54.35940   54.35940   32.14380   32.14380  100.91720   85.24720  105.32620   85.24720  -38.18090  -25.28650  105.32620
 11200.00000    9.36310    9.36310    0.65600 1524.35100   51.84950   51.84950   10.01540   10.01540 1524.35100  191.51680 1087.14340  191.51680 -170.66250 -161.27150 1087.14340
 11250.00000    9.70300    9.70300    0.67760 1475.84070   52.45060   52.45060   14.76970   14.76970 1475.84070  220.61210 1069.99850  220.61210 -126.42400 -120.53650 1069.99850
 11300.00000    9.17700    9.17700   46.06560   21.73910   59.37870   59.37870   90.61260   90.61260   21.73910   24.13390   66.74820   24.13390 -126.74430 -124.34270   66.74820
 11350.00000    8.91510    8.91510   16.85790   59.31950   55.91560   55.91560  103.12260  103.12260   59.31950   66.73600   82.39170   66.73600  -38.95830  -40.07770   82.39170
 11400.00000    9.18240    9.18240    6.84490  146.09400   53.67090   53.67090   78.21050   78.21050  146.09400  198.82940  101.47360  198.82940  -51.21420  -54.63670  101.47360
 11450.00000    9.03470    9.03470    1.63490  611.64040   51.22110   51.22110   54.25540   54.25540  611.64040  379.28350  266.80980  379.28350 -141.88580 -145.30830  266.80980
 11500.00000    9.79460    9.79460    0.85000 1176.46060   58.03870   58.03870   85.25780   85.25780 1176.46060  265.27160  199.01290  265.27160 -123.19790 -126.62040  199.01290
 11550.00000    8.60920    8.60920   34.69090   28.82640   47.73940   47.73940   12.28130   12.28130   28.82640   41.37190   80.68890   41.37190 -202.61990 -206.04240   80.68890
 11600.00000    8.80220    8.80220    9.14350  109.36680   48.37910   48.37910   14.71160   14.71160  109.36680   96.77940   47.31570   96.77940 -146.36210 -149.78460   47.31570
 11650.00000    8.81650    8.81650    4.38510  228.04320   49.66460   49.66460   53.06300   53.06300  228.04320  181.12960   85.10340  181.12960 -102.69990 -106.12240   85.10340
 11700.00000    8.81870    8.81870    2.20080  454.38220   50.90380   50.90380  114.43590  114.43590  454.38220  164.52450  524.54630  164.52450 -137.85270 -141.27520  524.54630
 11750.00000    8.78020    8.78020    4.86380  205.60210   55.84620   55.84620    -999.25    -999.25  205.60210  390.13930  251.00520  390.13930 -104.71170 -108.13420  251.00520
