~Version ---------------------------------------------------
VERS. 2.0 : CWLS log ASCII Standard -VERSION 2.0
WRAP.  NO : ONE LINE PER DEPTH STEP
~Well ------------------------------------------------------
STRT.M                       350.0 : START DEPTH
STOP.M                      1800.0 : STOP DEPTH
STEP.M                    50.00000 : STEP LENGTH
NULL.                      -999.25 : NULL VALUE
COMP. HUSKY OIL OPERATIONS LIMITED : COMPANY
WELL.       HUSKY NIPISI 9-33-80-9 : WELL
FLD .                              : FIELD
LOC .                              : LOCATION
CTRY.                       CANADA : COUNTRY
SRVC.                 Schlumberger : SERVICE COMPANY
DATE.                  13-Mar-1986 : LOGDATE
PROV.                      Alberta : PROVINCE
UWI .             100093308009W500 : UNIQUE WELL ID
SLAT.WGS84           55.9805450439 : SURFACE LATITUDE
SLON.WGS84         -115.3355407715 : SURFACE LONGITUDE
~Curve Information -----------------------------------------
DEPT    .M                                                           : DEPTH METERS
CALDED  .MM                                                          : CALIPER FROM DENSITY LOG [DEPTH ADJ TO RES.]
CALWS   .MM                                                          : CALIPER [CALDED]
CONDWS  .MMHO                                                        : CONDUCTIVITY [1000/DRESWS]
DCORWS  .KG/M3                                                       : DENSITY CORRECTION [DRHOED]
DENWS   .KG/M3                                                       : BULK DENSITY [CALCULATED FROM DPOLSWS]
DPHILSED.V/V                                                         : DENSITY POROSITY [M=2710 F=1000] FROM DENSITY LOG [DEPTH ADJ TO RES.]
DPHISSED.V/V                                                         : DENSITY POROSITY [M=2650 F=1000] FROM DENSITY LOG [DEPTH ADJ TO RES.]
DPOLSWS .V/V                                                         : DENSITY POROSITY LIMESTONE [CONVERTED TO M=2710 F=1000 ABOVE 501]
DRESWS  .OHMM                                                        : DEEP RESISTIVITY [ILDED]
DRHOED  .KG/M3                                                       : DENSITY CORRECTION FROM DENSITY LOG [DEPTH ADJ TO RES.]
GRWS    .GAPI                                                        : GAMMA RAY [SGRED] CSG @ 335M
ILDED   .OHMM                                                        : INDUCTION LOG DEEP RESISTIVITY
ILMED   .OHMM                                                        : INDUCTION LOG MEDIUM RESISTIVITY
MRESWS  .OHMM                                                        : MEDIUM RESISTIVITY [ILMED]
NPHILSED.V/V                                                         : NEUTRON POROSITY LIMESTONE FROM DENSITY LOG [DEPTH ADJ TO RES.]
NPHISSED.V/V                                                         : NEUTRON POROSITY SANDSTONE FROM DENSITY LOG [DEPTH ADJ TO RES.]
NPOLSWS .V/V :   NEUTRON POROSITY LIMESTONE [CONVERTED FROM NPHISSED : CO.=SWS, TOOL=CNL(NPHI). SIGMA IN=4.6, SIGMAOUT=7.1 ABOVE 5001]
PEFED   .B/E                                                         : PHOTOELECTRIC FACTOR FROM DENSITY LOG
PEFWS   .B/E                                                         : PHOTOELECTRIC FACTOR [PEFED]
RHOBED  .KG/M3                                                       : BULK DENSITY FROM DENSITY LOG [DEP ADJ TO DPHIED]
SFLUED  .OHMM                                                        : SPHERICALLY FOCUSED LOG RESISTIVITY
SGRED   .GAPI                                                        : SPECTROSCOPY GAMMA RAY
SPRED   .MV                                                          : SPONTANEOUS POTENTIAL FROM RESISTIVITY LOG
SPWS    .MV                                                          : SPONTANEOUS POTENTIAL [BASELINE 0 MV] [SPRED]
SRESWS  .OHMM                                                        : SHALLOW RESISTIVITY [SFLUED]
~Params ----------------------------------------------------
PD  .                          GL : PERMANENT DATUM
EPD .M                      640.7 : ELEVATION PERMANENT DATUM
LMF .                          KB : LOG MEASURED FROM
DAPD.M                        4.2 : FEET ABOVE PERMANENT DATUM
DMF .                          KB : DRILLING MEASURED FROM
EKB .M                      644.9 : KELLY BUSHING
EGL .M                      640.7 : GROUND LEVEL
DATE.                    13/03/86 : RUN DATE
RUN .                           1 : RUN NUMBER
DD  .M                       1805 : DEPTH DRILLER
DL  .M                     1805.2 : DEPTH LOGGER
BLI .M                     1804.5 : BOTTOM LOG INTERVAL
TLI .M                        335 : TOP LOG INTERVAL
CS  .MM                     206.5 : CASING SIZE
CBD .M                        335 : CASING BOTTOM DRILLER
CBL .M                        335 : CASING BOTTOM LOGGER
BS  .MM                       200 : BIT SIZE
BSD .M                       1805 : BIT SIZE AT DEPTH
DFT .                    CHEM GEL : DRILLING FLUID TYPE
DFD .                        1130 : DRILLING FLUID DENSITY
DFV .                          58 : DRILLING FLUID VISCOSITY
DFPH.                        10.5 : DRILLING FLUID PH
DFL .                          12 : DRILLING FLUID LOSS
MSS .                    FLOWLINE : MUD SAMPLE SOURCE
RMS .OHMM                    1.43 : RESISTIVITY MUD SAMPLE
MST .DEGC                      15 : MUD SAMPLE TEMPERATURE
RMF .OHMM                    1.25 : RESISTIVITY MUD FILTRATE SAMPLE
MFST.DEGC                      14 : MUD FILTRATE SAMPLE TEMPERATURE
RMC .OHMM                   0.678 : RESISTIVITY MUD CAKE
MCST.DEGC                      44 : MUD CAKE SAMPLE TEMPERATURE
MFSS.                           P : MUD FILTRATE SAMPLE SOURCE
MCSS.                           P : MUD CAKE SAMPLE SOURCE
RMB .OHMM                   0.798 : RESISTIVITY MUD AT BHT
TCS .HRS                     1200 : TIME CIRCULATED STOPPED
TLAB.HRS                     1553 : TIME LOGGER AT BOTTOM
LUN .                        8163 : LOGGING UNIT NUMBER
LUL .                          SL : LOGGING UNIT LOCATION
ENGI.                       GRANT : RECORDING ENGINEER
WITN.                    CHARTLER : WITNESSED BY
CLNT.                     A2DTECH : CLIENT CODE
ORIG. 6.5" /100M 16.5"/100M PRINT : ORIGIN OF DATA
UWI .            100093308009W500 : UNIQUE WELL ID
DICO.      A2D Technologies, Inc. : DIGITIZING COMPANY
~Other -----------------------------------------------------
~ASCII -----------------------------------------------------
  350.00000  227.31150  227.31150  200.52540  -13.72480 2102.36500    -999.25    0.33190    0.35530    4.98690  -13.72480   59.79140    4.98690    5.52420    5.52420    -999.25    0.49790    0.45620    2.45780    2.45780 2102.79490    5.50880   59.79140  -35.49330    1.97940    5.50880
  400.00000  285.64180  285.64180  303.91440   24.92690 1526.35000    -999.25    0.68100    0.69220    3.29040   24.92690   52.31280    3.29040    3.61270    3.61270    -999.25    0.56880    0.52710    1.49090    1.49090 1464.62820    2.97120   52.31280  -16.93340   -4.69330    2.97120
  450.00000  268.74990  268.74990  227.92020   52.17860 2229.08500    -999.25    0.25510    0.28120    4.38750   52.17860   65.31110    4.38750    4.21550    4.21550    -999.25    0.46590    0.42420    2.16840    2.16840 2228.06230    4.76390   65.31110  -22.71050   -9.56750    4.76390
  500.00000  395.65140  395.65140  198.83480   28.57050 1678.64500    -999.25    0.58870    0.60310    5.02930   28.57050   55.85320    5.02930    4.25530    4.25530    -999.25    0.49510    0.45340    1.67860    1.67860 1680.55370    4.03650   55.85320  -19.09750   -5.05170    4.03650
  550.00000  236.66930  236.66930    8.68610   27.89550 2463.58910    0.14410    0.10820    0.14410  115.12630   27.89550   15.47380  115.12630   96.38470   96.38470    0.14230    0.19960    0.14230    3.80900    3.80900 2463.67140  233.41000   15.47380  -23.28940  -13.42330  233.41000
  600.00000  309.45330  309.45330   76.39590   12.70840 2429.38890    0.16410    -999.25    0.16410   13.08970   12.70840   14.92680   13.08970    8.82150    8.82150    0.44370    -999.25    0.44370    3.65420    3.65420 2434.67360   66.29480   14.92680  -25.11770  -14.44830   66.29480
  650.00000  285.26540  285.26540  105.39410   -6.32080 2593.03590    0.06840    -999.25    0.06840    9.48820   -6.32080   37.81630    9.48820    8.64820    8.64820    0.14440    -999.25    0.14440    4.02130    4.02130 2593.24120    9.79780   37.81630  -26.14890   -8.80390    9.79780
  700.00000  344.16710  344.16710  310.41440   17.27120 1607.39200    0.64480    -999.25    0.64480    3.22150   17.27120   34.35090    3.22150    2.85290    2.85290    0.42490    -999.25    0.42490    1.62510    1.62510 1666.31670    3.33820   34.35090  -18.87570   -4.98970    3.33820
  750.00000  303.98070  303.98070   69.47920   -1.59480 2618.00200    0.05380    -999.25    0.05380   14.39280   -1.59480   24.81040   14.39280   13.86170   13.86170    0.06220    -999.25    0.06220    4.60960    4.60960 2613.79860   14.85980   24.81040  -14.20310   -4.34110   14.85980
  800.00000  250.53870  250.53870   49.47240    6.12990 2639.37700    0.04130    -999.25    0.04130   20.21330    6.12990   17.93170   20.21330   19.46730   19.46730    0.05560    -999.25    0.05560    4.54360    4.54360 2641.34200   29.15040   17.93170  -24.61610  -16.35470   29.15040
  850.00000  272.60400  272.60400   27.05840    0.90470 2657.84500    0.03050    -999.25    0.03050   36.95710    0.90470   23.74370   36.95710   31.57960   31.57960    0.02820    -999.25    0.02820    5.26680    5.26680 2659.33250   40.08990   23.74370  -26.83260  -15.71070   40.08990
  900.00000  278.20810  278.20810   22.37200    3.84770 2643.48100    0.03890    -999.25    0.03890   44.69870    3.84770   12.23920   44.69870   47.81100   47.81100    0.01560    -999.25    0.01560    5.75030    5.75030 2647.32670  212.91980   12.23920  -76.44070  -63.63940  212.91980
  950.00000  251.00380  251.00380   46.05770   28.29190 2542.07790    0.09820    -999.25    0.09820   21.71190   28.29190   12.74820   21.71190   31.41830   31.41830    0.07490    -999.25    0.07490    4.65720    4.65720 2547.47950   95.94510   12.74820  -84.93320  -70.45250   95.94510
 1000.00000  278.25600  278.25600   12.18270    8.28830 2643.82300    0.03870    -999.25    0.03870   82.08380    8.28830   11.74770   82.08380   73.99170   73.99170    0.02150    -999.25    0.02150    5.04240    5.04240 2646.65750 1811.73350   11.74770  -58.85390  -42.69380 1811.73350
 1050.00000  256.57180  256.57180   11.76520   -6.06010 2613.55590    0.05640    -999.25    0.05640   84.99640   -6.06010   10.18370   84.99640   71.86880   71.86880    0.02980    -999.25    0.02980    4.92990    4.92990 2614.34790 1263.65920   10.18370  -51.64400  -33.80450 1263.65920
 1100.00000  269.28810  269.28810   26.79580   -2.57750 2673.40600    0.02140    -999.25    0.02140   37.31930   -2.57750   15.09650   37.31930   33.27820   33.27820    0.02510    -999.25    0.02510    4.63020    4.63020 2671.65230   41.40510   15.09650  -50.19080  -30.67190   41.40510
 1150.00000  259.89790  259.89790   40.73470   23.54450 2691.36110    0.01090    -999.25    0.01090   24.54910   23.54450   15.98210   24.54910   36.77290   36.77290    0.13280    -999.25    0.13280    2.75400    2.75400 2696.65890   97.00850   15.98210  -74.64040  -53.44210   97.00850
 1200.00000  264.27220  264.27220  119.00650   -8.08300 2647.92700    0.03630    -999.25    0.03630    8.40290   -8.08300   44.13120    8.40290    8.06140    8.06140    0.16990    -999.25    0.16990    2.77630    2.77630 2648.21360    8.36500   44.13120  -35.96560  -20.91210    8.36500
 1250.00000  281.02180  281.02180  244.67230   98.40210 2076.78710    0.37030    -999.25    0.37030    4.08710   98.40210   60.26270    4.08710    3.43200    3.43200    0.37220    -999.25    0.37220    2.08060    2.08060 2097.81150    3.79370   60.26270  -24.65370  -16.09540    3.79370
 1300.00000  366.95990  366.95990  233.62300  160.83630 2257.87600    0.26440    -999.25    0.26440    4.28040  160.83630   57.63550    4.28040    4.12050    4.12050    0.28740    -999.25    0.28740    2.56680    2.56680 2252.54790    4.37290   57.63550  -18.48490    9.65190    4.37290
 1350.00000  376.54320  376.54320  368.37840  132.77440 2077.64210    0.36980    -999.25    0.36980    2.71460  132.77440   72.59810    2.71460    2.46330    2.46330    0.43500    -999.25    0.43500    2.38460    2.38460 2078.56130    2.89360   72.59810  -20.41010    6.78740    2.89360
 1400.00000  241.99200  241.99200  107.39640    3.03550 2628.60400    0.04760    -999.25    0.04760    9.31130    3.03550   49.32740    9.31130    8.96760    8.96760    0.13750    -999.25    0.13750    4.24430    4.24430 2633.63210   10.20130   49.32740   -4.54740   -1.98890   10.20130
 1450.00000  250.84580  250.84580  140.77960   27.28530 2578.33010    0.07700    -999.25    0.07700    7.10330   27.28530   53.76470    7.10330    6.84120    6.84120    0.16790    -999.25    0.16790    3.67810    3.67810 2578.77200    7.71420   53.76470   -3.76030   -7.14940    7.71420
 1500.00000  398.95110  398.95110  322.75760   61.76280 2093.54490    0.36050    -999.25    0.36050    3.09830   61.76280   74.65890    3.09830    2.88670    2.88670    0.44890    -999.25    0.44890    2.10590    2.10590 2039.10050    3.51140   74.65890  -14.86280  -21.16210    3.51140
 1550.00000  375.93390  375.93390  255.00450  188.61560 2158.18310    0.32270    -999.25    0.32270    3.92150  188.61560   62.40580    3.92150    3.20390    3.20390    0.42850    -999.25    0.42850    1.93860    1.93860 2149.32130    3.46750   62.40580  -14.84690  -23.91550    3.46750
 1600.00000  277.13260  277.13260   66.51320   71.60850 2330.89310    0.22170    -999.25    0.22170   15.03460   71.60850   50.98090   15.03460   13.05810   13.05810    0.10570    -999.25    0.10570    3.05240    3.05240 2340.54250   18.22290   50.98090   -4.35910  -16.19700   18.22290
 1650.00000  272.02530  272.02530   85.23260   -6.81190 2649.80810    0.03520    -999.25    0.03520   11.73260   -6.81190   46.67310   11.73260   11.21030   11.21030    0.11280    -999.25    0.11280    4.32680    4.32680 2651.03390   14.17310   46.67310    7.33820   -4.73430   14.17310
 1700.00000  195.85550  195.85550  204.91380   -0.32030 2320.12010    0.22800    -999.25    0.22800    4.88010   -0.32030   97.40960    4.88010    4.56800    4.56800    0.17770    -999.25    0.17770    2.18470    2.18470 2321.25320    7.57740   97.40960  -82.79280  -90.87620    7.57740
