~Version ---------------------------------------------------
VERS. 2.0 : CWLS log ASCII Standard -VERSION 2.0
WRAP.  NO : ONE LINE PER DEPTH STEP
~Well ------------------------------------------------------
STRT.F                      557.7428 : START DEPTH
STOP.F                    10838.7428 : STOP DEPTH
STEP.F                       0.50000 : STEP LENGTH
NULL.                        -999.25 : NULL VALUE
COMP.           PETROFINA CANADA LTD : COMPANY
WELL. FINA AMOCO HB FOXCK 6-35-60-18 : WELL
FLD .                                : FIELD
LOC .                                : LOCATION
CTRY.                         CANADA : COUNTRY
SRVC.         Schlumberger of Canada : SERVICE COMPANY
DATE.                    29-Aug-1976 : LOGDATE
PROV.                        Alberta : PROVINCE
UWI .               100063506018W500 : UNIQUE WELL ID
SLAT.WGS84                  54.22952 : SURFACE LATITUDE
SLON.WGS84                 -116.5928 : SURFACE LONGITUDE
~Curve Information -----------------------------------------
DEPT   .F                 : 
SPR    .MV                : SPONTANEOUS POTENTIAL FROM RESISTIVITY
ILD    .OHMM              : DEEP INDUCTION RESISTIVITY
ILM    .OHMM              : INDUCTION MEDIUM RESISTIVITY
LL8    .OHMM              : LATEROLOG-8 RESISTIVITY
CALD   .IN   70 280 01 00 : CALIPER
DCOR   .G/C3 45 356 01 00 : DENSITY CORRECTION
GRD    .GAPI 45 310 01 00 : GAMMA RAY FROM DENSITY LOG
RHOB   .G/C3 45 350 01 00 : BULK DENSITY
DPOR_SS.DEC               : DENSITY POROSITY SANDSTONE
NPOR_S .DEC               : ENCHANCED THERMAL NEUTRON POROSITY IN SELECTED LITHOLOGY SANDSTONE
DPOR_LS.DEC               : DENSITY POROSITY LIMESTONE
NPOR_LS.DEC               : ENCHANCED THERMAL NEUTRON POROSITY IN SELECTED LITHOLOGY SANDSTONE
DT     .US/F 60 520 00 00 : ACOUSTIC TRANSIT TIME SLOWNESS, DELTA T
CALS   .IN                : 
GRS    .GAPI              : GAMMA RAY FROM SONIC LOG
GR     .GAPI              : GAMMA RAY
~Params ----------------------------------------------------
PD  .                     GL : PERMANENT DATUM
EPD .FT                 3085 : ELEVATION PERMANENT DATUM
LMF .                     KB : LOG MEASURED FROM
DAPD.FT                 15.7 : FEET ABOVE PERMANENT DATUM
EKB .FT               3100.9 : KELLY BUSHING
EDF .FT               3085.2 : DRILLING FLOOR
EGL .FT               3085.5 : GROUND LEVEL
DATE.               08/29/76 : RUN DATE
RUN .                      1 : RUN NUMBER
DD  .FT                10843 : DEPTH DRILLER
DL  .FT                10840 : DEPTH LOGGER
BLI .FT                10834 : BOTTOM LOG INTERVAL
TLI .FT                 1119 : TOP LOG INTERVAL
CBD .FT                 1119 : CASING BOTTOM DRILLER
CBL .FT                 1119 : CASING BOTTOM LOGGER
BS  .IN                 8.75 : BIT SIZE
BSD .FT                10843 : BIT SIZE AT DEPTH
DFT .               GEL CHEM : DRILLING FLUID TYPE
DFD .                    9.3 : DRILLING FLUID DENSITY
DFV .                    150 : DRILLING FLUID VISCOSITY
DFPH.                   10.5 : DRILLING FLUID PH
DFL .                    7.0 : DRILLING FLUID LOSS
MSS .            CIRCULATION : MUD SAMPLE SOURCE
RMS .OHMM               2.43 : RESISTIVITY MUD SAMPLE
MST .DEGF                 76 : MUD SAMPLE TEMPERATURE
RMF .OHMM               2.33 : RESISTIVITY MUD FILTRATE SAMPLE
MFST.DEGF                 73 : MUD FILTRATE SAMPLE TEMPERATURE
RMC .OHMM               2.22 : RESISTIVITY MUD CAKE
MCST.DEGF                 67 : MUD CAKE SAMPLE TEMPERATURE
RMB .OHMM               0.86 : RESISTIVITY MUD AT BHT
TCS .HRS                   3 : TIME CIRCULATED STOPPED
LUN .                   7691 : LOGGING UNIT NUMBER
LUL .                    WCT : LOGGING UNIT LOCATION
ENGI.              CROCKFORD : RECORDING ENGINEER
WITN.                 HALKOW : WITNESSED BY
CLNT.                A2DTECH : CLIENT CODE
ORIG.            2" 5" PRINT : ORIGIN OF DATA
UWI .       100063506018W500 : UNIQUE WELL ID
DICO. A2D Technologies, Inc. : DIGITIZING COMPANY
~Other -----------------------------------------------------
~ASCII -----------------------------------------------------
# ...
 6362.74280  -48.47130   12.63970   14.08740   21.83200    9.75990    0.05840   47.78640    2.58000    0.04120    0.20330    -999.25    -999.25   70.20440    9.42240   47.95960    -999.25
 6363.24280  -48.28870   12.65630   14.33360   21.20500    9.76170    0.06490   47.35360    2.57620    0.04550    0.19750    -999.25    -999.25   70.32380    9.60110   48.85070    -999.25
 6363.74280  -48.31030   12.67300   14.75370   21.85860    9.76460    0.07560   47.81690    2.56800    0.04630    0.19330    -999.25    -999.25   70.62260    9.62030   48.92800    -999.25
 6364.24280  -48.38210   12.68960   15.20940   24.06390    9.80590    0.08600   49.56180    2.56250    0.04970    0.19150    -999.25    -999.25   70.84870    9.56420   47.67120    -999.25
 6364.74280  -48.37830   12.69200   15.38130   25.92890    9.90780    0.08090   52.09170    2.54920    0.05200    0.19420    -999.25    -999.25   70.69000    9.62260   45.81560    -999.25
 6365.24280  -48.07260   12.65080   15.05700   25.55820   10.04700    0.05960   54.57810    2.51370    0.05750    0.20050    -999.25    -999.25   70.14820    9.64740   44.64260    -999.25
 6365.74280  -47.24390   12.49470   14.52530   23.92520   10.15260    0.04690   56.05180    2.49230    0.07680    0.20500    -999.25    -999.25   69.46310    9.52870   44.61410    -999.25
 6366.24280  -45.70370   12.25150   13.99330   22.23970   10.20540    0.04190   56.22840    2.49480    0.09490    0.20520    -999.25    -999.25   69.08900    9.38310   45.03550    -999.25
 6366.74280  -43.66710   12.01300   13.48050   20.81120   10.23990    0.04050   55.20110    2.49650    0.09890    0.20310    -999.25    -999.25   69.69530    9.30560   45.71840    -999.25
 6367.24280  -41.69200   11.77920   12.98620   19.71040   10.24780    0.05110   54.12030    2.50240    0.09570    0.20200    -999.25    -999.25   70.96110    9.29500   47.07030    -999.25
 6367.74280  -40.00090   11.54990   12.56840   18.86210   10.24090    0.06980   54.28850    2.51260    0.09190    0.20660    -999.25    -999.25   72.11770    9.31490   48.92330    -999.25
 6368.24280  -38.64630   11.44620   12.35550   18.24610   10.23050    0.07870   55.38020    2.50270    0.08390    0.21870    -999.25    -999.25   72.69190    9.39470   51.27030    -999.25
 6368.74280  -37.52720   11.60810   12.30540   17.65880   10.24940    0.07080   56.59070    2.47430    0.08620    0.23480    -999.25    -999.25   72.48530    9.54690   53.65590    -999.25
 6369.24280  -36.45720   12.07220   12.33750   17.19430   10.30110    0.05350   57.19880    2.42760    0.10070    0.25720    -999.25    -999.25   71.82280    9.77920   55.04260    -999.25
 6369.74280  -34.99160   13.12850   12.69060   17.20910   10.37420    0.03000   56.41230    2.35280    0.12120    0.28490    -999.25    -999.25   71.19700    9.97620   55.37600    -999.25
 6370.24280  -32.87980   14.72220   13.53290   18.06340   10.44000    0.00280   54.53260    2.25280    0.15510    0.31280    -999.25    -999.25   71.43190   10.04400   55.69270    -999.25
 6370.74280  -30.66750   16.50930   14.63070   19.92460   10.46410   -0.01020   52.68970    2.11370    0.20410    0.34170    -999.25    -999.25   72.48880   10.04530   56.32190    -999.25
 6371.24280  -28.77390   18.51340   15.80080   23.51880   10.50890    0.01080   53.19510    1.95010    0.26790    0.38550    -999.25    -999.25   73.87400   10.00240   56.83050    -999.25
 6371.74280  -27.29590   20.47990   17.06440   32.73450   10.88360    0.04360   57.06330    1.77810    0.35150    0.44870    -999.25    -999.25   76.00460    9.94790   57.16840    -999.25
 6372.24280  -26.13720   22.33690   18.42770   55.81250   11.81560    0.05590   63.49380    1.61920    0.42470    0.50720    -999.25    -999.25   78.40280    9.95870   57.21020    -999.25
 6372.74280  -24.95610   24.33580   19.89850  101.84370   12.95620    0.06390   71.13110    1.60590    0.45010    0.55250    -999.25    -999.25   79.70980   10.02290   56.90970    -999.25
 6373.24280  -23.64700   26.09370   21.14050  115.37820   12.39900    0.08020   76.62110    1.76820    0.45010    0.56490    -999.25    -999.25   81.66580   10.13370   55.86770    -999.25
 6373.74280  -22.18260   26.64150   21.78780   79.02900   10.95220    0.10740   79.27580    1.97860    0.45010    0.53660    -999.25    -999.25   87.08340   10.22880   54.18190    -999.25
 6374.24280  -20.75140   25.44840   21.96200   54.26300   10.82900    0.15330   81.03170    2.10450    0.43300    0.50210    -999.25    -999.25   95.43240   10.24130   52.48200    -999.25
 6374.74280  -19.38990   23.16570   21.75760   44.62820   11.19590    0.17720   83.14460    2.12520    0.37730    0.48560    -999.25    -999.25  106.07280   10.30290   52.11090    -999.25
 6375.24280  -18.12390   20.78420   20.51220   38.22090   11.30450    0.15900   85.98900    2.10960    0.32620    0.48140    -999.25    -999.25  117.57740   10.54840   55.78660    -999.25
 6375.74280  -17.04260   18.97260   18.48950   35.41310   11.61680    0.15640   89.39170    2.11940    0.31770    0.47410    -999.25    -999.25  121.74710   11.00910   63.30250    -999.25
 6376.24280  -15.98770   17.75160   16.66670   35.26860   12.04160    0.15960   92.94570    2.17440    0.32710    0.46790    -999.25    -999.25  117.44890   11.29860   71.40700    -999.25
 6376.74280  -15.10750   16.75080   15.15460   32.26080   11.82360    0.11280   96.46410    2.23670    0.31430    0.45180    -999.25    -999.25  109.30140   11.07050   77.98210    -999.25
 6377.24280  -14.51410   15.91760   14.40470   26.14590   11.04490    0.05340   98.96810    2.32560    0.28200    0.42110    -999.25    -999.25  100.97580   10.99110   82.10830    -999.25
 6377.74280  -14.02180   15.18290   14.23290   22.10470   10.43300    0.04200   99.01450    2.43870    0.24330    0.38580    -999.25    -999.25   98.62610   11.40440   83.86940    -999.25
 6378.24280  -13.48890   14.48900   13.91200   21.66740   10.44060    0.06060   97.56670    2.51010    0.18450    0.35960    -999.25    -999.25  100.36080   11.36120   84.46890    -999.25
 6378.74280  -13.01570   14.06540   13.36110   21.99220   10.79770    0.05900   96.97470    2.51540    0.11600    0.34880    -999.25    -999.25  101.45380   11.00050   84.96450    -999.25
 6379.24280  -12.72720   14.00950   12.86480   20.00130   10.66620    0.03190   97.15660    2.50410    0.08080    0.33890    -999.25    -999.25   99.16830   11.03980   85.63000    -999.25
 6379.74280  -12.57500   14.08300   12.79630   16.53200   10.11230    0.01800   96.68160    2.50840    0.08720    0.32070    -999.25    -999.25   93.76150   10.90540   86.76030    -999.25
 6380.24280  -12.64630   14.12680   13.12000   14.41970   10.04530    0.03380   94.94160    2.52940    0.09360    0.29900    -999.25    -999.25   87.17980   10.56970   88.65060    -999.25
 6380.74280  -12.89080   14.12100   13.51560   14.74730    9.99270    0.03970   92.04780    2.54550    0.08380    0.27880    -999.25    -999.25   81.92640   10.46660   90.68320    -999.25
 6381.24280  -13.24070   14.11510   13.74890   17.05840    9.95380    0.03090   89.45290    2.55780    0.06760    0.26680    -999.25    -999.25   80.38790   10.51980   91.06200    -999.25
 6381.74280  -13.72300   14.14220   13.59230   19.84980    9.92300    0.02580   87.96610    2.57490    0.06090    0.26940    -999.25    -999.25   80.77380   10.68740   89.94210    -999.25
 6382.24280  -14.28970   14.22800   13.19180   21.11380    9.90050    0.05190   86.41190    2.60640    0.05450    0.28250    -999.25    -999.25   79.89080   10.70740   88.88700    -999.25
 6382.74280  -14.87360   14.33940   12.85710   18.81150    9.88080    0.10490   84.38010    2.63040    0.04120    0.29820    -999.25    -999.25   77.19030   10.47890   89.11250    -999.25
 6383.24280  -15.39550   14.46410   12.83810   15.24260    9.86120    0.09910   82.37550    2.59840    0.01500    0.29860    -999.25    -999.25   74.56120   10.18560   90.65130    -999.25
 6383.74280  -15.69810   14.60400   13.09020   14.39350    9.84150    0.05420   80.55900    2.57550    0.01730    0.27610    -999.25    -999.25   72.94070    9.93620   91.80610    -999.25
