~Version ---------------------------------------------------
VERS.      2.0 : CWLS log ASCII Standard -VERSION 2.0
WRAP.       NO : ONE LINE PER DEPTH STEP
CREA. 08/16/13 : LAS CREATION DATE
~Well ------------------------------------------------------
STRT.M                         400.0 : START DEPTH
STOP.M                        3750.0 : STOP DEPTH
STEP.M                      50.00000 : STEP LENGTH
NULL.                        -999.25 : NULL VALUE
COMP.         BERKLEY PETROLEUM CORP : COMPANY
WELL. BPC CHEVRON WASKAHIGAN 11-36-6 : WELL
FLD .                                : FIELD
LOC .                                : LOCATION
CTRY.                         CANADA : COUNTRY
SRVC.                   Schlumberger : SERVICE COMPANY
DATE.                    04-Dec-1997 : LOGDATE
PROV.                        Alberta : PROVINCE
UWI .               100113606225W500 : UNIQUE WELL ID
SLAT.WGS84                  54.40909 : SURFACE LATITUDE
SLON.WGS84                 -117.6177 : SURFACE LONGITUDE
~Curve Information -----------------------------------------
DEPT    .M      : DEPTH METERS
AT10ED  .OHMM   : 10 INCH RESISTIVITY TWO FOOT RESOLUTION FROM AIT LOG
AT20ED  .OHMM   : 20 INCH RESISTIVITY TWO FOOT RESOLUTION FROM AIT LOG
AT30ED  .OHMM   : 30 INCH RESISTIVITY TWO FOOT RESOLUTION FROM AIT LOG
AT60ED  .OHMM   : 60 INCH RESISTIVITY TWO FOOT RESOLUTION FROM AIT LOG
AT90ED  .OHMM   : 90 INCH RESISTIVITY TWO FOOT RESOLUTION FROM AIT LOG
CALD2ED .MM     : CALIPER 2 FROM CND LOG
CALWS   .MM     : CALIPER [HCALDED]
CONDWS  .MMHO   : CONDUCTIVITY [1000/DRESWS]
DCORWS  .KG/M3  : DENSITY CORRECTION [HDRAED]
DENWS   .KG/M3  : BULK DENSITY [M=2710 F=1000] [RHOZED]
DPHZLSED.V/V    : HRDD STANDARD RESOLUTION DENSITY POROSITY LIMESTONE FROM CND LOG
DPHZSSED.V/V    : HRDD STANDARD RESOLUTION DENSITY POROSITY SANDSTONE FROM CND LOG
DPOLSWS .V/V    : DENSITY POROSITY [M=2710 F=1000] [CALCULATED FROM DENWS]
DRESWS  .OHMM   : DEEP RESISTIVITY [AT90ED]
DTED    .US/M   : DELTA TIME FROM SONIC LOG
DTWS    .US/M   : DELTA TIME [DTED]
GRSED   .GAPI   : GAMMA RAY FROM SONIC LOG [IN CASING<417M]
GRWS    .GAPI   : GAMMA RAY [GRSED]
HCALDED .MM     : HILT CALIPER FROM CND LOG
HDED    .MM     : HOLE DIAMETER FROM CND LOG
HDRAED  .KG/M3  : DENSITY CORRECTION FROM CND LOG
MRESWS  .OHMM   : MEDIUM RESISTIVITY [AT30ED]
NPOLSWS .V/V    : NEUTRON POROSITY LIMESTONE [SPLICED NPORSSED [CONVERTED TO LIME] TO NPORLSED @2451M]
NPORLSED.V/V    : NEUTRON POROSITY LIMESTONE FROM CND LOG
NPORSSED.V/V    : NEUTRON POROSITY SANDSTONE FROM CND LOG [IN CASING<417M]
PEFWS   .B/E    : PHOTOELECTRIC FACTOR [PEFZED]
PEFZED  .B/E    : PHOTOELECTRIC FACTOR STANDARD RESOLUTION FROM CND LOG
RHOZED  .KG/M3  : BULK DENSITY HRDD STANDARD RESOLUTION FROM CND LOG
RXOZED  .OHMM   : STANDARD RESOLUTION INVADED ZONE RESISTIVITY FROM AIT LOG
SPRED   .MV     : SPONTANEOUS POTENTIAL FROM AIT LOG
SPWS    .MV     : SPONTANEOUS POTENTIAL [BASELINE 0 MV] [SPRED]
SRESWS  .OHMM   : SHALLOW RESISTIVITY [AT10ED]
TENDED  .N      : TENSION FROM CND LOG
~Params ----------------------------------------------------
PD  .                                  GL : PERMANENT DATUM
EPD .M                             897.86 : ELEVATION PERMANENT DATUM
LMF .                                  KB : LOG MEASURED FROM
DAPD.M                                7.2 : FEET ABOVE PERMANENT DATUM
DMF .                                  KB : DRILLING MEASURED FROM
EKB .M                             905.09 : KELLY BUSHING
EDF .M                              804.6 : DRILLING FLOOR
EGL .M                             897.88 : GROUND LEVEL
DATE.                            12/04/97 : RUN DATE
RUN .                                   1 : RUN NUMBER
DD  .M                               3795 : DEPTH DRILLER
DL  .M                               3792 : DEPTH LOGGER
BLI .M                             3787.5 : BOTTOM LOG INTERVAL
TLI .M                               2452 : TOP LOG INTERVAL
CS  .MM                             177.8 : CASING SIZE
CBD .M                               2450 : CASING BOTTOM DRILLER
CBL .M                               2452 : CASING BOTTOM LOGGER
BS  .MM                               156 : BIT SIZE
BSD .M                               3795 : BIT SIZE AT DEPTH
DFT .                            GEL CHEM : DRILLING FLUID TYPE
DFD .                                1090 : DRILLING FLUID DENSITY
DFV .                                  80 : DRILLING FLUID VISCOSITY
DFPH.                                  10 : DRILLING FLUID PH
DFL .                                 8.5 : DRILLING FLUID LOSS
MSS .                            MEASURED : MUD SAMPLE SOURCE
RMS .OHMM                            1.43 : RESISTIVITY MUD SAMPLE
MST .DEGC                              14 : MUD SAMPLE TEMPERATURE
RMF .OHMM                             1.2 : RESISTIVITY MUD FILTRATE SAMPLE
MFST.DEGC                              14 : MUD FILTRATE SAMPLE TEMPERATURE
RMC .OHMM                            1.65 : RESISTIVITY MUD CAKE
MCST.DEGC                              14 : MUD CAKE SAMPLE TEMPERATURE
MFSS.                            MEASURED : MUD FILTRATE SAMPLE SOURCE
MCSS.                          CALCULATED : MUD CAKE SAMPLE SOURCE
RMB .OHMM                           0.452 : RESISTIVITY MUD AT BHT
TCS .HRS                             2200 : TIME CIRCULATED STOPPED
TLAB.HRS                              500 : TIME LOGGER AT BOTTOM
LUN .                                2005 : LOGGING UNIT NUMBER
LUL .                               NISKU : LOGGING UNIT LOCATION
ENGI.                                 DIP : RECORDING ENGINEER
WITN.                              COOPER : WITNESSED BY
CLNT.                             A2DTECH : CLIENT CODE
ORIG. 6.5"/100M 16.5"/100M 33"/100M PRINT : ORIGIN OF DATA
UWI .                    100113606225W500 : UNIQUE WELL ID
DICO.              A2D Technologies, Inc. : DIGITIZING COMPANY
~Other -----------------------------------------------------
1. ALL CURVES APPEAR ON DEPTH
~ASCII -----------------------------------------------------
  400.00000    -999.25    -999.25    -999.25    -999.25    -999.25    -999.25    -999.25    -999.25    -999.25    -999.25    -999.25    -999.25    -999.25    -999.25    -999.25    -999.25   55.21440   55.21440    -999.25    -999.25    -999.25    -999.25    0.49940    -999.25    0.53020    -999.25    -999.25    -999.25    -999.25    -999.25    -999.25    -999.25    -999.25
  450.00000    3.30440    3.55590    4.21680    4.55520    4.71060    -999.25  285.61370  212.28720  310.46450 2129.80300    -999.25    0.29220    0.33930    4.71060  344.80780  344.80780   97.05990   97.05990  285.61370  237.17630  310.46450    4.21680    0.36000    -999.25    0.40460    4.49620    4.49620 2129.80300    2.46580   39.24430  -11.17810    3.30440 10333.39450
  500.00000   10.35240   12.00750   13.03910   12.53140   12.78800    -999.25  221.07500   78.19830   32.27460 2503.07810    -999.25    0.09270    0.12100   12.78800  250.14730  250.14730   72.92680   72.92680  221.07500  221.87610   32.27460   13.03910    0.19270    -999.25    0.24530    3.84370    3.84370 2503.07810   14.40730   46.39420   -4.02820   10.35240 10734.82520
  550.00000    4.51700    5.13110    5.72060    6.25480    6.44250    -999.25  221.83900  155.21920    2.05540 2430.47000    -999.25    0.13450    0.16350    6.44250  299.98790  299.98790  109.10160  109.10160  221.83900  252.52840    2.05540    5.72060    0.32500    -999.25    0.37230    3.19590    3.19590 2430.47000    4.88940   46.38600   -3.94100    4.51700 10813.02730
  600.00000    2.46710    3.01950    3.58550    3.44430    3.86740    -999.25  221.06420  258.57170   30.31620 2216.10210    -999.25    0.26940    0.28880    3.86740  385.06440  385.06440  116.80980  116.80980  221.06420  269.75590   30.31620    3.58550    0.42020    -999.25    0.45900    2.70840    2.70840 2216.10210    2.87170   46.12980   -3.54410    2.46710 10982.63770
  650.00000    3.16870    3.78000    4.10500    4.72460    5.11100    -999.25  223.82060  195.65640  193.51530 2226.09330    -999.25    0.25410    0.28300    5.11100  345.22220  345.22220  104.37090  104.37090  223.82060  278.10050  193.51530    4.10500    0.35460    -999.25    0.39970    2.90080    2.90080 2226.09330    2.49340   43.63230   -5.38840    3.16870 11652.35450
  700.00000    4.97610    5.66170    5.94500    6.97250    6.99140    -999.25  226.75810  143.03290   77.55800 2474.76810    -999.25    0.10870    0.13760    6.99140  313.19040  313.19040  106.94510  106.94510  226.75810  233.30660   77.55800    5.94500    0.24770    -999.25    0.29910    3.49530    3.49530 2474.76810    5.77310   43.83990   -4.52760    4.97610 11750.29100
  750.00000   15.03150   16.65150   17.60430   18.40110   18.95100    -999.25  222.12860   52.76770    6.45380 2431.50120    -999.25    0.13180    0.16290   18.95100  265.82080  265.82080   77.91020   77.91020  222.12860  216.23360    6.45380   17.60430    0.18620    -999.25    0.23870    2.89790    2.89790 2431.50120   16.37250   36.31060  -11.40370   15.03150 11932.87500
  800.00000    6.00820    5.70480    6.57880    5.88540    6.41530    -999.25  222.05150  155.87740    5.02570 2456.89530    -999.25    0.11720    0.14800    6.41530  281.79570  281.79570   90.62810   90.62810  222.05150  222.56560    5.02570    6.57880    0.25760    -999.25    0.30870    3.03900    3.03900 2456.89530    5.18460   43.23280   -3.82830    6.00820 12296.04690
  850.00000    3.60580    4.03740    4.31890    4.90030    5.05730    -999.25  222.55350  197.73400   71.31670 2414.32230    -999.25    0.15660    0.17290    5.05730  334.14610  334.14610   98.07260   98.07260  222.55350  244.60700   71.31670    4.31890    0.28870    -999.25    0.33830    2.95920    2.95920 2414.32230    3.26820   43.57740   -2.83050    3.60580 12734.37210
  900.00000   10.81600   11.73660   13.80460   13.79010   14.04570    -999.25  217.53590   71.19620   29.04740 2275.79910    -999.25    0.22430    0.25390   14.04570  290.45450  290.45450   59.49860   59.49860  217.53590  224.45770   29.04740   13.80460    0.23770    -999.25    0.28940    2.48880    2.48880 2275.79910   14.78380   31.38130  -14.37350   10.81600 12420.98140
  950.00000   10.04410    9.70600   11.01320   10.58950   11.00640    -999.25  238.82170   90.85620    4.06510 2504.03130    -999.25    0.09730    0.12040   11.00640  252.84060  252.84060   64.63350   64.63350  238.82170  233.15700    4.06510   11.01320    0.19140    -999.25    0.24400    2.94930    2.94930 2504.03130    9.54690   38.41220   -6.68940   10.04410 13097.13090
 1000.00000    6.55310    7.69030    7.83520    8.14050    8.38450    -999.25  242.15620  119.26770    5.56330 2474.42190    -999.25    0.10750    0.13780    8.38450  267.47380  267.47380   59.12530   59.12530  242.15620  242.02830    5.56330    7.83520    0.21500    -999.25    0.26750    3.19450    3.19450 2474.42190    7.69450   39.46530   -4.98310    6.55310 13367.55570
 1050.00000    5.78630    6.09250    6.73380    7.02190    8.04940    -999.25  245.21340  124.23290   56.05480 2384.32670    -999.25    0.16230    0.19050    8.04940  303.78390  303.78390   71.25400   71.25400  245.21340  237.21470   56.05480    6.73380    0.30040    -999.25    0.34930    3.20880    3.20880 2384.32670    5.48700   36.76060   -7.03460    5.78630 13730.55960
 1100.00000    6.81960    7.30810    7.51930    7.83120    8.16290    -999.25  240.10640  122.50550  406.93440 2476.62920    -999.25    0.10430    0.13650    8.16290  289.39190  289.39190   78.92800   78.92800  240.10640  226.89880  406.93440    7.51930    0.27350    -999.25    0.32380    3.28250    3.28250 2476.62920    5.08560   38.21880   -4.92320    6.81960 13945.91600
 1150.00000    4.86440    5.35550    5.95300    5.95290    6.29470    -999.25  227.85650  158.86380   54.04240 2427.47710    -999.25    0.12310    0.16520    6.29470  281.63440  281.63440   74.79790   74.79790  227.85650  245.75900   54.04240    5.95300    0.27290    -999.25    0.32330    3.10280    3.10280 2427.47710    4.79190   35.93400   -6.55480    4.86440 14324.75880
 1200.00000    6.11700    6.73390    7.10280    7.24830    7.90900    -999.25  240.23890  126.43820   38.62510 2518.02830    -999.25    0.09150    0.11230    7.90900  295.67320  295.67320   82.46170   82.46170  240.23890  242.34790   38.62510    7.10280    0.29520    -999.25    0.34440    3.39480    3.39480 2518.02830    7.79650   35.68280   -6.15290    6.11700 14438.36130
 1250.00000   10.25110   11.37880   12.41120   12.45090   13.27790    -999.25  225.89380   75.31310   87.71210 2632.67940    -999.25    0.00550    0.04520   13.27790  259.51150  259.51150  100.75510  100.75510  225.89380  232.73980   87.71210   12.41120    0.25870    -999.25    0.30970    3.82210    3.82210 2632.67940   13.47340   31.67610   -9.50640   10.25110 14854.45900
 1300.00000   15.04640   17.06180   17.37390   17.39900   17.86470    -999.25  229.22960   55.97630   20.84200 2610.56590    -999.25    0.02490    0.05810   17.86470  270.59870  270.59870  104.85450  104.85450  229.22960  238.48830   20.84200   17.37390    0.23370    -999.25    0.28560    3.43210    3.43210 2610.56590   18.81200   31.05320   -9.47610   15.04640 14714.39840
 1350.00000    6.09500    7.55830    7.90600    8.11510    8.32730    -999.25  243.07650  120.08690  149.79610 2528.82760    -999.25    0.07200    0.10590    8.32730  305.09070  305.09070  122.39720  122.39720  243.07650  277.72400  149.79610    7.90600    0.30000    -999.25    0.34890    3.22100    3.22100 2528.82760    6.77720   30.26970   -9.60640    6.09500 15267.06050
 1400.00000    9.47700   11.08770   11.77850   12.25100   13.17380    -999.25  227.59820   75.90820   57.83550 2717.53340    -999.25   -0.06550   -0.00440   13.17380  285.09950  285.09950  118.20370  118.20370  227.59820  280.29480   57.83550   11.77850    0.26710    -999.25    0.31770    5.56600    5.56600 2717.53340   14.21140   27.98230  -11.24060    9.47700 15173.69430
 1450.00000    7.46850    8.85420    8.97970    9.05840    9.79280    -999.25  238.03050  102.11580   66.85210 2544.08030    -999.25    0.06380    0.09700    9.79280  286.32470  286.32470  119.29470  119.29470  238.03050  259.22280   66.85210    8.97970    0.29040    -999.25    0.33990    3.05860    3.05860 2544.08030    8.79970   29.53960   -9.03010    7.46850 15497.51460
