~Version ---------------------------------------------------
VERS.      2.0 : CWLS log ASCII Standard -VERSION 2.0
WRAP.       NO : One line per depth step
CREA. 09/17/14 : LAS Creation Date
~Well ------------------------------------------------------
STRT.M                        600.0 : START DEPTH
STOP.M                       4650.0 : STOP DEPTH
STEP.M                     50.00000 : STEP LENGTH
NULL.                       -999.25 : NULL VALUE
COMP.     GULF CANADA RESOURCES INC : COMPANY
WELL. GULF ET AL HANLAN 11-25-47-18 : WELL
FLD .                        HANLAN : FIELD
LOC .                               : LOCATION
CTRY.                        CANADA : COUNTRY
SRVC.                  Schlumberger : SERVICE COMPANY
DATE.                   07-Oct-1981 : LOGDATE
PROV.                       Alberta : PROVINCE
UWI .              100112504718W500 : UNIQUE WELL ID
SLAT.WGS84                 53.08538 : SURFACE LATITUDE
SLON.WGS84                -116.5027 : SURFACE LONGITUDE
~Curve Information -----------------------------------------
DEPT    .M      : DEPTH METER
CALDED  .MM     : CALIPER FROM DENSITY LOG [ADJ. TO RESISTIVITY LOG]
CALSED  .MM     : CALIPER FROM SONIC LOG [ADJ. TO RESISTIVITY LOG]
CALWS   .MM     : CALIPER [CALDED]
CONDWS  .MMHO   : CONDUCTIVITY [1000/DRESWS]
CORRED  .KG/M3  : DENSITY CORRECTION FROM DENSITY LOG [ADJ. TO RESISTIVITY LOG]
DCORWS  .KG/M3  : DENSITY CORRECTION [CORRED]
DENWS   .KG/M3  : FORMATION BULK DENSITY [CALC. FROM DPOLSWS, M=2710, F=1000]
DPHILSED.V/V    : DENSITY POROSITY LIMESTONE [M=2710, F=1000] FROM DENSITY LOG [ADJ. TO RESISTIVITY LOG]
DPHISSED.V/V    : DENSITY POROSITY SANDSTONE [M=2650, F=1000] FROM DENSITY LOG [ADJ. TO RESISTIVITY LOG]
DPOLSWS .V/V    : DENSITY POROSITY LIMESTONE [DPHISSED CONVEERTED INTO LIMESTONE MATRIX , M=2710, F=1000 & SPL. TO DPHILSED @ 3600 M]
DRESWS  .OHMM   : DEEP RESISTIVITY [ILDED SPL. TO LLDED @ 3235.5 M]
DTED    .US/M   : DELTA TIME FROM SONIC LOG [ADJ. TO RESISTIVITY LOG]
DTWS    .US/M   : COMPRESSIONAL SONIC [DTED]
GRDED   .GAPI   : GAMMA RAY FROM DENSITY LOG [ADJ. TO RESISTIVITY LOG]
GRRED   .GAPI   : GAMMA RAY FROM DLL LOG
GRSED   .GAPI   : GAMMA RAY FROM SONIC LOG [ADJ. TO RESISTIVITY LOG]
GRWS    .GAPI   : GAMMA RAY [GRSED SPL. TO GRRED @ 3219.2 M]
ILDED   .OHMM   : DEEP INDUCTION FROM DIL-SFL LOG
ILMED   .OHMM   : MEDIUM INDUCTION FROM DIL-SFL LOG
LLDED   .OHMM   : DEEP LATEROLOG FROM DLL LOG [ADJ. TO DIL-MSFL LOG]
LLSED   .OHMM   : SHALLOW LATEROLOG FROM DLL LOG [ADJ. TO DIL-MSFL LOG]
MRESWS  .OHMM   : MEDIUM RESISTIVITY [ILMED]
NPHILSED.V/V    : NEUTRON POROSITY LIMESTONE FROM DENSITY LOG [ADJ. TO RESISTIVITY LOG]
NPHISSED.V/V    : NEUTRON POROSITY SANDSTONE FROM DENSITY LOG [ADJ. TO RESISTIVITY LOG]
NPOLSWS .V/V    : NEUTRON POROSITY LIMESTONE [NPHISSED MATRIX CONVERSION FOR LIMESTONE & SPL. TO NPHILSED @ 3593.5 M]
PEFED   .B/E    : PHOTOELECTRIC FACTOR FROM DENSITY LOG [ADJ. TO RESISTIVITY LOG]
PEFWS   .B/E    : PHOTOELECTRIC FACTOR [PEFED]
RHOBED  .KG/M3  : BULK DENSITY FROM DENSITY LOG [ADJ. TO DPHISSED/DPHILSED/RESISTIVITY LOG]
SFLED   .OHMM   : SHALLOW FOCUSED FROM DIL-SFL LOG
SPRED   .MV     : SPONTANEOUS POTENTIAL FROM DIL-SFL LOG
SPWS    .MV     : SPONTANEOUS POTENTIAL [BASELINE 0 MV,SPRED]
SRESWS  .OHMM   : SHALLOW RESISTIVITY [SFLED SPL. TO LLSED @ 3235.5 M]
~Params ----------------------------------------------------
PD  .                         GL : PERMANENT DATUM
EPD .M                   1212.95 : ELEVATION PERMANENT DATUM
LMF .                         KB : LOG MEASURED FROM
DAPD.M                      9.93 : FEET ABOVE PERMANENT DATUM
DMF .                         KB : DRILLING MEASURED FROM
EKB .M                   1222.88 : KELLY BUSHING
EGL .M                   1212.95 : GROUND LEVEL
DATE.                   10/07/81 : RUN DATE
RUN .                          2 : RUN NUMBER
DD  .M                      4665 : DEPTH DRILLER
DL  .M                      4665 : DEPTH LOGGER
BLI .M                    4661.1 : BOTTOM LOG INTERVAL
TLI .M                    3235.5 : TOP LOG INTERVAL
CS  .MM                      244 : CASING SIZE
CBD .M                      3236 : CASING BOTTOM DRILLER
CBL .M                    3235.5 : CASING BOTTOM LOGGER
BS  .MM                      216 : BIT SIZE
BSD .M                      4665 : BIT SIZE AT DEPTH
DFT .                   GEL CHEM : DRILLING FLUID TYPE
DFD .                       1160 : DRILLING FLUID DENSITY
DFV .                         78 : DRILLING FLUID VISCOSITY
DFPH.                       10.5 : DRILLING FLUID PH
DFL .                          8 : DRILLING FLUID LOSS
MSS .                CIRCULATION : MUD SAMPLE SOURCE
RMS .OHMM                   0.84 : RESISTIVITY MUD SAMPLE
MST .DEGC                   23.3 : MUD SAMPLE TEMPERATURE
RMF .OHMM                   0.62 : RESISTIVITY MUD FILTRATE SAMPLE
MFST.DEGC                   23.9 : MUD FILTRATE SAMPLE TEMPERATURE
RMB .OHMM                   0.27 : RESISTIVITY MUD AT BHT
TCS .HRS                    1000 : TIME CIRCULATED STOPPED
TLAB.HRS                     830 : TIME LOGGER AT BOTTOM
LUN .                       8110 : LOGGING UNIT NUMBER
LUL .                        EDS : LOGGING UNIT LOCATION
ENGI.             BEBB LABRECQUB : RECORDING ENGINEER
WITN.                      PERRY : WITNESSED BY
CLNT.                    A2DTECH : CLIENT CODE
ORIG. 6.5"/100M 16.5"/100M PRINT : ORIGIN OF DATA
UWI .           100112504718W500 : UNIQUE WELL ID
DICO.     A2D Technologies, Inc. : DIGITIZING COMPANY
~Other -----------------------------------------------------
DIL-MSFL-DLL-CNL-FDC-BHC LOG RUN
~ASCII -----------------------------------------------------
  600.00000    -999.25    -999.25    -999.25    -999.25    -999.25    -999.25    -999.25    -999.25    -999.25    -999.25    -999.25    -999.25    -999.25    -999.25    -999.25   32.17060   32.17060    -999.25    -999.25    -999.25    -999.25    -999.25    -999.25    -999.25    -999.25    -999.25    -999.25    -999.25    -999.25    -999.25    -999.25    -999.25
  650.00000  470.36880  368.10630  470.36880   32.95700   54.67540   54.67540 2514.20500    -999.25    0.08230    0.11450   30.34260  243.94890  243.94890   47.32680    -999.25   46.37850   46.37850   30.34260   22.64920    -999.25    -999.25   22.64920    -999.25    0.16840    0.12550    -999.25    -999.25 2507.49390   21.97410  -22.69530  -20.37380   21.97410
  700.00000  448.77120  341.90440  448.77120  297.85840    8.89540    8.89540 2078.27500    -999.25    0.34650    0.36940    3.35730  362.08690  362.08690  107.02380    -999.25  105.56500  105.56500    3.35730    2.46610    -999.25    -999.25    2.46610    -999.25    0.49910    0.45930    -999.25    -999.25 2083.34400    2.51350  -10.12690   -1.68740    2.51350
  750.00000  499.43920  349.60350  499.43920  105.01440   52.34500   52.34500 2303.00500    -999.25    0.21030    0.23800    9.52250  272.25210  272.25210   73.87090    -999.25   82.22360   82.22360    9.52250    7.08770    -999.25    -999.25    7.08770    -999.25    0.31960    0.27570    -999.25    -999.25 2304.53960    7.11090  -13.18420   -1.01990    7.11090
  800.00000  517.26960  355.23010  517.26960   68.34990   30.93050   30.93050 2013.92500    -999.25    0.38550    0.40710   14.63060  371.42920  371.42920  129.20160    -999.25  124.19900  124.19900   14.63060   10.23400    -999.25    -999.25   10.23400    -999.25    0.47400    0.43310    -999.25    -999.25 2044.41330   15.22960  -15.75750   -0.91340   15.22960
  850.00000  519.75760  348.81370  519.75760   87.29960   41.28950   41.28950 1966.24000    -999.25    0.41440    0.43490   11.45480  375.85900  375.85900   63.20140    -999.25   65.30830   65.30830   11.45480    9.66490    -999.25    -999.25    9.66490    -999.25    0.57070    0.53480    -999.25    -999.25 1959.09730   23.30600  -16.39940   -0.88800   23.30600
  900.00000  444.67420  357.65060  444.67420  111.97080   33.26450   33.26450 2128.93000    -999.25    0.31580    0.33980    8.93090  314.18330  314.18330   85.91330    -999.25   84.38790   84.38790    8.93090    7.69420    -999.25    -999.25    7.69420    -999.25    0.39060    0.34760    -999.25    -999.25 2062.21090    9.43590  -20.80760   -4.83360    9.43590
  950.00000  354.89130  355.56380  354.89130  183.63110    6.82980    6.82980 2455.63000    -999.25    0.11780    0.14880    5.44570  297.56800  297.56800   70.95810    -999.25   63.50760   63.50760    5.44570    4.47770    -999.25    -999.25    4.47770    -999.25    0.36700    0.32360    -999.25    -999.25 2453.69090    4.57640  -17.79750   -2.49850    4.57640
 1000.00000  327.53320  343.09180  327.53320  140.36860   43.98630   43.98630 2441.11000    -999.25    0.12660    0.15720    7.12410  283.92140  283.92140   73.71590    -999.25   76.67160   76.67160    7.12410    5.86570    -999.25    -999.25    5.86570    -999.25    0.45220    0.41060    -999.25    -999.25 2439.02730    5.30110  -28.08230  -13.71950    5.30110
 1050.00000  328.78010  344.21530  328.78010   94.81460   45.73690   45.73690 2456.45500    -999.25    0.11730    0.14830   10.54690  280.87880  280.87880   68.78780    -999.25   75.32100   75.32100   10.54690    8.90220    -999.25    -999.25    8.90220    -999.25    0.49930    0.45950    -999.25    -999.25 2455.86650    7.78700  -23.59810  -10.26690    7.78700
 1100.00000  312.97210  336.82890  312.97210  166.61110   28.66460   28.66460 2460.25000    -999.25    0.11500    0.14610    6.00200  286.59690  286.59690   74.23980    -999.25   70.91860   70.91860    6.00200    5.54510    -999.25    -999.25    5.54510    -999.25    0.41290    0.37030    -999.25    -999.25 2452.61160    5.85230  -18.67930   -6.24330    5.85230
 1150.00000  362.39830  354.22580  362.39830  107.27200   39.23930   39.23930 2515.19500    -999.25    0.08170    0.11390    9.32210  271.44250  271.44250   84.30840    -999.25   80.79010   80.79010    9.32210    8.01050    -999.25    -999.25    8.01050    -999.25    0.29820    0.25420    -999.25    -999.25 2509.32910    9.43850  -20.68050   -9.13960    9.43850
 1200.00000  304.28630  308.40750  304.28630  172.68770   67.44540   67.44540 2163.74500    -999.25    0.29470    0.31940    5.79080  325.75640  325.75640   78.24560    -999.25   73.27370   73.27370    5.79080    4.65130    -999.25    -999.25    4.65130    -999.25    0.46650    0.42530    -999.25    -999.25 2178.50660    3.59660  -16.07380   -5.42810    3.59660
 1250.00000  346.48880  344.37820  346.48880  122.90450   -4.76070   -4.76070 2460.91000    -999.25    0.11460    0.14570    8.13640  296.71510  296.71510   79.49870    -999.25   72.34740   72.34740    8.13640    7.10360    -999.25    -999.25    7.10360    -999.25    0.33450    0.29070    -999.25    -999.25 2459.19190    8.32530  -13.15440   -3.22500    8.32530
 1300.00000  368.79410  344.48710  368.79410   88.09100   31.42650   31.42650 2470.15000    -999.25    0.10900    0.14030   11.35190  266.05490  266.05490   90.31800    -999.25   78.04390   78.04390   11.35190    9.58090    -999.25    -999.25    9.58090    -999.25    0.31420    0.27030    -999.25    -999.25 2473.78640   10.96350  -12.50200   -1.61390   10.96350
 1350.00000  351.15710  352.13250  351.15710   30.08510   27.66350   27.66350 2443.09000    -999.25    0.12540    0.15610   33.23900  238.72040  238.72040   49.90500    -999.25   49.01330   49.01330   33.23900   26.33340    -999.25    -999.25   26.33340    -999.25    0.23650    0.19270    -999.25    -999.25 2441.03980   37.78560  -36.45990  -23.74660   37.78560
 1400.00000  409.25340  353.74720  409.25340   27.85040   27.54920   27.54920 2445.73000    -999.25    0.12380    0.15450   35.90610  242.30740  242.30740   60.86520    -999.25   57.09300   57.09300   35.90610   28.11170    -999.25    -999.25   28.11170    -999.25    0.19480    0.15140    -999.25    -999.25 2442.96460   33.00410  -42.17840  -30.15060   33.00410
 1450.00000  351.35400  349.80330  351.35400   71.41380   60.39260   60.39260 2561.39500    -999.25    0.05370    0.08690   14.00290  239.30640  239.30640   70.03640    -999.25   70.48080   70.48080   14.00290   13.44550    -999.25    -999.25   13.44550    -999.25    0.25990    0.21590    -999.25    -999.25 2558.64700   12.39100  -15.44750   -6.80360   12.39100
 1500.00000  358.81710  347.62810  358.81710  103.31110   54.94510   54.94510 2481.20500    -999.25    0.10230    0.13380    9.67950  273.56580  273.56580   92.83470    -999.25   91.14200   91.14200    9.67950    9.16190    -999.25    -999.25    9.16190    -999.25    0.33670    0.29290    -999.25    -999.25 2476.41720    9.30490  -10.98070   -6.20340    9.30490
 1550.00000  327.22050  336.05630  327.22050   84.25450   41.47560   41.47560 2542.25500    -999.25    0.06530    0.09810   11.86880  247.81030  247.81030   78.73680    -999.25   74.60060   74.60060   11.86880   10.42650    -999.25    -999.25   10.42650    -999.25    0.28420    0.24020    -999.25    -999.25 2542.59810    9.49350  -14.51040  -12.06510    9.49350
 1600.00000  360.39990  333.47820  360.39990  143.87660  123.87800  123.87800 2139.16000    -999.25    0.30960    0.33380    6.95040  273.58970  273.58970   71.35960    -999.25   82.22210   82.22210    6.95040    6.24370    -999.25    -999.25    6.24370    -999.25    0.44940    0.40770    -999.25    -999.25 2117.53910    5.85680  -13.09110  -11.95940    5.85680
 1650.00000  397.40270  345.94350  397.40270  142.40550  152.42230  152.42230 2201.03500    -999.25    0.27210    0.29760    7.02220  264.78560  264.78560   77.56010    -999.25   81.18300   81.18300    7.02220    6.62750    -999.25    -999.25    6.62750    -999.25    0.48480    0.44430    -999.25    -999.25 2196.84910    6.20030  -13.32040  -13.50230    6.20030
