~Version ---------------------------------------------------
VERS. 2.0 : CWLS log ASCII Standard -VERSION 2.0
WRAP. YES : MULTIPLE LINES PER DEPTH STEP
~Well ------------------------------------------------------
STRT.FT                      2000.0 : START DEPTH
STOP.FT                     17600.0 : STOP DEPTH
STEP.FT                    50.00000 : STEP LENGTH
NULL.                      -99925.0 : NULL VALUE
COMP.        SEAFORT PETROLEUM LTD. : COMPANY
WELL. SEAFORT ET AL KAKWA 2-20-61-7 : WELL
FLD .                               : FIELD
LOC .                               : LOCATION
CTRY.                        CANADA : COUNTRY
SRVC.        Schlumberger of Canada : SERVICE COMPANY
DATE.                   12-Aug-1975 : LOGDATE
PROV.                       Alberta : PROVINCE
UWI .              100022006107W600 : UNIQUE WELL ID
SLAT.WGS84                 54.28609 : SURFACE LATITUDE
SLON.WGS84                -119.0081 : SURFACE LONGITUDE
~Curve Information -----------------------------------------
DEPT    .FT    : DEPTH FEET
CALDED  .IN    : CALIPER FROM DENSITY LOG [ADJ TO GRRED]
CALSED  .IN    : CALIPER FROM SONIC LOG
CALWS   .IN    : CALIPER [CALSED]
CONDWS  .MMHO  : CONDUCTIVITY [1000/DRESWS]
DCORED  .G/C3  : DENSITY CORRECTION FROM DENSITY LOG [ADJ TO GRRED]
DCORWS  .G/C3  : DENSITY CORRECTION [DCORED]
DENWS   .G/C3  : BULK DENSITY [M=2.65 F=1.0] <14590> [M=2.71 F=1.0] [RHOBED]
DPHILSED.V/V   : DENSITY POROSITY [M=2.71 F=1.0] FROM DENSITY LOG [ADJ TO GRRED]
DPHISSED.V/V   : DENSITY POROSITY [M=2.65 F=1.0] FROM DENSITY LOG [ADJ TO GRRED]
DPOWS   .V/V   : DENSITY POROSITY [M=2.71 F=1.0] [CALCULATED FROM DENWS]
DRESWS  .OHMM  : DEEP RESISTIVITY [SPL ILDED <14590> LLDED]
DTED    .US/F  : DELTA TIME FROM SONIC LOG
DTWS    .US/F  : DELTA TIME [DTED]
GRDED   .GAPI  : GAMMA RAY FROM DENSITY LOG [ADJ TO GRRED]
GRRED   .GAPI  : GAMMA RAY FROM RESISTIVITY LOG
GRSED   .GAPI  : GAMMA RAY FROM SONIC LOG
GRWS    .GAPI  : GAMMA RAY [GRSED, CSG ABOVE 2005F]
ILDED   .OHMM  : INDUCTION LOG DEEP RESISTIVITY
ILMED   .OHMM  : INDUCTION LOG MEDIUM RESISTIVITY
LL8ED   .OHMM  : 8 INCH LATEROLOG RESISTIVITY
LLDED   .OHMM  : LATEROLOG DEEP RESISTIVITY
LLSED   .OHMM  : LATEROLOG SHALLOW RESISTIVITY
MRESWS  .OHMM  : MEDIUM RESISTIVITY [ILMED]
NPHILSED.V/V   : NEUTRON POROSITY LIMESTONE FROM DENSITY LOG [ADJ TO GRRED]
NPHISSED.V/V   : NEUTRON POROSITY SANDSTONE FROM DENSITY LOG [ADJ TO GRRED]
NPOWS   .V/V   : NEUTRON POROSITY LIMESTONE [CONVERTED NPHISSED TO LIMESTONE SPL WITH NPHILSED @14516F]
RHOBED  .G/C3  : BULK DENSITY FROM DENSITY LOG [ADJ TO GRRED]
SPRED   .MV    : SPONTANEOUS POTENTIAL FROM RESISTIVITY LOG
SPWS    .MV    : SPONTANEOUS POTENTIAL [BASELINE 0 MV] [SPRED]
SRESWS  .OHMM  : SHALLOW RESISTIVITY [SPL LL8ED <14590> LLSED]
~Params ----------------------------------------------------
PD  .                     GL : PERMANENT DATUM
EPD .FT                 3465 : ELEVATION PERMANENT DATUM
LMF .                     KB : LOG MEASURED FROM
DAPD.FT                   21 : FEET ABOVE PERMANENT DATUM
EKB .FT                 3486 : KELLY BUSHING
EGL .FT                 3465 : GROUND LEVEL
DATE.               10/06/75 : RUN DATE
RUN .                      2 : RUN NUMBER
DD  .FT                17618 : DEPTH DRILLER
DL  .FT                17600 : DEPTH LOGGER
BLI .FT                17600 : BOTTOM LOG INTERVAL
TLI .FT                14577 : TOP LOG INTERVAL
CBD .FT                14590 : CASING BOTTOM DRILLER
CBL .FT                14577 : CASING BOTTOM LOGGER
BS  .IN                  9.5 : BIT SIZE
BSD .FT                17618 : BIT SIZE AT DEPTH
DFT .                    GEL : DRILLING FLUID TYPE
DFD .                   13.8 : DRILLING FLUID DENSITY
DFV .                    115 : DRILLING FLUID VISCOSITY
DFPH.                     11 : DRILLING FLUID PH
DFL .                      7 : DRILLING FLUID LOSS
RMS .OHMM              0.809 : RESISTIVITY MUD SAMPLE
MST .DEGF                 75 : MUD SAMPLE TEMPERATURE
WITN.                  BROWN : WITNESSED BY
CLNT.                A2DTECH : CLIENT CODE
ORIG.               5" PRINT : ORIGIN OF DATA
UWI .       100022006107W600 : UNIQUE WELL ID
DICO. A2D Technologies, Inc. : DIGITIZING COMPANY
~Other -----------------------------------------------------
~ASCII -----------------------------------------------------
# ...
 8000.00000   12.45220   12.09740   12.09740  107.11800    0.05680    0.05680    2.40790   -99925.0    0.16120    0.17670    9.33550   92.72820   92.72820   82.63980   88.26580  112.16030  112.16030    9.33550   16.48200    8.80030   11.32320   11.76580   16.48200   -99925.0   -99925.0   -99925.0    2.40790  -77.40760    0.31450    8.80030
 8050.00000   13.85560   12.00180   12.00180  214.30260    0.10180    0.10180    2.28020   -99925.0    0.21530    0.25130    4.66630   95.66750   95.66750   90.22290   90.91910  116.58120  116.58120    4.66630   10.34810    7.53020   11.19870   10.54190   10.34810   -99925.0   -99925.0   -99925.0    2.28020  -76.69020    1.05750    7.53020
 8100.00000   15.14660   11.82850   11.82850   91.08550    0.12800    0.12800    2.26700   -99925.0    0.22300    0.25910   10.97870   90.49430   90.49430  102.63840   83.08100  121.21930  121.21930   10.97870    9.87130    7.14700   12.66780   12.00120    9.87130   -99925.0   -99925.0   -99925.0    2.26700  -79.44140   -1.66820    7.14700
 8150.00000   16.71720   13.36340   13.36340  184.26730    0.10350    0.10350    2.45570   -99925.0    0.11940    0.14870    5.42690   95.21680   95.21680   93.81850   80.66360  113.20780  113.20780    5.42690    6.35860    3.99380   10.30510    6.84780    6.35860   -99925.0   -99925.0   -99925.0    2.45570  -76.99960    0.79920    3.99380
 8200.00000   16.01830   13.14200   13.14200  125.95570    0.06500    0.06500    2.53830   -99925.0    0.06730    0.10040    7.93930  108.32160  108.32160  108.24400   89.33890  107.87340  107.87340    7.93930    7.70700    4.95810   10.33690    8.81100    7.70700   -99925.0    0.30000    0.25600    2.53830  -76.89970    0.92470    4.95810
 8250.00000   15.95760   13.06670   13.06670  136.46100    0.07080    0.07080    2.55910   -99925.0    0.05500    0.08820    7.32810  104.81640  104.81640   93.27490   80.29710  108.16540  108.16540    7.32810    6.07710    3.68190   10.47940    9.49160    6.07710   -99925.0    0.27280    0.22880    2.55910  -77.22610    0.62380    3.68190
 8300.00000   14.44620   16.47700   16.47700  130.20490    0.06120    0.06120    2.57850   -99925.0    0.04160    0.07690    7.68020   71.30900   71.30900   83.38030   74.42400   75.38130   75.38130    7.68020    9.81410    7.88000   15.38710   14.23050    9.81410   -99925.0    0.18410    0.14090    2.57850  -81.08840   -3.21290    7.88000
 8350.00000   15.01900   16.50460   16.50460  300.96010    0.13140    0.13140    2.21460   -99925.0    0.30000    0.28970    3.32270   83.76630   83.76630   84.18380   73.69910   71.45940   71.45940    3.32270    6.46370    5.67540    8.39520    7.84260    6.46370   -99925.0    0.30000    0.25600    2.21460  -79.21180   -1.31080    5.67540
 8400.00000   13.41980   16.54710   16.54710  145.37840    0.08810    0.08810    2.63450   -99925.0    0.00750    0.04420    6.87860   74.02300   74.02300   83.82710   72.35040   70.85220   70.85220    6.87860    9.66730    8.40490   11.72630   12.99270    9.66730   -99925.0    0.19290    0.14960    2.63450  -81.49710   -3.57050    8.40490
 8450.00000   16.22150   16.41390   16.41390  268.57890    0.09310    0.09310    2.49980   -99925.0    0.09160    0.12290    3.72330   93.62780   93.62780   95.08310   87.57290   79.14650   79.14650    3.72330    4.84390    3.95530    5.15860    5.64330    4.84390   -99925.0    0.30000    0.25600    2.49980  -77.64470    0.30740    3.95530
 8500.00000   13.48050   16.46360   16.46360  229.24740    0.11150    0.11150    2.59190   -99925.0    0.04360    0.06910    4.36210   78.32560   78.32560   92.62160   82.23870   79.69860   79.69860    4.36210    8.02520    6.85710    8.65990    9.56000    8.02520   -99925.0    0.24450    0.20060    2.59190  -81.12610   -3.14840    6.85710
 8550.00000   13.66160   16.51580   16.51580  131.47690    0.10050    0.10050    2.29110   -99925.0    0.22030    0.24500    7.60590   75.33960   75.33960   87.72530   88.83790   79.51250   79.51250    7.60590   12.49950   11.76910   14.78100   16.76150   12.49950   -99925.0    0.26110    0.21710    2.29110  -83.11920   -5.11590   11.76910
 8600.00000   13.37910   16.52770   16.52770   81.40940    0.14490    0.14490    2.39060   -99925.0    0.16330    0.18680   12.28360   67.50530   67.50530   80.68070   74.90690   61.91310   61.91310   12.28360   51.96890   16.33300   39.83450   35.68130   51.96890   -99925.0    0.22110    0.17740    2.39060  -81.15690   -3.12810   16.33300
 8650.00000   13.44290   16.46290   16.46290   84.46800    0.11770    0.11770    2.42610   -99925.0    0.13610    0.16600   11.83880   68.74190   68.74190   82.98030   65.14290   72.06350   72.06350   11.83880   18.45450   16.65410   27.30370   31.05430   18.45450   -99925.0    0.21040    0.16680    2.42610  -84.48870   -6.43430   16.65410
 8700.00000   12.92540   16.42690   16.42690   67.06770    0.19200    0.19200    2.46400   -99925.0    0.11890    0.14390   14.91030   72.49650   72.49650   86.55610   79.06600   67.92480   67.92480   14.91030    9.64000   11.74880   14.26550   12.63930    9.64000   -99925.0    0.29710    0.25310    2.46400  -80.81570   -2.73580   11.74880
 8750.00000   11.96210   14.86710   14.86710  104.21330    0.00980    0.00980    2.51730   -99925.0    0.29900    0.11270    9.59570   65.02850   65.02850   59.36030   62.22310   48.99580   48.99580    9.59570   15.71970   12.13470   27.73360   24.56730   15.71970   -99925.0    0.15900    0.11630    2.51730  -81.22330   -3.11780   12.13470
 8800.00000   14.07010   16.60100   16.60100  127.81350    0.20110    0.20110    2.35460   -99925.0    0.17810    0.20780    7.82390   74.74430   74.74430   96.26060   92.58290   88.97530   88.97530    7.82390   10.72670   10.07830   12.52430   14.08760   10.72670   -99925.0    0.30130    0.25730    2.35460  -83.38020   -5.24920   10.07830
 8850.00000   15.56590   16.55420   16.55420  130.41040    0.15850    0.15850    2.28500   -99925.0    0.21740    0.24850    7.66810   77.42050   77.42050   96.26290   88.06900   83.20090   83.20090    7.66810    9.94270   10.97410   14.14910   15.69370    9.94270   -99925.0    0.30180    0.25780    2.28500  -82.49410   -4.33750   10.97410
 8900.00000   15.39000   16.57430   16.57430  120.49930    0.19820    0.19820    2.44640   -99925.0    0.12610    0.15420    8.29880   73.54260   73.54260   90.17090   86.17830   81.92120   81.92120    8.29880   14.89910   13.50510   23.46350   24.30830   14.89910   -99925.0    0.30070    0.25670    2.44640  -84.22640   -6.04420   13.50510
 8950.00000   13.69410   16.55270   16.55270   82.38730    0.09980    0.09980    2.43220   -99925.0    0.13100    0.16250   12.13780   67.16000   67.16000   88.34160   77.37810   76.43770   76.43770   12.13780   15.43600   14.24280   27.05070   25.55700   15.43600   -99925.0    0.25380    0.20990    2.43220  -84.52230   -6.31460   14.24280
 9000.00000   15.36840   16.59480   16.59480  249.26470    0.05180    0.05180    2.32130   -99925.0    0.20100    0.22730    4.01180  105.91970  105.91970  125.29660  122.78860  100.75810  100.75810    4.01180   10.60030    5.46250   11.04180    8.03030   10.60030   -99925.0    0.30000    0.25600    2.32130  -79.57980   -1.34650    5.46250
 9050.00000   15.31730   16.59630   16.59630  191.85390    0.07980    0.07980    2.61200   -99925.0    0.02190    0.05730    5.21230   86.60280   86.60280  104.65850   90.55740   83.82790   83.82790    5.21230    7.06940    5.79260    8.52370    9.61800    7.06940   -99925.0    0.30170    0.25770    2.61200  -80.64190   -2.38310    5.79260
 9100.00000   14.79530   16.61490   16.61490  144.09220    0.08180    0.08180    2.59510   -99925.0    0.02910    0.06720    6.94000   84.28740   84.28740  103.58560   90.41580   82.63650   82.63650    6.94000    5.58670    5.88360    8.55960    9.25040    5.58670   -99925.0    0.29210    0.24810    2.59510  -80.11560   -1.83120    5.88360
 9150.00000   14.33580   16.57270   16.57270  128.08200    0.04240    0.04240    2.55760   -99925.0    0.05650    0.08910    7.80750   82.21320   82.21320   97.43620   89.87380   93.13990   93.13990    7.80750   12.66360    7.89370   12.99500   13.58600   12.66360   -99925.0    0.26020    0.21620    2.55760  -82.14870   -3.83870    7.89370
