~Version ---------------------------------------------------
VERS.      2.0 : CWLS log ASCII Standard -VERSION 2.0
WRAP.       NO : One line per depth step
CREA. 08/01/17 : LAS Creation Date
~Well ------------------------------------------------------
STRT.FT                       650.0 : START DEPTH
STOP.FT                      8750.0 : STOP DEPTH
STEP.FT                    50.00000 : STEP LENGTH
NULL.                       -999.25 : NULL VALUE
COMP.   WHITEHALL CANADIAN OILS LTD : COMPANY
WELL. W.H. ET AL KEYSTONE 6-15-48-3 : WELL
FLD .                               : FIELD
LOC .                               : LOCATION
CTRY.                        CANADA : COUNTRY
SRVC.                  Schlumberger : SERVICE COMPANY
DATE.                   14-Sep-1959 : LOGDATE
PROV.                       Alberta : PROVINCE
UWI .              100061504803W500 : UNIQUE WELL ID
SLAT.WGS84                 53.13961 : SURFACE LATITUDE
SLON.WGS84                -114.3572 : SURFACE LONGITUDE
~Curve Information -----------------------------------------
DEPT   .FT     : Depth Curve
CALWS  .IN     : CALIPER [MCALED]
CILDED .MMHO   : INDUCTION DEEP CONDUCTIVITY FROM IEL
CONDWS .MMHO   : CONDUCTIVITY [1000/DRESWS]
DENED  .G/C3   : COMPENSATED BULK DENSITY FROM DENSITY LOG
DENWS  .G/C3   : BULK DENSITY [DENED]
DPOLSWS.V/V    : DENSITY POROSITY ASSUMED LIMESTONE [CALCULATED FROM DENWS M=2.71 F=1.00]
DRESWS .OHMM   : DEEP RESISTIVITY [ILDED]
GRNED  .UR/HR  : GAMMA RAY FROM GRN LOG [DEPTH ADJ. TO SPRED]
GRWS   .GAPI   : GAMMA RAY [GRNED*10.4]
ILDED  .OHMM   : INDUCTION DEEP RESISTIVITY FROM IEL
MCALED .IN     : MLT (MICROLOG)
NEUTED .CPS    : NEUTRON FROM GRN LOG [DEPTH ADJ. TO SPRED]
NEUTWS .CPS    : NEUTRON [NEUTED]
SNED   .OHMM   : 16" SHORT NORMAL RESISTIVITY FROM IEL
SPRED  .MV     : SPONTANEOUS POTENTIAL FROM IEL
SPWS   .MV     : SPONTANEOUS POTENTIAL [BASELINE 0 MV] [SPRED]
SRESWS .OHMM   : SHALLOW RESISTIVITY [SNED]
~Params ----------------------------------------------------
LMF .                     KB : LOG MEASURED FROM
DMF .                     KB : DRILLING MEASURED FROM
EKB .FT                 2828 : KELLY BUSHING
EGL .FT                 2815 : GROUND LEVEL
DATE.               09/14/59 : RUN DATE
RUN .                      2 : RUN NUMBER
DD  .FT                 8775 : DEPTH DRILLER
DL  .FT                 8774 : DEPTH LOGGER
BLI .FT                 8768 : BOTTOM LOG INTERVAL
TLI .FT                 5711 : TOP LOG INTERVAL
CBD .FT                 5711 : CASING BOTTOM DRILLER
CBL .FT                 5711 : CASING BOTTOM LOGGER
BS  .IN                6.125 : BIT SIZE
BSD .FT                 8775 : BIT SIZE AT DEPTH
DFT .               GYP BASE : DRILLING FLUID TYPE
DFD .                     11 : DRILLING FLUID DENSITY
DFV .                    110 : DRILLING FLUID VISCOSITY
DFPH.                      8 : DRILLING FLUID PH
DFL .                      8 : DRILLING FLUID LOSS
RMS .OHMM                1.6 : RESISTIVITY MUD SAMPLE
MST .DEGF                 60 : MUD SAMPLE TEMPERATURE
RMF .OHMM                1.0 : RESISTIVITY MUD FILTRATE SAMPLE
MFST.DEGF                 64 : MUD FILTRATE SAMPLE TEMPERATURE
RMC .OHMM                1.9 : RESISTIVITY MUD CAKE
MCST.DEGF                 64 : MUD CAKE SAMPLE TEMPERATURE
RMB .OHMM               0.68 : RESISTIVITY MUD AT BHT
TCS .HRS                   2 : TIME CIRCULATED STOPPED
LUN .                    157 : LOGGING UNIT NUMBER
LUL .                    TDV : LOGGING UNIT LOCATION
ENGI.                 GORITZ : RECORDING ENGINEER
WITN.               FRANKLIN : WITNESSED BY
CLNT.                A2DTECH : CLIENT CODE
ORIG.            2" 5" PRINT : ORIGIN OF DATA
UWI .       100061504803W500 : UNIQUE WELL ID
DICO. A2D Technologies, Inc. : DIGITIZING COMPANY
~Other -----------------------------------------------------
~ASCII -----------------------------------------------------
# ...
 6800.00000    -999.25   81.22020   84.10990    -999.25    -999.25    -999.25   11.88920    2.34520   24.39010   11.88920    -999.25 2148.08230 2148.08230   19.20430  -20.12850   -3.15920   19.20430
 6850.00000    -999.25   15.14490   14.06090    -999.25    -999.25    -999.25   71.11930    1.67310   17.40020   71.11930    -999.25 2298.76290 2298.76290  109.02140  -25.92670   -8.68430  109.02140
 6900.00000    -999.25   24.13100   21.87540    -999.25    -999.25    -999.25   45.71340    1.47630   15.35350   45.71340    -999.25 2085.33200 2085.33200   88.62840  -33.45980  -16.21740   88.62840
 6950.00000    -999.25   15.69780   13.93920    -999.25    -999.25    -999.25   71.73990    1.68240   17.49700   71.73990    -999.25 2194.37330 2194.37330  132.26410  -32.16620  -14.92380  132.26410
 7000.00000    -999.25   56.12190   54.94780    -999.25    -999.25    -999.25   18.19910    1.53930   16.00870   18.19910    -999.25 2232.97830 2232.97830   42.05590  -43.68570  -26.44330   42.05590
 7050.00000    -999.25   24.73820   23.09850    -999.25    -999.25    -999.25   43.29280    1.14110   11.86740   43.29280    -999.25 2740.33740 2740.33740   59.27070  -24.98020   -7.73780   59.27070
 7100.00000    -999.25   48.97620   45.57200    -999.25    -999.25    -999.25   21.94330    4.60730   47.91590   21.94330    -999.25 1551.94840 1551.94840   35.31830  -17.54410   -0.35210   35.31830
 7150.00000    -999.25   52.28590   51.89820    -999.25    -999.25    -999.25   19.26850    5.62860   58.53740   19.26850    -999.25 1259.60500 1259.60500   33.06280  -17.46200   -0.32930   33.06280
 7200.00000    -999.25   81.61010   83.88630    -999.25    -999.25    -999.25   11.92090    5.92660   61.63660   11.92090    -999.25 1060.21750 1060.21750   19.01760  -19.81650   -2.74300   19.01760
 7250.00000    -999.25   90.32370   87.32630    -999.25    -999.25    -999.25   11.45130    6.84650   71.20360   11.45130    -999.25  695.39370  695.39370   11.56190  -20.82680   -3.81260   11.56190
 7300.00000    -999.25   87.60300   83.83350    -999.25    -999.25    -999.25   11.92840    6.72440   69.93380   11.92840    -999.25  725.90130  725.90130   15.35880  -20.23690   -3.28200   15.35880
 7350.00000    -999.25   83.91300   80.00380    -999.25    -999.25    -999.25   12.49940    7.02720   73.08290   12.49940    -999.25  951.52030  951.52030   19.80320  -22.39180   -5.49610   19.80320
 7400.00000    -999.25   82.80670   78.34230    -999.25    -999.25    -999.25   12.76450    6.12150   63.66360   12.76450    -999.25  997.52830  997.52830   20.31880  -22.52980   -5.69340   20.31880
 7450.00000    -999.25   79.38540   76.00050    -999.25    -999.25    -999.25   13.15780    6.19410   64.41860   13.15780    -999.25 1001.77170 1001.77170   20.98430  -22.42000   -5.64290   20.98430
 7500.00000    -999.25   87.84720   85.56440    -999.25    -999.25    -999.25   11.68710    5.78080   60.12030   11.68710    -999.25  626.66240  626.66240   15.04370  -22.79550   -6.07770   15.04370
 7550.00000    -999.25   72.21230   70.68690    -999.25    -999.25    -999.25   14.14690    6.41780   66.74510   14.14690    -999.25 1029.74260 1029.74260   22.29350  -20.39260   -3.73400   22.29350
 7600.00000    -999.25   70.86450   67.72910    -999.25    -999.25    -999.25   14.76470    6.44010   66.97700   14.76470    -999.25  952.07740  952.07740   23.19640  -20.78980   -4.19050   23.19640
 7650.00000    -999.25   82.43040   76.57200    -999.25    -999.25    -999.25   13.05960    5.40270   56.18810   13.05960    -999.25  910.97690  910.97690   20.97730  -20.16760   -3.62760   20.97730
 7700.00000    -999.25   40.82590   37.29140    -999.25    -999.25    -999.25   26.81580    4.26920   44.39970   26.81580    -999.25 1368.67880 1368.67880   40.38160  -19.44810   -2.96730   40.38160
 7750.00000    -999.25   42.22530   38.82550    -999.25    -999.25    -999.25   25.75630    4.76240   49.52900   25.75630    -999.25 1281.04280 1281.04280   40.06540  -19.95400   -3.53250   40.06540
 7800.00000    -999.25   41.26350   11.30290    -999.25    -999.25    -999.25   88.47250    6.12060   63.65420   88.47250    -999.25  865.55770  865.55770   96.98930  -20.13750   -3.77530   96.98930
 7850.00000    -999.25    -999.25   19.61030    -999.25    -999.25    -999.25   50.99370    3.63430   37.79670   50.99370    -999.25 1578.84610 1578.84610   68.39730  -19.22200   -2.91910   68.39730
 7900.00000    -999.25    -999.25   21.01720    -999.25    -999.25    -999.25   47.58010    4.54310   47.24820   47.58010    -999.25 1306.17520 1306.17520   68.62640  -18.21970   -1.97600   68.62640
 7950.00000    -999.25   44.67390   33.68720    -999.25    -999.25    -999.25   29.68490    5.47850   56.97640   29.68490    -999.25  872.33860  872.33860   56.69230  -20.70350   -4.51910   56.69230
 8000.00000    -999.25  136.37970  124.54390    -999.25    -999.25    -999.25    8.02930    4.68180   48.69070    8.02930    -999.25  523.51080  523.51080   10.91620  -24.00930   -7.88420   10.91620
 8050.00000    -999.25  145.28450  132.19640    -999.25    -999.25    -999.25    7.56450    4.45790   46.36220    7.56450    -999.25  694.42120  694.42120   10.52610  -23.65630   -7.59050   10.52610
 8100.00000    -999.25   50.80520   50.76530    -999.25    -999.25    -999.25   19.69850    3.06890   31.91660   19.69850    -999.25 1852.00940 1852.00940   36.76510  -24.72350   -8.71690   36.76510
 8150.00000    -999.25  152.41520  146.41070    -999.25    -999.25    -999.25    6.83010    3.49090   36.30540    6.83010    -999.25 1422.94230 1422.94230    9.09550  -26.09440  -10.14710    9.09550
 8200.00000    -999.25    -999.25   23.07400    -999.25    -999.25    -999.25   43.33890    1.34910   14.03060   43.33890    -999.25 2899.19190 2899.19190   70.51040  -24.42570   -8.53770   70.51040
 8250.00000    -999.25    -999.25   20.58980    -999.25    -999.25    -999.25   48.56770    1.84600   19.19840   48.56770    -999.25 2370.21530 2370.21530   71.35800  -24.85150   -9.02270   71.35800
 8300.00000    -999.25   57.88950   56.95020    -999.25    -999.25    -999.25   17.55920    2.91710   30.33780   17.55920    -999.25 1617.14990 1617.14990   28.11120  -23.91980   -8.15030   28.11120
 8350.00000    -999.25  100.79860   93.81300    -999.25    -999.25    -999.25   10.65950    3.29100   34.22640   10.65950    -999.25 1530.11300 1530.11300   17.53570  -25.42240   -9.71220   17.53570
 8400.00000    -999.25    -999.25   27.54840    -999.25    -999.25    -999.25   36.29970    1.75240   18.22500   36.29970    -999.25 2616.84840 2616.84840   57.06130  -23.89010   -8.23920   57.06130
 8450.00000    -999.25    -999.25   31.70420    -999.25    -999.25    -999.25   31.54160    1.63800   17.03520   31.54160    -999.25 2494.49100 2494.49100   48.28870  -23.62680   -8.03510   48.28870
 8500.00000    -999.25    -999.25   13.76130    -999.25    -999.25    -999.25   72.66730    1.20900   12.57360   72.66730    -999.25 3110.32350 3110.32350   91.05690  -34.69540  -19.16300   91.05690
 8550.00000    -999.25   59.11880   58.21700    -999.25    -999.25    -999.25   17.17710    4.08930   42.52870   17.17710    -999.25 1423.50940 1423.50940   27.13180  -22.64100   -7.16790   27.13180
 8600.00000    -999.25    -999.25   24.31800    -999.25    -999.25    -999.25   41.12180    1.75820   18.28530   41.12180    -999.25 2522.87130 2522.87130   56.41580  -22.06500   -6.65110   56.41580
 8650.00000    -999.25    -999.25   10.28310    -999.25    -999.25    -999.25   97.24740    3.93140   40.88660   97.24740    -999.25 1557.90230 1557.90230  113.54300  -20.34760   -4.99300  113.54300
 8700.00000    -999.25   42.92350   35.28310    -999.25    -999.25    -999.25   28.34220    2.29490   23.86700   28.34220    -999.25 2772.16410 2772.16410   44.99190  -19.16930   -3.87400   44.99190
 8750.00000    -999.25  129.06370  110.73950    -999.25    -999.25    -999.25    9.03020    8.23340   85.62740    9.03020    -999.25  927.01480  927.01480   20.84360  -24.21260   -8.97660   20.84360
