~Version ---------------------------------------------------
VERS.      2.0 : CWLS log ASCII Standard -VERSION 2.0
WRAP.       NO : One line per depth step
CREA. 12/13/17 : LAS Creation Date
~Well ------------------------------------------------------
STRT.FT                        950.0 : START DEPTH
STOP.FT                      10700.0 : STOP DEPTH
STEP.FT                     50.00000 : STEP LENGTH
NULL.                        -999.25 : NULL VALUE
COMP.         CALIFORNIA STANDARD CO : COMPANY
WELL. CALSTAN B.A. KAYBOB 4-16-62-19 : WELL
FLD .                                : FIELD
LOC .                                : LOCATION
CTRY.                         CANADA : COUNTRY
SRVC.         Schlumberger of Canada : SERVICE COMPANY
DATE.                    22-Apr-1959 : LOGDATE
PROV.                        Alberta : PROVINCE
UWI .               100041606219W500 : UNIQUE WELL ID
SLAT.WGS84                  54.35778 : SURFACE LATITUDE
SLON.WGS84                  -116.797 : SURFACE LONGITUDE
~Curve Information -----------------------------------------
DEPT  .FT         : Depth Curve
CALWS .IN         : CALIPER [CALSED]
CILDED.MMHO       : CONDUCTIVITY FROM RESISTIVITY LOG
CONDWS.MMHO       : CONDUCTIVITY [1000/DRESWS]
DRESWS.OHMM       : DEEP RESISTIVITY [1000/CILDED IF ILDED <1.5,ILDED]
DTED  .US/F       : DELTA-T FROM SONIC LOG [ADJ. TO RESISTIVITY LOG]
DTWS  .US/F       : COMPRESSIONAL SONIC [DTED]
GRSED .UgRa-Eq/T  : GAMMA RAY FROM SONIC LOG [ADJ. TO RESISTIVITY LOG]
GRWS  .GAPI       : GAMMA RAY [GRSED*16.5]
ILDED .OHMM       : DEEP INDUCTION FROM RESISTIVITY LOG
MCALED.IN         : MLT CALIPER FROM ML LOG
SNED  .OHMM       : SHORT NORMAL FROM RESISTIVITY LOG
SPRED .MV         : SPONTANEOUS POTENTIAL FROM RESISTIVITY LOG
SPWS  .MV         : SPONTANEOUS POTENTIAL [BASELINE 0 MV, SPRED]
SRESWS.OHMM       : SHALLOW RESISTIVITY [SNED]
~Params ----------------------------------------------------
LMF .                     KB : LOG MEASURED FROM
DMF .                     KB : DRILLING MEASURED FROM
EKB .FT               2867.8 : KELLY BUSHING
DATE.               04/22/59 : RUN DATE
RUN .                      2 : RUN NUMBER
DD  .FT                10705 : DEPTH DRILLER
DL  .FT                10705 : DEPTH LOGGER
BLI .FT                10700 : BOTTOM LOG INTERVAL
TLI .FT                 7054 : TOP LOG INTERVAL
BS  .IN                    9 : BIT SIZE
BSD .FT                10705 : BIT SIZE AT DEPTH
DFT .               OIL EMUL : DRILLING FLUID TYPE
DFD .                   10.1 : DRILLING FLUID DENSITY
DFV .                    130 : DRILLING FLUID VISCOSITY
DFPH.                      9 : DRILLING FLUID PH
DFL .                    5.2 : DRILLING FLUID LOSS
RMS .OHMM                3.2 : RESISTIVITY MUD SAMPLE
MST .DEGF                 57 : MUD SAMPLE TEMPERATURE
RMF .OHMM               1.75 : RESISTIVITY MUD FILTRATE SAMPLE
MFST.DEGF                 79 : MUD FILTRATE SAMPLE TEMPERATURE
RMC .OHMM                2.9 : RESISTIVITY MUD CAKE
MCST.DEGF                 79 : MUD CAKE SAMPLE TEMPERATURE
RMB .OHMM                0.8 : RESISTIVITY MUD AT BHT
TCS .HRS                   3 : TIME CIRCULATED STOPPED
LUN .                   1573 : LOGGING UNIT NUMBER
LUL .                     WC : LOGGING UNIT LOCATION
ENGI.               SHERRIFF : RECORDING ENGINEER
WITN.                RITCHIE : WITNESSED BY
CLNT.                A2DTECH : CLIENT CODE
ORIG.            2" 5" PRINT : ORIGIN OF DATA
UWI .       100041606219W500 : UNIQUE WELL ID
DICO. A2D Technologies, Inc. : DIGITIZING COMPANY
~Other -----------------------------------------------------
IEL-BHC LOG RUN
ALL DATA VERIFY FROM IEL LOG FROM TOP - 4100' FROM 2" SCALE & ALL DATA VERIFY FROM BHC LOG FROM TOP - 4048' FROM 2" SCALE
~ASCII -----------------------------------------------------
# ...
 3400.00000    -999.25  145.78610  169.96400    5.88360   93.04650   93.04650    4.44410   73.32760    5.88360    -999.25    8.25720  -62.64400   -3.90300    8.25720
 3450.00000    -999.25  146.15170  173.92510    5.74960   86.15310   86.15310    3.46380   57.15270    5.74960    -999.25    9.23750  -62.10260   -3.35500    9.23750
 3500.00000    -999.25  162.23640  183.99260    5.43500   95.02340   95.02340    4.73600   78.14400    5.43500    -999.25    8.32270  -62.60120   -3.79870    8.32270
 3550.00000    -999.25  131.06720  151.82400    6.58670   92.11760   92.11760    6.00240   99.03960    6.58670    -999.25    9.43950  -64.83100   -5.97200    9.43950
 3600.00000    -999.25  140.24890  162.76570    6.14380   94.78160   94.78160    5.60000   92.40000    6.14380    -999.25    9.23500  -65.40210   -6.48750    9.23500
 3650.00000    -999.25  142.95770  166.97840    5.98880   93.65120   93.65120    6.30300  103.99950    5.98880    -999.25    9.28460  -64.58660   -5.61720    9.28460
 3700.00000    -999.25  101.06840  114.00950    8.77120   95.60430   95.60430    7.48570  123.51410    8.77120    -999.25   15.45780  -62.61130   -3.58450   15.45780
 3750.00000    -999.25  106.92280  124.33790    8.04260   93.95330   93.95330    6.55670  108.18550    8.04260    -999.25   12.71310  -62.17670   -3.09510   12.71310
 3800.00000    -999.25  117.72930  136.56150    7.32320   95.02500   95.02500    5.82500   96.11290    7.32320    -999.25   10.94140  -63.93600   -4.79800   10.94140
 3850.00000    -999.25  157.61630  184.28420    5.42640   95.31060   95.31060    6.18670  102.08060    5.42640    -999.25    8.25090  -64.34510   -5.15140    8.25090
 3900.00000    -999.25  133.21230  154.39010    6.47710   90.06120   90.06120    5.67660   93.66390    6.47710    -999.25    9.60390  -64.32730   -5.07870    9.60390
 3950.00000    -999.25  119.12360  136.59340    7.32100   87.79360   87.79360    5.59890   92.38190    7.32100    -999.25   10.41160  -64.61890   -5.31300   10.41160
 4000.00000    -999.25  111.59830  131.58930    7.59940   84.56140   84.56140    5.54270   91.45450    7.59940    -999.25   11.39130  -64.31380   -4.95300   11.39130
 4050.00000    -999.25  137.55900  159.56620    6.26710   88.97970   88.97970    5.59600   92.33400    6.26710    -999.25    9.45840  -62.95010   -3.53290    9.45840
 4100.00000    -999.25  141.58420  172.73540    5.78920   92.30230   92.30230    5.29230   87.32300    5.78920    -999.25    8.07480  -63.30120   -3.82830    8.07480
 4150.00000    -999.25  152.58530  185.50470    5.39070   91.99240   91.99240    6.34080  104.62320    5.39070    -999.25    7.50200  -63.48390   -3.95620    7.50200
 4200.00000   11.90710  121.25320  148.72760    6.72370   84.17040   84.17040    5.75850   95.01520    6.72370   11.90710    9.23590  -63.41740   -3.83230    9.23590
 4250.00000    9.52860   75.56390   89.61380   11.15900   80.38200   80.38200    4.66220   76.92630   11.15900    9.52860   17.10880  -66.94310   -7.77110   17.10880
 4300.00000   10.49540  108.22750  131.21680    7.62130   86.44540   86.44540    6.01510   99.24830    7.62130   10.49540   10.81710  -61.72220   -3.23460   10.81710
 4350.00000    -999.25  109.59280  132.05500    7.57260   90.98800   90.98800    6.49940  107.24010    7.57260    -999.25   11.03740  -60.71190   -2.91430   11.03740
 4400.00000    -999.25  104.83160  129.91740    7.69720   86.39200   86.39200    5.68030   93.72490    7.69720    -999.25   10.55850  -60.84670   -3.73510   10.55850
 4450.00000    -999.25  108.15810  132.04460    7.57320   86.39070   86.39070    5.78760   95.49540    7.57320    -999.25   10.50230  -60.44420   -4.02100   10.50230
 4500.00000    -999.25  129.65920  157.06480    6.36680   90.66760   90.66760    6.28120  103.63980    6.36680    -999.25    9.28530  -59.62580   -3.88860    9.28530
 4550.00000    -999.25  128.01860  155.72240    6.42170   92.23770   92.23770    6.48060  106.92990    6.42170    -999.25   10.06990  -59.08950   -4.03660   10.06990
 4600.00000    -999.25  107.87250  128.33840    7.79190   89.61670   89.61670    6.03270   99.53960    7.79190    -999.25   12.31160  -57.00820   -2.64550   12.31160
 4650.00000    -999.25  104.51170  124.85640    8.00920   96.32390   96.32390    6.82730  112.65050    8.00920    -999.25   12.67940  -56.16110   -2.48430   12.67940
 4700.00000    -999.25   76.88640   89.51350   11.17150   92.71410   92.71410    6.60270  108.94450   11.17150    -999.25   19.44540  -55.06740   -2.07900   19.44540
 4750.00000    -999.25   73.27050   86.01260   11.62620   91.25990   91.25990    7.49670  123.69560   11.62620    -999.25   19.41460  -55.04180   -2.73940   19.41460
 4800.00000    -999.25   92.82480  110.32190    9.06440   97.24400   97.24400    7.20260  118.84290    9.06440    -999.25   15.79420  -55.46070   -3.84270   15.79420
 4850.00000    -999.25  133.51320  161.79920    6.18050   96.84010   96.84010    6.27840  103.59360    6.18050    -999.25   10.20820  -56.04440   -5.18910   10.20820
 4900.00000    -999.25  109.53710  131.31110    7.61550   96.08800   96.08800    6.18080  101.98320    7.61550    -999.25   12.25140  -57.74560   -7.45350   12.25140
 4950.00000   10.77730  129.72980  158.03280    6.32780   89.08300   89.08300    5.08870   83.96350    6.32780   10.77730    9.31530  -60.56180   -8.74900    9.31530
 5000.00000   11.87860  179.02930  212.90640    4.69690   94.77120   94.77120    5.85020   96.52830    4.69690   11.87860    7.22200  -57.63900   -4.31860    7.22200
 5050.00000   11.58110  145.23700  177.03620    5.64860   91.82120   91.82120    6.13710  101.26130    5.64860   11.58110    8.36530  -57.41780   -4.04780    8.36530
 5100.00000    -999.25  115.14020  142.05960    7.03930   76.92100   76.92100    6.46940  106.74510    7.03930    -999.25   10.45560  -56.70250   -3.96260   10.45560
 5150.00000    -999.25  138.56790  167.72610    5.96210   87.24280   87.24280    6.29950  103.94180    5.96210    -999.25    8.89530  -56.99670   -4.88370    8.89530
 5200.00000    -999.25  174.94630  209.70080    4.76870   86.62370   86.62370    5.06390   83.55430    4.76870    -999.25    6.98410  -55.92640   -4.44120    6.98410
 5250.00000    -999.25  163.11720  200.27240    4.99320   90.17980   90.17980    5.94910   98.16010    4.99320    -999.25    7.45540  -55.84390   -4.98540    7.45540
 5300.00000    -999.25  254.55980  303.64390    3.29350   99.97390   99.97390    6.62690  109.34390    3.29350    -999.25    5.14780  -53.60860   -3.37450    5.14780
 5350.00000    -999.25  305.80270  363.39850    2.75180   97.23850   97.23850    5.25220   86.66130    2.75180    -999.25    4.05540  -53.53280   -3.92900    4.05540
 5400.00000   13.62490  243.63810  282.44600    3.54050  100.75590  100.75590    5.99610   98.93570    3.54050   13.62490    5.09840  -52.87370   -3.89670    5.09840
 5450.00000   12.93240  165.79110  197.86700    5.05390   82.18820   82.18820    5.23150   86.31970    5.05390   12.93240    7.42060  -53.52710   -5.17780    7.42060
 5500.00000   10.20420   73.86720   86.80930   11.51950   75.77960   75.77960    4.97060   82.01490   11.51950   10.20420   17.46420  -55.15430   -6.93040   17.46420
 5550.00000   12.68790  139.80390  167.84880    5.95770   83.93360   83.93360    5.28930   87.27260    5.95770   12.68790    9.36130  -52.71200   -3.34010    9.36130
 5600.00000   10.36810   79.00980   91.53570   10.92470   78.61800   78.61800    5.10910   84.30020   10.92470   10.36810   20.62350  -57.92790   -7.40220   20.62350
 5650.00000   10.88440   82.76520   96.36600   10.37710   79.94350   79.94350    4.95750   81.79870   10.37710   10.88440   14.81160  -54.88760   -3.85480   14.81160
 5700.00000   11.49730   75.07610   88.51200   11.29790   74.72070   74.72070    4.08580   67.41570   11.29790   11.49730   16.29160  -60.98200  -10.91690   16.29160
 5750.00000   10.59160   53.66570   63.84880   15.66200   69.78600   69.78600    3.19920   52.78680   15.66200   10.59160   28.10930  -63.46660  -14.36590   28.10930
 5800.00000   10.35660   71.72510   86.26110   11.59950   72.51330   72.51330    4.01070   66.17650   11.59950   10.35660   17.33920  -57.87280   -9.73420   17.33920
