~Version ---------------------------------------------------
VERS.      2.0 : CWLS log ASCII Standard -VERSION 2.0
WRAP.       NO : One line per depth step
CREA. 10/07/14 : LAS Creation Date
~Well ------------------------------------------------------
STRT.M                   450.0 : START DEPTH
STOP.M                  2500.0 : STOP DEPTH
STEP.M                50.00000 : STEP LENGTH
NULL.                  -999.25 : NULL VALUE
COMP. CHEVRON STANDARD LIMITED : COMPANY
WELL. CHEVRON MAJEAU 1-28-57-3 : WELL
FLD .                          : FIELD
LOC .                          : Location
CTRY.                   CANADA : COUNTRY
SRVC.            Dresser Atlas : SERVICE COMPANY
DATE.              27-Nov-1979 : LOGDATE
LOC1.                          : Location 1
SECT.                          : Section
TOWN.                          : Township
RNGE.                          : Range
PDAT.                          : Perm Datum
EPD .                   699.25 : Elevation
LMF .            KELLY BUSHING : Log Measured From
DMF .            KELLY BUSHING : Drill Measured From
APD .                          : Above Perm Datum
EKB .                    703.7 : Elev-Kelly Bushing.
EDF .                          : Elev-Drill Floor
EGL .                   699.25 : Elev-Ground Level
PROV.                  Alberta : PROVINCE
UWI .         100012805703W500 : UNIQUE WELL ID
SLAT.WGS84            53.95118 : SURFACE LATITUDE
SLON.WGS84           -114.3782 : SURFACE LONGITUDE
~Curve Information -----------------------------------------
DEPT    .M      : Depth METERS
ACED    .US/M   : ACOUSTIC FROM SONIC LOG [ADJ. TO RESISTIVITY LOG]
CALDED  .MM     : CALIPER FROM DENSITY LOG [ADJ. TO RESISTIVITY LOG]
CALSED  .MM     : CALIPER FROM SONIC LOG [ADJ. TO RESISTIVITY LOG]
CALWS   .MM     : CALIPER [CALSED SPL. TO CALDED @ 2513M]
CONDWS  .MMHO   : CONDUCTIVITY [1000/DRESWS]
CORRED  .KG/M3  : DENSITY CORRECTION FROM DENSITY LOG [ADJ. TO RESISTIVITY LOG]
DCORWS  .KG/M3  : DENSITY CORRECTION [CORRED]
DENWS   .KG/M3  : FORMATION BULK DENSITY [RHOBED]
DPHILSED.V/V    : DENSITY POROSITY LIMESTONE [M=2710,F=1000] FROM DENSITY LOG [ADJ. TO RESISTIVITY LOG]
DPHISSED.V/V    : DENSITY POROSITY SANDSTONE [M=2650,F=1000] FROM DENSITY LOG [ADJ. TO RESISTIVITY LOG]
DPOLSWS .V/V    : DENSITY POROSITY LIMESTONE [CALC. FROM DENWS M=2710,F=1000]
DRESWS  .OHMM   : DEEP RESISTIVITY [ILDED]
DTWS    .US/M   : COMPRESSIONAL SONIC [ACED]
GRDED   .GAPI   : GAMMA RAY FROM DENSITY LOG [ADJ. TO RESISTIVITY LOG]
GRSED   .GAPI   : GAMMA RAY FROM SONIC LOG [ADJ. TO RESISTIVITY LOG]
GRWS    .GAPI   : GAMMA RAY [GRSED SPL. TO GRDED @ 2516M]
ILDED   .OHMM   : DEEP INDUCTION FROM RESISTIVITY LOG
ILMED   .OHMM   : MEDIUM INDUCTION FROM RESISTIVITY LOG
MRESWS  .OHMM   : MEDIUM RESISTIVITY [ILMED]
NPHILSED.V/V    : NEUTRON POROSITY LIMESTONE FROM DENSITY LOG [ADJ. TO RESISTIVITY LOG]
NPHISSED.V/V    : NEUTRON POROSITY SANDSTONE FROM DENSITY LOG [ADJ. TO RESISTIVITY LOG]
NPOLSWS .V/V    : NEUTRON POROSITY LIMESTONE [NPHISSED MATRIX CONVERSION FOR LIMESTONE, SPL. TO NPHILSED @1279M]]
RHOBED  .KG/M3  : BULK DENSITY FROM DENSITY LOG [ADJ. TO RESISTIVITY LOG]
SFLED   .OHMM   : SPHERICALLY FOCUSED FROM RESISTIVITY LOG
SPRED   .MV     : SPONTANEOUS POTENTIAL FROM RESISTIVITY LOG
SPWS    .MV     : SPONTANEOUS POTENTIAL [BASELINE 0 MV, SPRED]
SRESWS  .OHMM   : SHALLOW RESISTIVITY [SFLED]
TENDED  .N      : TENSION (LB*4.44822162) FROM DENSITY LOG [ADJ. TO RESISTIVITY LOG]
TENSED  .N      : TENSION (LB*4.44822162) FROM SONIC LOG [ADJ. TO RESISTIVITY LOG]
~Params ----------------------------------------------------
RUN .        1 : Run #
DATE.          : Date log was run
TDD .     2525 : Depth - Driller
TDL .   2523.4 : Depth - Logger
BLI .   2520.7 : Bottom Log Interval
TLI .    467.0 : Top Log Interval
CBD .      465 : Casing - Driller
CBL .      467 : Casing - Logger
BS  .    222.5 : Bit Size
DFT . GEL CHEM : Type of Fluid In Hole
DFD .     1150 : Drilling Fluid Density
DFV .      100 : Drilling Fluid Viscosity
DFPH.      9.5 : Drilling Fluid pH
DFL .      8.6 : Drilling Fluid Loss
MSS . FLOWLINE : Source of Sample
RMS .      1.3 : Mud Resitivity
RMFS.      1.1 : Mud Filtrate Resistivity
RMCS.      1.4 : Mud Cake Resitivity
MFSS.     MEAS : Source of Rmf
MCSS.     MEAS : Source of Rmc
RMBH.          : Rm at BHT
MRT .       75 : Max Recorded Temperature
CLNT.  A2DTECH : CLIENT CODE
~Other -----------------------------------------------------
~ASCII -----------------------------------------------------
  450.00000    -999.25    -999.25    -999.25    -999.25    -999.25    -999.25    -999.25    -999.25    -999.25    -999.25    -999.25    -999.25    -999.25    -999.25   57.23320   77.23320    -999.25    -999.25    -999.25    -999.25    -999.25    -999.25    -999.25    -999.25    -999.25    -999.25    -999.25    -999.25    -999.25
  500.00000  361.72530  212.55960  222.73120  222.73120  161.42050  107.75620  107.75620 2167.70460    -999.25    0.28060    0.31710    6.19500  361.72530   63.20150   60.43580   60.43580    6.19500    7.84870    7.84870    -999.25    0.37050    0.33050 2167.70460    9.67110  -59.65880  -20.04050    9.67110 4412.51000 4729.95600
  550.00000  356.44270  271.19550  259.08490  259.08490  147.91370  139.60700  139.60700 1971.13160    -999.25    0.38760    0.43210    6.76070  356.44270   85.10930   88.37460   88.37460    6.76070    7.42480    7.42480    -999.25    0.45000    0.41000 1971.13160    8.31100  -43.32380   -3.70550    8.31100 4732.45590 4750.59970
  600.00000  323.15190  258.54010  233.62060  233.62060  103.30470  154.45640  154.45640 1901.85740    -999.25    0.42370    0.47260    9.68010  323.15190  104.72280  107.25180  107.25180    9.68010   10.26520   10.26520    -999.25    0.38390    0.34390 1901.85740   11.62180  -47.54040   -7.92210   11.62180 4799.78330 4816.67630
  650.00000  353.94470  262.89450  239.52280  239.52280  116.93850  151.14780  151.14780 2067.59840    -999.25    0.33960    0.37570    8.55150  353.94470  116.07950  120.09400  120.09400    8.55150    9.14900    9.14900    -999.25    0.44990    0.40990 2067.59840   10.91060  -47.78360   -8.16530   10.91060 4509.52790 4573.61790
  700.00000  333.90340  303.14110  244.60440  244.60440  110.51430  122.89860  122.89860 2012.37350    -999.25    0.37400    0.40800    9.04860  333.90340  130.45220  121.54760  121.54760    9.04860    9.44190    9.44190    -999.25    0.45000    0.41000 2012.37350   10.80130  -47.77190   -8.15360   10.80130 4707.34790 4640.52090
  750.00000  325.15420  305.82610  241.19800  241.19800  102.86800  155.00290  155.00290 1978.38500    -999.25    0.37750    0.42780    9.72120  325.15420  114.45420  109.09040  109.09040    9.72120   10.60910   10.60910    -999.25    0.42880    0.38880 1978.38500   11.69380  -49.71800  -10.09970   11.69380 4667.95260 4768.69820
  800.00000  319.43060  263.45830  232.99000  232.99000  104.00630  128.29640  128.29640 2133.29030    -999.25    0.31000    0.33730    9.61480  319.43060  122.52290  126.16380  126.16380    9.61480    9.28600    9.28600    -999.25    0.44940    0.40940 2133.29030   11.10450  -52.96290  -13.34460   11.10450 4441.68810 4815.08380
  850.00000  341.84430  288.33200  255.67580  255.67580   91.88470   71.30580   71.30580 2411.15010    -999.25    0.13650    0.17480   10.88320  341.84430  129.97230  134.75310  134.75310   10.88320    9.93240    9.93240    -999.25    0.39000    0.35000 2411.15010   12.10090  -46.22260   -6.60430   12.10090 4466.94860 4899.41190
  900.00000  325.84770  320.94470  277.02960  277.02960  113.99520  181.39990  181.39990 2332.27100    -999.25    0.18450    0.22090    8.77230  325.84770  128.99990  118.52410  118.52410    8.77230    7.89280    7.89280    -999.25    0.43240    0.39240 2332.27100   10.82510  -45.92750   -6.30920   10.82510 4480.14960 4756.10840
  950.00000  335.10040  308.92470  259.81170  259.81170  156.54110  157.13980  157.13980 2397.52000    -999.25    0.13880    0.18270    6.38810  335.10040  170.45380  185.78130  185.78130    6.38810    5.92730    5.92730    -999.25    0.41530    0.37530 2397.52000   10.19110  -42.48160   -2.86330   10.19110 4682.41780 4686.07780
 1000.00000  290.46610  252.38790  230.25060  230.25060  194.18230  200.75310  200.75310 2260.43240    -999.25    0.23680    0.26290    5.14980  290.46610   99.02940   99.43390   99.43390    5.14980    6.12570    6.12570    -999.25    0.31160    0.27160 2260.43240    9.82010  -59.50220  -20.14170    9.82010 4407.71430 4756.79160
 1050.00000  329.14150  256.11540  228.79590  228.79590  168.99310  113.18920  113.18920 2255.66550    -999.25    0.22720    0.26570    5.91740  329.14150   93.51870   93.56400   93.56400    5.91740    6.43560    6.43560    -999.25    0.36940    0.32940 2255.66550    7.46200  -63.02710  -24.37870    7.46200 5095.74610 4629.45910
 1100.00000  280.39930  257.97270  240.89070  240.89070  129.94940   65.97550   65.97550 2417.05740    -999.25    0.13330    0.17130    7.69530  280.39930  100.80260  109.54190  109.54190    7.69530    8.51050    8.51050    -999.25    0.35910    0.31910 2417.05740    9.50370  -45.55800   -7.62170    9.50370 4867.51010 4626.16690
 1150.00000  270.19700  251.48850  237.22660  237.22660  128.44390   64.57010   64.57010 2488.22510    -999.25    0.09030    0.12970    7.78550  270.19700  112.49970  106.34500  106.34500    7.78550    8.51030    8.51030    -999.25    0.32700    0.28700 2488.22510    9.49050  -43.39010   -6.16590    9.49050 4706.44440 4722.62710
 1200.00000  281.50990  258.74650  234.80540  234.80540  145.91940  164.17490  164.17490 2361.33250    -999.25    0.17050    0.20390    6.85310  281.50990   97.67140  103.69100  103.69100    6.85310    7.19890    7.19890    -999.25    0.33920    0.29920 2361.33250    8.84210  -48.87160  -12.35950    8.84210 5044.18320 4785.72470
 1250.00000  250.40370  225.79380  219.04190  219.04190  119.29470   76.07710   76.07710 2446.52050    -999.25    0.12060    0.15410    8.38260  250.40370   72.45320   78.28840   78.28840    8.38260   10.84820   10.84820    -999.25    0.23590    0.19590 2446.52050   18.33580  -82.98740  -47.18740   18.33580 4207.03150 4972.78930
 1300.00000  184.03320  237.36840  220.54690  220.54690   24.28920   49.17060   49.17060 2630.97140    0.03280    0.00560    0.04620   41.17050  184.03320   33.41500   30.87310   30.87310   41.17050   44.14120   44.14120    0.08060    0.11190    0.08060 2630.97140   60.00730  -58.33820  -23.25030   60.00730 4902.41350 4852.65300
 1350.00000  182.68830  220.84020  216.55760  216.55760   88.97510   52.81350   52.81350 2595.66040    0.05470    -999.25    0.06690   11.23910  182.68830   29.79250   30.94190   30.94190   11.23910   14.31500   14.31500    0.18090    -999.25    0.18090 2595.66040   21.07300  -94.18870  -59.81290   21.07300 4481.03170 4640.36830
 1400.00000  164.59900  195.70230  191.30910  191.30910   51.75580  191.20680  191.20680 2467.13670    0.13070    -999.25    0.14200   19.32150  164.59900   17.51900   20.04810   20.04810   19.32150   27.78470   27.78470    0.15240    -999.25    0.15240 2467.13670  205.57430 -131.67470  -98.01100  205.57430 4398.26590 4665.48970
 1450.00000  191.51390  189.12070  181.66350  181.66350  149.78800  224.07590  224.07590 2484.84110    0.12260    -999.25    0.13170    6.67610  191.51390   20.00300   20.67140   20.67140    6.67610   10.66510   10.66510    0.21840    -999.25    0.21840 2484.84110   23.84780 -131.71190  -98.76030   23.84780 5070.28180 4677.39040
 1500.00000  165.52510  202.57970  201.01290  201.01290   85.39050   90.86360   90.86360 2641.84960    0.03510    -999.25    0.03990   11.71090  165.52510   28.82600   34.61990   34.61990   11.71090   22.06140   22.06140    0.11140    -999.25    0.11140 2641.84960   80.98100 -120.72370  -88.48420   80.98100 4783.78430 4846.36550
 1550.00000  208.35280  245.57700  226.42900  226.42900   57.91130   31.53960   31.53960 2646.23510    0.02640    -999.25    0.03730   17.26780  208.35280   72.16480   74.65380   74.65380   17.26780   19.72380   19.72380    0.15950    -999.25    0.15950 2646.23510   20.31160  -50.25880  -18.73140   20.31160 4906.34090 4661.04500
 1600.00000  185.09330  233.77380  221.32450  221.32450   35.29800   18.39250   18.39250 2644.78270    0.02780    -999.25    0.03810   28.33020  185.09330   52.80740   48.60650   48.60650   28.33020   30.78530   30.78530    0.09970    -999.25    0.09970 2644.78270   43.15720  -70.00650  -39.19120   43.15720 4538.67620 4787.40830
 1650.00000  255.24080  258.79470  265.96090  265.96090  114.21780  153.77720  153.77720 2233.36890    0.26760    -999.25    0.27870    8.75520  255.24080   89.61470   75.87220   75.87220    8.75520    9.35600    9.35600    0.28260    -999.25    0.28260 2233.36890   11.32960  -50.14400  -20.04080   11.32960 4491.66120 4879.71420
