~Version ---------------------------------------------------
VERS.      2.0 : CWLS log ASCII Standard -VERSION 2.0
WRAP.       NO : One line per depth step
CREA. 12/21/17 : LAS Creation Date
~Well ------------------------------------------------------
STRT.FT                    1250.0 : START DEPTH
STOP.FT                    9750.0 : STOP DEPTH
STEP.FT                  50.00000 : STEP LENGTH
NULL.                     -999.25 : NULL VALUE
COMP.  PHILLIPS PETROLEUM COMPANY : COMPANY
WELL. PHILLIPS KAYBOB 10-34-64-19 : WELL
FLD .                             : FIELD
LOC .                             : LOCATION
CTRY.                      CANADA : COUNTRY
SRVC.                       Welex : SERVICE COMPANY
DATE.                 14-Dec-1960 : LOGDATE
PROV.                     Alberta : PROVINCE
UWI .            100103406419W500 : UNIQUE WELL ID
SLAT.WGS84               54.58335 : SURFACE LATITUDE
SLON.WGS84               -116.782 : SURFACE LONGITUDE
~Curve Information -----------------------------------------
DEPT  .FT    : Depth Curve
CALWS .IN    : CALIPER [MCALED]
CONDWS.MMHO  : CONDUCTIVITY [1000/DRESWS]
DRESWS.OHMM  : DEEP RESISTIVITY [LT16ED]
GRNED .CPS   : GAMMA RAY FROM GRN LOG [ADJ. TO RESISTIVITY LOG]
GRWS  .CPS   : GAMMA RAY [GRNED]
LAT9ED.OHMM  : LATERAL 9' (3IZ)  FROM RESISTIVITY LOG
LT16ED.OHMM  : LATERAL 16' (3IZ)  FROM RESISTIVITY LOG
MCALED.IN    : CALIPER FROM CONTACT CALIPER LOG
MRESWS.OHMM  : MEDIUM RESISTIVITY [LT9ED]
NEUTED.CPS   : NEUTRON FROM GRN LOG [ADJ. TO RESISTIVITY LOG]
NEUTWS.CPS   : NEUTRON [NEUTED]
SNED  .OHMM  : SHORT NORMAL 18" (2Z) FROM RESISTIVITY LOG
SPRED .MV    : SPONTANEOUS POTENTIAL FROM RESISTIVITY LOG
SPWS  .MV    : SPONTANEOUS POTENTIAL [BASELINE 0 MV, SPRED]
SRESWS.OHMM  : SHALLOW RESISTIVITY [SNED]
~Params ----------------------------------------------------
PD  .                             SCF : PERMANENT DATUM
LMF .                              KB : LOG MEASURED FROM
DAPD.FT                         14.41 : FEET ABOVE PERMANENT DATUM
DMF .                              KB : DRILLING MEASURED FROM
EKB .FT                          2452 : KELLY BUSHING
EGL .FT                          2437 : GROUND LEVEL
DATE.                        12/14/60 : RUN DATE
RUN .                               1 : RUN NUMBER
DD  .FT                          9756 : DEPTH DRILLER
DL  .FT                          9757 : DEPTH LOGGER
BLI .FT                          9756 : BOTTOM LOG INTERVAL
TLI .FT                          1245 : TOP LOG INTERVAL
CS  .IN                         9.625 : CASING SIZE
CBD .FT                          1253 : CASING BOTTOM DRILLER
CBL .FT                          1245 : CASING BOTTOM LOGGER
BS  .IN                         7.875 : BIT SIZE
BSD .FT                          9756 : BIT SIZE AT DEPTH
DFT . OIL EMULSION GEL CAUSTIC TANNEX : DRILLING FLUID TYPE
DFD .                            10.5 : DRILLING FLUID DENSITY
DFV .                             115 : DRILLING FLUID VISCOSITY
DFPH.                             9.5 : DRILLING FLUID PH
DFL .                             5.3 : DRILLING FLUID LOSS
MSS .                      CIRCULATED : MUD SAMPLE SOURCE
RMS .OHMM                        2.73 : RESISTIVITY MUD SAMPLE
MST .DEGF                          72 : MUD SAMPLE TEMPERATURE
RMF .OHMM                        1.07 : RESISTIVITY MUD FILTRATE SAMPLE
MFST.DEGF                         195 : MUD FILTRATE SAMPLE TEMPERATURE
RMC .OHMM                        1.14 : RESISTIVITY MUD CAKE
MCST.DEGF                         195 : MUD CAKE SAMPLE TEMPERATURE
RMB .OHMM                        1.09 : RESISTIVITY MUD AT BHT
ENGI.                          DOWHAN : RECORDING ENGINEER
WITN.                        WILLIAMS : WITNESSED BY
CLNT.                         A2DTECH : CLIENT CODE
ORIG.                     2" 5" PRINT : ORIGIN OF DATA
UWI .                100103406419W500 : UNIQUE WELL ID
DICO.          A2D Technologies, Inc. : DIGITIZING COMPANY
~Other -----------------------------------------------------
~ASCII -----------------------------------------------------
# ...
 8150.00000    8.91630    1.16590  857.73010   46.93700   46.93700  459.76520  857.73010    8.91630  459.76520  495.07680  495.07680  171.43670  -66.69430  -10.66580  171.43670
 8200.00000   11.06180   17.11560   58.42640   64.66270   64.66270   76.30240   58.42640   11.06180   76.30240  337.56390  337.56390   40.45540  -84.56630  -28.18150   40.45540
 8250.00000    8.96000    4.11460  243.03990   39.91340   39.91340  348.09610  243.03990    8.96000  348.09610  608.48850  608.48850  181.39790  -93.92730  -37.18850  181.39790
 8300.00000    8.32830   16.69390   59.99860   56.64260   56.64260   52.67180   59.99860    8.32830   52.67180  555.00310  555.00310   52.60580  -85.55200  -28.45930   52.60580
 8350.00000    8.42640   53.21470   18.79180   53.28340   53.28340   18.65200   18.79180    8.42640   18.65200  543.48990  543.48990   41.03570  -84.60960  -27.16060   41.03570
 8400.00000    8.29600   29.07470   34.39420   53.43060   53.43060   43.08960   34.39420    8.29600   43.08960  555.98410  555.98410   56.85030  -79.02920  -21.22630   56.85030
 8450.00000    8.19060   21.10070   47.39190   49.11000   49.11000   41.14950   47.39190    8.19060   41.14950  533.29680  533.29680   73.60690  -75.92690  -17.76770   73.60690
 8500.00000    9.80440   57.04080   17.53130   53.11100   53.11100   13.14830   17.53130    9.80440   13.14830  412.56610  412.56610   25.95270  -79.34500  -20.83180   25.95270
 8550.00000   10.70860  100.54040    9.95920   69.16540   69.16540    7.37220    9.95920   10.70860    7.37220  322.96710  322.96710   14.01230  -78.11980  -19.25270   14.01230
 8600.00000   11.32170  198.44030    5.03930   84.51330   84.51330    3.79630    5.03930   11.32170    3.79630  286.80840  286.80840    9.37150  -81.32150  -22.09810    9.37150
 8650.00000   11.92270  167.33600    5.97600   76.13190   76.13190    5.34370    5.97600   11.92270    5.34370  291.85800  291.85800   10.57450  -85.65570  -26.07830   10.57450
 8700.00000   12.59470  193.67080    5.16340   74.59130   74.59130    4.76710    5.16340   12.59470    4.76710  276.64280  276.64280    9.22870  -93.78800  -33.85440    9.22870
 8750.00000   12.76960  176.96300    5.65090   75.91610   75.91610    4.91170    5.65090   12.76960    4.91170  258.38070  258.38070    9.26670  -87.43770  -27.15010    9.26670
 8800.00000    9.21060  182.89140    5.46890   94.65380   94.65380    4.92750    5.46890    9.21060    4.92750  326.92620  326.92620   17.29970  -87.68240  -27.04090   17.29970
 8850.00000    8.95160   71.60450   13.96560   73.82980   73.82980   12.19360   13.96560    8.95160   12.19360  430.11160  430.11160   21.57700  -83.83310  -22.83530   21.57700
 8900.00000    9.04580   95.68370   10.45110   90.53930   90.53930   10.49610   10.45110    9.04580   10.49610  411.25660  411.25660   19.69820  -85.99040  -24.63860   19.69820
 8950.00000    8.65720  102.52730    9.75350   83.48960   83.48960    9.57580    9.75350    8.65720    9.57580  399.46350  399.46350   21.24440  -85.01600  -23.30800   21.24440
 9000.00000    8.62000   78.25890   12.77810   81.02540   81.02540   12.15460   12.77810    8.62000   12.15460  399.26320  399.26320   25.36360  -88.39090  -26.32890   25.36360
 9050.00000    9.33330  132.40610    7.55270  101.97650  101.97650    6.89760    7.55270    9.33330    6.89760  320.95700  320.95700   16.42300  -88.41730  -26.00140   16.42300
 9100.00000    8.67600  126.66890    7.89460  100.58030  100.58030    6.63030    7.89460    8.67600    6.63030  330.76430  330.76430   17.48620  -86.37170  -23.59950   17.48620
 9150.00000    9.07350   87.01180   11.49270   98.49890   98.49890   11.00100   11.49270    9.07350   11.00100  319.66790  319.66790   14.53240  -87.00030  -23.87410   14.53240
 9200.00000    7.84530   67.44860   14.82610   89.64920   89.64920   14.27260   14.82610    7.84530   14.27260  415.22840  415.22840  209.61090  -80.00460  -16.52220  209.61090
 9250.00000    7.96990    1.95850  510.59290  117.62680  117.62680  381.65070  510.59290    7.96990  381.65070  425.97310  425.97310  305.26460  -69.07570   -5.23930  305.26460
 9300.00000    7.96800    7.74590  129.11810   44.40240   44.40240  214.42090  129.11810    7.96800  214.42090  566.79880  566.79880  140.48440  -69.20810   -5.19470  140.48440
 9350.00000    7.97640   17.64960   56.65860   97.73760   97.73760   57.16200   56.65860    7.97640   57.16200  389.53720  389.53720  120.45110  -68.39300   -4.37960  120.45110
 9400.00000    7.94060   48.05870   20.80790   78.71350   78.71350   64.62320   20.80790    7.94060   64.62320  434.82030  434.82030   52.79300  -73.01220   -8.99880   52.79300
 9450.00000    7.93910   19.70710   50.74320   64.39350   64.39350   72.23300   50.74320    7.93910   72.23300  492.78180  492.78180   58.93320  -81.10370  -17.09030   58.93320
 9500.00000    7.80320   16.11380   62.05860   34.45040   34.45040   34.03400   62.05860    7.80320   34.03400  677.36070  677.36070  179.06540 -136.27450  -72.26110  179.06540
 9550.00000    7.48930    4.95670  201.74660   24.31840   24.31840  247.84300  201.74660    7.48930  247.84300  583.17350  583.17350  138.58990 -248.74850 -184.73510  138.58990
 9600.00000    7.47320    2.08270  480.14650   26.75460   26.75460  367.00810  480.14650    7.47320  367.00810  590.35470  590.35470  197.82430 -250.50890 -186.49550  197.82430
 9650.00000    7.62190    5.78680  172.80590   24.18270   24.18270  201.62940  172.80590    7.62190  201.62940  699.43930  699.43930  137.88410 -247.87790 -183.86450  137.88410
 9700.00000    7.76200    0.61960 1613.86570   27.33910   27.33910  648.51630 1613.86570    7.76200  648.51630  818.11210  818.11210 1266.43620 -187.96880 -123.95540 1266.43620
 9750.00000    7.76700    2.38720  418.90520   29.35030   29.35030  214.56300  418.90520    7.76700  214.56300  812.00890  812.00890 1097.59860 -177.85010 -113.83670 1097.59860
