~Version ---------------------------------------------------
VERS.      2.0 : CWLS log ASCII Standard -VERSION 2.0
WRAP.       NO : One line per depth step
CREA. 11/16/17 : LAS Creation Date
~Well ------------------------------------------------------
STRT.FT                        1250.0 : START DEPTH
STOP.FT                       12550.0 : STOP DEPTH
STEP.FT                      50.00000 : STEP LENGTH
NULL.                         -999.25 : NULL VALUE
COMP.     ANADARKO CANADA CORPORATION : COMPANY
WELL. GPD NOEL AMOCO GOLD CK 5-8-69-5 : WELL
FLD .                              WC : FIELD
LOC .                                 : LOCATION
CTRY.                          CANADA : COUNTRY
SRVC.                    Schlumberger : SERVICE COMPANY
DATE.                     03-Nov-1970 : LOGDATE
PROV.                         Alberta : PROVINCE
UWI .                100050806905W600 : UNIQUE WELL ID
SLAT.WGS84                    54.9586 : SURFACE LATITUDE
SLON.WGS84                  -118.7315 : SURFACE LONGITUDE
~Curve Information -----------------------------------------
DEPT  .FT    : Depth Curve
CALSED.IN    : CALIPER FROM SONIC LOG
CALWS .IN    : CALIPER [CALSED]
CILDED.MMHO  : DEEP CONDUCTIVITY INDUCTION FROM RESISTIVITY LOG
CONDWS.MMHO  : CONDUCTIVITY [1000/DRESWS]
DRESWS.OHMM  : DEEP RESISTIVITY [1000/CILDED, IF ILDED <1, ILDED]
DTED  .US/F  : ACOUSTIC TRANSIT TIME SLOWNESS, DELTA T FROM SONIC LOG [ADJ. TO RESISTIVITY LOG]
DTWS  .US/F  : COMPRESSIONAL SONIC [ DTED]
GRSED .GAPI  : GAMMA RAY FROM SONIC LOG [ADJ. TO RESISTIVITY LOG]
GRWS  .GAPI  : GAMMA RAY [GRSED]
ILDED .OHMM  : DEEP INDUCTION RESISTIVITY FROM RESISTIVITY LOG
ILMED .OHMM  : MEDIUM INDUCTION RESISTIVITY FROM RESISTIVITY LOG
LL8ED .OHMM  : LATEROLOG-8 RESISTIVITY FROM RESISTIVITY LOG
MCALED.IN    : MLT [MICROLOG] CALIPER FROM MINILOG
MRESWS.OHMM  : MEDIUM RESISTIVITY [ILMED]
SPRED .MV    : SPONTANEOUS POTENTIAL FROM RESISTIVITY LOG
SPWS  .MV    : SPONTANEOUS POTENTIAL [BASELINE 0 MV, SPRED]
SRESWS.OHMM  : SHALLOW RESISTIVITY [LL8ED]
~Params ----------------------------------------------------
PD  .                     GL : PERMANENT DATUM
EPD .FT                 2152 : ELEVATION PERMANENT DATUM
LMF .                     KB : LOG MEASURED FROM
DAPD.FT                   14 : FEET ABOVE PERMANENT DATUM
EKB .FT                 2166 : KELLY BUSHING
EGL .FT                 2152 : GROUND LEVEL
DATE.               11/04/70 : RUN DATE
RUN .                      1 : RUN NUMBER
DD  .FT                 1319 : DEPTH DRILLER
DL  .FT                 1318 : DEPTH LOGGER
BLI .FT                12587 : BOTTOM LOG INTERVAL
TLI .FT                 1318 : TOP LOG INTERVAL
CBD .FT                12601 : CASING BOTTOM DRILLER
CBL .FT                12594 : CASING BOTTOM LOGGER
BS  .IN                 8.75 : BIT SIZE
BSD .FT                 1319 : BIT SIZE AT DEPTH
DFT .            MAGOBAR GEL : DRILLING FLUID TYPE
DFD .                   11.1 : DRILLING FLUID DENSITY
DFV .                    435 : DRILLING FLUID VISCOSITY
DFPH.                     11 : DRILLING FLUID PH
DFL .                    6.6 : DRILLING FLUID LOSS
MSS .               FLOWLINE : MUD SAMPLE SOURCE
TCS .HRS                 4.5 : TIME CIRCULATED STOPPED
LUN .                   3702 : LOGGING UNIT NUMBER
LUL .                     DC : LOGGING UNIT LOCATION
ENGI.                 SEAMAN : RECORDING ENGINEER
WITN.               SIMMONDS : WITNESSED BY
CLNT.                A2DTECH : CLIENT CODE
ORIG.            2" 5" PRINT : ORIGIN OF DATA
UWI .       100050806905W600 : UNIQUE WELL ID
DICO. A2D Technologies, Inc. : DIGITIZING COMPANY
~Other -----------------------------------------------------
~ASCII -----------------------------------------------------
# ...
 7400.00000   10.26270   10.26270    -999.25   17.71430   56.45160   55.08810   55.08810   73.33670   73.33670   56.45160   33.54800   74.98870    -999.25   33.54800 -217.20520  -49.91460   74.98870
 7450.00000   10.19950   10.19950    -999.25   11.29000   88.57380   59.04990   59.04990   72.41450   72.41450   88.57380   41.03250  107.72360    -999.25   41.03250 -212.25210  -45.61630  107.72360
 7500.00000   11.06480   11.06480    -999.25   10.46570   95.55060   56.38650   56.38650   76.27670   76.27670   95.55060   43.00810   95.78700    -999.25   43.00810 -206.23050  -40.24950   95.78700
 7550.00000   10.96380   10.96380    -999.25    9.70070  103.08500   57.16570   57.16570   71.40150   71.40150  103.08500   43.87210   92.45590    -999.25   43.87210 -201.89630  -36.57010   92.45590
 7600.00000   10.31330   10.31330    -999.25   15.90070   62.89040   57.05630   57.05630   77.57930   77.57930   62.89040   39.80090   67.98250    -999.25   39.80090 -198.44350  -33.77210   67.98250
 7650.00000   10.29760   10.29760    -999.25    2.12910  469.67740   61.18920   61.18920   75.70750   75.70750  469.67740   81.36850  303.47030    -999.25   81.36850 -191.52960  -27.51300  303.47030
 7700.00000    9.88360    9.88360    -999.25    5.21050  191.91930   58.35860   58.35860   70.60480   70.60480  191.91930   58.10960  169.86510    -999.25   58.10960 -188.38540  -25.02360  169.86510
 7750.00000    9.98900    9.98900    -999.25   12.12010   82.50730   53.82920   53.82920  107.68530  107.68530   82.50730   41.88230  101.16820    -999.25   41.88230 -170.08320   -7.37620  101.16820
 7800.00000    9.59470    9.59470    -999.25    4.60650  217.08530   56.21090   56.21090   76.36040   76.36040  217.08530   54.69630  153.08820    -999.25   54.69630 -173.32530  -11.27320  153.08820
 7850.00000    9.60800    9.60800    -999.25    7.01010  142.65070   60.73980   60.73980   89.26050   89.26050  142.65070   48.42020  123.49310    -999.25   48.42020 -168.42210   -7.02480  123.49310
 7900.00000    9.67220    9.67220    -999.25    7.32350  136.54720   64.92610   64.92610   87.05640   87.05640  136.54720   60.13460  220.37370    -999.25   60.13460 -164.45350   -3.65830  220.37370
 7950.00000    9.75890    9.75890    -999.25    9.79360  102.10790   60.80820   60.80820   80.77380   80.77380  102.10790   50.37090  108.39710    -999.25   50.37090 -168.59900   -8.12930  108.39710
 8000.00000    9.77150    9.77150    -999.25   13.08510   76.42290   60.34520   60.34520   90.29990   90.29990   76.42290   43.85420   78.43660    -999.25   43.85420 -168.45810   -8.31400   78.43660
 8050.00000    9.64690    9.64690    -999.25   31.41670   31.83020   54.66840   54.66840   85.89370   85.89370   31.83020   28.52010   81.74010    -999.25   28.52010 -235.10930  -75.29070   81.74010
 8100.00000    8.69540    8.69540    -999.25  290.23360    3.44550   73.72420   73.72420   25.01570   25.01570    3.44550    2.11390   12.14320    -999.25    2.11390 -289.38740 -129.89440   12.14320
 8150.00000    9.06910    9.06910    -999.25  145.05160    6.89410   66.07670   66.07670   35.79090   35.79090    6.89410    4.54300   31.55010    -999.25    4.54300 -269.60840 -110.44090   31.55010
 8200.00000   10.14140   10.14140    -999.25    4.91840  203.31980   47.21230   47.21230   45.95850   45.95850  203.31980   54.72770  314.78270    -999.25   54.72770 -232.07680  -73.23490  314.78270
 8250.00000    9.74670    9.74670    -999.25   14.59190   68.53110   52.67250   52.67250   32.12250   32.12250   68.53110   44.03210   90.68880    -999.25   44.03210 -184.54710  -26.03080   90.68880
 8300.00000    9.92590    9.92590    -999.25   22.96370   43.54700   64.66750   64.66750   41.46460   41.46460   43.54700   41.97930   54.77420    -999.25   41.97930 -257.00080  -98.81000   54.77420
 8350.00000    9.95630    9.95630    -999.25    1.09130  916.36210   54.32510   54.32510   18.32780   18.32780  916.36210  281.79590  406.22470    -999.25  281.79590 -239.10720  -81.24200  406.22470
 8400.00000    9.64060    9.64060    -999.25    3.71100  269.46590   48.40000   48.40000   92.76350   92.76350  269.46590  144.01940  237.90330    -999.25  144.01940 -181.56570  -24.02600  237.90330
 8450.00000    9.51110    9.51110    -999.25   19.97690   50.05780   50.29060   50.29060   23.16160   23.16160   50.05780   28.68920   80.67690    -999.25   28.68920 -216.60540  -59.39130   80.67690
 8500.00000    9.76790    9.76790    -999.25    3.07740  324.94570   47.62760   47.62760   13.56550   13.56550  324.94570   84.36350  372.39610    -999.25   84.36350 -197.71540  -40.82680  372.39610
 8550.00000    9.98700    9.98700    -999.25    0.59520 1679.99940   49.80960   49.80960    9.94810    9.94810 1679.99940   70.68140  401.14210    -999.25   70.68140 -218.14160  -61.57860  401.14210
 8600.00000    9.87860    9.87860    -999.25    2.22090  450.26120   50.34970   50.34970    8.45200    8.45200  450.26120  284.57540  848.45340    -999.25  284.57540 -227.11550  -70.87800  848.45340
 8650.00000    9.53260    9.53260    -999.25   12.55870   79.62610   49.96180   49.96180   19.72970   19.72970   79.62610   69.56210  114.48980    -999.25   69.56210 -171.93440  -16.02250  114.48980
 8700.00000    9.59420    9.59420    -999.25   16.30490   61.33120   51.56230   51.56230   20.35760   20.35760   61.33120   49.23670   72.48070    -999.25   49.23670 -182.53930  -26.95290   72.48070
 8750.00000    9.94240    9.94240    -999.25    9.71490  102.93420   48.78950   48.78950   17.38450   17.38450  102.93420   48.66840  544.34820    -999.25   48.66840 -174.83370  -19.57290  544.34820
 8800.00000   10.01020   10.01020    -999.25   10.52080   95.04980   50.97580   50.97580   18.84240   18.84240   95.04980   53.54550  139.07750    -999.25   53.54550 -173.29660  -18.68710  139.07750
 8850.00000   12.58960   12.58960    -999.25    1.15050  869.18400   60.59130   60.59130   21.57740   21.57740  869.18400   38.84350   79.39050    -999.25   38.84350 -218.73390  -65.11490   79.39050
 8900.00000    9.97450    9.97450    -999.25    2.21400  451.66640   48.48710   48.48710   13.98350   13.98350  451.66640  114.77650  340.92540    -999.25  114.77650 -235.64420  -83.01560  340.92540
 8950.00000    9.62630    9.62630    -999.25   82.43820   12.13030   56.32440   56.32440   21.74070   21.74070   12.13030   10.74060   62.01310    -999.25   10.74060 -235.79950  -84.16140   62.01310
 9000.00000    9.91100    9.91100    -999.25   16.19470   61.74850   48.72500   48.72500   20.28230   20.28230   61.74850   47.97020   52.32580    -999.25   47.97020 -202.67750  -52.02980   52.32580
 9050.00000    9.37730    9.37730    -999.25   19.21560   52.04100   49.42260   49.42260   14.68160   14.68160   52.04100   76.68060  134.84310    -999.25   76.68060 -233.06630  -83.40910  134.84310
 9100.00000    9.85410    9.85410    -999.25   34.68850   28.82800   49.94130   49.94130   11.87990   11.87990   28.82800   23.62190   72.70890    -999.25   23.62190 -192.86510  -44.19830   72.70890
 9150.00000    9.92020    9.92020    -999.25    5.76080  173.58820   49.29430   49.29430   18.08780   18.08780  173.58820   77.36490  263.42160    -999.25   77.36490 -220.32590  -72.64960  263.42160
 9200.00000   10.01710   10.01710    -999.25    0.90680 1102.72050   50.11590   50.11590   30.39810   30.39810 1102.72050  100.41740  420.54080    -999.25  100.41740 -178.26890  -31.58300  420.54080
 9250.00000   10.00930   10.00930    -999.25    8.47080  118.05280   61.56940   61.56940   43.93410   43.93410  118.05280   54.31820  133.49640    -999.25   54.31820 -185.44060  -39.74520  133.49640
 9300.00000   10.02400   10.02400    -999.25    0.91580 1091.98660   50.73060   50.73060   27.51050   27.51050 1091.98660   71.71700  121.74080   14.77140   71.71700 -235.63280  -90.92780  121.74080
 9350.00000    9.85070    9.85070    -999.25   59.95460   16.67930   53.47780   53.47780   36.95920   36.95920   16.67930   15.71330   31.78460    9.49970   15.71330 -211.64550  -67.93100   31.78460
 9400.00000    9.97270    9.97270    -999.25    2.02060  494.91350   50.65010   50.65010   14.29130   14.29130  494.91350   60.26300  278.96930    9.04970   60.26300 -205.96690  -63.24280  278.96930
