~Version ---------------------------------------------------
VERS.      2.0 : CWLS log ASCII Standard -VERSION 2.0
WRAP.       NO : One line per depth step
CREA. 11/10/17 : LAS Creation Date
~Well ------------------------------------------------------
STRT.FT                       1250.0 : START DEPTH
STOP.FT                      11950.0 : STOP DEPTH
STEP.FT                     50.00000 : STEP LENGTH
NULL.                        -999.25 : NULL VALUE
COMP.       DEVON CANADA CORPORATION : COMPANY
WELL. HOME PACIFIC EDSON 10-28-52-16 : WELL
FLD .                             WC : FIELD
LOC .                                : LOCATION
CTRY.                         CANADA : COUNTRY
SRVC.                   Schlumberger : SERVICE COMPANY
DATE.                    01-Nov-1962 : LOGDATE
PROV.                        Alberta : PROVINCE
UWI .               100102805216W500 : UNIQUE WELL ID
SLAT.WGS84             53.5208008195 : SURFACE LATITUDE
SLON.WGS84           -116.2964055425 : SURFACE LONGITUDE
~Curve Information -----------------------------------------
DEPT  .FT    : Depth Curve
CALWS .IN    : CALIPER [MCALED]
CILDED.MMHO  : CONDUCTIVITY FROM RESISTIVITY LOG
CONDWS.MMHO  : CONDCUTIVITY [1000/DRESWS]
DRESWS.OHMM  : DEEP RESISTIVITY [1000/CILDED IF ILDED <=1, ILDED]
DT1ED .US/F  : DELTA-T (1' SPACING)  FROM SONIC LOG
DTED  .US/F  : DELTA-T (3' SPACING) FROM SONIC LOG
DTWS  .US/F  : COMPRESSIONAL SONIC [DTED]
GRSED .GAPI  : GAMMA RAY FROM SONIC LOG
GRWS  .GAPI  : GAMMA RAY [GRSED]
ILDED .OHMM  : DEEP INDUCTION FROM RESISTIVITY LOG
MCALED.IN    : CALIPER FROM MICROLOG
SNED  .OHMM  : SHORT NORMAL FROM RESISTIVITY LOG
SPRED .MV    : SPONTANEOUS POTENTIAL FROM RESISTIVITY LOG
SPWS  .MV    : SPONTANEOUS POTENTIAL [BASELINE 0 MV, SPRED]
SRESWS.OHMM  : SHALLOE RESISTIVITY [SNED]
~Params ----------------------------------------------------
PD  .                     GL : PERMANENT DATUM
EPD .FT               3083.7 : ELEVATION PERMANENT DATUM
LMF .                     KB : LOG MEASURED FROM
DAPD.FT                 13.4 : FEET ABOVE PERMANENT DATUM
EKB .FT               3097.1 : KELLY BUSHING
EGL .FT               3083.7 : GROUND LEVEL
DATE.               11/01/62 : RUN DATE
RUN .                      2 : RUN NUMBER
DD  .FT                11979 : DEPTH DRILLER
DL  .FT                 5878 : DEPTH LOGGER
BLI .FT                11978 : BOTTOM LOG INTERVAL
TLI .FT                 6100 : TOP LOG INTERVAL
CBD .FT                 1249 : CASING BOTTOM DRILLER
BS  .IN                    9 : BIT SIZE
BSD .FT                11979 : BIT SIZE AT DEPTH
DFT .          XP20 SPERSENE : DRILLING FLUID TYPE
DFD .                   10.6 : DRILLING FLUID DENSITY
DFV .                    105 : DRILLING FLUID VISCOSITY
DFPH.                     11 : DRILLING FLUID PH
DFL .                      5 : DRILLING FLUID LOSS
RMS .OHMM               0.83 : RESISTIVITY MUD SAMPLE
MST .DEGF                 55 : MUD SAMPLE TEMPERATURE
RMF .OHMM               0.59 : RESISTIVITY MUD FILTRATE SAMPLE
MFST.DEGF                 58 : MUD FILTRATE SAMPLE TEMPERATURE
RMC .OHMM               1.01 : RESISTIVITY MUD CAKE
MCST.DEGF                 60 : MUD CAKE SAMPLE TEMPERATURE
RMB .OHMM               0.23 : RESISTIVITY MUD AT BHT
TCS .HRS                 2.5 : TIME CIRCULATED STOPPED
LUN .                   1576 : LOGGING UNIT NUMBER
LUL .                     DV : LOGGING UNIT LOCATION
ENGI.                NORQUAY : RECORDING ENGINEER
WITN.           DAWSON GROVE : WITNESSED BY
CLNT.                A2DTECH : CLIENT CODE
ORIG.            2" 5" PRINT : ORIGIN OF DATA
UWI .       100102805216W500 : UNIQUE WELL ID
DICO. A2D Technologies, Inc. : DIGITIZING COMPANY
~Other -----------------------------------------------------
~ASCII -----------------------------------------------------
# ...
 10450.00000   11.45780  116.63920  111.69810    8.95270   72.94860   73.67580   73.67580   82.19250   82.19250    8.95270   11.45780    9.56780  -96.59110  -41.30910    9.56780
 10500.00000    8.40500   34.11630   29.01710   34.46240   59.56300   59.13100   59.13100   49.27220   49.27220   34.46240    8.40500   25.32110  -82.22050  -28.25490   25.32110
 10550.00000   12.29720  142.62400  129.92580    7.69670    -999.25   86.01530   86.01530   78.62800   78.62800    7.69670   12.29720    7.27990 -122.74230  -70.09300    7.27990
 10600.00000    8.31410   20.32270   16.04000   62.34430   70.27870   69.77830   69.77830   80.72680   80.72680   62.34430    8.31410   35.51650  -79.74670  -28.42240   35.51650
 10650.00000    9.22240   77.78180   64.29380   15.55360   59.72210   60.90170   60.90170   67.74310   67.74310   15.55360    9.22240   20.54960  -99.13860  -49.13070   20.54960
 10700.00000    8.68990   39.60690   25.21200   39.66360   56.06140   56.30320   56.30320   49.99590   49.99590   39.66360    8.68990   17.45020 -111.87060  -63.18770   17.45020
 10750.00000    9.19550   46.58540   42.68450   23.42770   61.99200   62.44800   62.44800   76.29420   76.29420   23.42770    9.19550   20.72600 -113.54970  -66.18310   20.72600
 10800.00000    8.37660   74.80170   66.54780   15.02680   67.38100   67.39300   67.39300   84.41370   84.41370   15.02680    8.37660   14.38660  -85.67760  -39.62740   14.38660
 10850.00000    8.44590   77.75210   70.73140   14.13800   66.47130   65.81180   65.81180   79.36080   79.36080   14.13800    8.44590   13.44590 -116.24790  -71.52270   13.44590
 10900.00000    8.34290   58.99000   54.45200   18.36480   66.95140   66.43970   66.43970   68.72400   68.72400   18.36480    8.34290   17.42620 -119.26700  -75.85810   17.42620
 10950.00000   11.51530   96.70630   91.77600   10.89610   70.95230   70.21980   70.21980   89.55670   89.55670   10.89610   11.51530   11.42070 -121.89800  -79.81410   11.42070
 11000.00000    9.60850   82.21760   74.31680   13.45590   67.81980   67.97130   67.97130   77.12420   77.12420   13.45590    9.60850   12.25670  -88.44800  -47.68050   12.25670
 11050.00000    9.67390  106.66740  101.93370    9.81030   71.56230   70.96600   70.96600   73.16180   73.16180    9.81030    9.67390   10.45530  -91.62060  -52.16940   10.45530
 11100.00000    8.97230   93.79210   89.81820   11.13360   71.11200   70.83750   70.83750   75.11610   75.11610   11.13360    8.97230   12.95920  -97.96110  -59.83490   12.95920
 11150.00000    9.33990   85.06070   79.49380   12.57960   72.40960   71.69830   71.69830   84.98010   84.98010   12.57960    9.33990   13.26050  -70.83040  -34.02060   13.26050
 11200.00000    8.55420   75.94780   68.66720   14.56300   70.83180   70.70000   70.70000   84.92390   84.92390   14.56300    8.55420   14.48900  -67.50620  -32.02140   14.48900
 11250.00000    8.38530   37.92590   30.75690   32.51300   59.52050   59.31200   59.31200   56.82000   56.82000   32.51300    8.38530   22.69250  -80.99970  -46.83120   22.69250
 11300.00000    8.29070   84.58320   80.95330   12.35280   70.72910   70.83800   70.83800   77.41120   77.41120   12.35280    8.29070   14.24600  -38.41900   -5.02440   14.24600
 11350.00000    8.25140    7.78130    3.95460  252.86800   77.78150   77.47680   77.47680  109.37190  109.37190  252.86800    8.25140   84.18290  -60.05890  -26.36210   84.18290
 11400.00000    8.18340   10.35440    6.75290  148.08380    -999.25   83.43380   83.43380   96.77060   96.77060  148.08380    8.18340   50.88980  -78.98560  -44.98850   50.88980
 11450.00000   12.00410   84.39090   75.50870   13.24350   65.60430   66.65550   66.65550   85.56780   85.56780   13.24350   12.00410   18.12800  -87.24240  -52.94300   18.12800
 11500.00000    8.67040    1.89260    1.44980  689.76980   52.32660   52.20020   52.20020   27.50530   27.50530  689.76980    8.67040   89.33300  -82.38170  -47.78200   89.33300
 11550.00000    9.35930    -999.25    1.44540  691.82670   52.35400   52.56030   52.56030   19.33720   19.33720  691.82670    9.35930  127.68000  -86.52800  -51.62810  127.68000
 11600.00000    9.30860    -999.25    1.41100  708.70180   49.84980   49.71200   49.71200   22.32460   22.32460  708.70180    9.30860  145.32450 -128.74370  -93.54150  145.32450
 11650.00000    8.65470    -999.25    1.44340  692.82200   50.01580   49.89000   49.89000   22.21560   22.21560  692.82200    8.65470  153.07500 -118.61670  -83.11420  153.07500
 11700.00000    8.90340    -999.25    1.43900  694.94660   49.47150   49.27130   49.27130   28.39970   28.39970  694.94660    8.90340  156.75880  -78.79340  -42.98860  156.75880
 11750.00000    9.11110    -999.25    1.44450  692.29760   52.89560   52.78750   52.78750   23.59010   23.59010  692.29760    9.11110  133.59560 -113.96400  -77.85890  133.59560
 11800.00000    9.04280    -999.25    1.44490  692.10990   52.33110   52.30170   52.30170   19.92520   19.92520  692.10990    9.04280  136.56900  -74.90520  -38.49990  136.56900
 11850.00000    9.42100    -999.25    1.44750  690.85800   52.43770   52.20020   52.20020   24.50180   24.50180  690.85800    9.42100  112.52100  -49.43170  -12.72410  112.52100
 11900.00000    8.12760   13.87970   11.11310   89.98350   69.18620   68.86350   68.86350  135.32910  135.32910   89.98350    8.12760   76.57070  -54.57780  -17.64300   76.57070
 11950.00000    7.17960  137.29530  141.39870    7.07220   61.82880   61.66450   61.66450   28.12560   28.12560    7.07220    7.17960   21.79880 -123.05940  -86.12460   21.79880
