~Version ---------------------------------------------------
VERS.      2.0 : CWLS log ASCII Standard -VERSION 2.0
WRAP.       NO : One line per depth step
CREA. 09/27/17 : LAS Creation Date
~Well ------------------------------------------------------
STRT.FT                             850.0 : START DEPTH
STOP.FT                            7200.0 : STOP DEPTH
STEP.FT                          50.00000 : STEP LENGTH
NULL.                             -999.25 : NULL VALUE
COMP.                  FORGOTSON AND BURK : COMPANY
WELL. FORGOTSON-BURK ROWLEY W 10-34-32-21 : WELL
FLD .                                     : FIELD
LOC .                                     : LOCATION
CTRY.                              CANADA : COUNTRY
SRVC.              Schlumberger of Canada : SERVICE COMPANY
DATE.                         18-Nov-1962 : LOGDATE
PROV.                             Alberta : PROVINCE
UWI .                    100103403221W400 : UNIQUE WELL ID
SLAT.WGS84                       51.78894 : SURFACE LATITUDE
SLON.WGS84                      -112.8948 : SURFACE LONGITUDE
~Curve Information -----------------------------------------
DEPT  .FT    : Depth Curve
ACED  .US/F  : ACOUSTIC FROM SONIC LOG [ADJ. TO RESISTIVITY LOG]
CALIED.IN    : CALIPER FROM CALIPER LOG
CALWS .IN    : CALIPER [CALIED]
CILDED.MMHO  : CONDUCTIVITY INDUCTION FROM RESISTIVITY LOG
CONDWS.MMHO  : CONDUCTIVITY [1000/DRESWS]
DRESWS.OHMM  : DEEP RESISTIVITY [ILDED]
DTWS  .US/F  : COMPRESSIONNAL SONIC [ACED]
GRRED .GAPI  : GAMMA RAY FROM RESISTIVITY LOG
GRWS  .GAPI  : GAMMA RAY [GRRED]
ILDED .OHMM  : DEEP INDUCTION RESISTIVITY  FROM RESISTIVITY LOG
SNED  .OHMM  : SHORT NORMAL  FROM RESISTIVITY LOG
SPRED .MV    : SPONTANEOUS POTENTIAL FROM RESISTIVITY
SPWS  .MV    : SPONTANEOUS POTENTIAL [BASELINE 0 MV, SPRED]
SRESWS.OHMM  : SHALLOW RESISTIVITY [SNED]
~Params ----------------------------------------------------
PD  .                     GL : PERMANENT DATUM
EPD .FT               3003.4 : ELEVATION PERMANENT DATUM
LMF .                     KB : LOG MEASURED FROM
DAPD.FT                 12.6 : FEET ABOVE PERMANENT DATUM
EKB .FT                 3016 : KELLY BUSHING
EGL .FT               3003.4 : GROUND LEVEL
DATE.               11/18/62 : RUN DATE
RUN .                      1 : RUN NUMBER
DD  .FT                 7224 : DEPTH DRILLER
DL  .FT                 7223 : DEPTH LOGGER
BLI .FT                 7222 : BOTTOM LOG INTERVAL
TLI .FT                  794 : TOP LOG INTERVAL
CBD .FT                  794 : CASING BOTTOM DRILLER
CBL .FT                  794 : CASING BOTTOM LOGGER
BS  .IN                7.875 : BIT SIZE
BSD .FT                 7224 : BIT SIZE AT DEPTH
DFT .               GYP BASE : DRILLING FLUID TYPE
DFD .                   10.4 : DRILLING FLUID DENSITY
DFV .                     70 : DRILLING FLUID VISCOSITY
DFPH.                   10.5 : DRILLING FLUID PH
DFL .                    9.4 : DRILLING FLUID LOSS
MSS .                  0.285 : MUD SAMPLE SOURCE
RMS .OHMM                 71 : RESISTIVITY MUD SAMPLE
MST .DEGF              0.155 : MUD SAMPLE TEMPERATURE
RMF .OHMM                 67 : RESISTIVITY MUD FILTRATE SAMPLE
MFST.DEGF               0.68 : MUD FILTRATE SAMPLE TEMPERATURE
RMC .OHMM                 67 : RESISTIVITY MUD CAKE
RMB .OHMM               0.14 : RESISTIVITY MUD AT BHT
TCS .HRS                   3 : TIME CIRCULATED STOPPED
LUN .                   3815 : LOGGING UNIT NUMBER
ENGI.                 GORITZ : RECORDING ENGINEER
WITN.                  CLARK : WITNESSED BY
CLNT.                A2DTECH : CLIENT CODE
ORIG.        2" 5" 25" PRINT : ORIGIN OF DATA
UWI .       100103403221W400 : UNIQUE WELL ID
DICO. A2D Technologies, Inc. : DIGITIZING COMPANY
~Other -----------------------------------------------------
IEL & COMPOSITE LOG
~ASCII -----------------------------------------------------
  850.00000    -999.25    -999.25    -999.25  236.48030  311.91520    3.20600    -999.25    -999.25    -999.25    3.20600    4.70110  -28.82190   -4.48390    4.70110
  900.00000    -999.25    -999.25    -999.25  119.64650  128.97520    7.80100    -999.25    -999.25    -999.25    7.80100    7.08300  -30.36990   -1.42170    7.08300
  950.00000    -999.25    -999.25    -999.25  183.55360  236.18330    4.23400    -999.25    -999.25    -999.25    4.23400    4.59250  -21.10310   -2.93480    4.59250
 1000.00000    -999.25    -999.25    -999.25   59.48500   58.66170   17.04690    -999.25    -999.25    -999.25   17.04690    6.06930  -20.83490   -3.70880    6.06930
 1050.00000    -999.25    -999.25    -999.25  154.58450  183.34720    5.46230    -999.25    -999.25    -999.25    5.46230    5.61460  -18.09160   -2.00780    5.61460
 1100.00000    -999.25    -999.25    -999.25  113.80360  130.34580    7.67190    -999.25    -999.25    -999.25    7.67190    8.13380  -17.21980   -2.18520    8.13380
 1150.00000    -999.25    -999.25    -999.25  165.62610  201.88080    4.97220    -999.25    -999.25    -999.25    4.97220    6.99070  -17.81760   -2.96810    6.99070
 1200.00000    -999.25    -999.25    -999.25  134.72080  146.43860    6.82880    -999.25    -999.25    -999.25    6.82880    7.00470  -18.41860   -1.37890    7.00470
 1250.00000    -999.25    -999.25    -999.25  176.29710  209.33200    4.77710    -999.25    -999.25    -999.25    4.77710    7.40880  -20.21900   -4.02040    7.40880
 1300.00000    -999.25    -999.25    -999.25  123.65580  137.59180    7.26830    -999.25    -999.25    -999.25    7.26830    6.63980  -22.82340   -2.07880    6.63980
 1350.00000    -999.25    -999.25    -999.25  138.06350  160.34630    6.23650    -999.25    -999.25    -999.25    6.23650    5.77170  -23.38490   -3.61990    5.77170
 1400.00000    -999.25    -999.25    -999.25  217.55810  281.91000    3.54810    -999.25    -999.25    -999.25    3.54810    4.95540  -23.52350   -4.71440    4.95540
 1450.00000    -999.25    -999.25    -999.25  237.07210  321.15100    3.11380    -999.25    -999.25    -999.25    3.11380    4.24220  -21.99870   -2.00400    4.24220
 1500.00000    -999.25    -999.25    -999.25  232.10530  310.08710    3.22490    -999.25    -999.25    -999.25    3.22490    4.20080  -22.59030   -3.44090    4.20080
 1550.00000    -999.25    -999.25    -999.25  286.49600  397.91290    2.51320    -999.25    -999.25    -999.25    2.51320    3.22930  -21.32650   -3.09120    3.22930
 1600.00000    -999.25    -999.25    -999.25   73.70200   77.09800   12.97050    -999.25    -999.25    -999.25   12.97050    9.74700  -19.63910   -2.25790    9.74700
 1650.00000    -999.25    -999.25    -999.25  337.97870  478.10670    2.09270    -999.25    -999.25    -999.25    2.09270    3.03910  -20.19880   -3.25390    3.03910
 1700.00000    -999.25    -999.25    -999.25  292.52350  399.37700    2.50390    -999.25    -999.25    -999.25    2.50390    3.26690  -20.35450   -3.84880    3.26690
 1750.00000    -999.25    -999.25    -999.25  194.65440  262.00640    3.81670    -999.25    -999.25    -999.25    3.81670    4.18770  -19.79690   -3.72750    4.18770
 1800.00000    -999.25    -999.25    -999.25  190.41760  236.29370    4.23500    -999.25    -999.25    -999.25    4.23500    5.03580  -22.29520   -5.54790    5.03580
 1850.00000    -999.25    -999.25    -999.25   99.90290  101.00700    9.90030    -999.25    -999.25    -999.25    9.90030    6.76110   -0.93600   -1.44080    6.76110
 1900.00000    -999.25    -999.25    -999.25  263.09040  358.92930    2.78860    -999.25    -999.25    -999.25    2.78860    3.66080  -20.35090   -2.04540    3.66080
 1950.00000    -999.25    -999.25    -999.25  132.54960  144.35850    6.92720    -999.25    -999.25    -999.25    6.92720    7.50050  -25.61490   -7.95080    7.50050
 2000.00000    -999.25    -999.25    -999.25  121.51350  133.77750    7.47510    -999.25    -999.25    -999.25    7.47510    7.35210  -25.09700   -8.32150    7.35210
 2050.00000    -999.25    -999.25    -999.25  240.66350  308.33930    3.25060    -999.25    -999.25    -999.25    3.25060    4.81310  -24.85790   -3.52600    4.81310
 2100.00000    -999.25    -999.25    -999.25  214.71800  269.37480    3.71230    -999.25    -999.25    -999.25    3.71230    4.15130  -24.33250   -3.37260    4.15130
 2150.00000    -999.25    -999.25    -999.25  199.82570  231.42550    4.37160    -999.25    -999.25    -999.25    4.37160    5.42390  -26.60880   -6.58050    5.42390
 2200.00000    -999.25    -999.25    -999.25   54.71300   57.36840   17.43120    -999.25    -999.25    -999.25   17.43120   10.23300   -7.78530   -2.02160   10.23300
 2250.00000    -999.25    -999.25    -999.25  202.43400  259.94960    3.84690    -999.25    -999.25    -999.25    3.84690    4.27720  -23.22460   -1.78390    4.27720
 2300.00000    -999.25    -999.25    -999.25  205.94700  260.43760    3.83980    -999.25    -999.25    -999.25    3.83980    4.24490  -22.92130   -4.18830    4.24490
 2350.00000    -999.25    -999.25    -999.25  204.03940  251.72430    3.97260    -999.25    -999.25    -999.25    3.97260    4.35320  -22.35610   -4.63410    4.35320
 2400.00000    -999.25    -999.25    -999.25  181.98370  208.97300    4.79550    -999.25    -999.25    -999.25    4.79550    5.34570  -26.00680   -5.47970    5.34570
 2450.00000    -999.25    -999.25    -999.25  246.11550  321.80210    3.10750    -999.25    -999.25    -999.25    3.10750    3.94760  -22.74300   -1.75320    3.94760
 2500.00000    -999.25    -999.25    -999.25  218.84560  270.57740    3.69580    -999.25    -999.25    -999.25    3.69580    5.05830  -25.85800   -7.95630    5.05830
 2550.00000    -999.25    -999.25    -999.25   55.53930   58.39890   17.16810    -999.25    -999.25    -999.25   17.16810    9.75230  -21.09670   -3.46390    9.75230
 2600.00000    -999.25    -999.25    -999.25  292.05380  375.27680    2.66470    -999.25    -999.25    -999.25    2.66470    3.65220  -20.03330   -0.62610    3.65220
 2650.00000    -999.25    -999.25    -999.25  114.97290  120.03630    8.40130    -999.25    -999.25    -999.25    8.40130    6.09490  -23.42780   -1.45530    6.09490
 2700.00000    -999.25    -999.25    -999.25  298.75910  393.37560    2.54210    -999.25    -999.25    -999.25    2.54210    3.64000  -26.21200   -1.21230    3.64000
 2750.00000    -999.25    -999.25    -999.25  133.96010  145.59640    6.86830    -999.25    -999.25    -999.25    6.86830    5.55340  -22.57870   -3.85850    5.55340
 2800.00000    -999.25    -999.25    -999.25  131.59170  146.71170    6.81630    -999.25    -999.25    -999.25    6.81630    5.86390  -19.74270   -2.89080    5.86390
 2850.00000    -999.25    -999.25    -999.25  102.10570  111.27060    8.98710    -999.25    -999.25    -999.25    8.98710    6.66320  -18.67330   -2.83720    6.66320
 2900.00000    -999.25    -999.25    -999.25  100.08390  106.87470    9.36410    -999.25    -999.25    -999.25    9.36410    7.32460  -20.74580   -4.45530    7.32460
 2950.00000    -999.25    -999.25    -999.25  111.61110  119.98900    8.33410    -999.25    -999.25    -999.25    8.33410    6.81650  -19.04000   -0.47670    6.81650
 3000.00000    -999.25    -999.25    -999.25  112.06280  122.82450    8.14170    -999.25    -999.25    -999.25    8.14170    6.91510  -19.73380   -3.80600    6.91510
 3050.00000    -999.25    -999.25    -999.25   95.14910   99.68780   10.04520    -999.25    -999.25    -999.25   10.04520    9.80680  -18.22140   -4.05510    9.80680
 3100.00000    -999.25    -999.25    -999.25   80.61760   82.53750   12.11570    -999.25    -999.25    -999.25   12.11570   11.41490  -18.76840   -3.06490   11.41490
 3150.00000    -999.25    -999.25    -999.25  108.32710  117.15800    8.54030    -999.25    -999.25    -999.25    8.54030    9.64380  -20.07750   -2.45030    9.64380
 3200.00000    -999.25    -999.25    -999.25  117.47640  124.66190    8.02170    -999.25    -999.25    -999.25    8.02170    6.84510  -19.68640   -1.93850    6.84510
 3250.00000    -999.25    -999.25    -999.25  116.98120  127.46160    7.84550    -999.25    -999.25    -999.25    7.84550    6.74720  -20.78830   -3.63910    6.74720
