~Version ---------------------------------------------------
VERS.      2.0 : CWLS log ASCII Standard -VERSION 2.0
WRAP.       NO : One line per depth step
CREA. 08/01/17 : LAS Creation Date
~Well ------------------------------------------------------
STRT.FT                          300.0 : START DEPTH
STOP.FT                         9600.0 : STOP DEPTH
STEP.FT                       50.00000 : STEP LENGTH
NULL.                          -999.25 : NULL VALUE
COMP.             IMPERIAL OIL LIMITED : COMPANY
WELL. IMP GOOSE RIVER EAST 10-15-67-18 : WELL
FLD .                                  : FIELD
LOC .                                  : LOCATION
CTRY.                           CANADA : COUNTRY
SRVC.           Schlumberger of Canada : SERVICE COMPANY
DATE.                      29-Jan-1963 : LOGDATE
PROV.                          Alberta : PROVINCE
UWI .                 100101506718W500 : UNIQUE WELL ID
SLAT.WGS84                    54.80149 : SURFACE LATITUDE
SLON.WGS84                   -116.6536 : SURFACE LONGITUDE
~Curve Information -----------------------------------------
DEPT  .FT    : Depth Curve
CALSED.IN    : CALIPER FROM SONIC LOG  [ADJ. TO RESISTIVITY LOG]
CALWS .IN    : CALIPER [CALSED]
CILDED.MMHO  : DEEP  INDUCTION CONDUCTIVITY FROM RESISTIVITY LOG
CONDWS.MMHO  : CONDUCTIVITY [1000/DRESWS]
DRESWS.OHMM  : DEEP RESISTIVITY [ILDED] IF ILDED<2;1000/CILDED;ELSE ILDED
DT1ED .US/F  : DELTA-T [(3' SPACING & 1' PICKUP SPAN) FROM SONIC LOG [ADJ. TO RESISTIVITY LOG]
DTED  .US/F  : DELTA-T [(3' SPACING & 3' PICKUP SPAN) FROM SONIC LOG [ADJ. TO RESISTIVITY LOG]
DTWS  .US/F  : COMPRESSIONAL SONIC [DTED]
GRSED .GAPI  : GAMMA RAY FROM SONIC LOG [ADJ. TO RESISTIVITY LOG]
GRWS  .GAPI  : GAMMA RAY [GRSED]
ILDED .OHMM  : DEEP INDUCTION RESISTIVITY FROM RESISTIVITY LOG
SNED  .OHMM  : 16 INCH SHORT NORMAL RESISTIVITY FROM RESISTIVITY LOG
SPRED .MV    : SPONTANEOUS POTENTIAL FROM RESISTIVITY LOG
SPWS  .MV    : SPONTANEOUS POTENTIAL [BASELINE 0 MV,SPRED]
SRESWS.OHMM  : SHALLOW RESISTIVITY [SNED]
~Params ----------------------------------------------------
PD  .                     GL : PERMANENT DATUM
EPD .FT                 2657 : ELEVATION PERMANENT DATUM
LMF .                     KB : LOG MEASURED FROM
DAPD.FT                   12 : FEET ABOVE PERMANENT DATUM
EKB .FT                 2669 : KELLY BUSHING
EGL .FT                 2657 : GROUND LEVEL
DATE.               01/29/63 : RUN DATE
RUN .                      1 : RUN NUMBER
DD  .FT                 9637 : DEPTH DRILLER
DL  .FT                 9633 : DEPTH LOGGER
BLI .FT                 9632 : BOTTOM LOG INTERVAL
TLI .FT                  957 : TOP LOG INTERVAL
CBD .FT                  957 : CASING BOTTOM DRILLER
CBL .FT                  957 : CASING BOTTOM LOGGER
BS  .IN                7.875 : BIT SIZE
BSD .FT                 9637 : BIT SIZE AT DEPTH
DFT .                    GEL : DRILLING FLUID TYPE
DFD .                   10.1 : DRILLING FLUID DENSITY
DFV .                    283 : DRILLING FLUID VISCOSITY
DFPH.                      9 : DRILLING FLUID PH
DFL .                    8.2 : DRILLING FLUID LOSS
RMS .OHMM               2.21 : RESISTIVITY MUD SAMPLE
MST .DEGF                 60 : MUD SAMPLE TEMPERATURE
RMF .OHMM               1.61 : RESISTIVITY MUD FILTRATE SAMPLE
MFST.DEGF                 64 : MUD FILTRATE SAMPLE TEMPERATURE
RMC .OHMM               2.47 : RESISTIVITY MUD CAKE
MCST.DEGF                 64 : MUD CAKE SAMPLE TEMPERATURE
RMB .OHMM               0.74 : RESISTIVITY MUD AT BHT
TCS .HRS                   3 : TIME CIRCULATED STOPPED
LUN .                   1534 : LOGGING UNIT NUMBER
LUL .                     VV : LOGGING UNIT LOCATION
ENGI.                  KEOWN : RECORDING ENGINEER
WITN.               INGLESON : WITNESSED BY
CLNT.                A2DTECH : CLIENT CODE
ORIG.            2" 5" PRINT : ORIGIN OF DATA
UWI .       100101506718W500 : UNIQUE WELL ID
DICO. A2D Technologies, Inc. : DIGITIZING COMPANY
~Other -----------------------------------------------------
IEL-BCS LOG RUN
ALL IEL DATA FROM TOP TO 3786' FROM SMALL SECTION
~ASCII -----------------------------------------------------
# ...
 7200.00000    7.98820    7.98820    3.06960    3.13400  319.07660    -999.25   49.13750   49.13750   21.62640   21.62640  319.07660  216.66260 -148.94940  -89.06580  216.66260
 7250.00000    7.77240    7.77240    2.91490    3.17610  314.85020    -999.25   47.62080   47.62080   20.46920   20.46920  314.85020  195.99870 -157.49370  -96.11010  195.99870
 7300.00000    7.78330    7.78330    0.79730    2.08470  479.67680    -999.25   48.40580   48.40580   19.56050   19.56050  479.67680  259.95830 -155.06330  -92.17960  259.95830
 7350.00000    7.85310    7.85310    7.46090    6.89300  145.07420    -999.25   48.24300   48.24300   16.51960   16.51960  145.07420  152.26930 -164.37800  -99.98130  152.26930
 7400.00000    7.19860    7.19860   32.22690   33.99860   29.41300    -999.25   51.09000   51.09000   16.61190   16.61190   29.41300  127.76420 -237.17960 -171.28290  127.76420
 7450.00000    7.64220    7.64220   29.70560   30.59410   32.68600    -999.25   52.32280   52.32280   21.40440   21.40440   32.68600  112.78680 -228.06170 -160.65200  112.78680
 7500.00000    8.12380    8.12380   18.38380   20.17700   49.56140    -999.25   50.72220   50.72220   19.45460   19.45460   49.56140  141.70670 -227.88160 -158.97180  141.70670
 7550.00000    8.28820    8.28820  132.84150  123.13600    8.12110    -999.25   54.94830   54.94830   45.22450   45.22450    8.12110   34.00550 -141.09810  -70.68830   34.00550
 7600.00000    8.18100    8.18100    7.10420    8.62050  116.00300    -999.25   50.05230   50.05230   35.61720   35.61720  116.00300  174.41920 -149.59000  -77.66720  174.41920
 7650.00000    8.29260    8.29260    5.60030    5.77810  173.06620    -999.25   47.68000   47.68000   19.58260   19.58260  173.06620  167.21530 -193.78310 -120.36030  167.21530
 7700.00000    8.56350    8.56350   10.66360   11.50250   86.93790    -999.25   49.34950   49.34950   23.73810   23.73810   86.93790   73.73320 -158.59040  -83.65460   73.73320
 7750.00000    8.68930    8.68930   10.71430   10.86950   92.00090    -999.25   50.21340   50.21340   35.17350   35.17350   92.00090  103.75690 -113.64470  -37.20880  103.75690
 7800.00000    8.38320    8.38320   20.10250   22.06150   45.32780    -999.25   55.02850   55.02850   50.21530   50.21530   45.32780   54.41510  -81.17690   -3.24090   54.41510
 7850.00000    8.05840    8.05840    7.79470    7.50290  133.28260    -999.25   53.57250   53.57250   37.02820   37.02820  133.28260  122.13160  -99.89930  -22.79460  122.13160
 7900.00000    8.95730    8.95730   29.20880   30.67720   32.59750    -999.25   54.09430   54.09430   39.27710   39.27710   32.59750   44.09830  -93.65030  -17.35640   44.09830
 7950.00000   10.30680   10.30680  129.09090  132.19820    7.56440    -999.25   71.75100   71.75100   69.01130   69.01130    7.56440   12.82590  -88.82590   -9.72030   12.82590
 8000.00000   11.58940   11.58940  212.93610  211.17090    4.73550    -999.25   80.71930   80.71930   86.06790   86.06790    4.73550    8.01110  -98.92570  -13.65680    8.01110
 8050.00000   12.72230   12.72230  203.52560  193.59580    5.16540    -999.25   79.19940   79.19940   88.94790   88.94790    5.16540    6.20560 -102.89040  -11.45810    6.20560
 8100.00000   12.85700   12.85700  187.66520  177.17930    5.64400    -999.25   73.57420   73.57420   70.13100   70.13100    5.64400    4.47870 -100.45670   -5.74650    4.47870
 8150.00000   14.95890   14.95890  168.21740  179.42050    5.57350    -999.25   79.16500   79.16500   61.04880   61.04880    5.57350    6.20480  -90.52090   -2.01460    6.20480
 8200.00000   15.15180   15.15180  218.57250  222.54370    4.49350    -999.25   77.75000   77.75000   63.13900   63.13900    4.49350    5.25510  -90.33120   -8.06650    5.25510
 8250.00000   15.10050   15.10050  185.54250  187.62780    5.32970    -999.25   75.41630   75.41630   60.93690   60.93690    5.32970    5.85020  -81.88750   -5.92130    5.85020
 8300.00000   15.22550   15.22550  227.74160  225.25060    4.43950    -999.25   78.03070   78.03070   59.00100   59.00100    4.43950    5.05330  -80.92120  -11.71160    5.05330
 8350.00000   14.43220   14.43220  253.94730  228.78580    4.37090    -999.25   81.17220   81.17220   66.58410   66.58410    4.37090    5.13960  -75.72910  -13.31770    5.13960
 8400.00000    9.68130    9.68130   68.04370   72.48950   13.79510    -999.25   63.37300   63.37300   63.62550   63.62550   13.79510   21.59670  -60.31390   -4.65920   21.59670
 8450.00000    9.86930    9.86930   81.04050   86.02000   11.62520    -999.25   65.80470   65.80470   66.24280   66.24280   11.62520   18.25720  -53.14930   -4.29270   18.25720
 8500.00000   10.29170   10.29170   87.73480   92.60970   10.79800    -999.25   64.68800   64.68800   72.74470   72.74470   10.79800   14.25310  -60.96680  -12.81510   14.25310
 8550.00000    9.96620    9.96620   95.26390   99.45000   10.05530    -999.25   69.74400   69.74400   72.32490   72.32490   10.05530   15.81730  -65.65040  -16.08750   15.81730
 8600.00000    9.56260    9.56260   52.29470   55.63560   17.97410    -999.25   62.56950   62.56950   60.66510   60.66510   17.97410   25.97450  -63.25310  -12.26870   25.97450
 8650.00000   12.42400   12.42400  178.61890  170.77670    5.85560    -999.25   80.35980   80.35980   75.33650   75.33650    5.85560    8.56420  -81.34970  -28.95410    8.56420
 8700.00000   13.70390   13.70390  151.17360  148.39440    6.73880    -999.25   75.57100   75.57100   73.47730   73.47730    6.73880    7.95000  -84.10970  -30.29270    7.95000
 8750.00000    9.04760    9.04760   76.24640   81.43850   12.27920    -999.25   68.00030   68.00030   67.18010   67.18010   12.27920   18.79410  -66.70970  -11.48150   18.79410
 8800.00000   12.26210   12.26210  169.38080  163.54570    6.11450    -999.25   83.15050   83.15050   77.15470   77.15470    6.11450    8.59810  -81.19710  -24.55760    8.59810
 8850.00000   12.99250   12.99250  153.69660  150.75680    6.63320    -999.25   78.12550   78.12550   78.01360   78.01360    6.63320    8.45800  -87.52150  -29.46070    8.45800
 8900.00000    8.74820    8.74820   29.22070   30.07810   33.24680    -999.25   61.74880   61.74880   45.43170   45.43170   33.24680   55.31110  -64.72890   -5.21220   55.31110
 8950.00000    9.64490    9.64490   19.92690   20.77150   48.14300   88.83750   76.80800   76.80800  154.04720  154.04720   48.14300   49.65080  -77.61650  -16.47160   49.65080
 9000.00000    8.43830    8.43830    7.92620    7.56280  132.22590   57.03890   54.43050   54.43050   37.32280   37.32280  132.22590   88.41620  -68.05350   -5.29180   88.41620
 9050.00000    8.46430    8.46430   31.86990   30.23110   33.07850   53.56500   50.01000   50.01000   45.39330   45.39330   33.07850   35.92020  -76.04000   -9.42190   35.92020
 9100.00000    8.16490    8.16490   29.79310   30.91830   32.34330   62.64000   56.25400   56.25400   43.02350   43.02350   32.34330   45.84400  -77.65300   -7.13740   45.84400
 9150.00000    8.15880    8.15880    7.62060    7.15300  139.80070   52.37820   49.74720   49.74720   29.31150   29.31150  139.80070  144.18630  -86.75020  -12.36340  144.18630
 9200.00000    8.07050    8.07050    9.11700    8.34540  119.82630   55.74880   53.20320   53.20320   29.72840   29.72840  119.82630  123.79390  -87.67910   -9.39480  123.79390
 9250.00000    8.06680    8.06680    7.98870    7.84910  127.40340   52.38600   53.62570   53.62570   19.64630   19.64630  127.40340  143.93130 -156.12210  -74.39360  143.93130
 9300.00000    8.15610    8.15610    6.51210    5.81600  171.93810   52.93050   52.87300   52.87300   19.79060   19.79060  171.93810  275.30150 -178.98620  -94.68440  275.30150
 9350.00000    8.21920    8.21920    3.24520    2.97800  335.79080   54.20850   52.07500   52.07500   22.02840   22.02840  335.79080  474.03210 -132.42060  -45.52760  474.03210
 9400.00000    8.69160    8.69160   16.23350   15.05560   66.42030   50.74350   56.01150   56.01150   34.28920   34.28920   66.42030  206.13720  -94.97800   -5.51170  206.13720
 9450.00000    8.17790    8.17790  400.00000  400.00000    2.50000   73.43890   69.61620   69.61620   55.93090   55.93090    1.11070    6.60410 -252.88290 -170.99020    6.60410
