~Version ---------------------------------------------------
VERS.      2.0 : CWLS log ASCII Standard -VERSION 2.0
WRAP.       NO : One line per depth step
CREA. 09/25/14 : LAS Creation Date
~Well ------------------------------------------------------
STRT.FT                    750.0 : START DEPTH
STOP.FT                   6850.0 : STOP DEPTH
STEP.FT                 50.00000 : STEP LENGTH
NULL.                    -999.25 : NULL VALUE
COMP.       SHELL CANADA LIMITED : COMPANY
WELL. SHELL WESTLOCK 10-33-61-27 : WELL
FLD .                            : FIELD
LOC .                            : LOCATION
CTRY.                     CANADA : COUNTRY
SRVC.               Schlumberger : SERVICE COMPANY
DATE.                01-Feb-1966 : LOGDATE
PROV.                    Alberta : PROVINCE
UWI .           100103306127W400 : UNIQUE WELL ID
SLAT.WGS84              54.32129 : SURFACE LATITUDE
SLON.WGS84             -113.9838 : SURFACE LONGITUDE
~Curve Information -----------------------------------------
DEPT .FT    : DEPTH FEET
CALD .IN    : CALIPER FROM DENSITY LOG
CILD .MMHO  : CONDUCTIVITY FROM IEL LOG
DRHO .G/C3  : DENSITY CORRECTION FROM DENSITY LOG
DT   .US/F  : DELTA TIME FROM SONIC LOG
GRD  .GAPI  : GAMMA RAY FROM DENSITY LOG
GRS  .GAPI  : GAMMA RAY FROM SONIC LOG
ILD  .OHMM  : DEEP INDUCTION LOG RESISTIVITY FROM DIL LOG (ILD SPL. TO ILD_2 @ 6068'-6572')
ILD_1.OHMM  : DEEP INDUCTION LOG RESISTIVITY FROM IEL LOG
ILM  .OHMM  : MEDIUM INDUCTION LOG RESISTIVITY FROM DIL LOG (ILM SPL. TO ILM_2 @ 6068'-6576')
LL8  .OHMM  : 8 INCH LATEROLOG RESISTIVITY FROM DIL LOG (LL8 SPL. TO LL8_2 @ 6068'-6506.5')
RHOB .G/C3  : BULK DENSITY FROM DENSITY LOG
SN   .OHMM  : 16 INCH SHORT NORMAL RESISTIVITY FROM IEL LOG
SPR  .MV    : SPONTANEOUS POTENTIAL FROM DIL LOG (SPR SPL. TO SPR_2 @ 6068'-6577')
SPR_1.MV    : SPONTANEOUS POTENTIAL FROM IEL LOG
~Params ----------------------------------------------------
PD  .                     GL : PERMANENT DATUM
EPD .FT               2008.9 : ELEVATION PERMANENT DATUM
LMF .                     KB : LOG MEASURED FROM
DAPD.FT                 13.8 : FEET ABOVE PERMANENT DATUM
EKB .FT               2022.7 : KELLY BUSHING
EGL .FT               2008.9 : GROUND LEVEL
DATE.               02/01/66 : RUN DATE
RUN .                      2 : RUN NUMBER
DD  .FT                 6850 : DEPTH DRILLER
DL  .FT                 6850 : DEPTH LOGGER
BLI .FT                 6846 : BOTTOM LOG INTERVAL
TLI .FT                 2900 : TOP LOG INTERVAL
CBD .FT                  724 : CASING BOTTOM DRILLER
CBL .FT                  724 : CASING BOTTOM LOGGER
BS  .IN                7.875 : BIT SIZE
BSD .FT                 6850 : BIT SIZE AT DEPTH
DFT .                    GEL : DRILLING FLUID TYPE
DFD .                    9.9 : DRILLING FLUID DENSITY
DFV .                     80 : DRILLING FLUID VISCOSITY
DFPH.                     11 : DRILLING FLUID PH
DFL .                    6.2 : DRILLING FLUID LOSS
RMS .OHMM               0.15 : RESISTIVITY MUD SAMPLE
MST .DEGF                 62 : MUD SAMPLE TEMPERATURE
RMF .OHMM               0.07 : RESISTIVITY MUD FILTRATE SAMPLE
MFST.DEGF                122 : MUD FILTRATE SAMPLE TEMPERATURE
RMC .OHMM               0.18 : RESISTIVITY MUD CAKE
MCST.DEGF                 68 : MUD CAKE SAMPLE TEMPERATURE
RMB .OHMM               0.09 : RESISTIVITY MUD AT BHT
TCS .HRS                   2 : TIME CIRCULATED STOPPED
LUN .                   2547 : LOGGING UNIT NUMBER
LUL .                     SL : LOGGING UNIT LOCATION
ENGI.                  CRAIN : RECORDING ENGINEER
WITN.                PHERSON : WITNESSED BY
CLNT.                A2DTECH : CLIENT CODE
ORIG.            2" 5" PRINT : ORIGIN OF DATA
UWI .       100103306127W400 : UNIQUE WELL ID
DICO. A2D Technologies, Inc. : DIGITIZING COMPANY
~Other -----------------------------------------------------
~ASCII -----------------------------------------------------
# ...
 5650.00000   10.90250  211.30760    0.22210   79.35170   71.90000   69.44360    5.77280    4.88710    3.93970  170.23340    2.11320    6.43320  -18.03340  -27.28450
 5700.00000    8.25180   22.87660    0.00710   55.53890   24.60780   25.79660   57.60360   45.48970   92.45330   67.92050    2.71540   26.34930  -20.24800  -26.53310
 5750.00000    8.38990   45.92060   -0.00030   53.20140   34.90670   36.14290   41.47990   21.53610   58.13140  242.85450    2.74430   20.49760  -20.56670  -27.21340
 5800.00000   10.44060  334.00990   -0.02570   62.72840   86.58270   48.01100    3.07620    3.35790  662.54060   17.67140    2.41030    5.67760  -22.23380  -37.04710
 5850.00000    8.70940  114.70860   -0.01360   75.81230   89.26880   74.63600    8.57850    8.69300    8.72230   21.91360    2.61060   10.42730  -22.25700  -33.44030
 5900.00000    8.50620  288.89210   -0.00260   61.21090   38.56740   42.22760    2.85590    3.91560 1441.12590    4.94060    2.69290    8.28690  -25.59990  -43.09680
 5950.00000    8.50370  141.46940   -0.01000   61.96110   61.85150   71.12830    7.02370    7.22340    9.40710   20.76430    2.66420   10.67120  -24.66410  -40.88890
 6000.00000    8.97790  336.28800   -0.00390   79.64260  117.89690   86.28390    3.95440    3.08420    2.73120    4.59440    2.58550    3.88560  -23.63820  -40.22380
 6050.00000    8.83780  325.06350    0.00310   75.28690   99.41730   95.15110    3.00800    3.28570    4.18000    3.41500    2.58220    4.79720  -23.20300  -39.40570
 6100.00000    8.46810  233.58230   -0.01590   69.21820   80.79490   60.81750    4.14720    4.49230    4.37680    9.15950    2.64630    6.89210  -15.52870  -39.83910
 6150.00000    8.16560  185.02940   -0.00710   62.67940   59.31270   61.63420    5.08370    5.60990    4.71740   12.23540    2.67480    9.95080  -22.87270  -48.59150
 6200.00000    7.92640  425.17550    0.02680   67.75530   70.80370   65.88710    2.57720    2.69890    2.37670    5.27130    2.55290    4.36680  -37.18810  -57.10010
 6250.00000    8.15520   58.09480    0.00500   48.84910   27.54010   22.21740   16.75800   18.02530   15.89890   25.90200    2.74810   13.49160  -35.32380  -49.12040
 6300.00000    8.05860   65.20690    0.00320   56.05400   56.75800   53.04350   15.01770   15.99070   11.56600   13.72540    2.76070   12.85380  -28.55190  -40.95590
 6350.00000    8.16260  112.10270    0.00400   54.74760   48.75770   47.09120    8.07600    9.05480    7.83600   16.06420    2.74720    9.54510  -25.39670  -38.01820
 6400.00000    8.25400   48.98740    0.00310   60.55140   78.79700   75.00520   20.15320   20.85870   14.45420   28.35860    2.78740   12.66550  -17.31910  -27.14790
 6450.00000    8.12320   38.60120    0.01920   55.18530   48.01460   52.05690   25.22990   26.15610   19.11380   37.23080    2.79020   20.38170  -26.91300  -34.44370
 6500.00000   10.96910    -999.25    0.02320   68.56250   15.98130    8.13720    -999.25  121.06900   10.63950    -999.25    2.07670   47.16550  -15.86370  -29.78330
 6550.00000   10.61480    -999.25    0.05950   68.68480    8.98380   16.28760    -999.25  499.81390   19.28580 3033.20750    2.05590   21.04770  -10.02380  -28.89640
 6600.00000    9.02380    -999.25    0.01270    -999.25   72.77210    -999.25   32.28050    -999.25   12.52730 2904.47900    2.70490    -999.25   -5.46790    -999.25
 6650.00000    9.02900    -999.25    0.02920    -999.25   76.98680    -999.25   23.97640    -999.25   10.96760   21.53090    2.67720    -999.25   -2.48800    -999.25
 6700.00000    8.48920    -999.25   -0.00330    -999.25   54.58080    -999.25    -999.25    -999.25 2957.82540   42.10600    2.53910    -999.25  -16.65050    -999.25
 6750.00000    8.73240    -999.25   -0.00760    -999.25   78.13140    -999.25   97.70380    -999.25   40.85250   86.75850    2.54920    -999.25  -21.24930    -999.25
 6800.00000    8.05900    -999.25    0.00250    -999.25  106.90060    -999.25    3.72360    -999.25    2.79060    4.55150    2.57400    -999.25   -7.25850    -999.25
 6850.00000    8.00120    -999.25    0.04830    -999.25    -999.25    -999.25    -999.25    -999.25    -999.25    -999.25    2.56250    -999.25    -999.25    -999.25
