~Version ---------------------------------------------------
VERS.      2.0 : CWLS log ASCII Standard -VERSION 2.0
WRAP.       NO : One line per depth step
CREA. 08/26/14 : LAS Creation Date
~Well ------------------------------------------------------
STRT.FT                         1100.0 : START DEPTH
STOP.FT                        10800.0 : STOP DEPTH
STEP.FT                       50.00000 : STEP LENGTH
NULL.                          -999.25 : NULL VALUE
COMP. AMOCO CANADA PETROLEUM CO., LTD. : COMPANY
WELL.       AMOCO N-2 ANTE 11-25-65-23 : WELL
FLD .                                  : FIELD
LOC .                                  : LOCATION
CTRY.                           CANADA : COUNTRY
SRVC.           Schlumberger of Canada : SERVICE COMPANY
DATE.                      30-Oct-1976 : LOGDATE
PROV.                          Alberta : PROVINCE
UWI .                 100112506523W500 : UNIQUE WELL ID
SLAT.WGS84                    54.65705 : SURFACE LATITUDE
SLON.WGS84                   -117.3447 : SURFACE LONGITUDE
~Curve Information -----------------------------------------
DEPT   .FT    : DEPTH FEET
CALD   .IN    : CALIPER FROM DENSITY LOG
CALS   .IN    : CALIPER FROM SONIC LOG [TAKEN FROM SUBSC. LAS FILE]
DPHI_SS.V/V   : DENSITY POROSITY [M=2.65 F=1.0] FROM DENSITY LOG
DPHI_LS.V/V   : DENSITY POROSITY [M=2.71 F=1.0] FROM DENSITY LOG
DRHO   .G/C3  : DENSITY CORRECTION FROM DENSITY LOG
DT     .US/F  : DELTA TIME FROM SONIC LOG
GRD    .GAPI  : GAMMA RAY FROM DENSITY LOG [TAKEN FROM SUBSC. LAS FILE]
GRS    .GAPI  : GAMMA RAY FROM SONIC LOG
ILD    .OHMM  : INDUCTION LOG DEEP RESISTIVITY
ILM    .OHMM  : INDUCTION LOG MEDIUM RESISTIVITY
LL8    .OHMM  : 8 INCH LATEROLOG RESISTIVITY
NPHI_SS.V/V   : NEUTRON POROSITY SANDSTONE FROM DENSITY LOG
NPHI_LS.V/V   : NEUTRON POROSITY LIMESTONE FROM DENSITY LOG
RHOB   .G/C3  : BULK DENSITY FROM DENSITY LOG
SPR    .MV    : SPONTANEOUS POTENTIAL FROM RESISTIVITY LOG
~Params ----------------------------------------------------
PD  .                     GL : PERMANENT DATUM
EPD .FT                 2441 : ELEVATION PERMANENT DATUM
LMF .                     KB : LOG MEASURED FROM
DAPD.FT                 13.6 : FEET ABOVE PERMANENT DATUM
EKB .FT               2454.6 : KELLY BUSHING
EGL .FT                 2441 : GROUND LEVEL
DATE.               10/30/76 : RUN DATE
RUN .                      1 : RUN NUMBER
DD  .FT                10805 : DEPTH DRILLER
DL  .FT                10818 : DEPTH LOGGER
BLI .FT                10812 : BOTTOM LOG INTERVAL
TLI .FT                 1155 : TOP LOG INTERVAL
CBD .FT                 1153 : CASING BOTTOM DRILLER
CBL .FT                 1155 : CASING BOTTOM LOGGER
BS  .IN                 8.75 : BIT SIZE
BSD .FT                10805 : BIT SIZE AT DEPTH
DFT .                    GEL : DRILLING FLUID TYPE
DFD .                      9 : DRILLING FLUID DENSITY
DFV .                    115 : DRILLING FLUID VISCOSITY
DFPH.                    9.5 : DRILLING FLUID PH
DFL .                    8.6 : DRILLING FLUID LOSS
MSS .             CIRCULATED : MUD SAMPLE SOURCE
RMS .OHMM               3.02 : RESISTIVITY MUD SAMPLE
MST .DEGF                 62 : MUD SAMPLE TEMPERATURE
RMF .OHMM               2.62 : RESISTIVITY MUD FILTRATE SAMPLE
MFST.DEGF                 52 : MUD FILTRATE SAMPLE TEMPERATURE
MFSS.             CALCULATED : MUD FILTRATE SAMPLE SOURCE
MCSS.             CALCULATED : MUD CAKE SAMPLE SOURCE
TCS .HRS                   3 : TIME CIRCULATED STOPPED
LUN .                   7809 : LOGGING UNIT NUMBER
LUL .                    EDM : LOGGING UNIT LOCATION
ENGI.               SEDGWICK : RECORDING ENGINEER
WITN.              SCHWIEDER : WITNESSED BY
CLNT.                A2DTECH : CLIENT CODE
ORIG.            2" 5" PRINT : ORIGIN OF DATA
UWI .       100112506523W500 : UNIQUE WELL ID
DICO. A2D Technologies, Inc. : DIGITIZING COMPANY
~Other -----------------------------------------------------
~ASCII -----------------------------------------------------
 1100.00000    -999.25    -999.25    -999.25    -999.25    -999.25    -999.25    -999.25   46.87360    -999.25    -999.25    -999.25    -999.25    -999.25    -999.25    -999.25
 1150.00000    -999.25    -999.25    -999.25    -999.25    -999.25    -999.25   60.00000   55.38860    -999.25    -999.25    -999.25    0.63920    -999.25    -999.25    -999.25
 1200.00000    9.79980    9.09900    0.28080    -999.25    0.15100  111.66280  100.59000   88.84440    4.07690    4.14600    4.41700    0.43440    -999.25    2.17810  -53.60300
 1250.00000   10.84770    9.04900    0.26660    -999.25    0.15650   93.70310   90.28500   96.85890    6.43950    5.39370    4.50640    0.36230    -999.25    2.16000  -52.63900
 1300.00000    9.20890   10.09900    0.20470    -999.25    0.07690  111.18390   96.49500   91.22380    3.13920    2.77190    2.93940    0.49150    -999.25    2.30620  -52.74540
 1350.00000    9.72660    9.89900    0.23330    -999.25    0.02750  115.32670   93.99000   95.63580    4.26730    4.42090    4.86120    0.43510    -999.25    2.30070  -51.45860
 1400.00000    9.63490    9.39900    0.24980    -999.25    0.04500   86.06800   73.09500   61.92970   12.34400   11.15750   10.00980    0.38230    -999.25    2.23690  -61.90370
 1450.00000   11.61830   10.79900    0.25040    -999.25    0.04100  110.79650   95.08500   95.81110    3.36340    3.18130    3.04020    0.46160    -999.25    2.25540  -52.10880
 1500.00000   10.04050    9.89900    0.21000    -999.25    0.07580  102.52320   90.79500   75.72300    6.25730    5.57930    5.03350    0.39020    -999.25    2.31150  -52.55970
 1550.00000   10.13990    9.79900    0.25340    -999.25    0.06960  104.94510   66.58500   57.65500   12.65230   11.47210    9.17460    0.38920    -999.25    2.24010  -64.03470
 1600.00000   11.02300   10.59900    0.19570    -999.25    0.03360  108.59530   82.39500   79.30440    4.23860    4.03390    3.76450    0.42150    -999.25    2.35130  -52.10830
 1650.00000   10.14530    9.79900    0.20760    -999.25    0.02830  102.99580   78.58500   78.32180    6.36350    5.89020    5.01710    0.41420    -999.25    2.30520  -52.76160
 1700.00000   10.08230   10.14900    0.14250    -999.25    0.03600  102.91990   84.09000   78.90840    4.80030    4.66770    4.22350    0.41310    -999.25    2.41610  -53.29260
 1750.00000   10.52480   10.14900    0.17900    -999.25    0.02880  103.18220   78.09000   77.25470    5.49990    5.12240    4.78470    0.38390    -999.25    2.34960  -50.74480
 1800.00000   11.41250   11.29900    0.13020    -999.25    0.03370  105.86590   67.59000   66.29850    5.87380    5.22590    5.22470    0.41600    -999.25    2.39390  -52.77450
 1850.00000   11.00660   12.14900    0.17330    -999.25    0.06110  106.25120   77.68500   76.70570    4.71280    4.58630    4.12840    0.45450    -999.25    2.34430  -52.67860
 1900.00000    8.99960    9.94900    0.22840    -999.25    0.16060   88.48540   79.99500   70.90590    9.24340    8.98970    8.15710    0.40480    -999.25    2.23410  -51.32620
 1950.00000    9.41630    9.79900    0.19810    -999.25    0.05100  110.06840   81.39000   75.69450    4.52290    4.47680    3.81570    0.44680    -999.25    2.32760  -52.47050
 2000.00000   10.52610    9.94900    0.21830    -999.25    0.10060  119.30910   74.38500   74.42860    4.24820    3.97130    3.74500    0.47580    -999.25    2.36090  -52.07040
 2050.00000   10.73990    9.94900    0.18440    -999.25    0.05810  116.29370   69.79500   65.88780    4.14110    3.92530    3.57680    0.46890    -999.25    2.33450  -52.08580
 2100.00000   11.90650    9.84900    0.14290    -999.25    0.10160   99.13710   80.68500   70.83270    4.94960    4.74590    4.52020    0.42120    -999.25    2.43920  -51.46270
 2150.00000   10.69030   10.09900    0.20290    -999.25    0.06270   99.51580   56.49000   52.93060   12.41530   11.07690   10.51050    0.38050    -999.25    2.34220  -52.14070
 2200.00000   10.82230   10.14900    0.14160    -999.25    0.04160   89.37600   62.19000   58.56750   11.10200   10.47690    9.71110    0.33830    -999.25    2.39480  -52.42710
 2250.00000   10.11650    9.54900    0.24420    -999.25    0.12160  100.05820   53.38500   49.50200   14.75470   13.78980   11.00070    0.38320    -999.25    2.27810  -60.77410
 2300.00000   10.98730   10.14900    0.19060    -999.25    0.17800  111.69730   70.09500   70.17750    3.58600    3.77070    4.80470    0.38410    -999.25    2.41710  -52.39070
 2350.00000   10.35530    9.89900    0.21180    -999.25    0.05040   97.11530   63.19500   59.69120   10.46720    9.07130   10.58890    0.37070    -999.25    2.30020  -56.45400
 2400.00000    8.71160    8.94900    0.10560    -999.25    0.05260   69.00080   48.69000   45.63960   17.97070   20.59160   24.32740    0.20740    -999.25    2.48590  -58.62490
 2450.00000    9.71820    9.59900    0.25590    -999.25    0.19030   98.23960   74.29500   64.63180    4.42420    4.30150    3.97810    0.45590    -999.25    2.25620  -51.50560
 2500.00000    8.88800    8.84900    0.24110    -999.25    0.09400  104.00490   49.18500   47.82420   14.46590   13.65100   10.92880    0.39170    -999.25    2.28260  -67.49160
 2550.00000    9.90120    9.59900    0.12000    -999.25    0.14740  103.76330   63.79500   72.34690    5.98810    5.46630    6.21620    0.44140    -999.25    2.44140  -53.65430
 2600.00000   10.24100    9.59900    0.13050    -999.25    0.07700  100.33500   74.38500   80.81440    4.62970    4.43270    4.78150    0.48120    -999.25    2.44160  -50.73950
 2650.00000   10.53100   10.04900    0.14480    -999.25    0.02480   92.45860   62.59500   63.00470    6.67430    6.36190    5.89450    0.35560    -999.25    2.41380  -51.70450
 2700.00000   11.00660   10.75000    0.17050    -999.25    0.02200  102.82230   78.69000   75.20190    4.46290    4.84200    4.42520    0.43720    -999.25    2.37360  -51.48060
 2750.00000   11.47150   10.19900    0.13200    -999.25    0.10720   95.06860   99.69000   98.15990    7.22410    6.86520    6.50730    0.41200    -999.25    2.44600  -56.67730
 2800.00000   12.22600   10.54900    0.12530    -999.25    0.04450   90.62310  108.19500   99.44670    8.51990    8.24170    7.48610    0.38730    -999.25    2.43800  -55.47250
 2850.00000   12.02770   10.25000    0.11310    -999.25    0.06930  100.79920  120.49500  119.97330    7.76360    8.11650    7.69450    0.43850    -999.25    2.50440  -56.27910
 2900.00000   11.50950   10.59900    0.08030    -999.25    0.05410   98.23340  131.38500  134.03760    9.19430    9.81280   10.99040    0.40570    -999.25    2.53380  -55.54140
 2950.00000   11.19770   10.59900    0.08340    -999.25    0.06090   95.52080  107.29500  118.00140    8.22980    8.57610    9.21950    0.40230    -999.25    2.48900  -57.89850
 3000.00000   10.60270   10.25000    0.09340    -999.25    0.08260  100.26060  111.28500  122.37140    6.80270    7.24400    8.04410    0.42390    -999.25    2.51720  -57.25880
 3050.00000   10.73250    9.79900    0.22690    -999.25    0.10450   99.99020  103.69500  106.22130    7.38160    7.04070    6.65750    0.45790    -999.25    2.35210  -61.08410
 3100.00000    9.60770   10.09900    0.08630    -999.25    0.07740   83.20340  100.50000   95.40600   11.94530   11.63010   10.77330    0.31350    -999.25    2.53030  -59.35370
 3150.00000   10.64300   10.14900    0.10850    -999.25    0.04860   81.03860   65.19000   76.04560   14.32760   13.63980   14.93620    0.28970    -999.25    2.49550  -69.24890
 3200.00000   10.33290   10.50000    0.09410    -999.25    0.12250   91.71490  109.09500  114.88320    8.40150    8.15130    7.65890    0.36940    -999.25    2.52160  -58.04310
 3250.00000   10.30310   10.39900    0.10560    -999.25    0.10750   93.67850  106.59000  108.15340    8.14820    7.79220    7.37970    0.36710    -999.25    2.47640  -58.93030
 3300.00000    9.32940    9.39900    0.19800    -999.25    0.08510  101.31700  115.29000  117.30870    6.80610    6.43380    6.08720    0.49960    -999.25    2.33730  -59.85990
 3350.00000   10.89850    9.34900    0.19410    -999.25    0.12950   91.66450  109.59000  111.41590    8.36550    7.96510    7.45650    0.38960    -999.25    2.36570  -58.86290
