~Version ---------------------------------------------------
VERS. 2.0 : CWLS log ASCII Standard -VERSION 2.0
WRAP.  NO : ONE LINE PER DEPTH STEP
~Well ------------------------------------------------------
STRT.M                               380.5 : START DEPTH
STOP.M                              2549.3 : STOP DEPTH
STEP.M                             0.20000 : STEP LENGTH
NULL.                              -999.25 : NULL VALUE
COMP.                DEVON ARL CORPORATION : COMPANY
WELL. DEVON ARL ETAL 7D GVILLEE 7-25-76-23 : WELL
FLD .                                      : FIELD
LOC .                                      : LOCATION
CTRY.                               CANADA : COUNTRY
SRVC.                         Schlumberger : SERVICE COMPANY
DATE.                          06-Mar-2003 : LOGDATE
PROV.                              Alberta : PROVINCE
UWI .                     100072507623W500 : UNIQUE WELL ID
SLAT.WGS84                        55.61368 : SURFACE LATITUDE
SLON.WGS84                       -117.4224 : SURFACE LONGITUDE
~Curve Information -----------------------------------------
DEPT    .M    0   1   0  0 : 1 MEASURED DEPTH
GRS     .GAPI 60 310 01 00 : GAMMA RAY FROM SONIC LOG
HDS     .MM   60 280 00 00 : HOLE DIAMETER FROM SONIC
DT      .US/M 60 500 00 00 : DELTA-T (INTERVAL TRANSIT TIME)
HCALS   .MM   60 280 50 00 : HRCC CALIPER CALIBRATED FROM SONIC LOG
TENS    .N    60 635 00 00 : TENSION FROM SONIC LOG
GRR     .GAPI 06 310 01 00 : GAMMA RAY FROM RESISTIVITY LOG
RXOZ    .OHMM 06 270 04 00 : INVADED FORMATION RESISTIVITY FILTERED AT 18 INCHES
TENR    .N    06 635 00 00 : TENSION FROM RESISTIVITY LOG
SPR     .MV   06 010 01 00 : SPONTANEOUS POTENTIAL FROM RESISTIVITY LOG
AHF30   .OHMM 06 120 30 00 : ARRAY INDUCTION FOUR FOOT RESISTIVITY A30
AHF20   .OHMM 06 120 20 00 : ARRAY INDUCTION FOUR FOOT RESISTIVITY A20
AHF60   .OHMM 06 120 60 00 : ARRAY INDUCTION FOUR FOOT RESISTIVITY A60
GRD     .GAPI 45 310 01 00 : GAMMA RAY FROM DENSITY LOG
NPOR_SAN.DEC  42 890 03 00 : ENHANCED THERMAL NEUTRON POROSITY (SANDSTONE)
HDD     .MM   45 280 60 00 : HOLE DIAMETER
HCALD   .MM   45 280 60 00 : HRCC CALIPER CALIBRATED FROM DENSITY LOG
DPHI_SAN.DEC  45 890 12 00 : DENSITY POROSITY (MATRIX SANDSTONE)
HDRA    .K/M3 45 356 01 00 : HRDD SPINE AND RIBS DENSITY CORRECTION
PEFZ    .B/E  45 358 01 00 : HRDD STANDARD RESOLUTION FORMATION PHOTOELECTRIC FACTOR
TEND    .N    45 635 00 00 : TENSION FROM DENSITY LOG
NPOR_LS .DEC  42 890 01 00 : NEUTRON POROSITY LIMESTONE
DPHI_LS .DEC  45 890 10 00 : DENSITY POROSITY LIMESTONE
RHOZ    .K/M3 45 350 01 00 : HRDD STANDARD RESOLUTION FORMATION DENSITY
~Params ----------------------------------------------------
PD  .                                  GL : PERMANENT DATUM
EPD .M                              551.9 : ELEVATION PERMANENT DATUM
LMF .                                  KB : LOG MEASURED FROM
DAPD.M                                4.7 : FEET ABOVE PERMANENT DATUM
DMF .                                  KB : DRILLING MEASURED FROM
EKB .M                              556.6 : KELLY BUSHING
EDF .M                              556.3 : DRILLING FLOOR
EGL .M                              551.9 : GROUND LEVEL
DATE.                            03/06/03 : RUN DATE
RUN .                                   1 : RUN NUMBER
DD  .M                               2545 : DEPTH DRILLER
DL  .M                               2544 : DEPTH LOGGER
BLI .M                             2538.3 : BOTTOM LOG INTERVAL
TLI .M                                421 : TOP LOG INTERVAL
CS  .MM                             219.1 : CASING SIZE
CBD .M                                421 : CASING BOTTOM DRILLER
CBL .M                              420.5 : CASING BOTTOM LOGGER
BS  .MM                               200 : BIT SIZE
BSD .M                               2545 : BIT SIZE AT DEPTH
DFT .                            GEL CHEM : DRILLING FLUID TYPE
DFD .                                1050 : DRILLING FLUID DENSITY
DFV .                                  83 : DRILLING FLUID VISCOSITY
DFPH.                                10.5 : DRILLING FLUID PH
DFL .                                   7 : DRILLING FLUID LOSS
MSS .                            FLOWLINE : MUD SAMPLE SOURCE
RMS .OHMM                            1.27 : RESISTIVITY MUD SAMPLE
MST .DEGC                              17 : MUD SAMPLE TEMPERATURE
RMF .OHMM                            0.98 : RESISTIVITY MUD FILTRATE SAMPLE
MFST.DEGC                              18 : MUD FILTRATE SAMPLE TEMPERATURE
RMC .OHMM                            1.55 : RESISTIVITY MUD CAKE
MCST.DEGC                              18 : MUD CAKE SAMPLE TEMPERATURE
MFSS.                            MEASURED : MUD FILTRATE SAMPLE SOURCE
MCSS.                             MEAURED : MUD CAKE SAMPLE SOURCE
RMB .OHMM                           0.566 : RESISTIVITY MUD AT BHT
TCS .HRS                              640 : TIME CIRCULATED STOPPED
TLAB.HRS                             1645 : TIME LOGGER AT BOTTOM
LUN .                                2133 : LOGGING UNIT NUMBER
LUL .                      GRANDE PRAIRIE : LOGGING UNIT LOCATION
ENGI.                            STIRLING : RECORDING ENGINEER
WITN.                              MCLEAY : WITNESSED BY
CLNT.                             A2DTECH : CLIENT CODE
ORIG. 6.5"/100M 16.5"/100M 33"/100M PRINT : ORIGIN OF DATA
UWI .                    100072507623W500 : UNIQUE WELL ID
DICO.              A2D Technologies, Inc. : DIGITIZING COMPANY
~Other -----------------------------------------------------
~ASCII -----------------------------------------------------
# ...
  560.10000   78.02180  219.43870  325.98060  216.31000 9981.12990   77.03360    5.54510 9768.46970  -29.53820    4.36840    3.95960    4.68830   78.45310    0.36420  219.64510  216.47340    0.14110   14.09960    3.48850 9740.62890    -999.25    -999.25 2429.24660
  560.30000   74.43910  220.22440  344.45310  215.02340 9973.23830   75.65410    4.42300 9796.20900  -30.20830    4.09360    3.67380    4.31820   74.86040    0.39100  219.76360  216.53820    0.16540   46.41070    3.43280 9893.10060    -999.25    -999.25 2389.90210
  560.50000   75.04370  224.40630  365.07320  217.01070 9965.34570   76.90080    3.09340 9861.82710  -30.31990    3.62230    3.28180    3.91230   74.89780    0.45820  223.70670  217.89770    0.21130   89.97420    3.21390 9984.65230    -999.25    -999.25 2323.58890
  560.70000   77.72340  231.41140  366.48120  224.87140 9957.45310   78.28250    2.63400 9986.76370  -30.37860    3.20040    2.90680    3.43800   77.89720    0.49390  229.42140  227.46560    0.25590  128.77400    2.94220 10016.41020    -999.25    -999.25 2235.33200
  560.90000   76.60900  235.85570  376.82460  232.37400 9949.52730   74.07060    2.22250 9926.53420  -30.37860    2.82760    2.57470    3.03280   77.02730    0.51920  234.80560  230.56170    0.30550  143.57140    2.84960 9843.94240    -999.25    -999.25 2129.99760
  561.10000   71.84910  239.66250  398.49710  235.37140 9935.19040   69.85150    2.05120 9799.25390  -30.32330    2.51710    2.32350    2.74260   71.49920    0.59900  240.22770  248.13350    0.37620  127.92320    2.82830 9799.94630    -999.25    -999.25 2035.50240
  561.30000   69.50340  245.47210  425.89280  240.66980 9920.85350   69.22560    1.93270 9767.61230  -30.04390    2.39770    2.18480    2.58900   69.36660    0.60320  246.00510  242.02480    0.40990  107.23350    2.83610 9766.67090    -999.25    -999.25 1967.04960
  561.50000   72.09830  250.29330  427.35790  241.77920 9906.51560   73.60360    1.89460 9808.90720  -29.45420    2.35140    2.16630    2.59530   70.19600    0.58770  250.67850  251.22960    0.42580  115.71890    2.94120 9751.65820    -999.25    -999.25 1925.51710
  561.70000   75.74100  242.05570  407.51120  245.89670 9892.17870   76.87220    1.83630 9909.92870  -28.65790    2.44810    2.25610    2.69740   74.49100    0.59590  248.81340  249.59840    0.40590  136.33760    2.97800 9859.17680    -999.25    -999.25 1960.37600
  561.90000   78.13670  232.94320  391.75300  232.26810 9980.88960   78.25920    2.01670 10014.98440  -27.76350    2.59330    2.42900    2.86400   78.33470    0.57580  234.44940  243.67500    0.34980  183.02570    3.04480 9966.69530    -999.25    -999.25 2101.63750
  562.10000   77.84250  232.46290  390.33260  228.36900 10072.51660   79.28630    2.30790 10055.82230  -27.79500    2.76550    2.62270    2.99450   77.99610    0.55830  232.59550  226.73470    0.31740  197.31670    3.07370 10034.01070    -999.25    -999.25 2136.53440
  562.30000   75.94080  230.98040  391.79770  232.08140 10100.85160   79.03030    2.20520 10055.82230  -29.19200    2.97800    2.83180    3.13520   76.04680    0.60950  232.70660  234.37240    0.30720  151.07540    3.06880 10164.50200    -999.25    -999.25 2124.15360
  562.50000   75.51720  226.10710  387.55200  230.91180 9929.78610   76.90010    2.68690 10055.82230  -30.05550    3.20670    3.08320    3.34330   75.27460    0.60770  228.08800  233.07300    0.27810   81.54250    3.13910 10037.55570    -999.25    -999.25 2179.19950
  562.70000   74.52010  219.25130  372.43970  224.05020 9953.20310   73.96100    3.41780 10054.69040  -31.09980    3.48330    3.36450    3.57040   74.14400    0.50560  220.05120  221.49530    0.23970   38.06250    3.31650 9928.58110    -999.25    -999.25 2248.57320
  562.90000   72.55920  212.39550  367.17540  217.18860 10001.97660   71.13820    3.59830 10017.01270  -35.55590    3.77540    3.67140    3.83320   72.14050    0.45870  211.48990  216.82300    0.24340   35.05950    3.43510 9832.30570    -999.25    -999.25 2262.88480
  563.10000   70.21540  206.87750  368.14320  211.13970 10044.00490   68.53650    4.63930 9979.33590  -41.12520    4.07010    4.04330    4.11520   69.81030    0.41170  206.43410  206.21430    0.26770   40.54510    3.35680 9839.35550    -999.25    -999.25 2216.83890
  563.30000   68.35820  204.30340  369.23630  208.59780 10042.80080   68.22550    5.93030 9941.65820  -44.79330    4.38780    4.52640    4.41800   67.93140    0.40540  206.43410  202.94970    0.28920   41.54790    3.22830 10036.82130    -999.25    -999.25 2170.79300
  563.50000   68.72530  204.75030  373.04170  206.51720 10041.59770   68.92680    5.70710 9906.70700  -45.60890    4.57240    4.67900    4.46940   68.45400    0.40310  206.43410  205.36710    0.28990   46.66300    3.15520 10180.20020    -999.25    -999.25 2168.51370
  563.70000   69.01980  205.72860  375.98750  203.67880 10240.25490   67.21430    5.72130 10106.33200  -45.34790    4.46040    4.54680    4.30910   68.57940    0.40990  206.43410  203.05000    0.28180   42.31690    3.17970 10393.43750    -999.25    -999.25 2186.18580
  563.90000   66.79780  206.70680  374.36090  203.02190 10505.29100   66.34640    5.94780 10443.55270  -44.77540    4.31000    4.39880    4.15460   66.51510    0.42480  207.24950  201.28440    0.26800   26.97060    3.22790 10490.62700    -999.25    -999.25 2203.85770
  564.10000   67.14910  206.91640  368.48930  204.76010 10237.05470   67.88530    5.56380 10401.39940  -43.67520    4.16470    4.25560    4.00860   67.11810    0.40880  208.17960  204.90890    0.25730   25.31040    3.32430 10117.22170    -999.25    -999.25 2241.44510
  564.30000   68.28600  208.83450  366.55900  206.17870 9879.43550   67.70820    5.16880 10178.08590  -42.83340    4.02430    4.11710    3.90880   67.83970    0.39770  209.66710  207.93080    0.28470   56.60840    3.35100 9834.45310    -999.25    -999.25 2241.31030
  564.50000   67.95430  212.10960  377.26500  206.32440 9652.21970   68.53030    4.54700 9954.77340  -42.30390    3.94200    4.01730    3.82720   67.72520    0.39930  213.15600  206.37920    0.36170   71.58500    3.21350 9719.67770    -999.25    -999.25 2020.83040
  564.70000   70.15830  213.79540  382.40000  205.36480 9599.96290   72.21380    3.30140 9755.57420  -42.61360    3.94260    4.01010    3.80140   70.11590    0.46700  215.80060  205.30290    0.39300   47.26810    3.01900 9682.78420    -999.25    -999.25 1953.34350
  564.90000   73.95700  208.56600  375.33460  202.86290 9706.51950   73.31750    3.48700 9635.51950  -45.17710    4.09290    4.26240    3.95180   73.59380    0.50010  209.24400  205.17820    0.35030   18.81030    2.96120 9756.10640    -999.25    -999.25 2048.81320
  565.10000   72.70690  203.24120  361.26160  199.57140 9815.37600   70.80510    6.69600 9758.39360  -52.62630    4.47970    4.64740    4.24920   72.47520    0.42660  202.96790  200.21040    0.30390   24.09030    2.93960 9833.40720    -999.25    -999.25 2138.29080
  565.30000   69.40330  202.23290  354.65660  197.08110 9809.91990   67.90270    7.34330 9979.10250  -57.83600    4.90310    5.05610    4.56900   69.35640    0.39730  202.47580  197.46450    0.28200   23.75010    2.90970 9967.78910    -999.25    -999.25 2189.77980
  565.50000   66.59620  201.89060  358.26020  193.79230 9793.80180   65.90370    7.64530 10041.47460  -60.84570    5.36650    5.47760    4.78910   66.55690    0.41000  202.17750  193.41940    0.28190   20.52280    2.82500 9942.08110    -999.25    -999.25 2186.94260
  565.70000   65.82360  201.74250  359.38070  191.51840 9777.68360   65.35610    7.83820 10062.20510  -62.83770    5.50030    5.68840    4.96870   65.73940    0.38650  202.15400  191.47360    0.28640   11.09560    2.76240 9883.28120    -999.25    -999.25 2180.04470
  565.90000   64.57180  201.80130  359.50500  191.32760 9761.56540   61.49490    8.03570 10022.24510  -64.17230    5.57860    5.73270    5.02410   63.94690    0.36800  202.16730  191.18990    0.29390    7.70810    2.72530 9940.85740    -999.25    -999.25 2164.33250
  566.10000   59.81950  202.45410  359.49820  191.71220 9755.57320   55.01730    7.90180 9982.28610  -65.39300    5.59810    5.73270    4.85230   58.39170    0.37840  202.69320  191.35030    0.30660    1.79030    2.68820 10110.93550    -999.25    -999.25 2145.10890
