~Version ---------------------------------------------------
VERS.      2.0 : CWLS log ASCII Standard -VERSION 2.0
WRAP.       NO : One line per depth step
CREA. 08/31/13 : LAS Creation Date
~Well ------------------------------------------------------
STRT.M                           350.0 : START DEPTH
STOP.M                          3750.0 : STOP DEPTH
STEP.M                        50.00000 : STEP LENGTH
NULL.                          -999.25 : NULL VALUE
COMP. CHEVRON CANADA RESOURCES LIMITED : COMPANY
WELL.   CHEVRON BPC WASKAHIGAN 5-31-62 : WELL
FLD .                                  : FIELD
LOC .                                  : LOCATION
CTRY.                           CANADA : COUNTRY
SRVC.                     Schlumberger : SERVICE COMPANY
DATE.                      14-Feb-1997 : LOGDATE
PROV.                          Alberta : PROVINCE
UWI .                 100053106224W500 : UNIQUE WELL ID
SLAT.WGS84                    54.40464 : SURFACE LATITUDE
SLON.WGS84                   -117.5962 : SURFACE LONGITUDE
~Curve Information -----------------------------------------
DEPT    .M      : DEPTH METER
AHT10ED .OHMM   : 10 INCH RESISTIVITY TWO FOOT RESOLUTION  FROM RESISTIVITY LOG
AHT20ED .OHMM   : 20 INCH RESISTIVITY TWO FOOT RESOLUTION  FROM RESISTIVITY LOG
AHT30ED .OHMM   : 30 INCH RESISTIVITY TWO FOOT RESOLUTION  FROM RESISTIVITY LOG
AHT60ED .OHMM   : 60 INCH RESISTIVITY TWO FOOT RESOLUTION  FROM RESISTIVITY LOG
AHT90ED .OHMM   : 90 INCH RESISTIVITY TWO FOOT RESOLUTION  FROM RESISTIVITY LOG
CAL2DED .MM     : CALIPER FROM DENSITY LOG
CALWS   .MM     : CALIPER [HCALRED]
CONDWS  .MMHO   : CONDUCTIVITY [1000/DRESWS]
DCORWS  .KG/M3  : DENSITY CORRECTION [HDRAED]
DENWS   .KG/M3  : FORMATION BULK DENSITY [CALC. FROM DPOLSWS,M=2710,F=1000]
DPHZLSED.V/V    : DENSITY POROSITY LIMESTONE [M=2710,F=1000] FROM DENSITY LOG
DPOLSWS .V/V    : DENSITY POROSITY LIMESTONE [DPHZLSED]
DRESWS  .OHMM   : DEEP RESISTIVITY [IDPHED SPL. TO AHT90ED @ 2438M]
DTED    .US/M   : DELTA-T FROM SONIC LOG
DTWS    .US/M   : COMPRESSIONAL SONIC [DTED]
GRRED   .GAPI   : GAMMA RAY FROM RESISTIVITY LOG
GRWS    .GAPI   : GAMMA RAY [GRRED]
HCALRED .MM     : CALIPER FROM RESISTIVITY LOG
HDRAED  .KG/M3  : DENSITY CORRECTION FROM DENSITY LOG
IDPHED  .OHMM   : INDUCTION DEEP PHASOR  FROM RESISTIVITY LOG
IMPHED  .OHMM   : INDUCTION MEDIUM PHASOR  FROM RESISTIVITY LOG
MRESWS  .OHMM   : MEDIUM RESISTIVITY [IMPHED SPL. TO AHT30ED @ 2438M]
NPOLSWS .V/V    : NEUTRON POROSITY LIMESTONE [NPORLSED]
NPORLSED.V/V    : NEUTRON POROSITY LIMESTONE FROM DENSITY LOG
PEFWS   .B/E    : PHOTOELECTRIC FACTOR [PEFZED]
PEFZED  .B/E    : PHOTOELECTRIC FACTOR FROM DENSITY LOG
RHOZED  .KG/M3  : FORMATION DENSITY FROM DENSITY LOG [ADJ. TO DPHZLSED]
SFLUED  .OHMM   : SHALLOW FOCUSED FROM RESISTIVITY LOG
SPRED   .MV     : SPONTANEOUS POTENTIAL FROM RESISTIVITY LOG
SPWS    .MV     : SPONTANEOUS POTENTIAL [BASELINE 0 MV, SPRED]
SRESWS  .OHMM   : SHALLOW RESISTIVITY [SFLUED SPL. TO AHT10ED @ 2438M]
TENRED  .N      : TENTION FROM RESISTIVITY LOG
~Params ----------------------------------------------------
PD  .                                  GL : PERMANENT DATUM
EPD .M                              889.2 : ELEVATION PERMANENT DATUM
LMF .                                  KB : LOG MEASURED FROM
DAPD.M                                7.7 : FEET ABOVE PERMANENT DATUM
DMF .                                  KB : DRILLING MEASURED FROM
EKB .M                              896.9 : KELLY BUSHING
EDF .M                              896.7 : DRILLING FLOOR
EGL .M                              889.2 : GROUND LEVEL
DATE.                            02/14/97 : RUN DATE
RUN .                                   1 : RUN NUMBER
DD  .M                               3770 : DEPTH DRILLER
DL  .M                               3772 : DEPTH LOGGER
BLI .M                               3770 : BOTTOM LOG INTERVAL
TLI .M                               2437 : TOP LOG INTERVAL
CS  .MM                             177.8 : CASING SIZE
CBD .M                               2441 : CASING BOTTOM DRILLER
CBL .M                               2437 : CASING BOTTOM LOGGER
BS  .MM                               158 : BIT SIZE
BSD .M                               3770 : BIT SIZE AT DEPTH
DFT .                            GEL CHEM : DRILLING FLUID TYPE
DFD .                                1100 : DRILLING FLUID DENSITY
DFV .                                  82 : DRILLING FLUID VISCOSITY
DFPH.                                 6.5 : DRILLING FLUID PH
DFL .                                  10 : DRILLING FLUID LOSS
MSS .                            MEASURED : MUD SAMPLE SOURCE
RMS .OHMM                            2.49 : RESISTIVITY MUD SAMPLE
MST .DEGC                              25 : MUD SAMPLE TEMPERATURE
RMF .OHMM                            2.45 : RESISTIVITY MUD FILTRATE SAMPLE
MFST.DEGC                              26 : MUD FILTRATE SAMPLE TEMPERATURE
RMC .OHMM                            3.15 : RESISTIVITY MUD CAKE
MCST.DEGC                              25 : MUD CAKE SAMPLE TEMPERATURE
MFSS.                            MEASURED : MUD FILTRATE SAMPLE SOURCE
MCSS.                            MEASURED : MUD CAKE SAMPLE SOURCE
RMB .OHMM                           0.916 : RESISTIVITY MUD AT BHT
TCS .HRS                             1745 : TIME CIRCULATED STOPPED
TLAB.HRS                              700 : TIME LOGGER AT BOTTOM
LUN .                                2031 : LOGGING UNIT NUMBER
LUL .                               NISKU : LOGGING UNIT LOCATION
ENGI.                              BARKER : RECORDING ENGINEER
WITN.                               VADER : WITNESSED BY
CLNT.                             A2DTECH : CLIENT CODE
ORIG. 6.5"/100M 16.5"/100M 33"/100M PRINT : ORIGIN OF DATA
UWI .                    100053106224W500 : UNIQUE WELL ID
DICO.              A2D Technologies, Inc. : DIGITIZING COMPANY
~Other -----------------------------------------------------
PEX-AIT-PISFL-CNL-LDT-BHC LOG RAN IN COMBO.
RHOZ IS FROM SMALL SCALE.
HDRA VERY LARGE IN SOME AREA[EG. FROM 37445-3710M]
ABLE TO ROTATE TOOL AT 3047M AFTER MULTIPLE ATTEMPTS FURTHER DOWNHOLE
~ASCII -----------------------------------------------------
# ...
 2550.00000  119.07720   67.53390   46.37190   26.56410   22.57150  170.98880  171.36180   44.30370   93.06590 2655.28000    0.03200    0.03200   22.57150  177.76400  177.76400   17.66620   17.66620  171.36180   93.06590    -999.25    -999.25   46.37190    0.08300    0.08300    3.00810    3.00810 2655.36430    -999.25  -99.88480 -117.40660  119.07720 19889.80270
 2600.00000  372.53000  360.57560  338.31370  215.82480  267.49090  162.42020  172.49440    3.73840   12.97300 2823.88600   -0.06660   -0.06660  267.49090  157.37260  157.37260   49.57250   49.57250  172.49440   12.97300    -999.25    -999.25  338.31370    0.03990    0.03990    3.26770    3.26770 2833.77320    -999.25  -43.89950  -70.26090  372.53000 20298.45700
 2650.00000  247.09910  606.64170   13.39420   11.21260    5.20790  160.89990  205.20920  192.01600  443.69490 2776.00600   -0.03860   -0.03860    5.20790  183.35450  183.35450   26.58220   26.58220  205.20920  443.69490    -999.25    -999.25   13.39420   -0.00170   -0.00170    3.34930    3.34930 2771.50710    -999.25 -105.01130 -128.42360  247.09910 21354.29880
 2700.00000   12.75100   18.87510   15.98350   15.72680   14.90460  156.43480  196.49280   67.09340  419.87200 2895.02200   -0.10820   -0.10820   14.90460  177.20810  177.20810   39.59010   39.59010  196.49280  419.87200    -999.25    -999.25   15.98350    0.06510    0.06510    3.23140    3.23140 2892.21680    -999.25  -34.55310  -58.17370   12.75100 21662.28710
 2750.00000 1326.82470 1780.81610 1404.99220 1462.12080 1043.12050  166.56950  224.91560    1.07980  236.89530 2668.36150    0.02440    0.02440 1043.12050  160.34930  160.34930   16.94600   16.94600  224.91560  236.89530    -999.25    -999.25 1404.99220   -0.00120   -0.00120    4.80990    4.80990 2681.12530    -999.25  -47.91730  -81.02840 1326.82470 21766.47360
 2800.00000    5.78230    6.00400    5.58690    5.30080    5.02540  176.92370  183.74440  199.65630  240.85140 2826.28000   -0.06800   -0.06800    5.02540  207.62070  207.62070   77.92270   77.92270  183.74440  240.85140    -999.25    -999.25    5.58690    0.10390    0.10390    2.91070    2.91070 2840.99840    -999.25    7.22040  -36.90280    5.78230 22069.58200
 2850.00000   53.91930   87.61560   61.95340   56.81230   78.04990  180.56270  206.81710   13.46860  387.86260 2786.35150   -0.04460   -0.04460   78.04990  178.10990  178.10990   51.93060   51.93060  206.81710  387.86260    -999.25    -999.25   61.95340    0.01420    0.01420    4.29470    4.29470 2785.76600    -999.25   33.18600   -6.73040   53.91930 22077.10550
 2900.00000  417.83150  327.43240  380.05770  154.00590  205.18070  171.95400  212.19850    4.87640  252.37450 2737.27450   -0.01600   -0.01600  205.18070  168.04040  168.04040   21.18160   21.18160  212.19850  252.37450    -999.25    -999.25  380.05770   -0.00080   -0.00080    5.19250    5.19250 2737.42970    -999.25   13.35720  -29.20000  417.83150 22035.14450
 2950.00000   28.24460   37.85220   33.50960   32.09080   29.94760  297.45630  248.51360   33.39170  467.30150 2585.68300    0.07270    0.07270   29.94760  211.21650  211.21650   82.92910   82.92910  248.51360  467.30150    -999.25    -999.25   33.50960    0.07280    0.07280    3.46190    3.46190 2693.31490    -999.25   30.18440  -12.67380   28.24460 22261.58590
 3000.00000   17.35410   16.81780   15.22870   15.25290   14.66570  170.15460  170.61690   68.18630   38.77360 2729.83600   -0.01160   -0.01160   14.66570  191.65240  191.65240  111.79170  111.79170  170.61690   38.77360    -999.25    -999.25   15.22870    0.06160    0.06160    3.37570    3.37570 2727.77200    -999.25   30.26620  -11.79980   17.35410 22872.30470
 3050.00000 2000.00000 2000.00000 2000.00000 1907.21350 1255.69560  155.87760  194.31170    0.79640  571.54790 2870.91100   -0.09410   -0.09410 1255.69560  159.79000  159.79000   16.21640   16.21640  194.31170  571.54790    -999.25    -999.25 2000.00000   -0.01660   -0.01660    4.99350    4.99350 2868.91020    -999.25 -108.60210 -149.87580 2000.00000 22288.62700
 3100.00000 2000.00000 2000.00000  667.78210  235.89490  200.99190  155.71580  192.57350    4.97530  445.61780 2822.51800   -0.06580   -0.06580  200.99190  157.61270  157.61270   12.12410   12.12410  192.57350  445.61780    -999.25    -999.25  667.78210   -0.01270   -0.01270    4.93270    4.93270 2828.64360    -999.25  -92.34400 -132.82550 2000.00000 23530.62300
 3150.00000 2000.00000 2000.00000 2000.00000 1097.70560  632.07120  155.10960  204.34580    1.58210  475.84630 2787.97600   -0.04560   -0.04560  632.07120  159.07960  159.07960   13.40240   13.40240  204.34580  475.84630    -999.25    -999.25 2000.00000   -0.01300   -0.01300    4.86140    4.86140 2784.94120    -999.25 -127.28300 -166.97230 2000.00000 23991.27930
 3200.00000 2000.00000 2000.00000 2000.00000  544.45100  344.13600  155.68750  203.53040    2.90580  663.75810 2801.31400   -0.05340   -0.05340  344.13600  158.26900  158.26900   18.47760   18.47760  203.53040  663.75810    -999.25    -999.25 2000.00000   -0.01330   -0.01330    4.60570    4.60570 2792.85960    -999.25 -130.10540 -169.00240 2000.00000 23812.56840
 3250.00000  269.15280  503.99990  410.99880  454.18270  358.98330  160.65570  245.91180    2.78560  546.84890 2718.89200   -0.00520   -0.00520  358.98330  164.41190  164.41190   23.78540   23.78540  245.91180  546.84890    -999.25    -999.25  410.99880    0.02800    0.02800    3.17140    3.17140 2697.01460    -999.25  -98.49670 -136.60150  269.15280 24449.19530
 3300.00000 1999.15990 1975.48440 1908.20010  535.44480  387.15230  163.82200  201.73910    2.58300  453.86410 2795.32900   -0.04990   -0.04990  387.15230  165.34440  165.34440   22.76040   22.76040  201.73910  453.86410    -999.25    -999.25 1908.20010   -0.00140   -0.00140    4.79150    4.79150 2786.24050    -999.25  -60.83030  -98.14290 1999.15990 25118.93950
 3350.00000  146.53320  121.02820  112.44540  117.64440  112.73880  175.29040  162.12640    8.88670   32.25370 2727.01450   -0.00990   -0.00990  112.73880  170.21150  170.21150   34.99730   34.99730  162.12640   32.25370    -999.25    -999.25  112.44540    0.01900    0.01900    4.96640    4.96640 2729.42860    -999.25   17.80770  -18.71260  146.53320 24473.50000
 3400.00000   81.48970   79.09670   71.64480   65.29100   62.29070  166.49140  166.03350   16.14700   22.12590 2709.82900    0.00010    0.00010   62.29070  182.65830  182.65830   45.71440   45.71440  166.03350   22.12590    -999.25    -999.25   71.64480    0.04070    0.04070    5.01260    5.01260 2707.16650    -999.25   14.31300  -27.29610   81.48970 25598.96290
 3450.00000   34.05720   32.60650   31.91200   29.88530   27.77480  169.95930  180.86190   36.38080   26.10330 2660.15350    0.02910    0.02910   27.77480  225.56850  225.56850   98.51910   98.51910  180.86190   26.10330    -999.25    -999.25   31.91200    0.14400    0.14400    3.89340    3.89340 2662.67380    -999.25   38.42430   -9.24700   34.05720 25750.90910
 3500.00000   16.13150   15.32710   13.91960   12.70890   12.31620  165.94140  170.27890   81.20120   54.19330 2755.57150   -0.02660   -0.02660   12.31620  206.48480  206.48480   79.62980   79.62980  170.27890   54.19330    -999.25    -999.25   13.91960    0.09840    0.09840    4.63770    4.63770 2756.52310    -999.25   48.78300   -2.98710   16.13150 25996.73830
 3550.00000   13.70760   12.38500   11.65950   10.59440   10.09220  167.92520  170.46640   99.08640  109.14720 2737.70200   -0.01620   -0.01620   10.09220  206.60510  206.60510   78.60660   78.60660  170.46640  109.14720    -999.25    -999.25   11.65950    0.08110    0.08110    4.46670    4.46670 2731.39790    -999.25   47.29950  -10.39370   13.70760 25998.64650
 3600.00000   86.79720  104.60160   64.20730   55.68010   50.07000  164.09070  164.66300   19.97200   32.60010 2587.39300    0.07170    0.07170   50.07000  245.13400  245.13400  167.22110  167.22110  164.66300   32.60010    -999.25    -999.25   64.20730    0.13680    0.13680    3.43020    3.43020 2577.13280    -999.25   47.53130  -12.88190   86.79720 26811.85740
