~Version ---------------------------------------------------
VERS. 2.0 : CWLS log ASCII Standard -VERSION 2.0
WRAP.  NO : ONE LINE PER DEPTH STEP
~Well ------------------------------------------------------
STRT.M                         450.0 : START DEPTH
STOP.M                        3000.0 : STOP DEPTH
STEP.M                      50.00000 : STEP LENGTH
NULL.                        -999.25 : NULL VALUE
COMP.              SABINE CANADA LTD : COMPANY
WELL. SABINE SUN ET AL KAYBOB 6-24-6 : WELL
FLD .                                : FIELD
LOC .                                : LOCATION
CTRY.                         CANADA : COUNTRY
SRVC.         Schlumberger of Canada : SERVICE COMPANY
DATE.                    27-Mar-1979 : LOGDATE
PROV.                        Alberta : PROVINCE
UWI .               100062406517W500 : UNIQUE WELL ID
SLAT.WGS84                  54.63663 : SURFACE LATITUDE
SLON.WGS84                 -116.4342 : SURFACE LONGITUDE
~Curve Information -----------------------------------------
DEPT   .M                  : 
CALS   .MM                 : 
GRD    .GAPI  45 310 01 00 : GAMMA RAY FROM DENSITY LOG
NPHI_SS.DEC   42 890 03 00 : 
DPHI_SS.DEC   45 890 12 00 : DENSITY POROSITY SANDSTONE
DRHO   .KG/M3 45 356 01 00 : BULK DENSITY CORRECTION
CALD   .MM    70 280 01 00 : CALIPER
DT     .US/M  60 520 00 00 : ACOUSTIC TRANSIT TIME SLOWNESS, DELTA T
GRS    .GAPI               : GAMMA RAY FROM SONIC LOG
DPHI_LS.DEC   45 890 10 00 : DENSITY POROSITY LIMESTONE
NPHI_LS.DEC                : NEUTRON POROSITY LIMESTONE
ILD    .OHMM  07 120 46 00 : INDUCTION LOG DEEP
ILM    .OHMM  07 120 44 00 : INDUCTION LOG MEDIUM
SFL    .OHMM  07 220 01 00 : SHALLOW FOCUSED LOG RESISTIVITY
SPR    .MV    07 010 01 00 : SPONTANEOUS POTENTIAL
~Params ----------------------------------------------------
PD  .                         GL : PERMANENT DATUM
EPD .M                     945.3 : ELEVATION PERMANENT DATUM
LMF .                         KB : LOG MEASURED FROM
DAPD.M                      5.05 : FEET ABOVE PERMANENT DATUM
DMF .                         KB : DRILLING MEASURED FROM
EKB .M                    950.35 : KELLY BUSHING
EGL .M                     945.3 : GROUND LEVEL
DATE.                   03/27/79 : RUN DATE
RUN .                          1 : RUN NUMBER
DD  .M                    3007.5 : DEPTH DRILLER
DL  .M                    3006.2 : DEPTH LOGGER
BLI .M                      3005 : BOTTOM LOG INTERVAL
TLI .M                       449 : TOP LOG INTERVAL
CS  .MM                      244 : CASING SIZE
CBD .M                       449 : CASING BOTTOM DRILLER
CBL .M                       449 : CASING BOTTOM LOGGER
BS  .M                       222 : BIT SIZE
BSD .M                    3007.5 : BIT SIZE AT DEPTH
DFT .                   GEL CHEM : DRILLING FLUID TYPE
DFD .                       1130 : DRILLING FLUID DENSITY
DFV .                         11 : DRILLING FLUID VISCOSITY
DFPH.                        9.5 : DRILLING FLUID PH
DFL .                         10 : DRILLING FLUID LOSS
MSS .                CIRCULATION : MUD SAMPLE SOURCE
RMS .OHMM                   1.66 : RESISTIVITY MUD SAMPLE
MST .DEGC                   17.5 : MUD SAMPLE TEMPERATURE
RMF .OHMM                   1.36 : RESISTIVITY MUD FILTRATE SAMPLE
MFST.DEGC                   16.7 : MUD FILTRATE SAMPLE TEMPERATURE
MFSS.                      PRESS : MUD FILTRATE SAMPLE SOURCE
TCS .HRS                    1945 : TIME CIRCULATED STOPPED
TLAB.HRS                     630 : TIME LOGGER AT BOTTOM
LUN .                       7772 : LOGGING UNIT NUMBER
LUL .                         ED : LOGGING UNIT LOCATION
ENGI.                     KESTER : RECORDING ENGINEER
WITN.                    TAXBOCK : WITNESSED BY
CLNT.                    A2DTECH : CLIENT CODE
ORIG. 6.5"/100M 16.5"/100M PRINT : ORIGIN OF DATA
UWI .           100062406517W500 : UNIQUE WELL ID
DICO.     A2D Technologies, Inc. : DIGITIZING COMPANY
~Other -----------------------------------------------------
~ASCII -----------------------------------------------------
  450.00000  284.23000   69.86650    0.52040    0.41300  147.86050  250.44280  501.35980   76.57940    -999.25    -999.25    -999.25    -999.25    -999.25    -999.25
  500.00000  276.92730   92.82040    0.58000    0.42800   85.91570  263.84230  381.17590  103.06050    -999.25    -999.25    2.54060    2.47520    4.68520   -9.54250
  550.00000  253.52760   88.87050    0.44120    0.24980   16.11710  256.91230  366.80770   75.23390    -999.25    -999.25    2.20410    2.06840    2.03980   -9.79260
  600.00000  233.55350   66.04450    0.45630    0.34080   45.93990  224.84210  351.95630   58.58890    -999.25    -999.25    2.18950    2.32950    2.05740   -9.63710
  650.00000  264.76480   69.15260    0.43900    0.20860   30.24970  242.58040  359.72250   77.21100    -999.25    -999.25    3.44680    2.82440    2.40760   -8.81660
  700.00000  360.21260   60.94450    0.54000    0.44970   53.92360  341.44850  478.23400   60.35120    -999.25    -999.25    2.97560    2.79960    2.71190   -9.48010
  750.00000  290.53090   57.75050    0.58060    0.58600   68.88550  273.42870  385.43620   60.93090    -999.25    -999.25    6.54210    6.27710    5.73900  -10.48600
  800.00000  307.89250   58.83560    0.59510    0.49140   73.02800  261.91320  440.13460   55.98390    -999.25    -999.25    3.16330    2.98860    3.28310   -9.07350
  850.00000  262.60780   52.66050    0.36880    0.17030   38.82540  271.18650  301.36530   57.53460    -999.25    -999.25    5.93500    5.43050    5.24510  -12.18150
  900.00000  238.41640   75.98280    0.34370    0.14290   89.57850  362.23860  332.56930   78.74100    -999.25    -999.25    4.01820    3.78630    3.69430   -9.80220
  950.00000  268.48440  111.24300    0.49210    0.30040   66.82400  285.76000  358.25560  116.96700    -999.25    -999.25    5.33780    4.81770    5.99590   -6.68150
 1000.00000  319.49450   76.70880    0.46570    0.26030   38.97850  315.62340  329.60770   91.75390    -999.25    -999.25    6.36800    5.96310    5.79910   -9.47740
 1050.00000  282.15400   91.46190    0.49270    0.48220   55.83570  274.13200  355.57170  100.20350    -999.25    -999.25    5.62350    4.93160    4.76290   -7.00080
 1100.00000  381.95030   92.46710    0.48900    0.29550   90.79860  356.22320  337.06690   94.48800    -999.25    -999.25    7.05420    5.65600    5.13390    6.10640
 1150.00000  303.99010  104.88510    0.31340    0.12850   45.26920  310.47700  280.01030  103.34320    -999.25    -999.25    6.68820    6.04790    6.34080    8.33020
 1200.00000  280.75290  121.53860    0.44100    0.12880   18.76050  277.34310  318.94690  131.64900    -999.25    -999.25    5.88100    5.63000    6.64360   13.95500
 1250.00000  267.83260  101.17690    0.38100    0.09580   74.80770  250.35000  299.96370  105.03550    -999.25    -999.25    5.10680    4.84040    5.27590   12.84840
 1300.00000  272.97240  105.19090    0.33500    0.07930   81.09530  255.69460  289.90260  109.11420    -999.25    -999.25    5.07180    4.88230    5.38350   16.34780
 1350.00000  306.24240  111.40830    0.33240    0.08560   43.46300  329.62160  288.86170  120.75150    -999.25    -999.25    4.47220    4.25950    4.66110   17.53710
 1400.00000  276.16000   87.22720    0.41050    0.24410  102.49740  243.89140  299.94260  102.62420    -999.25    -999.25    3.69870    3.59420    3.77960   19.97650
 1450.00000  326.62620   76.76130    0.25940    0.07490   60.81810  285.99200  265.48450   82.84750    -999.25    -999.25    5.04390    4.84560    5.17350   20.09010
 1500.00000  301.62300   93.55980    0.50440    0.16120   56.98630  279.36110  224.97680   99.67220    -999.25    -999.25    2.81300    2.29860    2.88750   18.81710
 1550.00000  302.80340   54.25160    0.60700    0.58060   15.75990  259.87700  277.64360   75.16410    -999.25    -999.25    6.67330    8.54510    6.95480   -0.01210
 1600.00000  232.52560   42.55180    0.25420    0.12920   56.38040  240.83350  245.45500   45.16890    -999.25    -999.25    9.15830   12.02570   14.12700  -20.45710
 1650.00000  292.52880   87.05020    0.30890    0.05640   -7.97470  251.82860  257.27200   96.76840    -999.25    -999.25    7.18190    7.42380    8.16660   27.78360
 1700.00000  252.27740   47.02360    0.29180    0.16540  147.00720  226.72490  235.21190   49.53580    -999.25    -999.25   10.26210   12.31320   15.86050  -12.06230
 1750.00000  239.75920   46.08830    0.25470    0.17170  120.67660  231.29410  245.12150   41.63280    -999.25    -999.25    8.17300    8.64900   10.36720   21.26450
 1800.00000  272.79860  183.49430    0.38460    0.13510  -10.93580  239.17470  254.30360  217.08160    0.17180    0.29320   55.39970  122.52100 1536.26030   -4.06460
 1850.00000  273.69490   50.71590    -999.25    -999.25   28.43440  243.85990  199.32950   59.29980    0.00490    0.09400   42.37540   56.77690  378.80120   -2.20480
 1900.00000  265.72410   17.57850    -999.25    -999.25   10.02760  232.41990  170.93050   20.88480    0.00600    0.04960   14.70450   41.65100  220.95000  -27.18450
 1950.00000  272.53430   15.94940    -999.25    -999.25   11.26690  242.44920  170.19950   14.31000    0.03120    0.03960   10.06410   17.02630   40.23470  -98.45470
 2000.00000  293.01140   80.21160    -999.25    -999.25   17.51390  246.88930  219.29990   92.09730    0.02420    0.14350    7.83010    8.34590   15.21430    7.90840
 2050.00000  299.69920    9.74890    -999.25    -999.25   30.17960  266.66230  172.91570    9.41740    0.03350    0.02230   77.42510   93.02480  267.29770  -66.13370
 2100.00000  249.33860   27.49600    -999.25    -999.25   34.90930  224.04320  177.62090   29.68610    0.00950    0.03860   90.43180  100.71680  155.24990   -9.92830
 2150.00000  271.22410   79.17700    -999.25    -999.25   11.63410  240.66630  197.28990   66.18780    0.05150    0.11030   43.13970   38.52080   43.33860   15.84920
 2200.00000  282.27250   15.60970    -999.25    -999.25    6.09820  263.37110  166.37120   13.50510    0.00570    0.00630  197.18310  221.83250  327.36410  -72.51750
 2250.00000  260.08410   10.93440    -999.25    -999.25    5.31770  247.15540  159.25530   11.44360    0.01470    0.00590  252.52430  232.87270 1048.77840  -76.27230
 2300.00000  277.20870    8.97070    -999.25    -999.25   69.15780  253.37740  164.83940    9.14150    0.02790    0.01800   63.10710   51.82530   98.25280 -105.67300
 2350.00000  268.52200   10.34330    -999.25    -999.25   24.55920  243.19210  162.37540   12.34600    0.00080    0.01350   79.83430   94.03490  221.40170 -112.32070
 2400.00000  264.95930   38.28340    -999.25    -999.25   20.79860  228.71850  185.58960   40.53270    0.01470    0.16080   11.68970   15.63970   53.11780  -59.79980
 2450.00000  244.00680   25.20200    -999.25    -999.25    2.57130  230.40980  163.81620   28.58340    0.01460    0.01600  112.97610  212.13870  422.27700  -39.43720
 2500.00000  264.19630   10.69020    -999.25    -999.25   78.25040  244.32480  170.57120   10.50570    0.01250    0.01520  251.63160  157.48430  417.96720  -45.95390
 2550.00000  259.07600   61.75890    -999.25    -999.25   26.66760  256.86850  221.16360   69.45000    0.02480    0.15680    8.87320    8.72960   10.95630   69.99980
 2600.00000    -999.25   71.71600    -999.25    -999.25  117.10350    -999.25  255.98260   88.27070    -999.25    0.45630    4.66100    4.21770    5.02910   22.94210
 2650.00000  362.18810   67.18180    -999.25    -999.25  190.31980  349.05910  240.26210   81.08570    0.25010    0.38330    6.04800    5.64770    7.24430  -17.45280
 2700.00000  289.88390   75.25510    -999.25    -999.25   40.17710  253.79850  217.71130   89.78490    0.02030    0.18620   10.05390   10.21160   12.91770  -75.55080
 2750.00000  274.75240   97.29160    -999.25    -999.25  161.97200  278.09550  241.40030  113.25100    0.10170    0.26290    6.40100    6.71530    8.33670  -52.18140
 2800.00000  244.58390  112.84250    -999.25    -999.25   16.08690  225.08210  249.48790  124.04120    0.10440    0.21090  125.48750  156.84350  274.18990  -41.73720
 2850.00000  251.49320   42.00650    -999.25    -999.25    7.25160  234.16070  193.24790   46.16340    0.02880    0.08200   88.36930  114.71990 1141.27160    0.78960
