~Version ---------------------------------------------------
VERS.      2.0 : CWLS log ASCII Standard -VERSION 2.0
WRAP.       NO : One line per depth step
CREA. 12/29/17 : LAS Creation Date
~Well ------------------------------------------------------
STRT.FT                     1350.0 : START DEPTH
STOP.FT                    12700.0 : STOP DEPTH
STEP.FT                   50.00000 : STEP LENGTH
NULL.                      -999.25 : NULL VALUE
COMP. TRANS-PRAIRIES PIPELINES LTD : COMPANY
WELL. TPPL DEEP VALLEY 11-21-64-25 : WELL
FLD .                              : FIELD
LOC .                              : LOCATION
CTRY.                       CANADA : COUNTRY
SRVC.                 Schlumberger : SERVICE COMPANY
DATE.                  04-Jan-1974 : LOGDATE
PROV.                      Alberta : PROVINCE
UWI .             100112106425W500 : UNIQUE WELL ID
SLAT.WGS84                54.55513 : SURFACE LATITUDE
SLON.WGS84               -117.7228 : SURFACE LONGITUDE
~Curve Information -----------------------------------------
DEPT    .FT    : Depth Curve
CALDED  .IN    : CALIPER FROM DENSITY LOG [ADJ. TO RESISTIVITY LOG]
CALSED  .IN    : CALIPER FROM SONIC LOG [ADJ. TO RESISTIVITY LOG]
CALWS   .IN    : CALIPER [CALSED]
CILDED  .MMHO  : CONDUCTIVITY FROM RESISTIVITY LOG
CONDWS  .MMHO  : CONDUCTIVITY [1000/DRESWS]
DCORWS  .G/C3  : DENSITY CORRECTION [DRHOED]
DENWS   .G/C3  : FORMATION BULK DENSITY [RHOBED]
DPHILSED.V/V   : DENSITY POROSITY LIMESTONE [M=2.71 F=1.00] FROM DENSITY LOG [ADJ. TO RHOBED/RESISTIVITY LOG]
DPHISSED.V/V   : DENSITY POROSITY SANDSTONE [M=2.65 F=1.00] FROM DENSITY LOG [ADJ. TO RHOBED/RESISTIVITY LOG]
DPOLSWS .V/V   : DENSITY POROSITY LIMESTONE [CALC FROM DENWS,M=2.71 F=1.00]
DRESWS  .OHMM  : DEEP RESISTIVITY [1000/CILDED IF ILDED<=5, ILDED]
DRHOED  .G/C3  : DENSITY CORRECTION FROM DENSITY LOG [ADJ. TO RESISTIVITY LOG]
DTED    .US/F  : DELTA T FROM SONIC LOG [ADJ. TO RESISTIVITY LOG]
DTWS    .US/F  : COMPRESSIONAL SONIC [DTED]
GRDED   .GAPI  : GAMMA RAY FROM DENSITY LOG [ADJ. TO RESISTIVITY LOG]
GRSED   .GAPI  : GAMMA RAY FROM SONIC LOG [ADJ. TO RESISTIVITY LOG]
GRWS    .GAPI  : GAMMA RAY [GRSED SPL. TO GRDED @ 7211']
ILDED   .OHMM  : DEEP INDUCTION FROM RESISTIVITY LOG
NPHILSED.V/V   : NEUTRON POROSITY LIMESTONE FROM DENSITY LOG [ADJ. TO RHOBED/RESISTIVITY LOG]
NPHISSED.V/V   : NEUTRON POROSITY SANDSTONE FROM DENSITY LOG [ADJ. TO RHOBED/RESISTIVITY LOG]
NPOLSWS .V/V   : NEUTRON POROSITY LIMESTONE [NPHISSED CONVERTED TO LIMESTONE MATRIX, SPL. TO NPHILSED @ 7065']
RHOBED  .G/C3  : BULK DENSITY FROM DENSITY LOG [ADJ. TO RESISTIVITY LOG]
SNED    .OHMM  : SHORT NORMAL FROM RESISTIVITY LOG
SPRED   .MV    : SPONTANEOUS POTENTIAL FROM RESISTIVITY LOG
SPWS    .MV    : SPONATENOUS POTENTIAL [BASELINE 0 MV, SPRED]
SRESWS  .OHMM  : SHALLOW RESISTIVITY [SNED]
~Params ----------------------------------------------------
PD  .                     GL : PERMANENT DATUM
EPD .FT                 2726 : ELEVATION PERMANENT DATUM
LMF .                     KB : LOG MEASURED FROM
DAPD.FT                   22 : FEET ABOVE PERMANENT DATUM
EKB .FT                 2748 : KELLY BUSHING
EDF .FT                 2726 : DRILLING FLOOR
DATE.               01/04/74 : RUN DATE
RUN .                      3 : RUN NUMBER
DD  .FT                12720 : DEPTH DRILLER
DL  .FT                12719 : DEPTH LOGGER
BLI .FT                12713 : BOTTOM LOG INTERVAL
TLI .FT                11088 : TOP LOG INTERVAL
CBD .FT                 1313 : CASING BOTTOM DRILLER
CBL .FT                 1314 : CASING BOTTOM LOGGER
BS  .IN                 8.75 : BIT SIZE
BSD .FT                12720 : BIT SIZE AT DEPTH
DFT .               GEL CHEM : DRILLING FLUID TYPE
DFD .                    9.6 : DRILLING FLUID DENSITY
DFV .                     97 : DRILLING FLUID VISCOSITY
DFL .                   10.9 : DRILLING FLUID LOSS
RMS .OHMM               2.08 : RESISTIVITY MUD SAMPLE
MST .DEGF                 50 : MUD SAMPLE TEMPERATURE
RMF .OHMM               1.51 : RESISTIVITY MUD FILTRATE SAMPLE
MFST.DEGF                 58 : MUD FILTRATE SAMPLE TEMPERATURE
RMC .OHMM               2.27 : RESISTIVITY MUD CAKE
MCST.DEGF                 52 : MUD CAKE SAMPLE TEMPERATURE
TCS .HRS                 2.5 : TIME CIRCULATED STOPPED
LUN .                   7691 : LOGGING UNIT NUMBER
LUL .                    EDM : LOGGING UNIT LOCATION
ENGI.                  LEITH : RECORDING ENGINEER
WITN.        SLOAN MCDONNELL : WITNESSED BY
CLNT.                A2DTECH : CLIENT CODE
ORIG.            2" 5" PRINT : ORIGIN OF DATA
UWI .       100112106425W500 : UNIQUE WELL ID
DICO. A2D Technologies, Inc. : DIGITIZING COMPANY
~Other -----------------------------------------------------
CNFD-IEL-BCS LOG RAN.
RUN#2: FDC ONLY TO 11088' & CNL ONLY TO 11650'
~ASCII -----------------------------------------------------
# ...
 6750.00000   11.25870    9.66030    9.66030  120.30570  120.96430    0.19690    2.44870    -999.25    0.12760    0.15280    8.26690    0.19690   82.32900   82.32900   94.34110  113.58690  113.58690    8.26690    -999.25    0.36380    0.32030    2.44870   12.45460  -13.66770   -7.02290   12.45460
 6800.00000    9.14940    9.38660    9.38660   35.77250   36.75820    0.02710    2.70890    -999.25   -0.03790    0.00060   27.20480    0.02710   64.37650   64.37650   75.57270   73.13590   73.13590   27.20480    -999.25    0.18060    0.13750    2.70890   37.68460  -22.22400  -16.34870   37.68460
 6850.00000    9.11930    9.39810    9.39810   29.16350   31.31220    0.07560    2.40870    -999.25    0.15400    0.17620   31.93640    0.07560   88.54680   88.54680   79.74430   80.03120   80.03120   31.93640    -999.25    0.52510    0.48340    2.40870   50.60490  -14.95240   -9.85170   50.60490
 6900.00000    8.57650    9.09830    9.09830   55.95580   58.95840    0.07060    2.53130    -999.25    0.08080    0.10450   16.96110    0.07060   72.37570   72.37570   35.36880   36.56590   36.56590   16.96110    -999.25    0.18580    0.14260    2.53130   47.94380  -71.24910  -66.91790   47.94380
 6950.00000    9.29420    9.24500    9.24500   36.50310   38.79850    0.12390    2.63520    -999.25    0.01250    0.04370   25.77420    0.12390   70.79170   70.79170   95.47420  104.46400  104.46400   25.77420    -999.25    0.24980    0.20590    2.63520   39.54350   -8.73360   -5.17700   39.54350
 7000.00000    9.58030    9.35890    9.35890   45.97580   49.29050    0.16370    2.59430    -999.25    0.03750    0.06770   20.28790    0.16370   69.85520   69.85520   38.01440   39.09530   39.09530   20.28790    -999.25    0.16640    0.12350    2.59430   33.83540  -35.99120  -33.20420   33.83540
 7050.00000   10.06780    9.36490    9.36490   57.70400   59.26350    0.14050    2.66210    -999.25   -0.00890    0.02800   16.87380    0.14050   65.99470   65.99470   92.37830  101.33060  101.33060   16.87380    -999.25    0.22340    0.17970    2.66210   29.72560  -10.77070   -8.75320   29.72560
 7100.00000    9.03940    9.26620    9.26620   55.76890   59.19440    0.14860    2.61520    -999.25    0.02870    0.05540   16.89350    0.14860   66.04940   66.04940   88.92130  103.84960  103.84960   16.89350    -999.25    -999.25    -999.25    2.61520   29.01280   -3.83380   -2.59090   29.01280
 7150.00000   10.87670    9.27020    9.27020   98.40760  103.35600    0.22610    2.47570    -999.25    0.11210    0.13700    9.67530    0.22610   69.31970   69.31970   94.77820  114.43050  114.43050    9.67530    -999.25    -999.25    -999.25    2.47570   14.99820   -3.28850   -2.70880   14.99820
 7200.00000   10.38390    9.06270    9.06270   87.81620   89.22910    0.23510    2.40210    -999.25    0.15910    0.18010   11.20710    0.23510   76.22760   76.22760   97.98250  108.08560  108.08560   11.20710    -999.25    -999.25    -999.25    2.40210   17.71610   -2.94200   -2.36230   17.71610
 7250.00000   12.08010    9.28830    9.28830  210.89910  210.89910    0.19700    2.17170    -999.25    0.30610    0.31480    4.74160    0.19700   86.09100   86.09100   91.78150  116.45050   91.78150    4.70810    -999.25    -999.25    -999.25    2.17170    7.05550   -5.81570   -5.23600    7.05550
 7300.00000   11.87690    9.21610    9.21610  208.21130  208.21130    0.21440    2.16210    -999.25    0.30000    0.32040    4.80280    0.21440   88.57170   88.57170   85.18510  119.45760   85.18510    4.64530    -999.25    -999.25    -999.25    2.16210    7.20060   -8.59870   -8.01900    7.20060
 7350.00000    9.54340    8.92840    8.92840   31.49090   29.00590    0.10680    2.40890    -999.25    0.14990    0.17610   34.47570    0.10680   89.07180   89.07180  124.75560  102.14660  124.75560   34.47570    -999.25    -999.25    -999.25    2.40890   97.71920   -7.67990   -9.87750   97.71920
 7400.00000    8.86100    8.79810    8.79810    8.12970    6.59770    0.01470    2.47110    -999.25    0.11810    0.13970  151.56740    0.01470   73.77610   73.77610  222.25540    -999.25  222.25540  151.56740    -999.25    -999.25    -999.25    2.47110  299.86070  -16.57280  -21.99290  299.86070
 7450.00000    8.92430    9.12550    9.12550  132.22790  125.58080    0.02360    2.60380    -999.25    0.03090    0.06210    7.96300    0.02360   68.60020   68.60020   94.58870    -999.25   94.58870    7.96300    -999.25    -999.25    -999.25    2.60380   17.68850  -13.18700  -21.85080   17.68850
 7500.00000    9.03750    9.20060    9.20060   45.04550   38.84490    0.03650    2.65130    -999.25   -0.00690    0.03430   25.74340    0.03650   66.59650   66.59650   76.20450    -999.25   76.20450   25.74340    -999.25    -999.25    -999.25    2.65130   31.44680  -13.17950  -25.06580   31.44680
 7550.00000    9.02500    9.04200    9.04200   40.68550   35.07520    0.04370    2.72110    -999.25   -0.04210   -0.00650   28.51020    0.04370   64.86590   64.86590   96.75090    -999.25   96.75090   28.51020    -999.25    -999.25    -999.25    2.72110   32.07580   -0.22690  -15.33570   32.07580
 7600.00000    8.93260    9.16270    9.16270  116.36920  103.91550    0.05980    2.63820    -999.25    0.01070    0.04200    9.62320    0.05980   63.17280   63.17280   76.64100    -999.25   76.64100    9.62320    -999.25    -999.25    -999.25    2.63820   18.59590  -21.06050  -39.41290   18.59590
 7650.00000    8.97060    9.03980    9.03980   75.88910   68.66580    0.03450    2.66570    -999.25   -0.00950    0.02590   14.56330    0.03450   63.96680   63.96680   79.17050    -999.25   79.17050   14.56330    -999.25    -999.25    -999.25    2.66570   20.81410  -11.43070  -33.00560   20.81410
 7700.00000    8.96830    8.96130    8.96130   15.39190   10.20190    0.03260    2.74980    -999.25   -0.05450   -0.02330   98.02140    0.03260   58.02570   58.02570   73.56000    -999.25   73.56000   98.02140    -999.25    -999.25    -999.25    2.74980   66.06250    7.69110  -17.12750   66.06250
 7750.00000    9.08200    9.18090    9.18090   30.10910   25.46120    0.02810    2.68030    -999.25   -0.01940    0.01740   39.27550    0.02810   62.46510   62.46510   84.00150    -999.25   84.00150   39.27550    -999.25    -999.25    -999.25    2.68030   37.48320   10.00600  -18.03510   37.48320
 7800.00000    9.01670    9.07550    9.07550   32.79360   26.10840    0.03210    2.73290    -999.25   -0.04690   -0.01340   38.30190    0.03210   61.61860   61.61860   96.06360    -999.25   96.06360   38.30190    -999.25    -999.25    -999.25    2.73290   37.90730   12.16500  -19.09860   37.90730
 7850.00000    9.08010    9.22450    9.22450   21.41490   14.84780    0.00660    2.72400    -999.25   -0.04200   -0.00820   67.35010    0.00660   62.78500   62.78500  100.27280    -999.25  100.27280   67.35010    -999.25    -999.25    -999.25    2.72400   52.54250   30.70380   -3.80350   52.54250
 7900.00000    8.57760    8.37630    8.37630   85.25910   82.86030    0.09100    2.62610    0.05150    -999.25    0.04910   12.06850    0.09100   58.18780   58.18780   10.01140    -999.25   10.01140   12.06850    -999.25    -999.25    -999.25    2.62610   53.48570  -86.48950 -123.50940   53.48570
 7950.00000    8.53370    8.32890    8.32890  272.22760  272.22760    0.05510    2.71340    0.00080    -999.25   -0.00200    3.67340    0.05510   58.04090   58.04090   65.06390    -999.25   65.06390    4.11120    -999.25    -999.25    -999.25    2.71340   25.46790  -67.95210 -107.10740   25.46790
 8000.00000    9.01500    8.95290    8.95290   22.80400   17.64240    0.21390    2.84300   -0.08040    -999.25   -0.07780   56.68160    0.21390   50.25370   50.25370   28.47960    -999.25   28.47960   56.68160    -999.25    -999.25    -999.25    2.84300   49.29110    5.46950  -35.80720   49.29110
 8050.00000    8.99340    8.80520    8.80520    6.10480    2.01250    0.03280    2.95440   -0.14580    -999.25   -0.14290  496.89450    0.03280   41.31560   41.31560   25.42340    -999.25   25.42340  496.89450    -999.25    -999.25    -999.25    2.95440  209.14040   14.75440  -28.64380  209.14040
