~Version ---------------------------------------------------
VERS.      2.0 : CWLS log ASCII Standard -VERSION 2.0
WRAP.       NO : One line per depth step
CREA. 08/22/14 : LAS Creation Date
~Well ------------------------------------------------------
STRT.FT                 1143.82546 : START DEPTH
STOP.FT                11159.82546 : STOP DEPTH
STEP.FT                    0.50000 : STEP LENGTH
NULL.                      -999.25 : NULL VALUE
COMP.            TRIAD OIL CO. LTD : COMPANY
WELL. TRIAD PAN AM ANTE 2-27-66-25 : WELL
FLD .                              : FIELD
LOC .                              : LOCATION
CTRY.                       CANADA : COUNTRY
SRVC.                   Lane Wells : SERVICE COMPANY
DATE.                  15-Aug-1967 : LOGDATE
PROV.                      Alberta : PROVINCE
UWI .             100022706625W500 : UNIQUE WELL ID
SLAT.WGS84                54.73614 : SURFACE LATITUDE
SLON.WGS84                 -117.69 : SURFACE LONGITUDE
~Curve Information -----------------------------------------
DEPT.FT    : DEPTH FEET
CALS.IN    : CALIPER FROM SONIC LOG
DT  .US/F  : DELTA TIME FROM SONIC LOG
GRS .GAPI  : GAMMA RAY FROM SONIC LOG
ILD .OHMM  : INDUCTION LOG DEEP RESISTIVITY
SN  .OHMM  : 16 INCH SHORT NORMAL RESISTIVITY FROM IEL
SPR .MV    : SPONTANEOUS POTENTIAL FROM RESISTIVITY LOG
~Params ----------------------------------------------------
PD  .                     GL : PERMANENT DATUM
EPD .FT               2399.7 : ELEVATION PERMANENT DATUM
LMF .                     KB : LOG MEASURED FROM
DAPD.FT                   15 : FEET ABOVE PERMANENT DATUM
DMF .                     KB : DRILLING MEASURED FROM
EKB .FT               2414.7 : KELLY BUSHING
EGL .FT               2399.7 : GROUND LEVEL
DATE.               08/15/67 : RUN DATE
RUN .                      1 : RUN NUMBER
DD  .FT                11172 : DEPTH DRILLER
DL  .FT                11160 : DEPTH LOGGER
BLI .FT                11156 : BOTTOM LOG INTERVAL
TLI .FT                 1144 : TOP LOG INTERVAL
CS  .IN                9.625 : CASING SIZE
CBD .FT                 1145 : CASING BOTTOM DRILLER
CBL .FT                 1144 : CASING BOTTOM LOGGER
BS  .IN                7.625 : BIT SIZE
BSD .FT                11172 : BIT SIZE AT DEPTH
DFT .                MUD GEL : DRILLING FLUID TYPE
DFD .                    9.9 : DRILLING FLUID DENSITY
DFV .                     89 : DRILLING FLUID VISCOSITY
DFPH.                      9 : DRILLING FLUID PH
DFL .                    7.2 : DRILLING FLUID LOSS
MSS .                   CIRC : MUD SAMPLE SOURCE
RMS .OHMM                3.0 : RESISTIVITY MUD SAMPLE
MST .DEGF                 86 : MUD SAMPLE TEMPERATURE
RMF .OHMM                2.4 : RESISTIVITY MUD FILTRATE SAMPLE
MFST.DEGF                 86 : MUD FILTRATE SAMPLE TEMPERATURE
RMC .OHMM                3.2 : RESISTIVITY MUD CAKE
MCST.DEGF                 86 : MUD CAKE SAMPLE TEMPERATURE
MFSS.                   MEAS : MUD FILTRATE SAMPLE SOURCE
MCSS.                   MEAS : MUD CAKE SAMPLE SOURCE
RMB .OHMM                1.2 : RESISTIVITY MUD AT BHT
TCS .HRS                   6 : TIME CIRCULATED STOPPED
LUN .                   1256 : LOGGING UNIT NUMBER
LUL .                    EDM : LOGGING UNIT LOCATION
ENGI.      KOWALCHUK DOMSTAD : RECORDING ENGINEER
WITN.            DANIELEWICZ : WITNESSED BY
CLNT.                A2DTECH : CLIENT CODE
ORIG.            2" 5" PRINT : ORIGIN OF DATA
UWI .       100022706625W500 : UNIQUE WELL ID
DICO. A2D Technologies, Inc. : DIGITIZING COMPANY
~Other -----------------------------------------------------
~ASCII -----------------------------------------------------
# ...
 8456.82546    9.72190   66.18290   85.24150   15.63830   23.57240  -47.11880
 8457.32546    9.72710   66.56750   87.70140   15.60890   23.54020  -46.49040
 8457.82546    9.72980   68.16950   87.39010   15.54050   23.50900  -46.49080
 8458.32546    9.73370   76.87920   84.10230   15.40870   23.44600  -46.93930
 8458.82546    9.74500   79.42100   82.11130   15.34180   23.42710  -47.16060
 8459.32546    9.78960   78.57830   79.38310   15.17730   23.44700  -47.27090
 8459.82546    9.83900   77.63600   80.88100   15.13900   23.50800  -46.71100
 8460.32546    9.86920   77.31070   81.88160   15.32610   23.63530  -46.52810
 8460.82546    9.96000   77.39400   82.01500   15.79500   24.22400  -46.90800
 8461.32546    9.99720   77.96730   80.28430   15.99520   24.60790  -47.18380
 8461.82546   10.09700   79.85000   79.59400   16.58600   25.54800  -47.87200
 8462.32546   10.12620   79.36360   80.03340   16.88650   26.14790  -48.12980
 8462.82546    9.99750   79.63200   78.23470   17.76690   27.73220  -48.61160
 8463.32546    9.90030   79.01760   79.22920   18.34680   28.68600  -48.51400
 8463.82546    9.77200   75.96970   83.40180   19.55970   30.26930  -48.15330
 8464.32546    9.72740   73.20870   84.38820   20.16490   30.89100  -47.90800
 8464.82546    9.64560   74.54080   83.48060   21.39390   32.01130  -46.94750
 8465.32546    9.60670   75.14880   82.79630   21.71030   32.43790  -46.39810
 8465.82546    9.54440   75.10520   81.37000   21.75510   32.98210  -46.39820
 8466.32546    9.52670   75.07820   79.46010   21.66570   33.14490  -46.77320
 8466.82546    9.51650   74.33750   75.43840   21.48470   33.20030  -47.31750
 8467.32546    9.51620   74.22080   74.90420   21.39460   33.14890  -47.22520
 8467.82546    9.51640   74.68340   73.71280   21.24530   33.08360  -46.64610
 8468.32546    9.51630   74.98170   73.47510   21.18500   33.06070  -46.36090
 8468.82546    9.51630   75.91970   75.85080   21.06560   33.01940  -45.77900
 8469.32546    9.50200   77.85000   79.09600   20.94300   32.97000  -45.55600
 8469.82546    9.49310   79.42210   80.50430   20.88550   32.92380  -45.57880
 8470.32546    9.43200   82.95000   82.77900   20.76100   32.82500  -45.63200
 8470.82546    9.36820   83.19060   84.52060   20.72850   32.78110  -45.65490
 8471.32546    9.21100   82.75000   88.52400   20.74600   32.69200  -45.70900
 8471.82546    9.15120   82.45120   87.66280   20.77100   32.78190  -45.73060
 8472.32546    9.01000   81.55000   84.28500   20.82600   33.20500  -45.78600
 8472.82546    8.96210   81.64210   82.86890   21.03710   33.40910  -45.80700
 8473.32546    8.97370   82.17060   79.78180   21.55120   33.90270  -45.85730
 8473.82546    9.02800   82.11740   78.51070   21.80740   34.18670  -45.87970
 8474.32546    9.12360   81.90370   75.98060   22.31940   34.79630  -45.65610
 8474.82546    9.10740   81.83560   76.10600   22.57730   35.11020  -45.19950
 8475.32546    9.03140   81.69920   76.39560   23.09560   35.74910  -44.14970
 8475.82546    8.99330   81.63140   75.20400   23.26990   35.86600  -44.31820
 8476.32546    8.93760   81.48030   71.37330   23.15170   35.77820  -45.31340
 8476.82546    8.92590   81.49160   70.21960   22.95460   35.68400  -45.45470
 8477.32546    8.90040   81.64160   71.55320   22.56540   35.49040  -45.28560
 8477.82546    8.88650   81.77650   71.87830   22.37170   35.39400  -45.19270
 8478.32546    8.86350   82.26070   71.39660   21.98810   35.22890  -45.00900
 8478.82546    8.84440   82.56430   72.43910   21.85640   35.24350  -44.91750
 8479.32546    8.80510   83.17140   75.94150   21.91860   35.42200  -44.73430
 8479.82546    8.78200   83.79000   74.46900   22.22300   35.69700  -44.54800
 8480.32546    8.77260   84.01660   72.68320   22.32750   36.14390  -44.46110
 8480.82546    8.77900   84.05000   68.54400   22.90200   37.11300  -44.45800
 8481.32546    8.77480   83.51410   66.91190   23.20320   37.53450  -44.61850
 8481.82546    8.76700   80.08100   67.59300   23.90800   38.51500  -44.99200
 8482.32546    8.76420   78.13790   69.02250   24.19290   38.90120  -45.14380
 8482.82546    8.74100   76.10500   68.31900   24.91300   39.87700  -45.52500
 8483.32546    8.71850   75.82220   67.29870   25.17540   40.23530  -45.66850
 8483.82546    8.66340   75.12820   64.92170   25.84080   41.26800  -45.57240
 8484.32546    8.63580   74.95270   63.68230   26.17200   41.83350  -45.14290
 8484.82546    8.58150   75.09650   63.75160   26.81760   43.02840  -44.12090
 8485.32546    8.55420   75.01730   63.84170   27.20560   43.65310  -44.04880
 8485.82546    8.50770   74.60040   62.23280   28.01880   44.86940  -44.30250
 8486.32546    8.50320   74.37400   63.11610   28.41850   45.45950  -44.44610
 8486.82546    8.51050   73.91870   65.36460   29.21750   46.81700  -44.73060
 8487.32546    8.51400   73.69140   65.02850   29.61730   47.44960  -44.87280
 8487.82546    8.52210   73.23640   63.36750   30.41600   48.37800  -45.15630
 8488.32546    8.52590   73.00890   62.55770   30.81480   48.74790  -45.29880
 8488.82546    8.53310   72.55370   62.63870   31.58410   49.22170  -45.38810
 8489.32546    8.53670   72.30890   63.28360   31.72400   49.20310  -45.27180
 8489.82546    8.54790   71.96370   63.57100   31.24680   48.77460  -44.90950
 8490.32546    8.56000   71.76700   66.06400   30.41500   48.18900  -44.53700
 8490.82546    8.52740   71.67100   67.53860   30.02740   47.72680  -44.36200
 8491.32546    8.45700   71.46200   69.88700   29.17900   46.53000  -43.98000
 8491.82546    8.45220   71.42740   69.45500   28.81080   45.99850  -43.82150
 8492.32546    8.46400   71.60400   66.48600   27.94400   45.02000  -44.00300
 8492.82546    8.47420   71.71680   66.39800   27.59080   44.54610  -44.62020
 8493.32546    8.49800   71.98000   68.89000   26.94700   43.68100  -45.00100
 8493.82546    8.50710   72.03970   70.26750   26.79410   43.48020  -44.92860
 8494.32546    8.53950   72.18590   71.31870   26.56190   42.98100  -44.73900
 8494.82546    8.55200   72.25870   70.54820   26.48130   42.72980  -44.47610
 8495.32546    8.57300   72.40510   68.58050   26.32300   42.23070  -43.84590
 8495.82546    8.58300   72.47810   68.22330   26.30290   41.97120  -43.53010
 8496.32546    8.60350   72.62380   70.39610   26.06170   41.44660  -42.90020
 8496.82546    8.61400   72.69280   72.12450   25.83560   41.18620  -42.59370
 8497.32546    8.63500   72.67500   74.98480   25.36060   40.69760  -42.04380
 8497.82546    8.64510   72.65000   76.22760   25.12170   40.51070  -41.79300
 8498.32546    8.64390   72.36230   74.38460   24.64680   40.19440  -41.29180
 8498.82546    8.63960   71.52650   71.99730   24.56850   40.03720  -41.34590
 8499.32546    8.64110   68.69220   71.22070   24.91740   39.74090  -41.97720
 8499.82546    8.64440   68.75870   71.38220   25.20690   39.70760  -42.32320
 8500.32546    8.65420   72.68300   71.94240   25.66120   39.90850  -42.98890
 8500.82546    8.66400   73.35000   74.75600   25.24900   40.18700  -43.24900
 8501.32546    8.66960   73.51820   73.90930   24.93570   40.30270  -43.32030
 8501.82546    8.67900   73.95000   73.65400   24.24600   40.03200  -43.48300
 8502.32546    8.68430   73.54030   75.18380   23.93710   39.80490  -43.58740
 8502.82546    8.69500   72.85000   78.49200   23.66700   39.48000  -44.07600
 8503.32546    8.68880   73.65280   79.03560   23.97280   40.01350  -44.30650
 8503.82546    8.65800   75.85000   76.50000   24.79800   41.88000  -44.89600
 8504.32546    8.64100   76.09950   73.44300   25.39510   43.34600  -45.11320
 8504.82546    8.59990   76.85100   64.63190   26.98590   48.73040  -45.65060
 8505.32546    8.58050   77.16810   61.68700   28.29340   52.87000  -45.92060
 8505.82546    8.54090   74.68700   62.38270   32.67680   60.34360  -46.23560
 8506.32546    8.51910   73.03030   61.67210   35.82190   63.77650  -46.21060
 8506.82546    8.49550   73.56660   57.98640   42.03040   70.74570  -46.06260
 8507.32546    8.49050   73.81720   56.38350   44.76020   73.60120  -45.99560
 8507.82546    8.47850   73.01730   53.36250   49.98840   78.94010  -46.61880
