~Version ---------------------------------------------------
VERS.      2.0 : CWLS log ASCII Standard -VERSION 2.0
WRAP.       NO : One line per depth step
CREA. 08/30/13 : LAS Creation Date
~Well ------------------------------------------------------
STRT.M                          300.0 : START DEPTH
STOP.M                         2950.0 : STOP DEPTH
STEP.M                       50.00000 : STEP LENGTH
NULL.                         -999.25 : NULL VALUE
COMP. QUINTANA EXPLORATION CANADA LTD : COMPANY
WELL.  CHAUVCO GEOG VIRGHILLS 11-14-6 : WELL
FLD .                                 : FIELD
LOC .                                 : LOCATION
CTRY.                          CANADA : COUNTRY
SRVC.                    Schlumberger : SERVICE COMPANY
DATE.                     01-Nov-1984 : LOGDATE
PROV.                         Alberta : PROVINCE
UWI .                100111406613W500 : UNIQUE WELL ID
SLAT.WGS84                   54.71471 : SURFACE LATITUDE
SLON.WGS84                  -115.8579 : SURFACE LONGITUDE
~Curve Information -----------------------------------------
DEPT    .M      : DEPTH METER
C11ED   .MM     : CALIPER FROM CALIPER LOG [ADJ. TO RESISTIVITY LOG]
C1ED    .MM     : CALIPER FROM DENSITY LOG [ADJ. TO RESISTIVITY LOG]
C21ED   .MM     : CALIPER FROM CALIPER LOG [ADJ. TO RESISTIVITY LOG]
C2ED    .MM     : CALIPER FROM DENSITY LOG [ADJ. TO RESISTIVITY LOG]
CALMED  .MM     : CALIPER FROM MLL LOG [ADJ. TO RESISTIVITY LOG]
CALSED  .MM     : CALIPER FROM SONIC LOG
CALWS   .MM     : CALIPER [CALSED]
CONDWS  .MMHO   : CONDUCTIVITY [1000/DRESWS]
DCORWS  .KG/M3  : DENSITY CORRECTION [DRHOED]
DENWS   .KG/M3  : FORMATION BULK DENSITY [CALC FROM DPOLSWS,M=2710,F=1000]
DPHILSED.V/V    : DENSITY POROSITY LIMESTONE [M=2710,F=1000] FROM DENSITY LOG [ADJ. TO RESISTIVITY LOG]
DPHISSED.V/V    : DENSITY POROSITY SANDSTONE [M=2650,F=1000] FROM DENSITY LOG [ADJ. TO RESISTIVITY LOG]
DPOLSWS .V/V    : DENSITY POROSITY LIMESTONE [DPHISSED CONVERTED TO LIMESTONE(M=2710,F=1000), SPL. TO DPHILSED @ 1739.7M]
DRESWS  .OHMM   : DEEP RESISTIVITY [ILDED]
DRHOED  .KG/M3  : DENSITY CORRECTION FROM DENSITY LOG [ADJ. TO RESISTIVITY LOG]
DTED    .US/M   : SONIC INTERVAL FROM SONIC LOG
DTWS    .US/M   : COMPRESSIONAL SONIC [DTED]
GRSED   .GAPI   : GAMMA RAY FROM SONIC LOG
GRWS    .GAPI   : GAMMA RAY [GRSED SPL TO SGRDDED @2937.5M]
ILDED   .OHMM   : MEDIUM INDUCTION FROM RESISTIVITY LOG
ILMED   .OHMM   : MEDIUM INDUCTION FROM RESISTIVITY LOG
MLLED   .OHMM   : MICRO-LATEROLOG FROM MLL LOG
MRESWS  .OHMM   : MEDIUM RESISTIVITY [ILMED]
NPHILSED.V/V    : NEUTRON POROSITY LIMESTONE FROM DENSITY LOG [ADJ. TO RESISTIVITY LOG]
NPHISSED.V/V    : NEUTRON POROSITY SANDSTONE FROM DENSITY LOG [ADJ. TO RESISTIVITY LOG]
NPOLSWS .V/V    : NEUTRON POROSITY LIMESTONE [NPHISSED MATRIX CONVERSION FOR LIMESTONE, SPL. TO NPHILSED @ 1739.7 M]
PEFED   .B/E    : PHOTOELECTRIC FACTOR FROM DENSITY LOG [ADJ. TO RESISTIVITY LOG]
PEFWS   .B/E    : PHOTOELECTRIC FACTOR [PEFED]
RHOBED  .KG/M3  : BULK DENSITY FROM DENSITY LOG [ADJ. TO RESISTIVITY LOG]
SFLUED  .OHMM   : SHALLOW FOCUS LOG FROM RESISTIVITY LOG
SGRDDED .GAPI   : GAMMA RAY FROM DENSITY LOG [ADJ. TO RESISTIVITY LOG]
SPRED   .MV     : SPONTANEOUS POTENTIAL FROM RESISTIVITY LOG
SPWS    .MV     : SPONTANEOUS POTENTIAL [BASELINE 0 MV, SPRED]
SRESWS  .OHMM   : SHALLOW RESISTIVITY [SFLUED]
TENDED  .N      : TENSION FROM DENSITY LOG [ADJ. TO RESISTIVITY LOG]
TENSED  .N      : TENSION FROM SONIC LOG
~Params ----------------------------------------------------
PD  .                         GL : PERMANENT DATUM
EPD .M                    1188.9 : ELEVATION PERMANENT DATUM
LMF .                         KB : LOG MEASURED FROM
DAPD.M                       5.6 : FEET ABOVE PERMANENT DATUM
DMF .                         KB : DRILLING MEASURED FROM
EKB .M                    1194.5 : KELLY BUSHING
EDF .M                    1194.2 : DRILLING FLOOR
EGL .M                    1188.9 : GROUND LEVEL
DATE.                   11/01/84 : RUN DATE
RUN .                          1 : RUN NUMBER
DD  .M                      2957 : DEPTH DRILLER
DL  .M                      2957 : DEPTH LOGGER
BLI .M                      2956 : BOTTOM LOG INTERVAL
TLI .M                        30 : TOP LOG INTERVAL
CS  .MM                    244.5 : CASING SIZE
CBD .M                       428 : CASING BOTTOM DRILLER
CBL .M                       428 : CASING BOTTOM LOGGER
BS  .MM                    222.2 : BIT SIZE
BSD .M                      2957 : BIT SIZE AT DEPTH
DFT .                   GEL CHEM : DRILLING FLUID TYPE
DFD .                       1110 : DRILLING FLUID DENSITY
DFV .                         83 : DRILLING FLUID VISCOSITY
DFPH.                       10.5 : DRILLING FLUID PH
DFL .                          9 : DRILLING FLUID LOSS
MSS .                   FLOWLINE : MUD SAMPLE SOURCE
RMS .OHMM                   1.84 : RESISTIVITY MUD SAMPLE
MST .DEGC                   16.1 : MUD SAMPLE TEMPERATURE
RMF .OHMM                   1.98 : RESISTIVITY MUD FILTRATE SAMPLE
MFST.DEGC                   16.6 : MUD FILTRATE SAMPLE TEMPERATURE
RMC .OHMM                  0.746 : RESISTIVITY MUD CAKE
MCST.DEGC                     80 : MUD CAKE SAMPLE TEMPERATURE
MFSS.                       MEAS : MUD FILTRATE SAMPLE SOURCE
MCSS.                       MEAS : MUD CAKE SAMPLE SOURCE
RMB .OHMM                  0.683 : RESISTIVITY MUD AT BHT
TCS .HRS                     200 : TIME CIRCULATED STOPPED
TLAB.HRS                     800 : TIME LOGGER AT BOTTOM
LUN .                       8156 : LOGGING UNIT NUMBER
LUL .                        EDM : LOGGING UNIT LOCATION
ENGI.                    GAGGINO : RECORDING ENGINEER
WITN.                      YOPIK : WITNESSED BY
CLNT.                    A2DTECH : CLIENT CODE
ORIG. 6.5"/100M 16.5"/100M PRINT : ORIGIN OF DATA
UWI .           100111406613W500 : UNIQUE WELL ID
DICO.     A2D Technologies, Inc. : DIGITIZING COMPANY
~Other -----------------------------------------------------
DILSFL-CNDL- BHC-MLL -CALIPER LOG RUN
ALL CURVES IN MLL LOG, VERIFY FROM SMALL SCALE SECTION FROM LR TO FR
~ASCII -----------------------------------------------------
# ...
 2300.00000  248.60630    -999.25  244.74700    -999.25    -999.25  229.83620  229.83620   61.10080    -999.25    -999.25    -999.25    -999.25    -999.25   16.36640    -999.25  169.01170  169.01170   22.40560   22.40560   16.36640   18.76080    -999.25   18.76080    -999.25    -999.25    -999.25    -999.25    -999.25    -999.25   63.38190    -999.25 -138.36280  -49.84640   63.38190    -999.25 3124.96090
 2350.00000  287.14110    -999.25  234.83410    -999.25    -999.25  228.30340  228.30340    8.92290    -999.25    -999.25    -999.25    -999.25    -999.25  112.07110    -999.25  205.42960  205.42960   21.33040   21.33040  112.07110  146.41880    -999.25  146.41880    -999.25    -999.25    -999.25    -999.25    -999.25    -999.25  201.40950    -999.25 -162.46600  -82.69860  201.40950    -999.25 3078.65800
 2400.00000  275.31670    -999.25  268.78340    -999.25    -999.25  232.36420  232.36420   92.13360    -999.25    -999.25    -999.25    -999.25    -999.25   10.85380    -999.25  182.98120  182.98120   35.94400   35.94400   10.85380   18.45530    -999.25   18.45530    -999.25    -999.25    -999.25    -999.25    -999.25    -999.25   18.11620    -999.25  -81.13910  -16.24000   18.11620    -999.25 3237.58230
 2450.00000  244.68470    -999.25  239.57700    -999.25    -999.25  226.39250  226.39250  101.61570    -999.25    -999.25    -999.25    -999.25    -999.25    9.84100    -999.25  215.82590  215.82590   56.79160   56.79160    9.84100   10.31730    -999.25   10.31730    -999.25    -999.25    -999.25    -999.25    -999.25    -999.25   12.03440    -999.25  -63.17400   -5.77130   12.03440    -999.25 3300.65920
 2500.00000  417.76930    -999.25  309.09110    -999.25    -999.25  241.55470  241.55470  257.34060    -999.25    -999.25    -999.25    -999.25    -999.25    3.88590    -999.25  263.60200  263.60200   75.05960   75.05960    3.88590    3.71500    -999.25    3.71500    -999.25    -999.25    -999.25    -999.25    -999.25    -999.25    3.94370    -999.25  -70.59070  -17.37230    3.94370    -999.25 3317.72510
 2550.00000  381.38740    -999.25  322.32120    -999.25    -999.25  241.90780  241.90780  319.17270    -999.25    -999.25    -999.25    -999.25    -999.25    3.13310    -999.25  273.99100  273.99100   84.36620   84.36620    3.13310    2.70250    -999.25    2.70250    -999.25    -999.25    -999.25    -999.25    -999.25    -999.25    3.20390    -999.25  -68.26730  -19.23320    3.20390    -999.25 3332.03370
 2600.00000  289.87410    -999.25  259.24720    -999.25    -999.25  234.60220  234.60220  160.41070    -999.25    -999.25    -999.25    -999.25    -999.25    6.23400    -999.25  240.31280  240.31280   71.79820   71.79820    6.23400    6.59850    -999.25    6.59850    -999.25    -999.25    -999.25    -999.25    -999.25    -999.25    7.97820    -999.25  -64.14810  -19.29830    7.97820    -999.25 3438.39180
 2650.00000  374.18240    -999.25  288.49790    -999.25    -999.25  239.10570  239.10570  226.07560    -999.25    -999.25    -999.25    -999.25    -999.25    4.42330    -999.25  253.15130  253.15130   88.26880   88.26880    4.42330    4.63650    -999.25    4.63650    -999.25    -999.25    -999.25    -999.25    -999.25    -999.25    5.01240    -999.25  -62.23370  -21.56830    5.01240    -999.25 3477.68260
 2700.00000  293.39870    -999.25  335.68780    -999.25    -999.25  236.65510  236.65510  251.74330    -999.25    -999.25    -999.25    -999.25    -999.25    3.97230    -999.25  269.15120  269.15120   88.33440   88.33440    3.97230    4.14120    -999.25    4.14120    -999.25    -999.25    -999.25    -999.25    -999.25    -999.25    4.55880    -999.25  -54.91030  -18.34260    4.55880    -999.25 3527.12960
 2750.00000  259.53210    -999.25  255.22690    -999.25    -999.25  228.01000  228.01000   81.61530    -999.25    -999.25    -999.25    -999.25    -999.25   12.25260    -999.25  290.87460  290.87460  139.22850  139.22850   12.25260   13.77190    -999.25   13.77190    -999.25    -999.25    -999.25    -999.25    -999.25    -999.25   22.87560    -999.25  -36.35070   -3.76120   22.87560    -999.25 3593.86350
 2800.00000  228.39610    -999.25  237.67380    -999.25    -999.25  225.10580  225.10580   54.81790    -999.25    -999.25    -999.25    -999.25    -999.25   18.24220    -999.25  194.00940  194.00940   50.88470   50.88470   18.24220   22.14870    -999.25   22.14870    -999.25    -999.25    -999.25    -999.25    -999.25    -999.25   24.81620    -999.25  -43.38730  -15.09740   24.81620    -999.25 3610.87940
 2850.00000  222.71310  222.24650  235.07790  233.70130  238.84000  225.18660  225.18660   44.43480    4.65010 2655.28000    0.03200    -999.25    0.03200   22.50490    4.65010  203.39880  203.39880   48.82990   48.82990   22.50490   25.83620   80.57580   25.83620    0.12640    -999.25    0.12640    4.80960    4.80960 2653.02560   28.85700   49.06040  -34.04170  -10.05990   28.85700 3814.90600 3658.44600
 2900.00000  222.39100  220.49760  232.83620  232.18620  237.82390  224.52150  224.52150    0.51200  -11.51820 2659.72600    0.02940    -999.25    0.02940 1953.15700  -11.51820  176.69060  176.69060   31.87570   31.87570 1953.15700 2017.58790 1963.56710 2017.58790    0.04100    -999.25    0.04100    4.56900    4.56900 2665.33350 1987.63110   29.39650 -191.42120 -174.69120 1987.63110 3784.20780 3628.06620
 2950.00000  212.17760  211.74310  372.16420    -999.25  226.40870    -999.25    -999.25   89.90220    7.59380 2717.86600   -0.00460    -999.25   -0.00460   11.12320    7.59380    -999.25    -999.25    -999.25    -999.25   11.12320   12.59860   15.69850   12.59860    0.10780    -999.25    0.10780    3.69710    3.69710 2711.26540   25.06760    -999.25  -50.54680  -29.56580   25.06760 3861.60770 3654.09520
