~Version ---------------------------------------------------
VERS.      2.0 : CWLS log ASCII Standard -VERSION 2.0
WRAP.       NO : One line per depth step
CREA. 11/14/17 : LAS Creation Date
~Well ------------------------------------------------------
STRT.FT                             950.0 : START DEPTH
STOP.FT                           10850.0 : STOP DEPTH
STEP.FT                          50.00000 : STEP LENGTH
NULL.                             -999.25 : NULL VALUE
COMP.        CANADIAN HOMESTEAD OILS LTD. : COMPANY
WELL. HOMESTEAD ET AL ROSEVEAR 11-5-55-15 : WELL
FLD .                                     : FIELD
LOC .                                     : LOCATION
CTRY.                              CANADA : COUNTRY
SRVC.              Schlumberger of Canada : SERVICE COMPANY
DATE.                         05-Oct-1975 : LOGDATE
PROV.                             Alberta : PROVINCE
UWI .                    100110505515W500 : UNIQUE WELL ID
SLAT.WGS84                       53.72589 : SURFACE LATITUDE
SLON.WGS84                      -116.1973 : SURFACE LONGITUDE
~Curve Information -----------------------------------------
DEPT    .FT    : Depth Curve
CALDED  .IN    : CALIPER FROM DENSITY LOG
CALSED  .IN    : CALIPER FROM SONIC LOG
CALWS   .IN    : CALIPER [CALDED]
CONDWS  .MMHO  : CONDUCTIVITY [1000/DRESWS]
DCORWS  .G/C3  : DENSITY CORRECTION [DRHOED]
DENWS   .G/C3  : FORMATION BULK DENSITY [RHOBED]
DPHILSED.V/V   : DENSITY POROSITY LIME [M=2.71, F=1.00] FROM DENSITY LOG [ADJ. TO RHOBED]
DPHISSED.V/V   : DENSITY POROSITY SAND [M=2.65, F=1.00] FROM DENSITY LOG [ADJ. TO RHOBED]
DPOLSWS .V/V   : DENSITY POROSITY LIME [CALC FROM DENWS, M=2.71, F=1.00]
DRESWS  .OHMM  : DEEP RESISTIVITY [ILDED]
DRHOED  .G/C3  : DENSITY CORRECTION FROM DENSITY LOG
DTED    .US/F  : DELTA-T FROM SONIC LOG [ADJ. TO DENSITY LOG]
DTWS    .US/F  : COMPRESSIONAL SONIC [DTED]
GRDED   .GAPI  : GAMMA RAY FROM DENSITY LOG
GRSED   .GAPI  : GAMMA RAY FROM SONIC LOG
GRWS    .GAPI  : GAMMA RAY [GRSED SPL. TO GRDED @ 1083']
ILDED   .OHMM  : DEEP INDUCTION RESISTIVITY FROM RESISTIVITY LOG
ILMED   .OHMM  : INDUCTION MEDIUM RESISTIVITY FROM RESISTIVITY LOG
LL8ED   .OHMM  : LATEROLOG-8 RESISTIVITY FROM RESISTIVITY LOG
MRESWS  .OHMM  : MEDIUM RESISTIVITY [ILMED]
NPHILSED.V/V   : NEUTRON POROSITY LIME FROM DENSITY LOG
NPHISSED.V/V   : NEUTRON POROSITY SAND FROM DENSITY LOG
NPOLSWS .V/V   : NEUTRON POROSITY LIME [SS MATRIX CONVERT TO LS & SPL. TO LS @ 7306']
RHOBED  .G/C3  : BULK DENSITY FROM DENSITY LOG
SPRED   .MV    : SPONTANEOUS POTENTIAL FROM RESISTIVITY LOG
SPWS    .MV    : SPONTANEOUS POTENTIAL [BASELINE 0 MV, SPRED]
SRESWS  .OHMM  : SHALLOW RESISTIVITY [LL8ED]
~Params ----------------------------------------------------
PD  .                     GL : PERMANENT DATUM
EPD .FT               2836.1 : ELEVATION PERMANENT DATUM
LMF .                     KB : LOG MEASURED FROM
DAPD.FT                15.85 : FEET ABOVE PERMANENT DATUM
EKB .FT              2851.95 : KELLY BUSHING
EGL .FT               2836.1 : GROUND LEVEL
DATE.               10/05/75 : RUN DATE
RUN .                      1 : RUN NUMBER
DD  .FT                10878 : DEPTH DRILLER
DL  .FT                10878 : DEPTH LOGGER
BLI .FT                10872 : BOTTOM LOG INTERVAL
TLI .FT                 1099 : TOP LOG INTERVAL
CBD .FT                 1096 : CASING BOTTOM DRILLER
CBL .FT                 1099 : CASING BOTTOM LOGGER
BS  .IN                 8.75 : BIT SIZE
BSD .FT                10878 : BIT SIZE AT DEPTH
DFT .               GEL CHEM : DRILLING FLUID TYPE
DFD .                    9.7 : DRILLING FLUID DENSITY
DFV .                    487 : DRILLING FLUID VISCOSITY
DFPH.                   10.5 : DRILLING FLUID PH
MSS .             CIRCULATED : MUD SAMPLE SOURCE
RMS .OHMM               1.34 : RESISTIVITY MUD SAMPLE
MST .DEGF                 64 : MUD SAMPLE TEMPERATURE
RMF .OHMM               0.91 : RESISTIVITY MUD FILTRATE SAMPLE
MFST.DEGF                 74 : MUD FILTRATE SAMPLE TEMPERATURE
RMB .OHMM               0.34 : RESISTIVITY MUD AT BHT
TCS .HRS                   4 : TIME CIRCULATED STOPPED
LUN .                   7690 : LOGGING UNIT NUMBER
LUL .                    EDM : LOGGING UNIT LOCATION
ENGI.     WILLIGER WILTSHIRE : RECORDING ENGINEER
WITN.                  SLOAN : WITNESSED BY
CLNT.                A2DTECH : CLIENT CODE
ORIG.            2" 5" PRINT : ORIGIN OF DATA
UWI .       100110505515W500 : UNIQUE WELL ID
DICO. A2D Technologies, Inc. : DIGITIZING COMPANY
~Other -----------------------------------------------------
~ASCII -----------------------------------------------------
# ...
 2250.00000    9.88620   10.50580    9.88620  212.22860    0.02190    2.30620    -999.25    0.20670    0.23610    4.71190    0.02190  111.92400  111.92400   82.93970   21.28810   82.93970    4.71190    4.46920    5.70970    4.46920    -999.25    0.42790    0.38560    2.30620 -132.63290   -6.07200    5.70970
 2300.00000    9.58540   10.66460    9.58540   52.22230    0.03650    2.45830    -999.25    0.12110    0.14720   19.20170    0.03650   72.18940   72.18940   58.03680   15.49080   58.03680   19.20170   17.17650   23.78950   17.17650    -999.25    0.26750    0.22350    2.45830 -138.11150  -11.40660   23.78950
 2350.00000   12.08790   11.35610   12.08790  227.21080    0.22900    2.17210    -999.25    0.29730    0.31460    4.40120    0.22900  133.75290  133.75290   95.13550   22.42760   95.13550    4.40120    3.66890    3.96020    3.66890    -999.25    0.40390    0.36110    2.17210 -132.15820   -5.30830    3.96020
 2400.00000   14.98560   11.09610   14.98560   98.53770    0.18880    1.77030    -999.25    0.45030    0.54950   10.14840    0.18880  117.91270  117.91270   67.42340   20.44570   67.42340   10.14840    8.88570   11.13830    8.88570    -999.25    0.42990    0.38770    1.77030 -132.80090   -5.80700   11.13830
 2450.00000   10.02000   10.39690   10.02000  220.48770    0.26390    2.18910    -999.25    0.28100    0.30460    4.53540    0.26390   82.35950   82.35950   93.01640   21.55910   93.01640    4.53540    4.15660    5.12900    4.15660    -999.25    0.37800    0.33470    2.18910 -131.23910   -4.10020    5.12900
 2500.00000    9.72820   11.72090    9.72820  122.26730    0.23360    2.26320    -999.25    0.25310    0.26130    8.17880    0.23360  139.99570  139.99570   89.38790   23.50060   89.38790    8.17880    7.37070   10.59610    7.37070    -999.25    0.38620    0.34310    2.26320 -130.61310   -3.33020   10.59610
 2550.00000   10.61700   10.87830   10.61700  371.01160    0.26320    2.05300    -999.25    0.36960    0.38420    2.70380    0.26320   84.21660   84.21660   84.56130   23.06020   84.56130    2.70380    2.32670    2.69090    2.32670    -999.25    0.38820    0.34510    2.05300 -131.71980   -4.29280    2.69090
 2600.00000   11.05460   12.34660   11.05460  287.56290    0.26510    2.23540    -999.25    0.24550    0.27750    3.47750    0.26510  100.14290  100.14290   83.54740   25.59400   83.54740    3.47750    2.89090    3.31870    2.89090    -999.25    0.26880    0.22480    2.23540 -132.67690   -5.10500    3.31870
 2650.00000    9.41150   13.15130    9.41150   67.43680    0.04420    2.52220    -999.25    0.08460    0.10980   14.82870    0.04420   76.43270   76.43270   55.38990   15.71890   55.38990   14.82870   13.16450   15.00550   13.16450    -999.25    0.25160    0.20770    2.52220 -141.99030  -14.27430   15.00550
 2700.00000   10.93970    9.95150   10.93970   64.12430    0.26080    2.07890    -999.25    0.34820    0.36910   15.59470    0.26080   99.49570   99.49570   91.98440   17.04940   91.98440   15.59470   11.97620   11.06670   11.97620    -999.25    0.42360    0.38120    2.07890 -143.73170  -15.87070   11.06670
 2750.00000   10.56960   11.21880   10.56960   58.36310    0.26520    2.38150    -999.25    0.17040    0.19210   17.13410    0.26520   87.87140   87.87140   99.04860   25.96950   99.04860   17.13410   15.35810   15.38780   15.35810    -999.25    0.32360    0.27970    2.38150 -134.94520   -6.94020   15.38780
 2800.00000   11.08070   11.46650   11.08070  180.47230    0.25200    1.96880    -999.25    0.41060    0.43350    5.54210    0.25200   94.77790   94.77790   93.58440   24.68530   93.58440    5.54210    4.46330    4.98140    4.46330    -999.25    0.39040    0.34730    1.96880 -134.01640   -5.86740    4.98140
 2850.00000   12.42310   12.00210   12.42310  197.33600    0.14790    1.67930    -999.25    0.44950    0.60270    5.06750    0.14790  108.00590  108.00590   96.23750   27.85850   96.23750    5.06750    3.74400    5.57040    3.74400    -999.25    0.42590    0.38360    1.67930 -131.10550   -2.81150    5.57040
 2900.00000   10.34300   11.39250   10.34300  157.02530    0.26320    2.21900    -999.25    0.26240    0.28710    6.36840    0.26320   90.12520   90.12520   89.93260   22.91360   89.93260    6.36840    5.11280    4.72770    5.11280    -999.25    0.34750    0.30380    2.21900 -137.35290   -8.91490    4.72770
 2950.00000    9.21430   11.97460    9.21430   94.45100    0.08890    2.52320    -999.25    0.07790    0.10920   10.58750    0.08890   78.92830   78.92830   77.76370   25.00730   77.76370   10.58750   10.18330   11.57560   10.18330    -999.25    0.27970    0.23570    2.52320 -140.27650  -11.69350   11.57560
 3000.00000   10.37660   10.55700   10.37660  152.64380    0.26250    2.50890    -999.25    0.08840    0.11760    6.55120    0.26250   82.62030   82.62030   80.04720   22.38710   80.04720    6.55120    6.04550    6.72730    6.04550    -999.25    0.27610    0.23210    2.50890 -134.33300   -5.60590    6.72730
 3050.00000   11.18290   10.37040   11.18290  246.75680    0.17240    2.10480    -999.25    0.34550    0.35390    4.05300    0.17240   99.72280   99.72280   78.88590   27.27320   78.88590    4.05300    3.90440    4.60580    3.90440    -999.25    0.35570    0.31210    2.10480 -135.12430   -6.25320    4.60580
 3100.00000    9.75770    9.87790    9.75770  383.11240    0.08360    2.44730    -999.25    0.13440    0.15360    2.61020    0.08360   93.97740   93.97740   80.65200   24.93400   80.65200    2.61020    2.46500    2.93890    2.46500    -999.25    0.35400    0.31040    2.44730 -134.31810   -5.30200    2.93890
 3150.00000   10.35180    9.97240   10.35180  382.83370    0.26460    2.36890    -999.25    0.17590    0.19950    2.61210    0.26460   87.64230   87.64230   78.87710   28.55340   78.87710    2.61210    2.35130    2.35190    2.35130    -999.25    0.34620    0.30250    2.36890 -136.97840   -7.81830    2.35190
 3200.00000    9.51540   10.62990    9.51540  238.86300    0.24170    2.46180    -999.25    0.12200    0.14510    4.18650    0.24170   94.04270   94.04270   83.69320   22.02940   83.69320    4.18650    3.58450    3.48170    3.58450    -999.25    0.46360    0.42190    2.46180 -133.62500   -4.31990    3.48170
 3250.00000    9.66870   11.19310    9.66870  211.36730    0.09120    2.53350    -999.25    0.08020    0.10320    4.73110    0.09120   79.33680   79.33680   74.61550   22.06840   74.61550    4.73110    3.83000    3.53520    3.83000    -999.25    0.28640    0.24240    2.53350 -136.50650   -7.05740    3.53520
 3300.00000   10.95760   11.38740   10.95760  187.92670    0.06580    2.44250    -999.25    0.13210    0.15650    5.33530    0.06580   85.03560   85.03560   52.97240   19.23750   52.97240    5.33530    4.83220    4.51470    4.83220    -999.25    0.30500    0.26100    2.44250 -137.40510   -7.81190    4.51470
 3350.00000    9.99770   12.02530    9.99770  212.89280    0.20540    2.32850    -999.25    0.20580    0.22310    4.69720    0.20540   99.16740   99.16740   79.06320   21.76260   79.06320    4.69720    4.25660    4.27600    4.25660    -999.25    0.43030    0.38810    2.32850 -135.22820   -5.49010    4.27600
 3400.00000    9.83470   11.41060    9.83470  147.90710    0.23610    2.41970    -999.25    0.14010    0.16980    6.76100    0.23610   84.66550   84.66550   50.82380   17.49660   50.82380    6.76100    6.26680    6.14870    6.26680    -999.25    0.32260    0.27870    2.41970 -138.08190   -8.19970    6.14870
 3450.00000   11.77910   11.18140   11.77910   96.09660    0.26390    2.09380    -999.25    0.33610    0.36040   10.40620    0.26390   89.17630   89.17630   71.39310   22.63030   71.39310   10.40620    9.22960    8.09930    9.22960    -999.25    0.36660    0.32320    2.09380 -136.00880   -5.98160    8.09930
 3500.00000   10.13400   10.45410   10.13400  159.46420    0.25010    2.51020    -999.25    0.09560    0.11680    6.27100    0.25010   80.80210   80.80210   65.07330   21.16810   65.07330    6.27100    6.01180    5.52800    6.01180    -999.25    0.30020    0.25620    2.51020 -136.06500   -5.89380    5.52800
