~Version ---------------------------------------------------
VERS. 2.0 : CWLS log ASCII Standard -VERSION 2.0
WRAP.  NO : ONE LINE PER DEPTH STEP
~Well ------------------------------------------------------
STRT.F                  1500.0 : START DEPTH
STOP.F                 10050.0 : STOP DEPTH
STEP.F                50.00000 : STEP LENGTH
NULL.                  -999.25 : NULL VALUE
COMP.     CHEVRON STANDARD LTD : COMPANY
WELL. CHEVRON PEMBINA 6-3-51-7 : WELL
FLD .                          : FIELD
LOC .                          : LOCATION
CTRY.                   CANADA : COUNTRY
SRVC.             Schlumberger : SERVICE COMPANY
DATE.              05-Jul-1978 : LOGDATE
PROV.                  Alberta : PROVINCE
UWI .         100060305107W500 : UNIQUE WELL ID
SLAT.WGS84            53.37366 : SURFACE LATITUDE
SLON.WGS84           -114.9508 : SURFACE LONGITUDE
~Curve Information -----------------------------------------
DEPT   .F    0   1   0  0 : 1 MEASURED DEPTH
GRD    .GAPI 45 310 01 00 : GAMMA RAY FROM DENSITY LOG
RHOB   .G/C3 45 350 01 00 : BULK DENSITY
DCOR   .G/C3 45 356 01 00 : DENSITY CORRECTION
TEND   .LB   45 635 00 00 : TENSION FROM DENSITY LOG
NPHI_SS.DEC  42 890 03 00 : NEUTRON POROSITY SANDSTONE
CALD   .IN   45 280 60 00 : CALIPER FROM DENSITY LOG
DPHI_SS.DEC  45 890 12 00 : DENSITY POROSITY SANDSTONE
NPHI_LS.DEC  42 890 01 00 : NEUTRON POROSITY LIMESTONE
DPHI_LS.DEC  45 890 10 00 : DENSITY POROSITY LIMESTONE
GRS    .GAPI 60 310 01 00 : GAMMA RAY FROM SONIC LOG
DT     .US/F 60 500 00 00 : DELTA-T (INTERVAL TRANSIT TIME)
CALS   .IN   60 280 50 00 : CALIPER FROM SONIC LOG
TENS   .LB   60 635 00 00 : TENSION FROM SONIC LOG
SPR    .MV   07 010 01 00 : SPONTANEOUS POTENTIAL FROM RESISTIVITY LOG
ILD    .OHMM 07 120 46 00 : INDUCTION DEEP RESISTIVITY
ILM    .OHMM 07 120 44 00 : INDUCTION MEDIUM RESISTIVITY
SFL    .OHMM 07 220 01 00 : SPHERICALLY FOCUSED LOG
~Params ----------------------------------------------------
PD  .                     GL : PERMANENT DATUM
EPD .FT               2688.6 : ELEVATION PERMANENT DATUM
LMF .                     KB : LOG MEASURED FROM
DAPD.FT                 17.4 : FEET ABOVE PERMANENT DATUM
EKB .FT                 2706 : KELLY BUSHING
EGL .FT               2688.6 : GROUND LEVEL
DATE.                0705/78 : RUN DATE
RUN .                      1 : RUN NUMBER
DD  .FT              3066.28 : DEPTH DRILLER
DL  .FT              3065.67 : DEPTH LOGGER
BLI .FT              3064.76 : BOTTOM LOG INTERVAL
TLI .FT               473.96 : TOP LOG INTERVAL
CBD .FT               473.96 : CASING BOTTOM DRILLER
CBL .FT               472.44 : CASING BOTTOM LOGGER
BS  .IN                 8.75 : BIT SIZE
BSD .FT              3066.28 : BIT SIZE AT DEPTH
DFT .                    GEL : DRILLING FLUID TYPE
DFD .                    110 : DRILLING FLUID DENSITY
DFV .                     75 : DRILLING FLUID VISCOSITY
DFPH.                    9.5 : DRILLING FLUID PH
MSS .            CIRCULATION : MUD SAMPLE SOURCE
RMS .OHMM               0.33 : RESISTIVITY MUD SAMPLE
MST .DEGF                 58 : MUD SAMPLE TEMPERATURE
RMF .OHMM               0.14 : RESISTIVITY MUD FILTRATE SAMPLE
MFST.DEGF                 68 : MUD FILTRATE SAMPLE TEMPERATURE
RMC .OHMM               0.15 : RESISTIVITY MUD CAKE
MCST.DEGF                 68 : MUD CAKE SAMPLE TEMPERATURE
TCS .HRS                   8 : TIME CIRCULATED STOPPED
LUN .                   7738 : LOGGING UNIT NUMBER
LUL .                    EDM : LOGGING UNIT LOCATION
ENGI.                ALVAREZ : RECORDING ENGINEER
WITN.                SPRAGUE : WITNESSED BY
CLNT.                A2DTECH : CLIENT CODE
ORIG.            2" 5" PRINT : ORIGIN OF DATA
UWI .       100060305107W500 : UNIQUE WELL ID
DICO. A2D Technologies, Inc. : DIGITIZING COMPANY
~Other -----------------------------------------------------
~ASCII -----------------------------------------------------
 1500.00000    -999.25    -999.25    -999.25    -999.25    -999.25    -999.25    -999.25    -999.25    -999.25   48.27650    -999.25    -999.25    -999.25    -999.25    -999.25    -999.25    -999.25
 1550.00000   44.53460    -999.25    -999.25    -999.25    0.41050    -999.25    -999.25    -999.25    -999.25   46.33340    -999.25    -999.25    -999.25    -999.25    -999.25    -999.25    -999.25
 1600.00000   73.99550    2.26060   -0.03480 7733.00340    0.38860    9.11670    0.23800    -999.25    -999.25   84.06970  100.29610    8.11770 8159.52050  -76.40370    3.93530    3.69350    3.52780
 1650.00000   92.84860    2.25600   -0.02060 7589.26460    0.37130    9.00710    0.25430    -999.25    -999.25   97.29240   97.12570    8.23110 8075.31980  -77.78550    5.87420    5.51270    5.35120
 1700.00000   59.92740    2.33430   -0.02560 7574.55030    0.29530    9.89720    0.20140    -999.25    -999.25   64.86860   86.40610    8.34530 7987.15040  -76.66200    8.87980    8.12790    9.37320
 1750.00000   94.14270    2.25120   -0.01680 7603.59030    0.38800   10.91570    0.21930    -999.25    -999.25   93.38030  108.48360    8.71800 8024.96780  -75.02130    4.48050    4.60380    4.04000
 1800.00000   83.64940    2.34550   -0.03820 7152.10690    0.34440   11.81410    0.17710    -999.25    -999.25   88.68300   98.75340    8.64230 7668.67870  -75.02790    5.63000    5.11500    4.89670
 1850.00000   77.93400    2.28650   -0.03570 7333.92720    0.36000   13.87730    0.23000    -999.25    -999.25   88.27630  105.44040    8.82150 7955.81740  -71.96280    5.02060    4.57860    3.94320
 1900.00000   89.46840    2.27850   -0.02670 7189.10550    0.32040   11.55990    0.22920    -999.25    -999.25   93.51420   94.34980    8.55980 7692.28660  -73.62960    4.20470    3.83840    3.24350
 1950.00000   81.81860    1.95200    0.06580 6833.03710    0.41070    9.86370    0.45710    -999.25    -999.25   87.55780  103.93110    9.07430 8044.06100  -74.69530    4.59230    4.24490    4.25480
 2000.00000   51.76770    2.32780   -0.04210 6976.17920    0.30490    8.98920    0.20070    -999.25    -999.25   52.85920   82.51400    7.93460 7999.29390  -79.43950   11.92430   11.52770   11.13940
 2050.00000   89.89760    2.35110   -0.00560 6767.47750    0.32100   10.55280    0.17170    -999.25    -999.25   96.10460   87.51350    8.44530 7605.68070  -77.28480    6.54830    5.74710    6.29800
 2100.00000   76.99580    2.33310   -0.01350 6809.59180    0.30270   11.46540    0.21340    -999.25    -999.25   84.00330   93.97520    8.49610 7398.21480  -75.41910    5.10030    4.89770    4.31070
 2150.00000  109.83600    2.08110    0.02160 6711.70360    0.42460   12.08120    0.34300    -999.25    -999.25  115.75690  104.81670    8.50660 7583.93750  -75.98390    2.77940    2.58080    2.38720
 2200.00000   85.28210    2.20500    0.08290 9310.36620    0.37380   11.75350    0.32150    -999.25    -999.25   98.98380   98.19990    8.43050 6952.67330  -76.71440    4.96610    4.93280    4.79660
 2250.00000   93.13370    2.31440    0.02870 9110.83010    0.25170   11.32110    0.19130    -999.25    -999.25  101.82910   87.41310    8.56460 6960.48970  -77.21690    7.81380    9.53640    8.93870
 2300.00000   83.52890    2.14380    0.03150 9286.32810    0.36420   11.17720    0.31480    -999.25    -999.25   90.90250   99.55680    8.33130 8780.27250  -75.99100    3.83810    3.58890    3.20340
 2350.00000   83.74000    2.25930   -0.04150 9102.42870    0.40420    9.37060    0.26850    -999.25    -999.25  100.05970   96.75310    8.96920 8240.46190  -74.90100    4.08620    3.79180    3.20250
 2400.00000   58.01190    2.31800   -0.01070 8853.98240    0.27990   10.10550    0.20800    -999.25    -999.25   65.16900   81.36340    8.48930 8187.52000  -77.38340   10.75250   10.43100    9.95380
 2450.00000   78.10750    2.19380    0.02420 8805.84570    0.43540    9.72990    0.31480    -999.25    -999.25   93.41860   94.46570    9.07950 8146.74320  -73.09990    4.07840    3.79190    3.78530
 2500.00000   76.01920    2.25100   -0.00630 8663.41500    0.34660   10.22870    0.25250    -999.25    -999.25   85.03140   87.18570    8.76440 7807.98050  -73.72810    8.58330    8.02380    6.24150
 2550.00000   90.30400    2.00020    0.01210 8567.10350    0.49760   10.30550    0.37200    -999.25    -999.25  105.76760  125.84490    8.78990 8180.80180  -69.73120    2.84160    2.41950    2.02620
 2600.00000   69.67530    2.32710   -0.01910 8531.40920    0.33730    9.91460    0.23370    -999.25    -999.25   81.63540   86.14930    8.66080 7746.42820  -69.94230    6.22870    5.58320    6.50630
 2650.00000   68.23580    2.06880    0.05090 8370.96090    0.42230   10.25790    0.33100    -999.25    -999.25   74.68700   95.57900    8.77030 7949.16800  -67.02680    4.88570    4.55580    4.08750
 2700.00000   81.07790    2.09980   -0.01140 8334.97270    0.47650    9.30340    0.35040    -999.25    -999.25   84.03130  114.24130    8.42580 7676.34960  -64.86740    3.97370    3.51190    3.28180
 2750.00000   60.94980    2.29340   -0.02040 8114.30270    0.40090    9.79420    0.23230    -999.25    -999.25   73.32510   88.96250    8.53090 7568.50980  -62.80030    6.46890    6.11500    5.72710
 2800.00000   64.37180    2.09230    0.00670 8248.48140    0.48370    9.79920    0.32090    -999.25    -999.25   71.16600  115.01340    8.45520 8257.05960  -51.15620    4.46530    3.82610    3.26210
 2850.00000   44.62190    2.26870   -0.02550 8129.44530    0.32150    8.85170    0.20480    -999.25    -999.25   56.44420   90.07510    7.65530 8309.17480  -50.07990   10.88860   13.41880   14.57660
 2900.00000   38.44820    2.21010   -0.01220 8035.59420    0.34410    8.56820    0.28620    -999.25    -999.25   42.23570   91.44640    7.70910 8325.66110  -70.51560   10.89370   12.72640   12.13040
 2950.00000   61.59280    2.05560    0.08310 7863.48780    0.42930   12.89160    0.38310    -999.25    -999.25   69.47060   89.95600    8.17640 7932.50540  -38.85130    6.30490    5.95630    5.85200
 3000.00000   64.64990    2.05350    0.03220 7658.33110    0.39550    9.69800    0.39540    -999.25    -999.25   69.44760   84.81040    8.42140 7736.15970  -37.74690    5.74260    5.20990    4.73460
 3050.00000   56.60200    2.33780   -0.02760 7484.00440    0.30140    9.73060    0.18760    -999.25    -999.25   55.11320   86.29900    8.51370 7590.07280  -38.88820    7.61850    8.06230    8.91960
 3100.00000   67.77850    2.38270   -0.03560 7265.38480    0.31270   10.58320    0.17300    -999.25    -999.25   68.53170   90.56480    8.53280 7417.25240  -36.71470    5.64570    5.34750    4.96590
 3150.00000   41.52740    2.30060   -0.02070 7449.54150    0.31900   10.37690    0.20410    -999.25    -999.25   49.79640   91.05810    8.44180 7231.02590  -48.54230   11.78690   11.04870   10.47330
 3200.00000   68.64090    2.21730   -0.01950 7391.06200    0.40470   10.76170    0.26320    -999.25    -999.25   69.51210   96.66880    8.56150 7973.39500  -34.84890    4.89630    5.25280    6.55070
 3250.00000   47.80820    2.31290   -0.02840 7281.81450    0.30210    8.74480    0.19910    -999.25    -999.25   55.63900   82.97220    7.82370 8007.15380  -54.20910    8.48020    9.15830   10.54960
 3300.00000   50.24180    2.17520   -0.00450 6776.84720    0.32480    9.97170    0.26810    -999.25    -999.25   56.75120   87.04180    8.50850 7240.49170  -41.81790    7.70440    7.22960    6.37150
 3350.00000   66.18140    1.98780    0.05620 7100.60990    0.39900   10.61520    0.40120    -999.25    -999.25   72.50540   94.83360    8.61320 7305.10990  -34.50970    4.65200    4.42530    4.65130
 3400.00000   72.65710    2.09970    0.04410 9343.07620    0.42820   10.44700    0.31870    -999.25    -999.25   76.93010   97.88990    8.71290 7152.39010  -35.49430    4.76810    4.63180    4.38910
 3450.00000   87.02890    2.10950    0.00980 9273.23830    0.37640   10.51140    0.32890    -999.25    -999.25   98.36880   81.74640    8.99160 7287.02290  -36.58220    7.14750    6.72640    6.95370
 3500.00000   94.84740    2.08310    0.00110 9191.87700    0.41000   10.68440    0.35190    -999.25    -999.25   97.37120   87.46770    9.03340 7486.16500  -37.16670    7.28550    7.21230    6.86500
