~Version ---------------------------------------------------
VERS.      2.0 : CWLS log ASCII Standard -VERSION 2.0
WRAP.       NO : One line per depth step
CREA. 01/03/18 : LAS Creation Date
~Well ------------------------------------------------------
STRT.FT                             300.0 : START DEPTH
STOP.FT                            8850.0 : STOP DEPTH
STEP.FT                          50.00000 : STEP LENGTH
NULL.                             -999.25 : NULL VALUE
COMP.            HOME OIL COMPANY LIMITED : COMPANY
WELL. HOME FPC ET AL MORSE RIVER 4-2-66-9 : WELL
FLD .                                     : FIELD
LOC .                                     : LOCATION
CTRY.                              CANADA : COUNTRY
SRVC.              Schlumberger of Canada : SERVICE COMPANY
DATE.                         16-Jan-1959 : LOGDATE
PROV.                             Alberta : PROVINCE
UWI .                    100040206609W500 : UNIQUE WELL ID
SLAT.WGS84                       54.67779 : SURFACE LATITUDE
SLON.WGS84                      -115.2573 : SURFACE LONGITUDE
~Curve Information -----------------------------------------
DEPT  .FT     : Depth Curve
CALDED.IN     : CALIPER FROM DENSITY LOG [ADJ TO MCALED]
CALWS .IN     : CALIPER [MCALED]
CILDED.MMHO   : CONDUCTIVITY FROM IE LOG
CONDWS.MMHO   : CONDUCTIVITY [1000/DRESWS]
DENED .KG/M3  : DENSITY FROM DENSITY LOG [ADJ TO MCALED]
DRESWS.OHMM   : DEEP RESISTIVITY [ILDED]
DTED  .US/F   : DELTA TIME FROM SONIC LOG [ADJ TO SPRED]
DTWS  .US/F   : DELTA TIME [DTED]
GRED  .CU     : GAMMA RAY FROM GR LOG
GRWS  .CU     : GAMMA RAY [GRED]
ILDED .OHMM   : INDUCTION LOG DEEP RESISTIVITY FROM IE LOG
LLED  .OHMM   : LATEROLOG RESISTIVITY FROM LATEROLOG
MCALED.IN     : CALIPER MICROLOG
SNED  .OHMM   : 16 INCH SHORT NORMAL RESISTIVITY FROM IE LOG
SPRED .MV     : SPONTANEOUS POTENTIAL FROM IE LOG
SPSED .MV     : SPONTANEOUS POTENTIAL FROM SONIC LOG [ADJ TO SPRED]
SPWS  .MV     : SPONTANEOUS POTENTIAL [BASELINE 0 MV] [SPRED]
SRESWS.OHMM   : SHALLOW RESISTIVITY [SNED]
~Params ----------------------------------------------------
LMF .                     KB : LOG MEASURED FROM
DMF .                     KB : DRILLING MEASURED FROM
EKB .FT                 3358 : KELLY BUSHING
EGL .FT                 3345 : GROUND LEVEL
DATE.               01/16/59 : RUN DATE
RUN .                      2 : RUN NUMBER
DD  .FT                 8880 : DEPTH DRILLER
DL  .FT                 8891 : DEPTH LOGGER
BLI .FT                 8886 : BOTTOM LOG INTERVAL
TLI .FT                 5006 : TOP LOG INTERVAL
BS  .IN                    9 : BIT SIZE
BSD .FT                 8880 : BIT SIZE AT DEPTH
DFT .                    GEL : DRILLING FLUID TYPE
DFD .                   10.3 : DRILLING FLUID DENSITY
DFV .                    109 : DRILLING FLUID VISCOSITY
DFPH.                    9.5 : DRILLING FLUID PH
DFL .                    6.2 : DRILLING FLUID LOSS
RMS .OHMM                3.2 : RESISTIVITY MUD SAMPLE
MST .DEGF                 54 : MUD SAMPLE TEMPERATURE
RMF .OHMM                2.4 : RESISTIVITY MUD FILTRATE SAMPLE
MFST.DEGF                 64 : MUD FILTRATE SAMPLE TEMPERATURE
RMC .OHMM                3.4 : RESISTIVITY MUD CAKE
MCST.DEGF                 56 : MUD CAKE SAMPLE TEMPERATURE
RMB .OHMM                1.1 : RESISTIVITY MUD AT BHT
TCS .HRS                 2.5 : TIME CIRCULATED STOPPED
LUN .                   2765 : LOGGING UNIT NUMBER
LUL .                     SH : LOGGING UNIT LOCATION
ENGI.                  KEYES : RECORDING ENGINEER
WITN.                  BEARD : WITNESSED BY
CLNT.                A2DTECH : CLIENT CODE
ORIG.            2" 5" PRINT : ORIGIN OF DATA
UWI .       100040206609W500 : UNIQUE WELL ID
DICO. A2D Technologies, Inc. : DIGITIZING COMPANY
~Other -----------------------------------------------------
IE-LL-ML-GR-DEN-SONIC LOGS RUN
~ASCII -----------------------------------------------------
# ...
 6150.00000    9.09500    9.08150   11.60550    7.16480 2794.10000  142.22320    -999.25    -999.25   14.07310   14.07310  142.22320    -999.25    9.08150   79.47240 -172.30700    -999.25 -101.43770   79.47240
 6200.00000    8.92620    8.90080    7.15950    2.10540 2630.30000  474.96230    -999.25    -999.25    9.50170    9.50170  474.96230    -999.25    8.90080   94.21610 -151.87640    -999.25  -80.88130   94.21610
 6250.00000    -999.25    -999.25   13.39760   13.66930 2526.20000   73.15650    -999.25    -999.25    9.51160    9.51160   73.15650    -999.25    -999.25  102.20620 -184.32600    -999.25 -113.20580  102.20620
 6300.00000    -999.25    -999.25   57.59750   62.68960 2355.50000   16.17600    -999.25    -999.25   14.05270   14.05270   16.17600    -999.25    -999.25   58.37650 -218.17290    -999.25 -146.92820   58.37650
 6350.00000    -999.25    -999.25    2.29030    3.28480 2704.60000  304.43300    -999.25    -999.25   11.17950   11.17950  304.43300    -999.25    -999.25  115.86690 -201.54570    -999.25 -130.17530  115.86690
 6400.00000    -999.25    -999.25  131.82550  124.82110 2732.90000    8.01190    -999.25    -999.25   13.32350   13.32350    8.01190    -999.25    -999.25   15.71500 -160.79550    -999.25  -89.30060   15.71500
 6450.00000    -999.25    -999.25   99.03170   90.02520 2738.20000   11.10800    -999.25    -999.25   24.69590   24.69590   11.10800    -999.25    -999.25   14.65190 -106.30650    -999.25  -34.68580   14.65190
 6500.00000    -999.25    -999.25  144.00090  127.52820 2692.70000    7.84140    -999.25    -999.25   33.23990   33.23990    7.84140    -999.25    -999.25   10.17310 -100.03840    -999.25  -28.29260   10.17310
 6550.00000    -999.25    -999.25  289.39170  289.39170 2349.30000    3.45590    -999.25    -999.25   43.57500   43.57500    3.94790    -999.25    -999.25    4.57610  -90.45690    -999.25  -18.58660    4.57610
 6600.00000    -999.25    -999.25  242.62160  219.97360 2490.90000    4.54600    -999.25    -999.25   41.58690   41.58690    4.54600    -999.25    -999.25    5.73440  -87.44770    -999.25  -15.45170    5.73440
 6650.00000    -999.25    -999.25   87.89660   86.06890 2691.90000   11.63540    -999.25    -999.25   30.58530   30.58530   11.63540    -999.25    -999.25   13.58580 -108.40000    -999.25  -36.27940   13.58580
 6700.00000    -999.25    -999.25  190.88940  172.77420 2185.30000    5.78790    -999.25    -999.25   32.91770   32.91770    5.78790    -999.25    -999.25    7.84220 -101.17630    -999.25  -28.93010    7.84220
 6750.00000    -999.25    -999.25  302.27320  239.76220 2262.00000    4.17080    -999.25    -999.25   45.01430   45.01430    4.17080    -999.25    -999.25    5.19790  -97.23760    -999.25  -24.86620    5.19790
 6800.00000    -999.25    -999.25  333.97600  333.97600 2142.65000    2.99450    -999.25    -999.25   46.16460   46.16460    3.69990    -999.25    -999.25    4.41730  -95.56030    -999.25  -23.06450    4.41730
 6850.00000    -999.25    -999.25  304.95660  304.95660 2374.70000    3.27920    -999.25    -999.25   44.34340   44.34340    3.84060    -999.25    -999.25    4.47390  -87.93030    -999.25  -15.30870    4.47390
 6900.00000    -999.25    -999.25  314.44580  314.44580 2371.80000    3.18020    -999.25    -999.25   40.95980   40.95980    3.77080    -999.25    -999.25    4.32490  -83.28040    -999.25  -10.53430    4.32490
 6950.00000    -999.25    -999.25  300.77480  300.77480 2165.60000    3.32470    -999.25    -999.25   41.54970   41.54970    3.81910    -999.25    -999.25    4.35380  -88.30910    -999.25  -16.26160    4.35380
 7000.00000    -999.25    -999.25  287.03290  244.56460 2157.90000    4.08890    -999.25    -999.25   41.75250   41.75250    4.08890    -999.25    -999.25    4.71160  -84.78270    -999.25  -13.91870    4.71160
 7050.00000    -999.25    -999.25  326.60130  326.60130 2271.20000    3.06190    -999.25    -999.25   48.94490   48.94490    3.69770    -999.25    -999.25    4.29810  -95.53370    -999.25  -25.84720    4.29810
 7100.00000    -999.25    -999.25  329.02120  329.02120 2426.00000    3.03930    -999.25    -999.25   49.10010   49.10010    3.74630    -999.25    -999.25    4.59030  -88.39130    -999.25  -19.89410    4.59030
 7150.00000    -999.25    -999.25   77.62850   71.36070 2713.00000   14.03040    -999.25    -999.25   27.82190   27.82190   14.03040    -999.25    -999.25   17.76230  -85.72410    -999.25  -18.40440   17.76230
 7200.00000    -999.25    -999.25  159.60920  160.16400 2321.70000    6.24360    -999.25    -999.25   40.26290   40.26290    6.24360    -999.25    -999.25    8.23890  -88.08430    -999.25  -21.95390    8.23890
 7250.00000    -999.25    -999.25  145.62630  136.34750 2572.70000    7.33420    -999.25    -999.25   27.78240   27.78240    7.33420    -999.25    -999.25    9.54010  -78.69140    -999.25  -13.74440    9.54010
 7300.00000    -999.25    -999.25  217.96940  201.81910 2119.25000    4.95490    -999.25    -999.25   47.32970   47.32970    4.95490    -999.25    -999.25    5.81320  -75.81210    -999.25  -12.04250    5.81320
 7350.00000    -999.25    -999.25  308.13010  308.13010 2048.60000    3.24540    -999.25    -999.25   49.36480   49.36480    3.87440    -999.25    -999.25    4.48110  -77.45570    -999.25  -14.87550    4.48110
 7400.00000    -999.25    -999.25   50.80670   46.75980 2682.70000   21.38640    -999.25    -999.25   19.11000   19.11000   21.38640    -999.25    -999.25   26.63240  -72.22550    -999.25  -10.82280   26.63240
 7450.00000    -999.25    -999.25   69.53430   64.35130 2673.90000   15.53970    -999.25    -999.25   22.07790   22.07790   15.53970    -999.25    -999.25   19.01810  -71.29850    -999.25  -11.08510   19.01810
 7500.00000    -999.25    -999.25   55.36450   49.48660 2698.80000   20.20750   61.04280   61.04280   21.19190   21.19190   20.20750   26.63330    -999.25   23.34150  -70.88140  -44.82430  -11.85140   23.34150
 7550.00000    -999.25    -999.25  227.44150  217.43370 1970.70000    4.60170   76.09660   76.09660   43.93590   43.93590    4.60170    7.64840    -999.25    6.87160  -76.27300  -56.66930  -18.42050    6.87160
 7600.00000    -999.25    -999.25  263.99540  263.99540 2127.10000    3.78790   90.15970   90.15970   42.88310   42.88310    3.97960    6.99960    -999.25    6.43140  -73.47560  -51.79770  -16.81240    6.43140
 7650.00000   12.10680   12.22730  252.09330  247.51360 2017.50000    4.04020   82.80220   82.80220   43.04130   43.04130    4.04020    6.16800   12.22730    5.45840  -71.52900  -55.30230  -16.04330    5.45840
 7700.00000    9.29150    9.21550   70.10480   62.11100 2531.60000   16.10020   66.23410   66.23410   20.40620   20.40620   16.10020   19.50670    9.21550   22.91630  -56.89640  -44.68620   -2.60010   22.91630
 7750.00000   10.72920   10.78960  173.15260  166.28420 2365.80000    6.01380   76.91500   76.91500   41.66140   41.66140    6.01380   10.30330   10.78960    7.05420  -74.48460  -49.68750  -21.37170    7.05420
 7800.00000    9.69710    9.75590  135.81100   99.97530 2691.85000   10.88560   69.67180   69.67180   27.92960   27.92960   10.88560   10.58190    9.75590   14.10750  -77.03960  -49.61910  -25.10420   14.10750
 7850.00000    9.36100    9.43310   43.01730   35.20890 2739.50000   28.40190   59.94550   59.94550   20.36860   20.36860   28.40190   31.60690    9.43310   26.26210  -64.25270  -48.21240  -13.50660   26.26210
 7900.00000    9.44550    9.44250  100.15700   96.92090 2683.90000   10.32970   69.28220   69.28220   22.22160   22.22160   10.32970   11.90400    9.44250   13.20740  -58.16290  -43.39440   -9.51060   13.20740
 7950.00000    9.27760    9.37450   53.66900   49.36320 2758.40000   20.25800   60.96050   60.96050   23.53700   23.53700   20.25800   35.63640    9.37450   26.03380  -73.14930  -50.22810  -28.14230   26.03380
 8000.00000    9.60360    9.70930    3.92050    2.54210 2722.60000  393.37500   54.66540   54.66540   13.03940   13.03940  393.37500  312.32050    9.70930   88.96970  -92.58930  -65.43000  -51.20950   88.96970
 8050.00000    9.91540   10.12710  101.84460  100.68540 2143.25000    9.99870   78.38300   78.38300   15.00680   15.00680    9.99870   28.44510   10.12710   15.11110  -75.66390  -54.73490  -37.89310   15.11110
