~Version ---------------------------------------------------
VERS.      2.0 : CWLS log ASCII Standard -VERSION 2.0
WRAP.       NO : One line per depth step
CREA. 07/28/17 : LAS Creation Date
~Well ------------------------------------------------------
STRT.FT                            1150.0 : START DEPTH
STOP.FT                           11800.0 : STOP DEPTH
STEP.FT                          50.00000 : STEP LENGTH
NULL.                             -999.25 : NULL VALUE
COMP.     WESTCOAST PETROLEUM (1985) LTD. : COMPANY
WELL. PURE TPC&O BAYSEL BINGLEY 4-23-40-7 : WELL
FLD .                                     : FIELD
LOC .                                     : LOCATION
CTRY.                              CANADA : COUNTRY
SRVC.                             Unknown : SERVICE COMPANY
DATE.                         09-Mar-1960 : LOGDATE
PROV.                             Alberta : PROVINCE
UWI .                    100042304007W500 : UNIQUE WELL ID
SLAT.WGS84                       52.45248 : SURFACE LATITUDE
SLON.WGS84                      -114.9091 : SURFACE LONGITUDE
~Curve Information -----------------------------------------
DEPT  .FT         : Depth Curve
CALMED.IN         : CALIPER ML ADJ TO SONIC
CALWS .IN         : CALIPER (MCALED/CALMED @ 9357')
DTED  .US/F       : DELTA TIME
DTWS  .US/F       : DELTA TIME  (DTED)
GRSED .UgRa-Eq/T  : GAMMA RAY
GRWS  .GAPI       : GAMMA RAY (GRSED*16.5)
MCALED.IN         : Micro Caliper  ML ADJ TO SONIC
MINVED.OHMM       : MICRO INVERSE RESISTIVITY ADJ TO SONIC
MLLED .OHMM       : MICROLATEROLOG ADD TO SONIC
MNORED.OHMM       : MICRO NORMAL RESISTIVITY ADJ TO SONIC
~Params ----------------------------------------------------
PD  .                    MSL : PERMANENT DATUM
LMF .                     KB : LOG MEASURED FROM
DAPD.FT                 3223 : FEET ABOVE PERMANENT DATUM
DMF .                     KB : DRILLING MEASURED FROM
EKB .FT                 3223 : KELLY BUSHING
EGL .FT                 3206 : GROUND LEVEL
DATE.               03/09/60 : RUN DATE
RUN .                      1 : RUN NUMBER
DD  .FT                11823 : DEPTH DRILLER
BLI .FT                11810 : BOTTOM LOG INTERVAL
TLI .FT                 1216 : TOP LOG INTERVAL
CBD .FT                 1216 : CASING BOTTOM DRILLER
CBL .FT                 1221 : CASING BOTTOM LOGGER
BSD .FT                11823 : BIT SIZE AT DEPTH
DFT .                   LIME : DRILLING FLUID TYPE
DFD .                   10.3 : DRILLING FLUID DENSITY
DFV .                    127 : DRILLING FLUID VISCOSITY
DFPH.                     13 : DRILLING FLUID PH
DFL .                    3.2 : DRILLING FLUID LOSS
RMF .OHMM               0.51 : RESISTIVITY MUD FILTRATE SAMPLE
MFST.DEGF                 77 : MUD FILTRATE SAMPLE TEMPERATURE
RMB .OHMM               0.29 : RESISTIVITY MUD AT BHT
TCS .HRS                   9 : TIME CIRCULATED STOPPED
LUN .                   2548 : LOGGING UNIT NUMBER
LUL .                     RD : LOGGING UNIT LOCATION
ENGI.                LAVERTY : RECORDING ENGINEER
WITN.              ZASEYBIDA : WITNESSED BY
CLNT.                A2DTECH : CLIENT CODE
ORIG.            2" 5" PRINT : ORIGIN OF DATA
UWI .       100042304007W500 : UNIQUE WELL ID
DICO. A2D Technologies, Inc. : DIGITIZING COMPANY
~Other -----------------------------------------------------
~ASCII -----------------------------------------------------
# ...
 4450.00000    -999.25   11.27540   78.75340   78.75340    4.36740   72.06290   11.27540    2.86170    -999.25    3.96010
 4500.00000    -999.25   10.11960   70.02370   70.02370    3.61630   59.66890   10.11960    6.44280    -999.25   11.90740
 4550.00000    -999.25   10.84980   85.80490   85.80490    3.91800   64.64700   10.84980    6.35330    -999.25    9.03700
 4600.00000    -999.25   10.22620   64.97250   64.97250    3.03670   50.10560   10.22620   19.72170    -999.25   27.47850
 4650.00000    -999.25   10.39800   73.00100   73.00100    3.34430   55.18100   10.39800   27.56100    -999.25   19.30010
 4700.00000    -999.25   11.38870   81.28560   81.28560    4.68940   77.37590   11.38870    3.29470    -999.25    4.12810
 4750.00000    -999.25   10.12380   69.49560   69.49560    3.25270   53.66960   10.12380    4.35830    -999.25   14.42380
 4800.00000    -999.25   10.31210   72.32740   72.32740    4.23240   69.83460   10.31210   11.62720    -999.25   22.08650
 4850.00000    -999.25    9.36980   89.59410   89.59410    3.53190   58.27630    9.36980    4.61910    -999.25    7.22950
 4900.00000    -999.25   10.33040   70.90310   70.90310    2.91130   48.03650   10.33040   25.72280    -999.25   19.73850
 4950.00000    -999.25   10.53110   70.87440   70.87440    3.53220   58.28130   10.53110    8.85050    -999.25    6.63380
 5000.00000    -999.25   10.44980   74.72160   74.72160    4.05720   66.94380   10.44980    2.39770    -999.25    2.95280
 5050.00000    -999.25   10.49800   68.97900   68.97900    3.57510   58.98920   10.49800    3.74100    -999.25    5.75140
 5100.00000    -999.25   11.02790   68.53480   68.53480    3.55650   58.68230   11.02790    5.96490    -999.25    8.23520
 5150.00000    -999.25   11.96950   82.98650   82.98650    4.59950   75.89180   11.96950   10.22990    -999.25    7.95580
 5200.00000    -999.25   11.50190   74.18510   74.18510    3.84990   63.52420   11.50190    3.77970    -999.25    3.95320
 5250.00000    -999.25   11.19240   86.71670   86.71670    4.10040   67.65660   11.19240    5.10760    -999.25    4.05740
 5300.00000    -999.25    9.86390   68.15090   68.15090    3.47630   57.35900    9.86390   34.64280    -999.25   20.84140
 5350.00000    -999.25   11.24150   83.56100   83.56100    4.24450   70.03430   11.24150    2.38470    -999.25    3.59550
 5400.00000    -999.25   11.51250   76.29900   76.29900    4.73540   78.13410   11.51250    2.64700    -999.25    3.09120
 5450.00000    -999.25    -999.25   80.74510   80.74510    5.65010   93.22750    -999.25    -999.25    -999.25    -999.25
 5500.00000    -999.25    -999.25   77.69440   77.69440    5.59300   92.28450    -999.25    -999.25    -999.25    -999.25
 5550.00000    -999.25    -999.25   77.33430   77.33430    5.83190   96.22630    -999.25    -999.25    -999.25    -999.25
 5600.00000    -999.25    -999.25   74.98010   74.98010    5.83950   96.35170    -999.25    -999.25    -999.25    -999.25
 5650.00000    -999.25    -999.25   79.52530   79.52530    5.59840   92.37360    -999.25    -999.25    -999.25    -999.25
 5700.00000    -999.25    -999.25   77.94880   77.94880    5.95140   98.19810    -999.25    -999.25    -999.25    -999.25
 5750.00000    -999.25    -999.25   79.08650   79.08650    6.17150  101.82980    -999.25    -999.25    -999.25    -999.25
 5800.00000    -999.25    -999.25   80.22070   80.22070    7.06570  116.58400    -999.25    -999.25    -999.25    -999.25
 5850.00000    -999.25    -999.25   77.29840   77.29840    6.41960  105.92340    -999.25    -999.25    -999.25    -999.25
 5900.00000    -999.25    -999.25   83.41830   83.41830    6.02240   99.36960    -999.25    -999.25    -999.25    -999.25
 5950.00000    -999.25    -999.25   85.89900   85.89900    6.29860  103.92690    -999.25    -999.25    -999.25    -999.25
 6000.00000    -999.25    -999.25   81.10630   81.10630    5.97610   98.60560    -999.25    -999.25    -999.25    -999.25
 6050.00000    -999.25    -999.25   84.58570   84.58570    5.78800   95.50200    -999.25    -999.25    -999.25    -999.25
 6100.00000    -999.25    -999.25   69.27920   69.27920    5.16110   85.15820    -999.25    -999.25    -999.25    -999.25
 6150.00000    -999.25    -999.25   85.82130   85.82130    5.42950   89.58670    -999.25    -999.25    -999.25    -999.25
 6200.00000    -999.25    -999.25   77.88230   77.88230    5.54470   91.48750    -999.25    -999.25    -999.25    -999.25
 6250.00000    -999.25    -999.25   74.63090   74.63090    5.31870   87.75860    -999.25    -999.25    -999.25    -999.25
 6300.00000    -999.25    -999.25   72.80220   72.80220    5.83290   96.24290    -999.25    -999.25    -999.25    -999.25
 6350.00000    -999.25    -999.25   80.13170   80.13170    5.69250   93.92620    -999.25    -999.25    -999.25    -999.25
 6400.00000    -999.25    -999.25   85.46540   85.46540    6.48250  106.96120    -999.25    -999.25    -999.25    -999.25
 6450.00000    -999.25    -999.25   82.07470   82.07470    6.11800  100.94780    -999.25    -999.25    -999.25    -999.25
 6500.00000    -999.25   12.85220   82.51940   82.51940    6.16440  101.71260   12.85220    2.76680    -999.25    2.61140
 6550.00000    -999.25   13.67060   83.60940   83.60940    6.02910   99.48010   13.67060    3.23480    -999.25    2.66940
 6600.00000    -999.25   11.91060   73.99250   73.99250    5.41630   89.36890   11.91060    6.12880    -999.25    4.07020
 6650.00000    -999.25   11.46200   74.28250   74.28250    6.17700  101.92050   11.46200    4.19030    -999.25    2.75690
 6700.00000    -999.25   10.83500   82.30150   82.30150    6.25290  103.17290   10.83500    6.80490    -999.25   10.14140
 6750.00000    -999.25    -999.25   76.94790   76.94790    6.11830  100.95200    -999.25    -999.25    -999.25    -999.25
 6800.00000    -999.25    -999.25   76.67610   76.67610    5.76860   95.18190    -999.25    -999.25    -999.25    -999.25
 6850.00000    -999.25    -999.25   84.41440   84.41440    6.33260  104.48790    -999.25    -999.25    -999.25    -999.25
 6900.00000    -999.25    -999.25   88.01640   88.01640    6.52680  107.69220    -999.25    -999.25    -999.25    -999.25
 6950.00000    -999.25    -999.25   84.68440   84.68440    6.29440  103.85760    -999.25    -999.25    -999.25    -999.25
 7000.00000    -999.25    -999.25   83.11620   83.11620    6.97570  115.09900    -999.25    -999.25    -999.25    -999.25
 7050.00000    -999.25    -999.25   84.22090   84.22090    6.62710  109.34720    -999.25    -999.25    -999.25    -999.25
 7100.00000    -999.25    -999.25   82.04810   82.04810    6.85950  113.18170    -999.25    -999.25    -999.25    -999.25
 7150.00000    -999.25    -999.25   70.11260   70.11260    5.46460   90.16590    -999.25    -999.25    -999.25    -999.25
 7200.00000    -999.25    -999.25   82.25420   82.25420    6.02800   99.46280    -999.25    -999.25    -999.25    -999.25
 7250.00000    -999.25    -999.25   83.06670   83.06670    6.04530   99.74750    -999.25    -999.25    -999.25    -999.25
 7300.00000    -999.25    -999.25   92.14780   92.14780    7.89300  130.23450    -999.25    -999.25    -999.25    -999.25
 7350.00000    -999.25    -999.25   93.52980   93.52980    8.11520  133.90080    -999.25    -999.25    -999.25    -999.25
 7400.00000    -999.25    -999.25   85.54920   85.54920    7.50220  123.78630    -999.25    -999.25    -999.25    -999.25
 7450.00000    -999.25   15.10720  105.02180  105.02180    7.36350  121.49690   15.10720    2.46300    -999.25    2.67530
 7500.00000    -999.25   15.35050   91.16430   91.16430    6.18570  102.06400   15.35050    2.34280    -999.25    2.56530
 7550.00000    -999.25   14.34850   89.75760   89.75760    5.55160   91.60140   14.34850    3.10500    -999.25    3.30150
 7600.00000    -999.25   10.43960   71.05290   71.05290    5.56350   91.79780   10.43960    8.86330    -999.25    8.69960
 7650.00000    -999.25   15.04210   94.05690   94.05690    6.28350  103.67780   15.04210    2.69930    -999.25    2.33750
 7700.00000    -999.25   10.20790   68.34130   68.34130    3.45480   57.00340   10.20790   10.85830    -999.25    8.90550
