~Version ---------------------------------------------------
VERS. 2.0 : CWLS log ASCII Standard -VERSION 2.0
WRAP.  NO : ONE LINE PER DEPTH STEP
~Well ------------------------------------------------------
STRT.M                               380.5 : START DEPTH
STOP.M                              2549.3 : STOP DEPTH
STEP.M                             0.20000 : STEP LENGTH
NULL.                              -999.25 : NULL VALUE
COMP.                DEVON ARL CORPORATION : COMPANY
WELL. DEVON ARL ETAL 7D GVILLEE 7-25-76-23 : WELL
FLD .                                      : FIELD
LOC .                                      : LOCATION
CTRY.                               CANADA : COUNTRY
SRVC.                         Schlumberger : SERVICE COMPANY
DATE.                          06-Mar-2003 : LOGDATE
PROV.                              Alberta : PROVINCE
UWI .                     100072507623W500 : UNIQUE WELL ID
SLAT.WGS84                        55.61368 : SURFACE LATITUDE
SLON.WGS84                       -117.4224 : SURFACE LONGITUDE
~Curve Information -----------------------------------------
DEPT    .M    0   1   0  0 : 1 MEASURED DEPTH
GRS     .GAPI 60 310 01 00 : GAMMA RAY FROM SONIC LOG
HDS     .MM   60 280 00 00 : HOLE DIAMETER FROM SONIC
DT      .US/M 60 500 00 00 : DELTA-T (INTERVAL TRANSIT TIME)
HCALS   .MM   60 280 50 00 : HRCC CALIPER CALIBRATED FROM SONIC LOG
TENS    .N    60 635 00 00 : TENSION FROM SONIC LOG
GRR     .GAPI 06 310 01 00 : GAMMA RAY FROM RESISTIVITY LOG
RXOZ    .OHMM 06 270 04 00 : INVADED FORMATION RESISTIVITY FILTERED AT 18 INCHES
TENR    .N    06 635 00 00 : TENSION FROM RESISTIVITY LOG
SPR     .MV   06 010 01 00 : SPONTANEOUS POTENTIAL FROM RESISTIVITY LOG
AHF30   .OHMM 06 120 30 00 : ARRAY INDUCTION FOUR FOOT RESISTIVITY A30
AHF20   .OHMM 06 120 20 00 : ARRAY INDUCTION FOUR FOOT RESISTIVITY A20
AHF60   .OHMM 06 120 60 00 : ARRAY INDUCTION FOUR FOOT RESISTIVITY A60
GRD     .GAPI 45 310 01 00 : GAMMA RAY FROM DENSITY LOG
NPOR_SAN.DEC  42 890 03 00 : ENHANCED THERMAL NEUTRON POROSITY (SANDSTONE)
HDD     .MM   45 280 60 00 : HOLE DIAMETER
HCALD   .MM   45 280 60 00 : HRCC CALIPER CALIBRATED FROM DENSITY LOG
DPHI_SAN.DEC  45 890 12 00 : DENSITY POROSITY (MATRIX SANDSTONE)
HDRA    .K/M3 45 356 01 00 : HRDD SPINE AND RIBS DENSITY CORRECTION
PEFZ    .B/E  45 358 01 00 : HRDD STANDARD RESOLUTION FORMATION PHOTOELECTRIC FACTOR
TEND    .N    45 635 00 00 : TENSION FROM DENSITY LOG
NPOR_LS .DEC  42 890 01 00 : NEUTRON POROSITY LIMESTONE
DPHI_LS .DEC  45 890 10 00 : DENSITY POROSITY LIMESTONE
RHOZ    .K/M3 45 350 01 00 : HRDD STANDARD RESOLUTION FORMATION DENSITY
~Params ----------------------------------------------------
PD  .                                  GL : PERMANENT DATUM
EPD .M                              551.9 : ELEVATION PERMANENT DATUM
LMF .                                  KB : LOG MEASURED FROM
DAPD.M                                4.7 : FEET ABOVE PERMANENT DATUM
DMF .                                  KB : DRILLING MEASURED FROM
EKB .M                              556.6 : KELLY BUSHING
EDF .M                              556.3 : DRILLING FLOOR
EGL .M                              551.9 : GROUND LEVEL
DATE.                            03/06/03 : RUN DATE
RUN .                                   1 : RUN NUMBER
DD  .M                               2545 : DEPTH DRILLER
DL  .M                               2544 : DEPTH LOGGER
BLI .M                             2538.3 : BOTTOM LOG INTERVAL
TLI .M                                421 : TOP LOG INTERVAL
CS  .MM                             219.1 : CASING SIZE
CBD .M                                421 : CASING BOTTOM DRILLER
CBL .M                              420.5 : CASING BOTTOM LOGGER
BS  .MM                               200 : BIT SIZE
BSD .M                               2545 : BIT SIZE AT DEPTH
DFT .                            GEL CHEM : DRILLING FLUID TYPE
DFD .                                1050 : DRILLING FLUID DENSITY
DFV .                                  83 : DRILLING FLUID VISCOSITY
DFPH.                                10.5 : DRILLING FLUID PH
DFL .                                   7 : DRILLING FLUID LOSS
MSS .                            FLOWLINE : MUD SAMPLE SOURCE
RMS .OHMM                            1.27 : RESISTIVITY MUD SAMPLE
MST .DEGC                              17 : MUD SAMPLE TEMPERATURE
RMF .OHMM                            0.98 : RESISTIVITY MUD FILTRATE SAMPLE
MFST.DEGC                              18 : MUD FILTRATE SAMPLE TEMPERATURE
RMC .OHMM                            1.55 : RESISTIVITY MUD CAKE
MCST.DEGC                              18 : MUD CAKE SAMPLE TEMPERATURE
MFSS.                            MEASURED : MUD FILTRATE SAMPLE SOURCE
MCSS.                             MEAURED : MUD CAKE SAMPLE SOURCE
RMB .OHMM                           0.566 : RESISTIVITY MUD AT BHT
TCS .HRS                              640 : TIME CIRCULATED STOPPED
TLAB.HRS                             1645 : TIME LOGGER AT BOTTOM
LUN .                                2133 : LOGGING UNIT NUMBER
LUL .                      GRANDE PRAIRIE : LOGGING UNIT LOCATION
ENGI.                            STIRLING : RECORDING ENGINEER
WITN.                              MCLEAY : WITNESSED BY
CLNT.                             A2DTECH : CLIENT CODE
ORIG. 6.5"/100M 16.5"/100M 33"/100M PRINT : ORIGIN OF DATA
UWI .                    100072507623W500 : UNIQUE WELL ID
DICO.              A2D Technologies, Inc. : DIGITIZING COMPANY
~Other -----------------------------------------------------
~ASCII -----------------------------------------------------
# ...
  417.70000   80.06780    -999.25    -999.25    -999.25    -999.25   79.89950    -999.25    -999.25    -999.25    -999.25    -999.25    -999.25   80.21290    0.62040    -999.25    -999.25    -999.25    -999.25    -999.25    -999.25    -999.25    -999.25    -999.25
  417.90000   80.44340    -999.25    -999.25    -999.25    -999.25   83.42270    -999.25    -999.25    -999.25    -999.25    -999.25    -999.25   80.05590    0.62190    -999.25    -999.25    -999.25    -999.25    -999.25    -999.25    -999.25    -999.25    -999.25
  418.10000   89.76540    -999.25    -999.25    -999.25    -999.25  103.86590    -999.25    -999.25    -999.25    -999.25    -999.25    -999.25   87.49560    0.61130    -999.25    -999.25    -999.25    -999.25    -999.25    -999.25    -999.25    -999.25    -999.25
  418.30000  113.79860    -999.25    -999.25    -999.25    -999.25  133.27900    -999.25    -999.25    -999.25    -999.25    -999.25    -999.25  109.13980    0.60740    -999.25    -999.25    -999.25    -999.25    -999.25    -999.25    -999.25    -999.25    -999.25
  418.50000  138.88690    -999.25    -999.25    -999.25    -999.25  163.42230    -999.25    -999.25    -999.25    -999.25    -999.25    -999.25  141.32380    0.61720    -999.25    -999.25    -999.25    -999.25    -999.25    -999.25    -999.25    -999.25    -999.25
  418.70000  163.97510    -999.25    -999.25    -999.25    -999.25  161.03880    -999.25    -999.25    -999.25    -999.25    -999.25    -999.25  163.24660    0.72660    -999.25    -999.25    -999.25    -999.25    -999.25    -999.25    -999.25    -999.25    -999.25
  418.90000  160.71130    -999.25    -999.25    -999.25    -999.25  151.59160    -999.25    -999.25    -999.25    -999.25    -999.25    -999.25  160.55960    0.83350    -999.25    -999.25    -999.25    -999.25    -999.25    -999.25    -999.25    -999.25    -999.25
  419.10000  148.10260    -999.25    -999.25    -999.25    -999.25  141.02740    -999.25    -999.25    -999.25    -999.25    -999.25    -999.25  149.04820    0.83950    -999.25    -999.25    -999.25    -999.25    -999.25    -999.25    -999.25    -999.25    -999.25
  419.30000  135.49380    -999.25    -999.25    -999.25    -999.25  126.76030    -999.25    -999.25    -999.25    -999.25    -999.25    -999.25  137.53690    0.76760    -999.25    -999.25    -999.25    -999.25    -999.25    -999.25    -999.25    -999.25    -999.25
  419.50000  121.94630    -999.25    -999.25    -999.25    -999.25  119.85380    -999.25    -999.25    -999.25    -999.25    -999.25    -999.25  122.93060    0.75520    -999.25    -999.25    -999.25    -999.25    -999.25    -999.25    -999.25    -999.25    -999.25
  419.70000  122.29580    -999.25    -999.25    -999.25    -999.25  129.24370    -999.25    -999.25    -999.25    -999.25    -999.25    -999.25  122.24820    0.81490    -999.25    -999.25    -999.25    -999.25    -999.25    -999.25    -999.25    -999.25    -999.25
  419.90000  134.56760    -999.25    -999.25    -999.25    -999.25  143.39010    -999.25    -999.25    -999.25    -999.25    -999.25    -999.25  133.90140    0.69110    -999.25    -999.25    -999.25    -999.25    -999.25    -999.25    -999.25    -999.25    -999.25
  420.10000  146.86620    -999.25    -999.25    -999.25    -999.25  155.13050    -999.25    -999.25    -999.25    -999.25    -999.25    -999.25  147.98450    0.55650    -999.25    -999.25    -999.25    -999.25    -999.25    -999.25    -999.25    -999.25    -999.25
  420.30000  156.34590    -999.25    -999.25    -999.25    -999.25  159.39480    -999.25    -999.25    -999.25    -999.25    -999.25    -999.25  155.74330    0.53500    -999.25    -999.25    -999.25    -999.25    -999.25    -999.25    -999.25    -999.25    -999.25
  420.50000  160.22450  303.32570  497.84640  304.52010 9431.87890  165.96460    5.14390    -999.25    -999.25    -999.25    -999.25    -999.25  159.31990    0.52710  307.84850  304.64880    0.22110   21.69170    3.26640 9535.17680    -999.25    -999.25 2308.66500
  420.70000  166.54440  257.63720  457.21470  291.34700 9431.16990  169.99090    5.23160    -999.25    -999.25    -999.25    -999.25    -999.25  165.13500    0.51510  275.50420  283.73210    0.23940    7.61740    3.18280 9514.91890    -999.25    -999.25 2268.37500
  420.90000  169.80770  248.98820  431.36980  240.24750 9427.41800  158.68870    4.89480 9389.27930  -29.45420    -999.25    -999.25    -999.25  170.64390    0.46310  250.00710  238.63230    0.25520    9.84990    3.14250 9496.77540    -999.25    -999.25 2227.55490
  421.10000  156.86600  249.98820  420.18990  240.28140 9300.22270  143.55580    3.81150 9389.27930  -29.45420    -999.25    -999.25    -999.25  160.44520    0.44440  249.57120  252.19040    0.27600   57.82000    3.09390 9372.30860    -999.25    -999.25 2186.73490
  421.30000  128.21760  260.00720  426.40030  268.74440 9146.54100  128.42300    3.02250 9336.23540  -29.79760    -999.25    -999.25    -999.25  134.51250    0.52340  258.93760  246.65930    0.28670   92.69690    2.97640 9300.07230    -999.25    -999.25 2171.29220
  421.50000  101.64820  262.11050  444.79440  252.97920 9174.03910  101.75600    2.52460 9283.19140  -30.11280    -999.25    -999.25    -999.25  104.65310    0.56560  259.88680  282.39310    0.27870   92.48420    2.86280 9227.83690    -999.25    -999.25 2191.65700
  421.70000   92.25130  260.95660  436.61770  250.19680 9223.36330   92.02480    2.46430 9230.14750  -30.18690    -999.25    -999.25    -999.25   93.92360    0.56620  259.55780  249.63580    0.25790   87.04040    2.84470 9306.44820    -999.25    -999.25 2222.75290
  421.90000   90.14140  264.40170  423.96590  261.52150 9238.14060   90.53250    2.55090 9177.10350  -30.26160    -999.25    -999.25    -999.25   90.08480    0.54220  263.63790  265.76020    0.24230   74.92120    2.85750 9319.39360    -999.25    -999.25 2251.34620
  422.10000   90.95780  266.23520  418.54040  260.71440 9241.32320   91.37650    2.77300 9202.76270  -30.33630    -999.25    -999.25    -999.25   90.62490    0.47470  267.07860  259.06820    0.23990   64.34930    2.86090 9319.49610    -999.25    -999.25 2259.18430
  422.30000   92.20010  271.00250  417.71740  263.36420 9268.33690   91.90780    2.82900 9257.62400  -30.35240    -999.25    -999.25    -999.25   91.94680    0.48770  270.49420  255.50730    0.24620   73.19000    2.87320 9336.15720    -999.25    -999.25 2245.44560
  422.50000   89.78310  274.03630  419.23870  259.69190 9302.49510   89.32750    2.77180 9312.48540  -30.04150    -999.25    -999.25    -999.25   90.05420    0.49520  273.69710  266.45380    0.24770   90.61300    2.85760 9429.78710    -999.25    -999.25 2239.87740
  422.70000   86.00900  275.99060  418.08060  263.08540 9331.93550   85.93560    2.84420 9367.33690  -30.07160    -999.25    -999.25    -999.25   87.13140    0.46880  275.03760  257.62590    0.25190   80.88470    2.78260 9393.46880    -999.25    -999.25 2236.47610
  422.90000   83.86750  273.77830  419.19000  271.14060 9345.30960   84.35530    2.81540 9415.39060  -30.07220    2.95290    2.72560    3.25550   84.80900    0.48270  273.99450  274.37450    0.26360   62.32470    2.72950 9445.30270    -999.25    -999.25 2205.51950
  423.10000   83.73320  271.69910  421.15010  256.84240 9369.00980   84.41880    2.66840 9590.25290  -30.06100    2.95290    2.72560    3.25550   84.19030    0.48770  272.16070  255.78960    0.27180   59.45920    2.72120 9479.66020    -999.25    -999.25 2201.37720
  423.30000   85.59880  273.70380  418.52810  248.46470 9454.46680   86.79300    2.72820 9368.75390  -30.03930    2.94560    2.73970    3.29340   86.06350    0.46000  273.58960  247.25340    0.26900   68.72770    2.72930 9558.78710    -999.25    -999.25 2208.81050
  423.50000   89.58870  276.07050  414.24140  252.84980 9521.56540   90.48940    2.75450 9516.93550  -30.01760    2.93220    2.68960    3.30940   89.08080    0.46130  276.23180  255.45660    0.26940   78.16650    2.71080 9606.50000    -999.25    -999.25 2209.03640
  423.70000   90.73730  278.44960  413.67110  259.45570 9456.00100   90.10270    2.68030 9553.67680  -29.99590    2.91880    2.67550    3.30950   90.33050    0.46930  278.58030  245.95960    0.27330   84.52520    2.68420 9530.33010    -999.25    -999.25 2198.96090
