~Version ---------------------------------------------------
VERS.      2.0 : CWLS log ASCII Standard -VERSION 2.0
WRAP.       NO : One line per depth step
CREA. 07/10/13 : LAS Creation Date
~Well ------------------------------------------------------
STRT.FT                         55.3 : START DEPTH
STOP.FT                      11119.8 : STOP DEPTH
STEP.FT                      0.50000 : STEP LENGTH
NULL.                        -999.25 : NULL VALUE
COMP.         PACIFIC PETROLEUMS LTD : COMPANY
WELL. PACIFIC ET AL TONY 10-18-63-21 : WELL
FLD .                     TONY TOWER : FIELD
LOC .                                : LOCATION
CTRY.                         CANADA : COUNTRY
SRVC.                   Schlumberger : SERVICE COMPANY
DATE.                    24-Sep-1975 : LOGDATE
PROV.                        Alberta : PROVINCE
UWI .               100101806321W500 : UNIQUE WELL ID
SLAT.WGS84                  54.45338 : SURFACE LATITUDE
SLON.WGS84                 -117.1585 : SURFACE LONGITUDE
~Curve Information -----------------------------------------
DEPT   .FT    : DEPTH FEET
CALD   .IN    : CALIPER FROM DENSITY LOG
DCOR   .G/C3  : DENSITY CORRECTION FROM DENSITY LOG
DPHI_LS.DEC   : DENSITY POROSITY LIMESTONE [M=2.71,F=1.0] FROM DENSITY LOG
DPHI_SS.DEC   : DENSITY POROSITY SANDSTONE [M=2.65,F=1.0] FROM DENSITY LOG
GRD    .GAPI  : GAMMA RAY FROM DENSITY LOG
ILD    .OHMM  : DEEP INDUCTION FROM RESISTIVITY LOG
ILM    .OHMM  : MEDIUM INDUCTION FROM RESISTIVITY LOG
LL8    .OHMM  : LATEROLOG FROM RESISTIVITY LOG
NPHI_LS.DEC   : NEUTRON POROSITY LIMESTONE FROM DENSITY LOG
NPHI_SS.DEC   : NEUTRON POROSITY SANDSTONE FROM DENSITY LOG
RHOB   .G/C3  : BULK DENSITY FROM DENSITY LOG
SPR    .MV    : SPONTANEOUS POTENTIAL FROM RESISTIVITY LOG
~Params ----------------------------------------------------
PD  .                     GL : PERMANENT DATUM
EPD .FT                 2714 : ELEVATION PERMANENT DATUM
LMF .                     KB : LOG MEASURED FROM
DAPD.FT                 13.7 : FEET ABOVE PERMANENT DATUM
EKB .FT               2727.7 : KELLY BUSHING
EGL .FT                 2714 : GROUND LEVEL
DATE.               09/24/75 : RUN DATE
RUN .                      1 : RUN NUMBER
DD  .FT                11125 : DEPTH DRILLER
DL  .FT                11121 : DEPTH LOGGER
BLI .FT                11115 : BOTTOM LOG INTERVAL
TLI .FT                 1125 : TOP LOG INTERVAL
CBD .FT                 1125 : CASING BOTTOM DRILLER
CBL .FT                 1125 : CASING BOTTOM LOGGER
BS  .IN                 8.75 : BIT SIZE
BSD .FT                11125 : BIT SIZE AT DEPTH
DFT .               GEL CHEM : DRILLING FLUID TYPE
DFD .                    9.3 : DRILLING FLUID DENSITY
DFV .                    147 : DRILLING FLUID VISCOSITY
DFPH.                    9.5 : DRILLING FLUID PH
DFL .                    9.2 : DRILLING FLUID LOSS
MSS .               FLOWLINE : MUD SAMPLE SOURCE
RMS .OHMM               1.62 : RESISTIVITY MUD SAMPLE
MST .DEGF                 72 : MUD SAMPLE TEMPERATURE
RMF .OHMM               1.26 : RESISTIVITY MUD FILTRATE SAMPLE
MFST.DEGF                 68 : MUD FILTRATE SAMPLE TEMPERATURE
RMB .OHMM               0.41 : RESISTIVITY MUD AT BHT
TCS .HRS                 3.5 : TIME CIRCULATED STOPPED
LUN .                   7691 : LOGGING UNIT NUMBER
LUL .                    EDM : LOGGING UNIT LOCATION
ENGI.              CROCKFORD : RECORDING ENGINEER
WITN.                   ROSS : WITNESSED BY
CLNT.                A2DTECH : CLIENT CODE
ORIG.            2" 5" PRINT : ORIGIN OF DATA
UWI .       100101806321W500 : UNIQUE WELL ID
DICO. A2D Technologies, Inc. : DIGITIZING COMPANY
~Other -----------------------------------------------------
~ASCII -----------------------------------------------------
# ...
 7111.30000    9.72630    0.00750    0.00510    -999.25   86.96660   30.81810   28.27270   34.38240    0.05750    -999.25    2.68430  -63.00820
 7111.80000    9.72760    0.01370    0.01100    -999.25   86.19320   30.26380   27.89820   35.20120    0.05930    -999.25    2.69590  -63.20520
 7112.30000    9.72880    0.02070    0.00480    -999.25   84.46190   29.90290   27.90450   36.59610    0.05910    -999.25    2.68480  -63.66480
 7112.80000    9.72910    0.01510   -0.00890    -999.25   83.33580   29.63620   27.91090   37.86520    0.05550    -999.25    2.68340  -64.10400
 7113.30000    9.72910    0.02390   -0.00070    -999.25   82.85520   29.38630   27.91730   38.57110    0.05260    -999.25    2.71580  -64.58280
 7113.80000    9.72910    0.03810    0.00900    -999.25   83.06850   29.16900   27.83950   38.61380    0.05050    -999.25    2.70180  -64.95110
 7114.30000    9.72900    0.03410    0.00460    -999.25   84.32790   29.02040   27.59040   37.03950    0.05110    -999.25    2.68350  -65.59250
 7114.80000    9.72900    0.02750    0.00850    -999.25   85.57850   28.87930   27.34360   35.62990    0.05180    -999.25    2.69540  -66.26980
 7115.30000    9.72900    0.02130    0.00690    -999.25   86.23450   28.58500   26.91950   35.02580    0.05240    -999.25    2.68640  -66.52310
 7115.80000    9.72900    0.01900   -0.00270    -999.25   86.53580   28.25470   26.15510   34.54480    0.05280    -999.25    2.68790  -66.59290
 7116.30000    9.72890    0.03470   -0.00500    -999.25   86.83440   27.15520   24.97480   33.44850    0.05280    -999.25    2.70630  -66.94090
 7116.80000    9.72890    0.03450    0.00160    -999.25   86.34250   26.02510   23.84730   32.10110    0.05300    -999.25    2.70960  -67.00400
 7117.30000    9.72890    0.02870    0.00070    -999.25   85.18130   24.94190   22.77070   30.87140    0.05650    -999.25    2.70050  -67.12550
 7117.80000    9.72890    0.02220   -0.00280    -999.25   83.81460   23.38480   21.35390   29.99570    0.05950    -999.25    2.69370  -67.70340
 7118.30000    9.72890    0.02240   -0.00370    -999.25   81.12020   21.89630   19.83560   28.35140    0.06230    -999.25    2.70330  -69.39700
 7118.80000    9.72880    0.03960   -0.01250    -999.25   77.85550   20.59450   18.42320   25.98580    0.06610    -999.25    2.71520  -71.45860
 7119.30000    9.72880    0.05530   -0.00740    -999.25   74.55510   18.59280   16.56530   22.71110    0.07000    -999.25    2.72150  -73.96440
 7119.80000    9.72880    0.05950    0.00400    -999.25   70.76650   16.78120   14.89480   21.77320    0.07510    -999.25    2.71540  -76.74440
 7120.30000    9.72880    0.05090    0.00250    -999.25   65.71980   15.14620   13.39270   25.66200    0.08100    -999.25    2.70500  -80.52470
 7120.80000    9.72880    0.04480    0.01350    -999.25   59.46540   13.67050   12.04220   33.31800    0.08680    -999.25    2.69450  -83.88730
 7121.30000    9.72870    0.04050    0.03510    -999.25   54.09590   12.33860   11.18700   33.85760    0.08420    -999.25    2.68020  -87.02840
 7121.80000    9.72870    0.03150    0.05370    -999.25   50.91260   11.17760   10.50410   32.08310    0.07720    -999.25    2.64560  -89.52970
 7122.30000    9.72870    0.02480    0.07200    -999.25   49.05900   10.70460   10.13510   28.73120    0.07290    -999.25    2.61450  -91.11670
 7122.80000    9.72870    0.02250    0.06610    -999.25   48.38640   10.50930    9.97710   23.06760    0.07150    -999.25    2.59830  -91.74100
 7123.30000    9.72860    0.02900    0.05050    -999.25   47.76010   10.58380    9.89740   19.43020    0.07260    -999.25    2.59250  -92.10220
 7123.80000    9.72860    0.03540    0.04020    -999.25   47.25560   10.83400    9.95410   22.40400    0.07570    -999.25    2.61350  -92.43430
 7124.30000    9.72860    0.03210    0.02450    -999.25   48.27940   11.16070   10.08010   31.39760    0.07930    -999.25    2.64080  -92.52450
 7124.80000    9.72860    0.02550    0.03560    -999.25   49.87250   11.45160   10.25290   40.27840    0.07620    -999.25    2.65990  -92.52880
 7125.30000    9.72860    0.03220    0.03830    -999.25   54.15060   11.71440   10.49970   43.94100    0.07080    -999.25    2.64950  -91.86080
 7125.80000    9.72850    0.03880    0.03860    -999.25   59.77390   12.00950   10.82340   41.80650    0.06570    -999.25    2.64040  -90.29910
 7126.30000    9.72850    0.04220    0.04810    -999.25   66.99300   12.55350   11.68000   33.71480    0.06050    -999.25    2.63700  -88.24540
 7126.80000    9.72850    0.02780    0.02270    -999.25   71.47800   13.46500   12.54200   23.84180    0.05530    -999.25    2.62360  -85.68730
 7127.30000    9.72850    0.03420    0.01860    -999.25   78.06240   14.37400   13.46750   20.62670    0.05330    -999.25    2.66140  -83.38920
 7127.80000    9.72850    0.04670    0.02590    -999.25   82.60790   15.34430   14.46140   21.42240    0.05360    -999.25    2.67850  -81.33970
 7128.30000    9.72840    0.05140    0.01580    -999.25   87.37970   16.38010   15.52860   23.45290    0.05230    -999.25    2.66070  -79.29020
 7128.80000    9.72840    0.04220    0.01100    -999.25   92.21690   17.48580   16.67460   24.84640    0.05000    -999.25    2.68120  -77.24070
 7129.30000    9.72840    0.03290    0.01740    -999.25   95.91130   18.66610   17.81630   26.49840    0.04850    -999.25    2.67400  -75.19120
 7129.80000    9.75000    0.02360    0.01610    -999.25   96.02330   19.69260   18.43090   26.89370    0.04960    -999.25    2.66850  -73.65140
 7130.30000    9.75040    0.01980    0.01520    -999.25   92.37720   20.02070   18.55590   25.97990    0.05360    -999.25    2.67550  -73.32060
 7130.80000    9.75070    0.02430    0.01770    -999.25   88.41570   19.87760   18.29360   25.49630    0.05710    -999.25    2.67750  -73.82730
 7131.30000    9.75100    0.01900    0.02340    -999.25   84.51280   19.13460   17.54110   24.78610    0.05680    -999.25    2.67230  -74.92050
 7131.80000    9.75140    0.02710    0.01650    -999.25   83.35340   17.33000   16.14270   22.59100    0.05680    -999.25    2.66310  -76.01380
 7132.30000    9.75170    0.04380    0.00850    -999.25   83.24240   15.69560   14.72430   19.71550    0.05870    -999.25    2.68640  -77.10700
 7132.80000    9.75200    0.05540    0.01510    -999.25   81.97150   14.21370   13.24120   18.41850    0.06380    -999.25    2.67970  -79.38540
 7133.30000    9.75240    0.06180    0.00390    -999.25   77.72050   12.86620   11.90750   17.83380    0.06870    -999.25    2.68310  -82.12850
 7133.80000    9.75270    0.06290    0.01150    -999.25   72.81000   11.64640   10.70810   18.50980    0.07360    -999.25    2.69470  -84.87160
 7134.30000    9.75300    0.05780    0.02870    -999.25   67.46650   10.54220    9.69800   20.40370    0.07520    -999.25    2.67960  -88.00500
 7134.80000    9.75340    0.05370    0.03430    -999.25   64.30880    9.62850    9.15690   21.49910    0.07230    -999.25    2.65630  -89.82350
 7135.30000    9.75370    0.06180    0.03370    -999.25   62.80360    9.07820    8.65120   21.34600    0.06940    -999.25    2.64070  -91.23740
 7135.80000    9.75400    0.06600    0.03690    -999.25   62.12490    8.76950    8.35880   20.28720    0.06760    -999.25    2.64100  -92.43130
 7136.30000    9.75440    0.05540    0.03920    -999.25   61.91090    8.63890    8.25680   19.23310    0.06670    -999.25    2.64630  -93.72340
 7136.80000    9.75470    0.04490    0.02950    -999.25   61.92280    8.58580    8.29030   18.38370    0.06480    -999.25    2.65160  -94.15890
 7137.30000    9.75500    0.05070    0.04080    -999.25   62.01480    8.65720    8.33780   17.60530    0.06280    -999.25    2.65310  -94.29150
 7137.80000    9.75540    0.06060    0.04860    -999.25   62.37210    8.72920    8.36980   16.45250    0.06130    -999.25    2.62840  -94.43200
 7138.30000    9.75570    0.04380    0.03250    -999.25   62.05120    8.78040    8.39720   15.52000    0.06100    -999.25    2.62800  -94.60870
 7138.80000    9.75600    0.05440    0.04130    -999.25   60.80710    8.82050    8.42470   15.69280    0.06310    -999.25    2.65160  -95.61200
